[
  {
    "name": "농협 성남동지점 지하1층",
    "address": "울산광역시 중구 새즈믄해거리 28 (성남동)",
    "lat": 35.55628675792836,
    "lng": 129.32035967566404,
    "region": "울산광역시"
  },
  {
    "name": "성남프라자 지하주차장 1층~3층",
    "address": "울산광역시 중구 중앙3길 6 (성남동, 성남프라자)",
    "lat": 35.55437844551037,
    "lng": 129.3172404039367,
    "region": "울산광역시"
  },
  {
    "name": "국제강변아파트 지하1층",
    "address": "울산광역시 중구 신기11길 10-10 (태화동, 국제강변아파트)",
    "lat": 35.55389802272498,
    "lng": 129.30094589857325,
    "region": "울산광역시"
  },
  {
    "name": "양지동산맨션 지하주차장 1층",
    "address": "울산광역시 중구 신기11길 22 (태화동, 양지동산맨션)",
    "lat": 35.55366399564902,
    "lng": 129.299701218247,
    "region": "울산광역시"
  },
  {
    "name": "현대골든타워 지하1층",
    "address": "울산광역시 중구 산전길 29 (동동, 현대골든타워)",
    "lat": 35.57209435948953,
    "lng": 129.3496936524376,
    "region": "울산광역시"
  },
  {
    "name": "희마아파트 지하주차장 1층",
    "address": "울산광역시 중구 신기12길 70 (태화동, 희마아파트)",
    "lat": 35.55387668949855,
    "lng": 129.29432928256674,
    "region": "울산광역시"
  },
  {
    "name": "선경아파트 지하1층",
    "address": "울산광역시 중구 유곡로 77 (태화동, 선경맨션)",
    "lat": 35.55843422515735,
    "lng": 129.30142294726093,
    "region": "울산광역시"
  },
  {
    "name": "동덕현대아파트 지하1층",
    "address": "울산광역시 중구 유곡로 55 (유곡동)",
    "lat": 35.556928150466014,
    "lng": 129.30344727427712,
    "region": "울산광역시"
  },
  {
    "name": "남운파크 지하주차장 1층",
    "address": "울산광역시 중구 화진4길 92 (태화동, 남운파크맨션)",
    "lat": 35.55472212703825,
    "lng": 129.3034275604929,
    "region": "울산광역시"
  },
  {
    "name": "동덕현대아파트3동 건물 지하1층",
    "address": "울산광역시 중구 손골2길 12 (복산동, 동덕현대아파트)",
    "lat": 35.56571179661928,
    "lng": 129.32668178679884,
    "region": "울산광역시"
  },
  {
    "name": "신한그린맨션 건물 지하1층",
    "address": "울산광역시 중구 손골9길 38 (복산동, 신한그린맨션)",
    "lat": 35.56471028849833,
    "lng": 129.3236891081029,
    "region": "울산광역시"
  },
  {
    "name": "삼익세라믹아파트 지하1층",
    "address": "울산광역시 중구 신기13길 2 (태화동, 삼익세라믹아파트)",
    "lat": 35.55226952263657,
    "lng": 129.2989517225947,
    "region": "울산광역시"
  },
  {
    "name": "다운아파트 지하1층",
    "address": "울산광역시 중구 다운6길 16 (다운동, 다운아파트)",
    "lat": 35.564268801380905,
    "lng": 129.26833482552848,
    "region": "울산광역시"
  },
  {
    "name": "반구2동 행정복지센터 건물 지하실",
    "address": "울산광역시 중구 구교4길 40 (반구동)",
    "lat": 35.56340312722072,
    "lng": 129.34074822386597,
    "region": "울산광역시"
  },
  {
    "name": "한라궁전아파트 지하주차장 1층",
    "address": "울산광역시 중구 태화로 263 (태화동, 한라궁전아파트)",
    "lat": 35.55411594284845,
    "lng": 129.30383178619965,
    "region": "울산광역시"
  },
  {
    "name": "서린하이츠 지하1층",
    "address": "울산광역시 중구 신기2길 30 (태화동, 서린하이츠아파트)",
    "lat": 35.55035044680678,
    "lng": 129.2935942371752,
    "region": "울산광역시"
  },
  {
    "name": "전원타운아파트 지하1층",
    "address": "울산광역시 중구 신기길 31 (태화동, 전원타운아파트)",
    "lat": 35.55039984195562,
    "lng": 129.2916931275515,
    "region": "울산광역시"
  },
  {
    "name": "평동그린빌 지하1층",
    "address": "울산광역시 중구 평동5길 37(유곡동, 평동그린빌)",
    "lat": 35.55723873038759,
    "lng": 129.30540192264104,
    "region": "울산광역시"
  },
  {
    "name": "태화동449-1 지하1층",
    "address": "울산광역시 중구 태화로 174 (태화동)",
    "lat": 35.552337220754595,
    "lng": 129.2949402932172,
    "region": "울산광역시"
  },
  {
    "name": "송정골든빌라 지하주차장 1층",
    "address": "울산광역시 중구 손골2길 8-2 (복산동, 송정골든빌라)",
    "lat": 35.56565283771406,
    "lng": 129.32710124287175,
    "region": "울산광역시"
  },
  {
    "name": "현대아파트 지하1층",
    "address": "울산광역시 중구 신기11길 10-8 (태화동, 현대아파트)",
    "lat": 35.55379153089163,
    "lng": 129.3011060965071,
    "region": "울산광역시"
  },
  {
    "name": "범진아파트 지하1층",
    "address": "울산광역시 중구 유곡로 51 (태화동, 범진그린파크)",
    "lat": 35.5567586402291,
    "lng": 129.3038633402166,
    "region": "울산광역시"
  },
  {
    "name": "대륜아파트 지하1층",
    "address": "울산광역시 중구 화진4길 86 (태화동, 대륜로얄맨션)",
    "lat": 35.55521755308095,
    "lng": 129.30362370564197,
    "region": "울산광역시"
  },
  {
    "name": "축협 및 토마스약국(두산빌딩) 지하1층 주차장",
    "address": "울산광역시 중구 명륜로 75 (우정동)",
    "lat": 35.55820778807535,
    "lng": 129.3119440128535,
    "region": "울산광역시"
  },
  {
    "name": "동부아파트(104동부근) 지하1층",
    "address": "울산광역시 중구 신기12길 38 (태화동, 동부아파트)",
    "lat": 35.552992939666304,
    "lng": 129.29712762761326,
    "region": "울산광역시"
  },
  {
    "name": "농협 옥교지점 지하주차장 1층",
    "address": "울산광역시 중구 학성로 103 (옥교동)",
    "lat": 35.55555027485512,
    "lng": 129.32247659575395,
    "region": "울산광역시"
  },
  {
    "name": "씨티빌딩 지하주차장",
    "address": "울산광역시 중구 중앙길 162 (옥교동)",
    "lat": 35.55635537549964,
    "lng": 129.32236319182527,
    "region": "울산광역시"
  },
  {
    "name": "학산종합상가(파노라마) 지하주차장 1층",
    "address": "울산광역시 중구 번영로 370 (학산동)",
    "lat": 35.55769862222741,
    "lng": 129.32722381444304,
    "region": "울산광역시"
  },
  {
    "name": "코코타운 지하주차장 1층",
    "address": "울산광역시 중구 구역전길 25 (학산동, 코코타운)",
    "lat": 35.55742548884286,
    "lng": 129.32803246403597,
    "region": "울산광역시"
  },
  {
    "name": "하나빌딩 지하주차장 1층",
    "address": "울산광역시 중구 학성로 155 (학산동)",
    "lat": 35.55662779023069,
    "lng": 129.32800335368887,
    "region": "울산광역시"
  },
  {
    "name": "동부아파트(103동부근) 지하1층",
    "address": "울산광역시 중구 신기12길 38 (태화동, 동부아파트)",
    "lat": 35.552992939666304,
    "lng": 129.29712762761326,
    "region": "울산광역시"
  },
  {
    "name": "뉴강남탕 지하1층 주차장",
    "address": "울산광역시 중구 당산4길 15 (우정동)",
    "lat": 35.553950175348376,
    "lng": 129.3101048284474,
    "region": "울산광역시"
  },
  {
    "name": "선경아파트1동 지하1층",
    "address": "울산광역시 중구 우정3길 9 (우정동, 선경1차아파트)",
    "lat": 35.55874733952681,
    "lng": 129.31113626309022,
    "region": "울산광역시"
  },
  {
    "name": "선경아파트2동 지하1층",
    "address": "울산광역시 중구 우정3길 9 (우정동, 선경1차아파트)",
    "lat": 35.55874733952681,
    "lng": 129.31113626309022,
    "region": "울산광역시"
  },
  {
    "name": "선경아파트3동 지하1층",
    "address": "울산광역시 중구 우정3길 9 (우정동, 선경1차아파트)",
    "lat": 35.55874733952681,
    "lng": 129.31113626309022,
    "region": "울산광역시"
  },
  {
    "name": "선경아파트4동 지하1층",
    "address": "울산광역시 중구 우정3길 9 (우정동, 선경1차아파트)",
    "lat": 35.55874733952681,
    "lng": 129.31113626309022,
    "region": "울산광역시"
  },
  {
    "name": "선경아파트5동 지하1층",
    "address": "울산광역시 중구 우정3길 9 (우정동, 선경1차아파트)",
    "lat": 35.55874733952681,
    "lng": 129.31113626309022,
    "region": "울산광역시"
  },
  {
    "name": "선경아파트6동 지하1층",
    "address": "울산광역시 중구 우정3길 9 (우정동, 선경1차아파트)",
    "lat": 35.55874733952681,
    "lng": 129.31113626309022,
    "region": "울산광역시"
  },
  {
    "name": "선경아파트7동 지하1층",
    "address": "울산광역시 중구 우정3길 9 (우정동, 선경1차아파트)",
    "lat": 35.55874733952681,
    "lng": 129.31113626309022,
    "region": "울산광역시"
  },
  {
    "name": "선경아파트8동 지하1층",
    "address": "울산광역시 중구 우정3길 9 (우정동, 선경1차아파트)",
    "lat": 35.55874733952681,
    "lng": 129.31113626309022,
    "region": "울산광역시"
  },
  {
    "name": "선경아파트9동 지하1층",
    "address": "울산광역시 중구 우정3길 9 (우정동, 선경1차아파트)",
    "lat": 35.55874733952681,
    "lng": 129.31113626309022,
    "region": "울산광역시"
  },
  {
    "name": "선경아파트10동 지하1층",
    "address": "울산광역시 중구 우정3길 9 (우정동, 선경1차아파트)",
    "lat": 35.55874733952681,
    "lng": 129.31113626309022,
    "region": "울산광역시"
  },
  {
    "name": "선경아파트11동 지하1층",
    "address": "울산광역시 중구 우정3길 9 (우정동, 선경1차아파트)",
    "lat": 35.55874733952681,
    "lng": 129.31113626309022,
    "region": "울산광역시"
  },
  {
    "name": "선경1차아파트관리동 지하1층",
    "address": "울산광역시 중구 우정3길 9 (우정동, 선경1차아파트)",
    "lat": 35.55874733952681,
    "lng": 129.31113626309022,
    "region": "울산광역시"
  },
  {
    "name": "선경1차아파트 지하1층 주차장",
    "address": "울산광역시 중구 우정3길 9 (우정동, 선경1차아파트)",
    "lat": 35.55874733952681,
    "lng": 129.31113626309022,
    "region": "울산광역시"
  },
  {
    "name": "국민은행 지하주차장 1층",
    "address": "울산광역시 중구 중앙길 88 (성남동, 국민은행)",
    "lat": 35.55523359091819,
    "lng": 129.31824629722314,
    "region": "울산광역시"
  },
  {
    "name": "성진파크맨션 지하1층",
    "address": "울산광역시 중구 병영6길 35 (동동, 성진파크맨션)",
    "lat": 35.571842990366605,
    "lng": 129.34950928335465,
    "region": "울산광역시"
  },
  {
    "name": "월성개나리타운 지하1층",
    "address": "울산광역시 중구 산전5길 15-5 (동동, 월성개나리타운아파트)",
    "lat": 35.57653303168008,
    "lng": 129.34872463278123,
    "region": "울산광역시"
  },
  {
    "name": "광명파크맨션 지하1층",
    "address": "울산광역시 중구 동천5길 40 (서동, 광명파크맨션)",
    "lat": 35.581320571730444,
    "lng": 129.34459743264995,
    "region": "울산광역시"
  },
  {
    "name": "두강팔레스 지하1층",
    "address": "울산광역시 중구 동천4길 31 (서동, 두강팔레스)",
    "lat": 35.58289819478846,
    "lng": 129.3447216706142,
    "region": "울산광역시"
  },
  {
    "name": "병영교회 지하1층",
    "address": "울산광역시 중구 병영성길 89 (서동, 병영교회)",
    "lat": 35.57438717217719,
    "lng": 129.3457626455844,
    "region": "울산광역시"
  },
  {
    "name": "서동현대아파트 지하1층",
    "address": "울산광역시 중구 동천1길 31 (서동, 서동현대아파트)",
    "lat": 35.58342618280169,
    "lng": 129.34686480120976,
    "region": "울산광역시"
  },
  {
    "name": "신라맨션 지하1층",
    "address": "울산광역시 중구 병영성2길 20 (서동, 신라맨션)",
    "lat": 35.57870439193169,
    "lng": 129.34395789691294,
    "region": "울산광역시"
  },
  {
    "name": "청구빌라 지하1층",
    "address": "울산광역시 중구 동천6길 21 (서동, 청구빌라)",
    "lat": 35.582327027620046,
    "lng": 129.34410374327865,
    "region": "울산광역시"
  },
  {
    "name": "하니콤타워 지하1층",
    "address": "울산광역시 중구 병영성2길 14 (서동, 하니콤타워)",
    "lat": 35.57889017402025,
    "lng": 129.34345773974155,
    "region": "울산광역시"
  },
  {
    "name": "한라강변맨션 지하1층",
    "address": "울산광역시 중구 동천4길 61 (서동, 한라강변아파트)",
    "lat": 35.582113276045305,
    "lng": 129.34697169645852,
    "region": "울산광역시"
  },
  {
    "name": "한라하얏트 지하1층",
    "address": "울산광역시 중구 동천4길 15 (서동, 한라하야트)",
    "lat": 35.58169538678995,
    "lng": 129.3439556757998,
    "region": "울산광역시"
  },
  {
    "name": "현대강변맨션 지하1층",
    "address": "울산광역시 중구 동천4길 71 (서동, 현대강변맨션)",
    "lat": 35.58129408734682,
    "lng": 129.34738125753464,
    "region": "울산광역시"
  },
  {
    "name": "삼환아파트 지하주차장 1층",
    "address": "울산광역시 중구 북부순환도로 738(약사동, 삼환크리스탈)",
    "lat": 35.57201506448784,
    "lng": 129.33578789969522,
    "region": "울산광역시"
  },
  {
    "name": "나산빌딩 지하주차장 1층",
    "address": "울산광역시 중구 다운로 2 (다운동)",
    "lat": 35.55601980260801,
    "lng": 129.275724522775,
    "region": "울산광역시"
  },
  {
    "name": "KT울산지사 지하1층",
    "address": "울산광역시 중구 구교로 239 (반구동)",
    "lat": 35.565965124188246,
    "lng": 129.34223217757793,
    "region": "울산광역시"
  },
  {
    "name": "남운럭키1동 지하1층",
    "address": "울산광역시 중구 도화골길 28 (복산동, 남운럭키맨션)",
    "lat": 35.56707795928064,
    "lng": 129.33084619262823,
    "region": "울산광역시"
  },
  {
    "name": "성지아파트1동 지하1층",
    "address": "울산광역시 중구 도화골길 30 (복산동, 성지아파트)",
    "lat": 35.56667460018266,
    "lng": 129.33098344473018,
    "region": "울산광역시"
  },
  {
    "name": "성지아파트2동 지하1층",
    "address": "울산광역시 중구 도화골길 30 (복산동, 성지아파트)",
    "lat": 35.56667460018266,
    "lng": 129.33098344473018,
    "region": "울산광역시"
  },
  {
    "name": "중구청 건물 지하1층",
    "address": "울산광역시 중구 단장골길 1 (복산동, 중구청)",
    "lat": 35.56927360468125,
    "lng": 129.3328749763857,
    "region": "울산광역시"
  },
  {
    "name": "성지아파트3동 지하1층~3층",
    "address": "울산광역시 중구 도화골길 30 (복산동, 성지아파트)",
    "lat": 35.56667460018266,
    "lng": 129.33098344473018,
    "region": "울산광역시"
  },
  {
    "name": "성안청구타운 전체 동의 지하주차장 1층",
    "address": "울산광역시 중구 함월22길 25 (성안동, 성안청구타운아파트)",
    "lat": 35.57965640607327,
    "lng": 129.3164235402105,
    "region": "울산광역시"
  },
  {
    "name": "삼성아파트 1동 지하 1층~2층, 2-3동 지하1층",
    "address": "울산광역시 중구 운곡3길 24 (다운동, 삼성아파트)",
    "lat": 35.55949408203273,
    "lng": 129.2743591424711,
    "region": "울산광역시"
  },
  {
    "name": "울산시민교회 지하주차장 1층",
    "address": "울산광역시 중구 운곡안길 24 (다운동)",
    "lat": 35.55733029497988,
    "lng": 129.27743688709882,
    "region": "울산광역시"
  },
  {
    "name": "일신아파트 지하1층",
    "address": "울산광역시 중구 신기14길 1 (태화동, 일신아파트)",
    "lat": 35.55218235760019,
    "lng": 129.29711008114643,
    "region": "울산광역시"
  },
  {
    "name": "경남은행 학성지점 지하주차장 1층",
    "address": "울산광역시 중구 화합로 362 (반구동, 경남은행)",
    "lat": 35.55862634545045,
    "lng": 129.34178456047024,
    "region": "울산광역시"
  },
  {
    "name": "선경2차아파트201동 지하1층",
    "address": "울산광역시 중구 유곡로 10 (우정동, 선경2차아파트)",
    "lat": 35.55649917261749,
    "lng": 129.30865744899958,
    "region": "울산광역시"
  },
  {
    "name": "선경2차아파트202동 지하1층",
    "address": "울산광역시 중구 유곡로 10 (우정동, 선경2차아파트)",
    "lat": 35.55649917261749,
    "lng": 129.30865744899958,
    "region": "울산광역시"
  },
  {
    "name": "선경2차아파트203동 지하1층",
    "address": "울산광역시 중구 유곡로 10 (우정동, 선경2차아파트)",
    "lat": 35.55649917261749,
    "lng": 129.30865744899958,
    "region": "울산광역시"
  },
  {
    "name": "선경2차아파트205동 지하1층",
    "address": "울산광역시 중구 유곡로 10 (우정동, 선경2차아파트)",
    "lat": 35.55649917261749,
    "lng": 129.30865744899958,
    "region": "울산광역시"
  },
  {
    "name": "선경2차아파트206동 지하1층",
    "address": "울산광역시 중구 유곡로 10 (우정동, 선경2차아파트)",
    "lat": 35.55649917261749,
    "lng": 129.30865744899958,
    "region": "울산광역시"
  },
  {
    "name": "선경2차아파트207동 지하1층",
    "address": "울산광역시 중구 유곡로 10 (우정동, 선경2차아파트)",
    "lat": 35.55649917261749,
    "lng": 129.30865744899958,
    "region": "울산광역시"
  },
  {
    "name": "선경2차아파트208동 지하1층",
    "address": "울산광역시 중구 유곡로 10 (우정동, 선경2차아파트)",
    "lat": 35.55649917261749,
    "lng": 129.30865744899958,
    "region": "울산광역시"
  },
  {
    "name": "선경2차아파트209동 지하1층",
    "address": "울산광역시 중구 유곡로 10 (우정동, 선경2차아파트)",
    "lat": 35.55649917261749,
    "lng": 129.30865744899958,
    "region": "울산광역시"
  },
  {
    "name": "선경2차아파트210동 지하1층",
    "address": "울산광역시 중구 유곡로 10 (우정동, 선경2차아파트)",
    "lat": 35.55649917261749,
    "lng": 129.30865744899958,
    "region": "울산광역시"
  },
  {
    "name": "선경2차아파트211동 지하1층",
    "address": "울산광역시 중구 유곡로 10 (우정동, 선경2차아파트)",
    "lat": 35.55649917261749,
    "lng": 129.30865744899958,
    "region": "울산광역시"
  },
  {
    "name": "선경2차아파트212동 지하1층",
    "address": "울산광역시 중구 유곡로 10 (우정동, 선경2차아파트)",
    "lat": 35.55649917261749,
    "lng": 129.30865744899958,
    "region": "울산광역시"
  },
  {
    "name": "선경2차아파트213동 지하1층",
    "address": "울산광역시 중구 유곡로 10 (우정동, 선경2차아파트)",
    "lat": 35.55649917261749,
    "lng": 129.30865744899958,
    "region": "울산광역시"
  },
  {
    "name": "선경2차아파트214동 지하1층",
    "address": "울산광역시 중구 유곡로 10 (우정동, 선경2차아파트)",
    "lat": 35.55649917261749,
    "lng": 129.30865744899958,
    "region": "울산광역시"
  },
  {
    "name": "선경2차아파트215동 지하1층",
    "address": "울산광역시 중구 유곡로 10 (우정동, 선경2차아파트)",
    "lat": 35.55649917261749,
    "lng": 129.30865744899958,
    "region": "울산광역시"
  },
  {
    "name": "선경2차아파트 지하1층 주차장",
    "address": "울산광역시 중구 유곡로 10 (우정동, 선경2차아파트)",
    "lat": 35.55649917261749,
    "lng": 129.30865744899958,
    "region": "울산광역시"
  },
  {
    "name": "선경2차아파트 204동 지하1층",
    "address": "울산광역시 중구 유곡로 10 (우정동, 선경2차아파트)",
    "lat": 35.55649917261749,
    "lng": 129.30865744899958,
    "region": "울산광역시"
  },
  {
    "name": "평창아파트 지하주차장 1층",
    "address": "울산광역시 중구 복산6길 13 (복산동, 평창아파트)",
    "lat": 35.56168408243931,
    "lng": 129.32574600042733,
    "region": "울산광역시"
  },
  {
    "name": "TCN빌딩 지하주차장 1층",
    "address": "울산광역시 중구 화합로 408 (반구동)",
    "lat": 35.56175604939044,
    "lng": 129.33838848146954,
    "region": "울산광역시"
  },
  {
    "name": "신중앙시장 지하주차장 1층",
    "address": "울산광역시 중구 구교로 35 (학산동, 신중앙시장)",
    "lat": 35.55536337872675,
    "lng": 129.32853860383233,
    "region": "울산광역시"
  },
  {
    "name": "울산다운현대아파트 지하주차장 1층",
    "address": "울산광역시 중구 운곡3길 23 (다운동, 현대아파트)",
    "lat": 35.55952335412486,
    "lng": 129.2742111045861,
    "region": "울산광역시"
  },
  {
    "name": "중앙동행정복지센터 지하주차장 1층",
    "address": "울산광역시 중구 중앙길 199 (학산동, 중앙동주민센터)",
    "lat": 35.55722704201855,
    "lng": 129.32398427429993,
    "region": "울산광역시"
  },
  {
    "name": "해성빌라트 지하1층",
    "address": "울산광역시 중구 동천6길 12 (서동, 해성빌라트)",
    "lat": 35.58254638231412,
    "lng": 129.34536669405833,
    "region": "울산광역시"
  },
  {
    "name": "금호어울림 101동, 104동 지하주차장 1층",
    "address": "울산광역시 중구 함월5길 35 (성안동, 금호어울림)",
    "lat": 35.57606375806812,
    "lng": 129.30594387756148,
    "region": "울산광역시"
  },
  {
    "name": "금호어울림 102동 지하주차장 1층",
    "address": "울산광역시 중구 함월5길 35 (성안동, 금호어울림)",
    "lat": 35.57606375806812,
    "lng": 129.30594387756148,
    "region": "울산광역시"
  },
  {
    "name": "금호어울림 103동 지하주차장 1층",
    "address": "울산광역시 중구 함월5길 35 (성안동, 금호어울림)",
    "lat": 35.57606375806812,
    "lng": 129.30594387756148,
    "region": "울산광역시"
  },
  {
    "name": "금화빌딩 지하주차장 1층",
    "address": "울산광역시 중구 곽남길 5(약사동)",
    "lat": 35.568573821345495,
    "lng": 129.34280475193304,
    "region": "울산광역시"
  },
  {
    "name": "어린이역사체험관 지하주차장 1층",
    "address": "울산광역시 중구 새즈믄해거리 37 (성남동, 중구문화원)",
    "lat": 35.5566611599174,
    "lng": 129.320204121553,
    "region": "울산광역시"
  },
  {
    "name": "현대타워맨션 A동 지하1층",
    "address": "울산광역시 중구 반구정8길 31 (반구동, 현대타워맨션)",
    "lat": 35.55866454435791,
    "lng": 129.3467021341826,
    "region": "울산광역시"
  },
  {
    "name": "현대그랜드맨션 지하1층",
    "address": "울산광역시 중구 반구정9길 20 (반구동, 현대그랜드맨션)",
    "lat": 35.55789354903367,
    "lng": 129.34815297161953,
    "region": "울산광역시"
  },
  {
    "name": "한라그랜드맨션 지하주차장 1층",
    "address": "울산광역시 중구 반구정9길 10 (반구동, 한라그랜드맨션)",
    "lat": 35.55738320240083,
    "lng": 129.34817200006756,
    "region": "울산광역시"
  },
  {
    "name": "현대글로리아맨션 지하주차장 1층",
    "address": "울산광역시 중구 반구로 58 (반구동, 현대글로리아맨션)",
    "lat": 35.5544373913442,
    "lng": 129.34738210764397,
    "region": "울산광역시"
  },
  {
    "name": "병영삼일아파트 101동 지하주차장 1층",
    "address": "울산광역시 중구 남외로 88, 101동 (남외동, 병영삼일아파트)",
    "lat": 35.56850620125208,
    "lng": 129.3462307054019,
    "region": "울산광역시"
  },
  {
    "name": "병영삼일아파트 102동 지하주차장 1층",
    "address": "울산광역시 중구 남외로 88, 102동 (남외동, 병영삼일아파트)",
    "lat": 35.56850620125208,
    "lng": 129.3462307054019,
    "region": "울산광역시"
  },
  {
    "name": "병영삼일아파트 201동 지하주차장 1층",
    "address": "울산광역시 중구 남외로 88, 201동 (남외동, 병영삼일아파트)",
    "lat": 35.56850620125208,
    "lng": 129.3462307054019,
    "region": "울산광역시"
  },
  {
    "name": "병영삼일아파트 101동 지하1층",
    "address": "울산광역시 중구 남외로 88, 101동 (남외동, 병영삼일아파트)",
    "lat": 35.56850620125208,
    "lng": 129.3462307054019,
    "region": "울산광역시"
  },
  {
    "name": "병영삼일아파트 102동 지하1층",
    "address": "울산광역시 중구 남외로 88, 102동 (남외동, 병영삼일아파트)",
    "lat": 35.56850620125208,
    "lng": 129.3462307054019,
    "region": "울산광역시"
  },
  {
    "name": "병영삼일아파트 103동 지하1층",
    "address": "울산광역시 중구 남외로 88, 103동 (남외동, 병영삼일아파트)",
    "lat": 35.56850620125208,
    "lng": 129.3462307054019,
    "region": "울산광역시"
  },
  {
    "name": "울산광역시장애인문화센터(구 노인복지회관) 지하1층",
    "address": "울산광역시 중구 해오름18길 7 (남외동, 울산광역시 장애인 총연합회)",
    "lat": 35.5604673909605,
    "lng": 129.3434596122312,
    "region": "울산광역시"
  },
  {
    "name": "중구보건소 지하1층",
    "address": "울산광역시 중구 외솔큰길 225 (남외동, 중구보건소)",
    "lat": 35.56935519528224,
    "lng": 129.35049083529333,
    "region": "울산광역시"
  },
  {
    "name": "현아빌딩 지하주차장 1층",
    "address": "울산광역시 중구 번영로 454-1 (복산동)",
    "lat": 35.562601842570935,
    "lng": 129.33384053974942,
    "region": "울산광역시"
  },
  {
    "name": "병영삼일아파트 201동 지하1층",
    "address": "울산광역시 중구 남외로 88, 201동 (남외동, 병영삼일아파트)",
    "lat": 35.56850620125208,
    "lng": 129.3462307054019,
    "region": "울산광역시"
  },
  {
    "name": "다운동아큰마을아파트 지하주차장 1층",
    "address": "울산광역시 중구 다운로 175 (다운동, 동아큰마을아파트)",
    "lat": 35.568302368593415,
    "lng": 129.26620471027033,
    "region": "울산광역시"
  },
  {
    "name": "래미안1차 102동 지하주차장 1층 ~ 4층",
    "address": "울산광역시 중구 약사로 10, 102동 (약사동, 삼성래미안1차아파트)",
    "lat": 35.56697061999896,
    "lng": 129.3379724506395,
    "region": "울산광역시"
  },
  {
    "name": "래미안1차 105동 지하주차장 1층 ~ 4층",
    "address": "울산광역시 중구 약사로 10, 105동 (약사동, 삼성래미안1차아파트)",
    "lat": 35.56697061999896,
    "lng": 129.3379724506395,
    "region": "울산광역시"
  },
  {
    "name": "래미안1차 107동 지하주차장 1층 ~ 4층",
    "address": "울산광역시 중구 약사로 10, 107동 (약사동, 삼성래미안1차아파트)",
    "lat": 35.56697061999896,
    "lng": 129.3379724506395,
    "region": "울산광역시"
  },
  {
    "name": "울산우체국 지하주차장 1층",
    "address": "울산광역시 중구 구교로 77, 울산우체국 (학성동)",
    "lat": 35.55564943654157,
    "lng": 129.33303106545344,
    "region": "울산광역시"
  },
  {
    "name": "경동햇빛마을 1차 지하주차장 1층",
    "address": "울산광역시 중구 함월11길 10 (성안동, 경동햇빛마을)",
    "lat": 35.574862589418544,
    "lng": 129.30770338245662,
    "region": "울산광역시"
  },
  {
    "name": "경동햇빛마을 2차 지하1층",
    "address": "울산광역시 중구 함월2길 56 (성안동, 경동햇빛마을2차)",
    "lat": 35.57460502928287,
    "lng": 129.3061275397499,
    "region": "울산광역시"
  },
  {
    "name": "중앙시장(센트럴프라자) 지하주차장 1층",
    "address": "울산광역시 중구 번영로 329 (옥교동, 중앙시장)",
    "lat": 35.554853890108475,
    "lng": 129.3236669005297,
    "region": "울산광역시"
  },
  {
    "name": "래미안2차아파트(203동앞) 지하주차장 1층",
    "address": "울산광역시 중구 약사로 40, 203동 (약사동, 래미안2차)",
    "lat": 35.569594594401146,
    "lng": 129.33614435641644,
    "region": "울산광역시"
  },
  {
    "name": "래미안2차아파트(3단지 302동앞) 지하주차장 1층",
    "address": "울산광역시 중구 약사로 25, 302동 (약사동, 래미안2차)",
    "lat": 35.56765257270729,
    "lng": 129.335931371021,
    "region": "울산광역시"
  },
  {
    "name": "래미안2차아파트(4단지 406동앞) 지하주차장 1층",
    "address": "울산광역시 중구 약사로 15, 406동 (약사동, 래미안2차)",
    "lat": 35.56688454617102,
    "lng": 129.33747407590232,
    "region": "울산광역시"
  },
  {
    "name": "벽산e빌리지 101동 지하주차장 1층",
    "address": "울산광역시 중구 함월22길 24 (성안동, 벽산이빌리지)",
    "lat": 35.579712994811246,
    "lng": 129.31669023174467,
    "region": "울산광역시"
  },
  {
    "name": "벽산e빌리지 102동 지하주차장 1층",
    "address": "울산광역시 중구 함월22길 24 (성안동, 벽산이빌리지)",
    "lat": 35.579712994811246,
    "lng": 129.31669023174467,
    "region": "울산광역시"
  },
  {
    "name": "벽산e빌리지 103동 지하주차장 1층",
    "address": "울산광역시 중구 함월22길 24 (성안동, 벽산이빌리지)",
    "lat": 35.579712994811246,
    "lng": 129.31669023174467,
    "region": "울산광역시"
  },
  {
    "name": "삼강제나두아파트 지하주차장 1층",
    "address": "울산광역시 중구 학성로 214(학성동, 학성동 삼강 제나두아파트)",
    "lat": 35.55679064598955,
    "lng": 129.3344179880669,
    "region": "울산광역시"
  },
  {
    "name": "남경파크아파트 지하주차장 1층",
    "address": "울산광역시 중구 옥교3길 100(학성동, 남경파크아파트)",
    "lat": 35.55327903311326,
    "lng": 129.3317642520127,
    "region": "울산광역시"
  },
  {
    "name": "동덕현대아파트106동 지하주차장 1층",
    "address": "울산광역시 중구 손골5길 30 (복산동, 동덕현대아파트)",
    "lat": 35.564590561914194,
    "lng": 129.32725177934293,
    "region": "울산광역시"
  },
  {
    "name": "천지강변아파트 지하주차장 1층",
    "address": "울산광역시 중구 내황7길 113 (반구동, 천지강변)",
    "lat": 35.55093841398857,
    "lng": 129.34538196787116,
    "region": "울산광역시"
  },
  {
    "name": "남외푸르지오1차 지하주차장 1층",
    "address": "울산광역시 중구 남외3길 33 (남외동, 남외푸르지오1차)",
    "lat": 35.56506424606317,
    "lng": 129.34787096625004,
    "region": "울산광역시"
  },
  {
    "name": "세창짜임아파트101동지하주차장 1층~3층",
    "address": "울산광역시 중구 화합로 398 (반구동, 세창짜임아파트101동)",
    "lat": 35.56106372836397,
    "lng": 129.3390344911087,
    "region": "울산광역시"
  },
  {
    "name": "세창짜임아파트102동지하주차장 1층~2층",
    "address": "울산광역시 중구 화합로 404 (반구동, 세창짜임아파트)",
    "lat": 35.56145826777447,
    "lng": 129.33867380755586,
    "region": "울산광역시"
  },
  {
    "name": "남운학성타운아파트 지하주차장 1층",
    "address": "울산광역시 중구 학성4길 61(학성동, 남운학성타운)",
    "lat": 35.55846695962484,
    "lng": 129.3312022775739,
    "region": "울산광역시"
  },
  {
    "name": "우정IPARK 지하1층~2층 주차장",
    "address": "울산광역시 중구 우정2길 45 (우정동, 우정아이파크아파트)",
    "lat": 35.561295197417685,
    "lng": 129.31069762527696,
    "region": "울산광역시"
  },
  {
    "name": "마제스타워 울산 1차 지하1층 주차장",
    "address": "울산광역시 중구 학성로 1 (우정동, 마제스타워)",
    "lat": 35.55302057703128,
    "lng": 129.31152617433614,
    "region": "울산광역시"
  },
  {
    "name": "마제스타워 울산 2차 지하1층 주차장",
    "address": "울산광역시 중구 학성로 11 (우정동, 진흥마제스타워울산Ⅱ)",
    "lat": 35.5529997276648,
    "lng": 129.31282517569056,
    "region": "울산광역시"
  },
  {
    "name": "kcc스위첸 지하1층",
    "address": "울산광역시 중구 종가로 668-10 (서동, 우정혁신도시KCC스위첸)",
    "lat": 35.58085675087117,
    "lng": 129.34101612417757,
    "region": "울산광역시"
  },
  {
    "name": "동원로얄듀크 2차 지하1층",
    "address": "울산광역시 중구 종가4길 10 (유곡동, 우정혁신도시2차 동원로얄듀크)",
    "lat": 35.56062181336571,
    "lng": 129.29521143939985,
    "region": "울산광역시"
  },
  {
    "name": "에일린의뜰 3차 지하1층",
    "address": "울산광역시 중구 종가로 245 (유곡동, 에일린의뜰3차)",
    "lat": 35.564314341815525,
    "lng": 129.30307847181464,
    "region": "울산광역시"
  },
  {
    "name": "에일린의뜰 2차 지하1층",
    "address": "울산광역시 중구 종가로 730 (장현동, 에일린의 뜰 2차 아파트)",
    "lat": 35.58671973460173,
    "lng": 129.34321149617122,
    "region": "울산광역시"
  },
  {
    "name": "약사아이파크 지하주차장 1층 ~ 2층",
    "address": "울산광역시 중구 평산로 50(약사동, 약사 I-PARK)",
    "lat": 35.57129802707642,
    "lng": 129.33716657270304,
    "region": "울산광역시"
  },
  {
    "name": "동덕현대아파트 5동 지하주차장 1층",
    "address": "울산광역시 중구 손골5길 30 (복산동, 동덕현대아파트)",
    "lat": 35.564590561914194,
    "lng": 129.32725177934293,
    "region": "울산광역시"
  },
  {
    "name": "약사더샵 지하주차장 1층 ~ 2층",
    "address": "울산광역시 중구 약사로 20 (약사더샵)",
    "lat": 35.56753565589381,
    "lng": 129.33794093305434,
    "region": "울산광역시"
  },
  {
    "name": "창조애드웰아파트 지하주차장 1층,2층",
    "address": "울산광역시 중구 구교로 87(학성동, 창조애드웰)",
    "lat": 35.555740829088336,
    "lng": 129.33421797355723,
    "region": "울산광역시"
  },
  {
    "name": "신동아파밀리에 지하주차장 1층~3층",
    "address": "울산광역시 중구 반구정15길 8 (반구동, 울산신동아파밀리에)",
    "lat": 35.55878915776186,
    "lng": 129.3440181339249,
    "region": "울산광역시"
  },
  {
    "name": "복산아이파크 지하주차장 1층~3층",
    "address": "울산광역시 중구 계변로 96 (복산동, 복산아이파크)",
    "lat": 35.56395604991723,
    "lng": 129.32970696492322,
    "region": "울산광역시"
  },
  {
    "name": "효성해링턴 1차 지하주차장 1층~2층",
    "address": "울산광역시 중구 번영로 435 (복산동, 효성해링턴 플레이스 1차)",
    "lat": 35.56207350043187,
    "lng": 129.33188997880487,
    "region": "울산광역시"
  },
  {
    "name": "효성해링턴 2차 지하주차장 1층~2층",
    "address": "울산광역시 중구 번영로 445 (복산동, 효성해링턴 플레이스 2차)",
    "lat": 35.56261755459703,
    "lng": 129.33274933792683,
    "region": "울산광역시"
  },
  {
    "name": "서한이다음 지하주차장 1층",
    "address": "울산광역시 중구 번영로 463, 서한이다음 (복산동)",
    "lat": 35.56445998106936,
    "lng": 129.333406559887,
    "region": "울산광역시"
  },
  {
    "name": "빌리브 아파트 전체 동의 지하주차장 1층~5층",
    "address": "울산광역시 중구 구교로 59(학성동)",
    "lat": 35.55549172749515,
    "lng": 129.33096693239824,
    "region": "울산광역시"
  },
  {
    "name": "울산시립미술관 지하주차장 3층",
    "address": "울산광역시 중구 미술관길 72 (북정동)",
    "lat": 35.5576700350159,
    "lng": 129.320873491788,
    "region": "울산광역시"
  },
  {
    "name": "세한프리빌 3차 지하주차장 1층",
    "address": "울산광역시 중구 화합로 397 (반구동, 세한프리빌3차)",
    "lat": 35.5608198588924,
    "lng": 129.338490543569,
    "region": "울산광역시"
  },
  {
    "name": "현대싱그런아파트 지하 주차장",
    "address": "울산광역시 중구 함월로 75 (성안동, 현대싱그런아파트)",
    "lat": 35.5795700110136,
    "lng": 129.314513058995,
    "region": "울산광역시"
  },
  {
    "name": "중구문화의전당",
    "address": "울산광역시 중구 종가로 405, 중구 문화의 전당 (성안동)",
    "lat": 35.5675421721962,
    "lng": 129.32153646317,
    "region": "울산광역시"
  },
  {
    "name": "대한적십자사울산광역시지사 주차장",
    "address": "울산광역시 중구 성안8길 71, 대한적십자사 울산지사 (성안동)",
    "lat": 35.5801212030612,
    "lng": 129.322623713522,
    "region": "울산광역시"
  },
  {
    "name": "번영로센트리지4단지",
    "address": "울산광역시 중구 복산1길 1 (복산동, 번영로센트리지)",
    "lat": 35.5589387335331,
    "lng": 129.323460579776,
    "region": "울산광역시"
  },
  {
    "name": "무거한라1차 아파트 전체동 지하주차장 1층",
    "address": "울산광역시 남구 신복로46번길 26 (무거동, 무거한라1차아파트)",
    "lat": 35.551749250858045,
    "lng": 129.25838749144987,
    "region": "울산광역시"
  },
  {
    "name": "동서그린맨션 전체동 지하주차장 1층",
    "address": "울산광역시 남구 두왕로190번길 26(선암동, 동서그린맨션)",
    "lat": 35.51884374729299,
    "lng": 129.3143058194971,
    "region": "울산광역시"
  },
  {
    "name": "청구하이츠 아파트 전체동  지하주차장 1~2층",
    "address": "울산광역시 남구 신복로 52 (무거동)",
    "lat": 35.54972938687073,
    "lng": 129.25720964440006,
    "region": "울산광역시"
  },
  {
    "name": "삼창빌딩지하주차장 1층",
    "address": "울산광역시 남구 신정로 95 (신정동)",
    "lat": 35.540324764599966,
    "lng": 129.3200186315582,
    "region": "울산광역시"
  },
  {
    "name": "성수빌딩지하주차장 1층",
    "address": "울산광역시 남구 중앙로 151 (신정동)",
    "lat": 35.53469873678742,
    "lng": 129.3139926378194,
    "region": "울산광역시"
  },
  {
    "name": "선경아파트 전체동 지하주차장 1층",
    "address": "울산광역시 남구 신복로 67 (무거동, 선경아파트)",
    "lat": 35.54947010173635,
    "lng": 129.25522882233142,
    "region": "울산광역시"
  },
  {
    "name": "동서그린아파트 전체동 지하 1층 회의실",
    "address": "울산광역시 남구 대암로 113 (야음동, 동서그린맨션)",
    "lat": 35.52966328989231,
    "lng": 129.32786280598884,
    "region": "울산광역시"
  },
  {
    "name": "성곡빌딩지하주차장 1층",
    "address": "울산광역시 남구 두왕로 337 (신정동)",
    "lat": 35.531557071946416,
    "lng": 129.30683722271905,
    "region": "울산광역시"
  },
  {
    "name": "한화생명지하주차장 2~4층",
    "address": "울산광역시 남구 중앙로 179 (신정동, 한화생명빌딩)",
    "lat": 35.53704652683691,
    "lng": 129.31309413281917,
    "region": "울산광역시"
  },
  {
    "name": "협성현대 아파트 전체동  지하주차장 1층",
    "address": "울산광역시 남구 대학로1번길 61 (무거동, 협성현대아파트)",
    "lat": 35.541205196741664,
    "lng": 129.25318775640702,
    "region": "울산광역시"
  },
  {
    "name": "대원빌딩지하주차장 1층",
    "address": "울산광역시 남구 중앙로 230 (신정동)",
    "lat": 35.541435838664974,
    "lng": 129.31179870318545,
    "region": "울산광역시"
  },
  {
    "name": "선암SK View아파트 전체동 지하주차장 1층",
    "address": "울산광역시 남구 두왕로190번길 75, 선암SK View아파트 (선암동)",
    "lat": 35.515205283229,
    "lng": 129.31749055410444,
    "region": "울산광역시"
  },
  {
    "name": "옥동한진2차전원맨션 전체동 지하주차장 1층",
    "address": "울산광역시 남구 은월로2번길 51 (옥동, 옥동한진2차전원맨션)",
    "lat": 35.53762365114114,
    "lng": 129.2886937868032,
    "region": "울산광역시"
  },
  {
    "name": "삼도가든아파트 전체동 지하주차장 1층",
    "address": "울산광역시 남구 두왕로190번길 35-20 (선암동, 삼도가든맨션)",
    "lat": 35.5180465403126,
    "lng": 129.31588057937603,
    "region": "울산광역시"
  },
  {
    "name": "한라하이타운아파트 101동 지하주차장 1층",
    "address": "울산광역시 남구 꽃대나리로46번길 7 (야음동, 한라하이타운)",
    "lat": 35.53278227840283,
    "lng": 129.33484946963736,
    "region": "울산광역시"
  },
  {
    "name": "무거시장 아파트 전체동 지하주차장 1층",
    "address": "울산광역시 남구 신복로 24 (무거동, 무거시장아파트)",
    "lat": 35.548423169485005,
    "lng": 129.25972397425502,
    "region": "울산광역시"
  },
  {
    "name": "야음동부아파트 102동 지하주차장 1층",
    "address": "울산광역시 남구 야음로 21 (야음동, 동부아파트)",
    "lat": 35.52413084588369,
    "lng": 129.32381741368943,
    "region": "울산광역시"
  },
  {
    "name": "대공원아이파크 1단지 102동 지하 1층",
    "address": "울산광역시 남구 문수로410번길 10, 102동 (신정동, 대공원 I'PARK 1단지)",
    "lat": 35.532809754202376,
    "lng": 129.29802892970503,
    "region": "울산광역시"
  },
  {
    "name": "화성빌딩지하주차장 1층",
    "address": "울산광역시 남구 중앙로 260 (신정동)",
    "lat": 35.54397536746153,
    "lng": 129.31077929309407,
    "region": "울산광역시"
  },
  {
    "name": "건축사회관지하주차장 1층",
    "address": "울산광역시 남구 신정로 152-0 (신정동)",
    "lat": 35.54508991189955,
    "lng": 129.31847879994095,
    "region": "울산광역시"
  },
  {
    "name": "KT남울산전화국지하주차장 1층",
    "address": "울산광역시 남구 신선로 179 (야음동, KT남울산지사)",
    "lat": 35.52280444856139,
    "lng": 129.33224556472237,
    "region": "울산광역시"
  },
  {
    "name": "SK유공사원사택 102동 지하주차장 1층",
    "address": "울산광역시 남구 수암로 253 (야음동, (주)유공야음사원사택아파트)",
    "lat": 35.523331158802385,
    "lng": 129.3331612290135,
    "region": "울산광역시"
  },
  {
    "name": "공업탑로타리지하보도",
    "address": "울산광역시 남구 문수로 487-1 (신정동)",
    "lat": 35.53251537360516,
    "lng": 129.3066181891579,
    "region": "울산광역시"
  },
  {
    "name": "경남은행지하주차장 1~3층",
    "address": "울산광역시 남구 중앙로 202 (신정동)",
    "lat": 35.5389896497864,
    "lng": 129.312739598493,
    "region": "울산광역시"
  },
  {
    "name": "옥동성당교육관 지하주차장 1층",
    "address": "울산광역시 남구 법대로95번길 17 (옥동)",
    "lat": 35.53590147971024,
    "lng": 129.28969341069367,
    "region": "울산광역시"
  },
  {
    "name": "옥동현대아파트 101동,102동 지하주차장 1층",
    "address": "울산광역시 남구 은월로2번길 7 (옥동, 옥동현대아파트)",
    "lat": 35.54040607294332,
    "lng": 129.2903825237035,
    "region": "울산광역시"
  },
  {
    "name": "청암현대아파트 전체동 지하주차장 1층",
    "address": "울산광역시 남구 은월로 30 (옥동, 청암현대아파트)",
    "lat": 35.54114382461581,
    "lng": 129.2935142427828,
    "region": "울산광역시"
  },
  {
    "name": "옥서홈타운전체동  지하주차장 1층",
    "address": "울산광역시 남구 법대로87번길 23 (옥동, 옥서홈타운)",
    "lat": 35.53697422521497,
    "lng": 129.2904269622584,
    "region": "울산광역시"
  },
  {
    "name": "메트로빌딩지하주차장 1~3층",
    "address": "울산광역시 남구 돋질로 69 (신정동)",
    "lat": 35.538492902447814,
    "lng": 129.31347874477166,
    "region": "울산광역시"
  },
  {
    "name": "대경빌딩 지하주차장 1~2층",
    "address": "울산광역시 남구 번영로 177 (달동)",
    "lat": 35.54085267162212,
    "lng": 129.32620574228662,
    "region": "울산광역시"
  },
  {
    "name": "우리투자증권 지하주차장 1층",
    "address": "울산광역시 남구 삼산로 65 (달동)",
    "lat": 35.534343113679604,
    "lng": 129.31475483787816,
    "region": "울산광역시"
  },
  {
    "name": "달동2차현대아파트 206동 옆 지하주차장 1층",
    "address": "울산광역시 남구 삼산로156번길 5-74 (달동, 달동현대2차아파트)",
    "lat": 35.5360087601092,
    "lng": 129.3277750527584,
    "region": "울산광역시"
  },
  {
    "name": "현대하이얏트아파트 전체동 지하주차장 1층",
    "address": "울산광역시 남구 신정로33번길 36 (달동, 현대하이야트)",
    "lat": 35.533736536914,
    "lng": 129.31744355014334,
    "region": "울산광역시"
  },
  {
    "name": "현대3차아파트 102동 옆 지하주차장 1층",
    "address": "울산광역시 남구 번영로89번길 23 (달동, 현대아파트)",
    "lat": 35.53278358435048,
    "lng": 129.3271115074914,
    "region": "울산광역시"
  },
  {
    "name": "달동 SK뷰 아파트 104동 옆 지하주차장 1층",
    "address": "울산광역시 남구 중앙로128번길 54 (달동, 달동SKVIEW아파트)",
    "lat": 35.53407295967945,
    "lng": 129.32072001124754,
    "region": "울산광역시"
  },
  {
    "name": "서광아파트 전체동 제2지하주차장 1~2층",
    "address": "울산광역시 남구 두왕로106번길 28-23 (선암동, 선암서광아파트)",
    "lat": 35.51351889698657,
    "lng": 129.31253339224932,
    "region": "울산광역시"
  },
  {
    "name": "한라한솔아파트 전체동 지하주차장 1~2층",
    "address": "울산광역시 남구 대공원입구로9번길 15 (옥동, 한라한솔)",
    "lat": 35.53307857033986,
    "lng": 129.2921422766194,
    "region": "울산광역시"
  },
  {
    "name": "프라자 빌딩 지하주차장 1층",
    "address": "울산광역시 남구 삼산로 24 (신정동, 프라자빌딩)",
    "lat": 35.53279946321092,
    "lng": 129.31053089778092,
    "region": "울산광역시"
  },
  {
    "name": "효천빌딩(연세메디컬) 지하주차장 1층",
    "address": "울산광역시 남구 삼산로 48 (신정동, 효천빌딩)",
    "lat": 35.533471942358695,
    "lng": 129.31307199558358,
    "region": "울산광역시"
  },
  {
    "name": "한라무지개아파트 전체동 지하 1층",
    "address": "울산광역시 남구 두왕로272번길 17-14 (신정동, 한라무지개아파트)",
    "lat": 35.52780961773939,
    "lng": 129.31209063404822,
    "region": "울산광역시"
  },
  {
    "name": "한라백조아파트 전체동 지하주차장 1층~2층",
    "address": "울산광역시 남구 중앙로63번길 16 (신정동, 한라백조아파트)",
    "lat": 35.52688222439611,
    "lng": 129.31606865100025,
    "region": "울산광역시"
  },
  {
    "name": "삼진파크 1동 지하 1층",
    "address": "울산광역시 남구 두왕로322번길 12 (신정동, 삼진파크)",
    "lat": 35.53107743196031,
    "lng": 129.309462975735,
    "region": "울산광역시"
  },
  {
    "name": "영보가든맨션 전체동 지하 1층",
    "address": "울산광역시 남구 두왕로244번길 30 (신정동, 영보가든맨션아파트)",
    "lat": 35.5252724401856,
    "lng": 129.31469558753963,
    "region": "울산광역시"
  },
  {
    "name": "선경그린아파트 102동 지하주차장 1층",
    "address": "울산광역시 남구 중앙로17번길 16 (야음동, 선경그린아파트)",
    "lat": 35.52304584015263,
    "lng": 129.31689259576615,
    "region": "울산광역시"
  },
  {
    "name": "남운진주맨션 지하 1층",
    "address": "울산광역시 남구 수암로116번길 59-27 (야음동, 남운진주맨션)",
    "lat": 35.523725201747794,
    "lng": 129.32199619524962,
    "region": "울산광역시"
  },
  {
    "name": "달동우방맨션 전체동 지하주차장 1층",
    "address": "울산광역시 남구 도산로 59 (달동, 울산달동우방맨션)",
    "lat": 35.532503877325496,
    "lng": 129.32175571123125,
    "region": "울산광역시"
  },
  {
    "name": "옥현1단지 102동~103동 지하주차장 1층",
    "address": "울산광역시 남구 옥현로 92-13 (무거동, 옥현주공1단지아파트)",
    "lat": 35.54477443731452,
    "lng": 129.26232449261698,
    "region": "울산광역시"
  },
  {
    "name": "옥현2단지 209동~210동 지하주차장 1층",
    "address": "울산광역시 남구 옥현로 92-12 (무거동, 옥현주공2단지아파트)",
    "lat": 35.544520676743666,
    "lng": 129.2622833643237,
    "region": "울산광역시"
  },
  {
    "name": "신정현대홈타운1단지아파트 102동 지하주차장 1층",
    "address": "울산광역시 남구 대암로 81 (야음동, 신정현대홈타운1단지아파트)",
    "lat": 35.53026263942847,
    "lng": 129.324547543991,
    "region": "울산광역시"
  },
  {
    "name": "템포 지하주차장 1층",
    "address": "울산광역시 남구 수암로 4 (신정동)",
    "lat": 35.53181894026321,
    "lng": 129.30853529689838,
    "region": "울산광역시"
  },
  {
    "name": "달동 삼성아파트 1단지  2단지 전체동 지하주차장 1층",
    "address": "울산광역시 남구 신정로17번길 6 (달동, 달동삼성아파트2단지)",
    "lat": 35.53340591356381,
    "lng": 129.32219523577746,
    "region": "울산광역시"
  },
  {
    "name": "달동 어울림아파트 전체동 지하주차장 1~2층",
    "address": "울산광역시 남구 도산로77번길 4 (달동, 어울림아파트)",
    "lat": 35.53196390071841,
    "lng": 129.32400143755353,
    "region": "울산광역시"
  },
  {
    "name": "현대해상 화재보험㈜ 지하주차장 1~7층",
    "address": "울산광역시 남구 번영로 131 (달동, 현대해상빌딩)",
    "lat": 35.5369252010947,
    "lng": 129.32767641400034,
    "region": "울산광역시"
  },
  {
    "name": "선경아파트 5동 관리사무소 앞 지하주차장 1층",
    "address": "울산광역시 남구 돋질로 262 (달동, 삼산선경아파트)",
    "lat": 35.543609226100145,
    "lng": 129.3337611001145,
    "region": "울산광역시"
  },
  {
    "name": "남구청지하 1층",
    "address": "울산광역시 남구 돋질로 233 (달동, 울산광역시남구청)",
    "lat": 35.54303815247171,
    "lng": 129.33055187676638,
    "region": "울산광역시"
  },
  {
    "name": "삼산현대아파트 전체동 지하주차장 1층",
    "address": "울산광역시 남구 월평로 253 (삼산동)",
    "lat": 35.547149484928994,
    "lng": 129.33251554409014,
    "region": "울산광역시"
  },
  {
    "name": "평창3차현대아파트 603동 앞 지하주차장 1층",
    "address": "울산광역시 남구 삼산중로128번길 21 (삼산동, 평창3차현대아파트)",
    "lat": 35.54485405306545,
    "lng": 129.33809054461435,
    "region": "울산광역시"
  },
  {
    "name": "현대문화1차아파트 전체동 지하주차장 1층",
    "address": "울산광역시 남구 화합로102번길 8 (삼산동, 현대문화1차아파트상가)",
    "lat": 35.53411799384203,
    "lng": 129.34280808460468,
    "region": "울산광역시"
  },
  {
    "name": "평창현대아파트 504동 앞 지하주차장 1층",
    "address": "울산광역시 남구 삼산중로 110 (삼산동, 평창2차현대아파트)",
    "lat": 35.543289313135574,
    "lng": 129.33573389501402,
    "region": "울산광역시"
  },
  {
    "name": "세양청구마을아파트 108동 관리사무소 앞 지하주차장1층",
    "address": "울산광역시 남구 돋질로401번길 12 (삼산동, 세양청구아파트)",
    "lat": 35.544923119934666,
    "lng": 129.35050553051948,
    "region": "울산광역시"
  },
  {
    "name": "현대백화점지하주차장 1층",
    "address": "울산광역시 남구 삼산로 261 (삼산동, 현대백화점)",
    "lat": 35.53927118064487,
    "lng": 129.33561273826578,
    "region": "울산광역시"
  },
  {
    "name": "유안타증권빌딩지하주차장 2~5층",
    "address": "울산광역시 남구 삼산로 197 (달동, 유안타증권)",
    "lat": 35.537988426444265,
    "lng": 129.32852980630872,
    "region": "울산광역시"
  },
  {
    "name": "울산산업공구월드 지하주차장 1층",
    "address": "울산광역시 남구 갈밭로 24 (삼산동, 울산산업공구월드)",
    "lat": 35.535988459596425,
    "lng": 129.34322739872127,
    "region": "울산광역시"
  },
  {
    "name": "롯데시네마지하주차장 1층",
    "address": "울산광역시 남구 삼산로 288 (삼산동, 롯데백화점,울산고속버스터미널)",
    "lat": 35.539211519904526,
    "lng": 129.33852281456797,
    "region": "울산광역시"
  },
  {
    "name": "옥현3단지 301동~302동 지하주차장 1~2층",
    "address": "울산광역시 남구 옥현로 34 (무거동, 옥현으뜸마을주공3단지아파트)",
    "lat": 35.53982785201304,
    "lng": 129.25978748483865,
    "region": "울산광역시"
  },
  {
    "name": "남운프라자 지하주차장 1층~4층",
    "address": "울산광역시 남구 북부순환도로 17 (무거동, 남운프라자)",
    "lat": 35.5516528809716,
    "lng": 129.265568888216,
    "region": "울산광역시"
  },
  {
    "name": "굴화주공아파트1단지 102동 지하주차장 1층",
    "address": "울산광역시 남구 굴화4길 20 (무거동, 굴화주공1차아파트)",
    "lat": 35.5534488975845,
    "lng": 129.263419832972,
    "region": "울산광역시"
  },
  {
    "name": "굴화주공아파트2단지 202동 지하주차장 1층",
    "address": "울산광역시 남구 굴화4길 22 (무거동, 굴화주공2차아파트)",
    "lat": 35.55328526210037,
    "lng": 129.26323143297046,
    "region": "울산광역시"
  },
  {
    "name": "달동문화공원지하주차장 1층~2층",
    "address": "울산광역시 남구 번영로 200 (달동, 울산문화예술회관)",
    "lat": 35.54289866350095,
    "lng": 129.32612514873637,
    "region": "울산광역시"
  },
  {
    "name": "쌍용스윗닷홈 104동 지하주차장 1층",
    "address": "울산광역시 남구 야음로 33 (야음동, 쌍용스윗닷홈)",
    "lat": 35.525155321631715,
    "lng": 129.32363861477907,
    "region": "울산광역시"
  },
  {
    "name": "우주그린아파트 1동 지하 1층",
    "address": "울산광역시 남구 두왕로190번길 4 (선암동, 우주그린가든아파트)",
    "lat": 35.51942687659293,
    "lng": 129.31224410002494,
    "region": "울산광역시"
  },
  {
    "name": "삼익세라믹아파트 전체동 지하1층",
    "address": "울산광역시 남구 두왕로190번길 77 (선암동, 삼익세라믹아파트)",
    "lat": 35.51508177973301,
    "lng": 129.31735209526292,
    "region": "울산광역시"
  },
  {
    "name": "강남파크맨션 전체 동의 지하 1층",
    "address": "울산광역시 남구 두왕로190번길 50 (선암동, 강남파크맨션)",
    "lat": 35.51710737020776,
    "lng": 129.31601596573725,
    "region": "울산광역시"
  },
  {
    "name": "강남그린아파트 A동 지하 1층",
    "address": "울산광역시 남구 두왕로174번길 72 (선암동, 강남그린맨션)",
    "lat": 35.515272326532305,
    "lng": 129.31596231161,
    "region": "울산광역시"
  },
  {
    "name": "현대아트맨션 1동 지하 1층",
    "address": "울산광역시 남구 두왕로190번길 51 (선암동, 현대아트맨션(아파트))",
    "lat": 35.51711587763606,
    "lng": 129.3163208344125,
    "region": "울산광역시"
  },
  {
    "name": "일동미라주아파트 105동 앞 지하주차장 1층",
    "address": "울산광역시 남구 중앙로 39 (야음동, 일동미라주아파트)",
    "lat": 35.52502695802563,
    "lng": 129.31779538669414,
    "region": "울산광역시"
  },
  {
    "name": "그랜드타운 101동 지하주차장 1층",
    "address": "울산광역시 남구 신남로 8-8 (야음동, 그랜드타운)",
    "lat": 35.522147577052664,
    "lng": 129.31327954474764,
    "region": "울산광역시"
  },
  {
    "name": "삼한힐아파트 102동 지하주차장 1층",
    "address": "울산광역시 남구 수암로274번길 15 (야음동, 야음동삼한아파트)",
    "lat": 35.52092828254525,
    "lng": 129.33397998569336,
    "region": "울산광역시"
  },
  {
    "name": "수암한라에이스빌아파트 102동 지하주차장 1층",
    "address": "울산광역시 남구 수암로128번길 24 (야음동, 수암한라에이스빌)",
    "lat": 35.52584279153261,
    "lng": 129.32026913636108,
    "region": "울산광역시"
  },
  {
    "name": "신정현대홈타운3단지아파트 302동 지하주차장 1층",
    "address": "울산광역시 남구 수암로129번길 25 (신정동, 신정현대홈타운3단지아파트)",
    "lat": 35.53004176056256,
    "lng": 129.3227451942303,
    "region": "울산광역시"
  },
  {
    "name": "신정현대홈타운4단지아파트 404동 지하주차장 1층~2층",
    "address": "울산광역시 남구 대암로 51 (신정동, 신정현대홈타운4단지아파트)",
    "lat": 35.53141900120518,
    "lng": 129.32159978950278,
    "region": "울산광역시"
  },
  {
    "name": "옥동서광마을아파트 전체동 지하주차장 1~2층",
    "address": "울산광역시 남구 문수로314번길 11 (옥동, 옥동서광아파트)",
    "lat": 35.53449635095959,
    "lng": 129.2877146334639,
    "region": "울산광역시"
  },
  {
    "name": "성도아파트 102동 앞 지하주차장 1층",
    "address": "울산광역시 남구 문수로335번길 51 (옥동, 옥동성도아파트)",
    "lat": 35.53927788220525,
    "lng": 129.29042296955106,
    "region": "울산광역시"
  },
  {
    "name": "남산포스코더샾 103동 지하주차장 2층",
    "address": "울산광역시 남구 봉월로 133 (신정동, 남산 포스코 더샵 아파트)",
    "lat": 35.54431488564728,
    "lng": 129.30618714748684,
    "region": "울산광역시"
  },
  {
    "name": "문수로아이파크 1단지 106동 앞 지하주차장 1층",
    "address": "울산광역시 남구 문수로409번길 20 (신정동, 문수로아이파크1단지)",
    "lat": 35.53551597130694,
    "lng": 129.2981827444875,
    "region": "울산광역시"
  },
  {
    "name": "문수로아이파크 2단지 207동 앞 지하주차장 1층",
    "address": "울산광역시 남구 문수로409번길 23 (신정동, 문수로아이파크2단지)",
    "lat": 35.53593446492059,
    "lng": 129.2982281315493,
    "region": "울산광역시"
  },
  {
    "name": "삼환나띠르빌 전체동 지하주차장 1층",
    "address": "울산광역시 남구 신화로15번길 4 (야음동, 삼환나띠르빌아파트)",
    "lat": 35.52940563461075,
    "lng": 129.33255913648188,
    "region": "울산광역시"
  },
  {
    "name": "벽산강변아파트 전체동 지하주차장 1층",
    "address": "울산광역시 남구 화합로 250 (삼산동, 벽산강변타운)",
    "lat": 35.547076446690134,
    "lng": 129.34023948736404,
    "region": "울산광역시"
  },
  {
    "name": "신성미소지움1단지아파트 104동 지하주차장 1층~3층",
    "address": "울산광역시 남구 대암로 25 (신정동, 신성미소지움1단지아파트)",
    "lat": 35.53096715778464,
    "lng": 129.31867868764053,
    "region": "울산광역시"
  },
  {
    "name": "신성미소지움2단지아파트 201동 지하주차장 1층~2층",
    "address": "울산광역시 남구 대암로 26 (신정동, 신성미소지움2단지아파트)",
    "lat": 35.53077836235536,
    "lng": 129.3187373961046,
    "region": "울산광역시"
  },
  {
    "name": "롯데캐슬1단지 105동 지하주차장 1층~3층",
    "address": "울산광역시 남구 신선로 45 (야음동, 롯데캐슬1단지아파트)",
    "lat": 35.521562581577165,
    "lng": 129.3175622490284,
    "region": "울산광역시"
  },
  {
    "name": "롯데캐슬2단지 204동 211동 지하주차장 1층~3층",
    "address": "울산광역시 남구 신선로 46 (야음동, 롯데캐슬2단지아파트)",
    "lat": 35.52121390263094,
    "lng": 129.31760139727882,
    "region": "울산광역시"
  },
  {
    "name": "신선산휴먼빌 전체동 지하주차장 1층",
    "address": "울산광역시 남구 두왕로34번길 42 (선암동, 신선산휴먼빌)",
    "lat": 35.507948592936,
    "lng": 129.311720765974,
    "region": "울산광역시"
  },
  {
    "name": "신정현대홈타운2단지아파트 207동 지하주차장 1층",
    "address": "울산광역시 남구 대암로 82 (야음동, 신정현대홈타운2단지아파트)",
    "lat": 35.53005549602656,
    "lng": 129.32440574903708,
    "region": "울산광역시"
  },
  {
    "name": "롯데인벤스스위트아파트 101동 지하주차장 1층",
    "address": "울산광역시 남구 번영로 66 (야음동, 번영로롯데인벤스스위트)",
    "lat": 35.531485883693065,
    "lng": 129.33083371588782,
    "region": "울산광역시"
  },
  {
    "name": "울산광역시청 본관 옆 주차동 지하주차장 1층",
    "address": "울산광역시 남구 중앙로 201, 울산광역시청 (신정동)",
    "lat": 35.53875043791582,
    "lng": 129.31243892811156,
    "region": "울산광역시"
  },
  {
    "name": "동문아뮤티지하주차장 1~6층",
    "address": "울산광역시 남구 번영로 195 (신정동)",
    "lat": 35.542453427323096,
    "lng": 129.32541628675887,
    "region": "울산광역시"
  },
  {
    "name": "극동스타클래스지하주차장 1~5층",
    "address": "울산광역시 남구 번영로 223 (신정동)",
    "lat": 35.5448476352969,
    "lng": 129.32444724035025,
    "region": "울산광역시"
  },
  {
    "name": "울산삼산푸르지오아파트 전체동 지하주차장 1층",
    "address": "울산광역시 남구 돋질로339번길 35 (삼산동, 울산삼산푸르지오)",
    "lat": 35.54675895623704,
    "lng": 129.34232024578176,
    "region": "울산광역시"
  },
  {
    "name": "한화꿈에그린1단지아파트입구오른쪽전체동지하주차장 1층",
    "address": "울산광역시 남구 산업로613번길 26 (삼산동, 한화꿈에그린아파트)",
    "lat": 35.536223044327464,
    "lng": 129.34869485100305,
    "region": "울산광역시"
  },
  {
    "name": "한화꿈에그린2단지아파트입구오른쪽전체동지하주차장 1층",
    "address": "울산광역시 남구 산업로613번길 29 (삼산동, 한화꿈에그린아파트)",
    "lat": 35.535886771270455,
    "lng": 129.34807087211138,
    "region": "울산광역시"
  },
  {
    "name": "강변센트럴하이츠 101동 지하주차장 1층",
    "address": "울산광역시 남구 중앙로290번길 53 (신정동, 강변 센트럴하이츠)",
    "lat": 35.54819961826489,
    "lng": 129.31529688943385,
    "region": "울산광역시"
  },
  {
    "name": "두산위브더제니스 전체동 지하주차장 1~5층",
    "address": "울산광역시 남구 신정로203번길 61 (신정동)",
    "lat": 35.54854086143415,
    "lng": 129.3100810767436,
    "region": "울산광역시"
  },
  {
    "name": "울산신정푸르지오 102동,111동 지하주차장 1~2층",
    "address": "울산광역시 남구 팔등로 85 (신정동, 울산신정푸르지오)",
    "lat": 35.546190675888745,
    "lng": 129.3157184498943,
    "region": "울산광역시"
  },
  {
    "name": "대공원월드메르디앙 103동 앞 지하주차장 1층",
    "address": "울산광역시 남구 대공원로 207 (신정동, 대공원월드메르디앙)",
    "lat": 35.53076835289425,
    "lng": 129.3039058587752,
    "region": "울산광역시"
  },
  {
    "name": "무거위브자이아파트 107동 지하주차장 1층~2층",
    "address": "울산광역시 남구 북부순환도로 35 (무거동, 무거위브자이)",
    "lat": 35.5522804158355,
    "lng": 129.267509244359,
    "region": "울산광역시"
  },
  {
    "name": "서희스타힐스아파트 101동 지하주차장 1층~2층",
    "address": "울산광역시 남구 남산로12번길 7-7 (무거동, 태화강 서희스타힐스)",
    "lat": 35.5519929240976,
    "lng": 129.272425180588,
    "region": "울산광역시"
  },
  {
    "name": "울산지방법원 지하주차장 서편 1층",
    "address": "울산광역시 남구 법대로 55 (옥동, 울산지방법원)",
    "lat": 35.5389425938933,
    "lng": 129.28666606140237,
    "region": "울산광역시"
  },
  {
    "name": "문수아이필 아파트 전체동 지하주차장 1층",
    "address": "울산광역시 남구 대학로1번길 3-26 (무거동)",
    "lat": 35.536237642697145,
    "lng": 129.251677552411,
    "region": "울산광역시"
  },
  {
    "name": "현대문수팰리스 전체동 지하주차장 1층",
    "address": "울산광역시 남구 신복로45번길 4 (무거동)",
    "lat": 35.5492928034365,
    "lng": 129.25733559236363,
    "region": "울산광역시"
  },
  {
    "name": "웰츠주상복합 전체동 지하주차장 1~5층",
    "address": "울산광역시 남구 대학로 164 (무거동)",
    "lat": 35.54896230386204,
    "lng": 129.2631835470643,
    "region": "울산광역시"
  },
  {
    "name": "문수로2차아이파크 1단지 106동 앞 지하주차장 1층",
    "address": "울산광역시 남구 동산로69번길 13 (신정동, 문수로2차아이파크1단지)",
    "lat": 35.5370363899104,
    "lng": 129.30300954399056,
    "region": "울산광역시"
  },
  {
    "name": "문수로2차아이파크 2단지 202동 앞 지하주차장 1층",
    "address": "울산광역시 남구 동산로69번길 14 (신정동, 문수로2차아이파크2단지)",
    "lat": 35.53709539216707,
    "lng": 129.30342960830734,
    "region": "울산광역시"
  },
  {
    "name": "울산항만공사 지하주차장 1층",
    "address": "울산광역시 남구 장생포고래로 271 (매암동)",
    "lat": 35.50460484497984,
    "lng": 129.3832936606585,
    "region": "울산광역시"
  },
  {
    "name": "풍림엑슬루타워 A동 지하주차장 1층~2층",
    "address": "울산광역시 남구 봉월로 167 (신정동, 태화강 풍림 엑슬루타워)",
    "lat": 35.54735008238307,
    "lng": 129.30744266060233,
    "region": "울산광역시"
  },
  {
    "name": "울산옥동대공원한신휴플러스아파트 전체동 지하주차장 1층",
    "address": "울산광역시 남구 대공원로99번길 19 (옥동, 울산옥동대공원한신휴플러스)",
    "lat": 35.53163476747343,
    "lng": 129.2962291780945,
    "region": "울산광역시"
  },
  {
    "name": "선암에코하이츠 전체동 지하주차장 1층",
    "address": "울산광역시 남구 산업로339번길 27-10 (선암동, 선암에코하이츠)",
    "lat": 35.51572575910038,
    "lng": 129.33688061953177,
    "region": "울산광역시"
  },
  {
    "name": "대공원호반베르디움 1차 아파트 지하주차장",
    "address": "울산광역시 남구 테크노산업로44번길 50 (두왕동, 대공원 호반베르디움 1차)",
    "lat": 35.5144034344696,
    "lng": 129.293527833481,
    "region": "울산광역시"
  },
  {
    "name": "대공원호반베르디움 2차 아파트 지하주차장",
    "address": "울산광역시 남구 테크노산업로82번길 52 (두왕동, 대공원 호반베르디움 2차)",
    "lat": 35.5169568574472,
    "lng": 129.294622843375,
    "region": "울산광역시"
  },
  {
    "name": "대공원호반베르디움 3차 아파트 지하주차장",
    "address": "울산광역시 남구 테크노산업로82번길 62 (두왕동, 대공원 호반베르디움 3차)",
    "lat": 35.5178658773334,
    "lng": 129.295099136201,
    "region": "울산광역시"
  },
  {
    "name": "영진청구아파트 101동 ~ 102동 지하 1층",
    "address": "울산광역시 동구 남목21길 18 (동부동, 영진청구아파트)",
    "lat": 35.54523261944453,
    "lng": 129.43002282820188,
    "region": "울산광역시"
  },
  {
    "name": "남목현대아파트 101동 ~ 103동 지하 1층",
    "address": "울산광역시 동구 남목12길 17 (동부동, 남목현대아파트)",
    "lat": 35.545628514619864,
    "lng": 129.42757062495878,
    "region": "울산광역시"
  },
  {
    "name": "신안그린파크아파트 지하주차장 1층",
    "address": "울산광역시 동구 남목12길 39 (동부동, 신안그린파크)",
    "lat": 35.54601228015469,
    "lng": 129.42991468974273,
    "region": "울산광역시"
  },
  {
    "name": "아성오우션아파트 101동 ~ 103동 지하1층",
    "address": "울산광역시 동구 남목13길 20 (동부동, 아성오우션맨션아파트)",
    "lat": 35.54451069489832,
    "lng": 129.42838386150186,
    "region": "울산광역시"
  },
  {
    "name": "현대파크맨션아파트 전체 동의 지하 1층",
    "address": "울산광역시 동구 남목21길 6 (동부동, 현대파크맨션)",
    "lat": 35.54429740345201,
    "lng": 129.43003956071857,
    "region": "울산광역시"
  },
  {
    "name": "삼성타워맨션 지하주차장",
    "address": "울산광역시 동구 녹수8길 31 (전하동, 삼성타워맨션)",
    "lat": 35.51408336148172,
    "lng": 129.4297336465409,
    "region": "울산광역시"
  },
  {
    "name": "한신 남목아파트 101동 ~ 102동 지하 1층",
    "address": "울산광역시 동구 남목12길 37 (동부동, 한신아파트)",
    "lat": 35.5458627621898,
    "lng": 129.42979000557833,
    "region": "울산광역시"
  },
  {
    "name": "현대패밀리 명덕 1차아파트 101동 지하 1층",
    "address": "울산광역시 동구 명덕로 30 (서부동, 현대패밀리명덕아파트)",
    "lat": 35.522839794472496,
    "lng": 129.4294538915261,
    "region": "울산광역시"
  },
  {
    "name": "현대패밀리 명덕 1차아파트 103동 지하 1층",
    "address": "울산광역시 동구 명덕로 30 (서부동, 현대패밀리명덕아파트)",
    "lat": 35.522839794472496,
    "lng": 129.4294538915261,
    "region": "울산광역시"
  },
  {
    "name": "현대패밀리 명덕 1차아파트 105동 지하 1층",
    "address": "울산광역시 동구 명덕로 30 (서부동, 현대패밀리명덕아파트)",
    "lat": 35.522839794472496,
    "lng": 129.4294538915261,
    "region": "울산광역시"
  },
  {
    "name": "현대패밀리 명덕 1차아파트 107동 지하 1층",
    "address": "울산광역시 동구 명덕로 30 (서부동, 현대패밀리명덕아파트)",
    "lat": 35.522839794472496,
    "lng": 129.4294538915261,
    "region": "울산광역시"
  },
  {
    "name": "현대패밀리 명덕 1차아파트 109동 지하 1층",
    "address": "울산광역시 동구 명덕로 30 (서부동, 현대패밀리명덕아파트)",
    "lat": 35.522839794472496,
    "lng": 129.4294538915261,
    "region": "울산광역시"
  },
  {
    "name": "현대패밀리 명덕 1차아파트 111동 지하 1층",
    "address": "울산광역시 동구 명덕로 30 (서부동, 현대패밀리명덕아파트)",
    "lat": 35.522839794472496,
    "lng": 129.4294538915261,
    "region": "울산광역시"
  },
  {
    "name": "현대패밀리 명덕 1차아파트 113동 지하 1층",
    "address": "울산광역시 동구 명덕로 30 (서부동, 현대패밀리명덕아파트)",
    "lat": 35.522839794472496,
    "lng": 129.4294538915261,
    "region": "울산광역시"
  },
  {
    "name": "현대패밀리 서부 1차아파트 101동 지하 1층",
    "address": "울산광역시 동구 방어진순환도로 995 (서부동, 현대패밀리서부아파트)",
    "lat": 35.527454542849824,
    "lng": 129.43266648366776,
    "region": "울산광역시"
  },
  {
    "name": "현대패밀리 서부 1차아파트 103동 지하 1층",
    "address": "울산광역시 동구 방어진순환도로 995 (서부동, 현대패밀리서부아파트)",
    "lat": 35.527454542849824,
    "lng": 129.43266648366776,
    "region": "울산광역시"
  },
  {
    "name": "현대패밀리 서부 1차아파트 105동 지하 1층",
    "address": "울산광역시 동구 방어진순환도로 995 (서부동, 현대패밀리서부아파트)",
    "lat": 35.527454542849824,
    "lng": 129.43266648366776,
    "region": "울산광역시"
  },
  {
    "name": "현대패밀리 서부 1차아파트 110동 지하 1층",
    "address": "울산광역시 동구 방어진순환도로 995 (서부동, 현대패밀리서부아파트)",
    "lat": 35.527454542849824,
    "lng": 129.43266648366776,
    "region": "울산광역시"
  },
  {
    "name": "현대패밀리 서부 1차아파트 116동 지하 1층",
    "address": "울산광역시 동구 방어진순환도로 995 (서부동, 현대패밀리서부아파트)",
    "lat": 35.527454542849824,
    "lng": 129.43266648366776,
    "region": "울산광역시"
  },
  {
    "name": "현대패밀리 서부 1차아파트 122동 지하 1층",
    "address": "울산광역시 동구 방어진순환도로 995 (서부동, 현대패밀리서부아파트)",
    "lat": 35.527454542849824,
    "lng": 129.43266648366776,
    "region": "울산광역시"
  },
  {
    "name": "현대패밀리 서부 1차아파트 124동 지하 1층",
    "address": "울산광역시 동구 방어진순환도로 995 (서부동, 현대패밀리서부아파트)",
    "lat": 35.527454542849824,
    "lng": 129.43266648366776,
    "region": "울산광역시"
  },
  {
    "name": "현대 패밀리 동부아파트 104동 지하 1층",
    "address": "울산광역시 동구 안산로 50 (동부동, 현대패밀리동부아파트)",
    "lat": 35.54185954210089,
    "lng": 129.42968173629265,
    "region": "울산광역시"
  },
  {
    "name": "현대 패밀리 동부아파트 106동 지하 1층",
    "address": "울산광역시 동구 안산로 50 (동부동, 현대패밀리동부아파트)",
    "lat": 35.54185954210089,
    "lng": 129.42968173629265,
    "region": "울산광역시"
  },
  {
    "name": "현대 패밀리 동부아파트 108동 지하 1층",
    "address": "울산광역시 동구 안산로 50 (동부동, 현대패밀리동부아파트)",
    "lat": 35.54185954210089,
    "lng": 129.42968173629265,
    "region": "울산광역시"
  },
  {
    "name": "현대 패밀리 동부아파트 109동 지하 1층",
    "address": "울산광역시 동구 안산로 50 (동부동, 현대패밀리동부아파트)",
    "lat": 35.54185954210089,
    "lng": 129.42968173629265,
    "region": "울산광역시"
  },
  {
    "name": "현대 패밀리 동부아파트 110동 지하 1층",
    "address": "울산광역시 동구 안산로 50 (동부동)",
    "lat": 35.54185954210089,
    "lng": 129.42968173629265,
    "region": "울산광역시"
  },
  {
    "name": "현대 패밀리 동부아파트 112동 지하 1층",
    "address": "울산광역시 동구 안산로 50 (동부동, 현대패밀리동부아파트)",
    "lat": 35.54185954210089,
    "lng": 129.42968173629265,
    "region": "울산광역시"
  },
  {
    "name": "현대 패밀리 동부아파트 114동 지하 1층",
    "address": "울산광역시 동구 안산로 50 (동부동, 현대패밀리동부아파트)",
    "lat": 35.54185954210089,
    "lng": 129.42968173629265,
    "region": "울산광역시"
  },
  {
    "name": "현대 패밀리 동부아파트 115동 지하 1층",
    "address": "울산광역시 동구 안산로 50 (동부동, 현대패밀리동부아파트)",
    "lat": 35.54185954210089,
    "lng": 129.42968173629265,
    "region": "울산광역시"
  },
  {
    "name": "현대 패밀리 동부아파트 116동 지하 1층",
    "address": "울산광역시 동구 안산로 50 (동부동, 현대패밀리동부아파트)",
    "lat": 35.54185954210089,
    "lng": 129.42968173629265,
    "region": "울산광역시"
  },
  {
    "name": "현대 패밀리 동부아파트 118동 지하 1층",
    "address": "울산광역시 동구 안산로 50 (동부동, 현대패밀리동부아파트)",
    "lat": 35.54185954210089,
    "lng": 129.42968173629265,
    "region": "울산광역시"
  },
  {
    "name": "현대 패밀리 동부아파트 101동 지하 1층",
    "address": "울산광역시 동구 안산로 50 (동부동, 현대패밀리동부아파트)",
    "lat": 35.54185954210089,
    "lng": 129.42968173629265,
    "region": "울산광역시"
  },
  {
    "name": "현대 패밀리 동부아파트 103동 지하 1층",
    "address": "울산광역시 동구 안산로 50 (동부동, 현대패밀리동부아파트)",
    "lat": 35.54185954210089,
    "lng": 129.42968173629265,
    "region": "울산광역시"
  },
  {
    "name": "한라오로라타워 아파트 지하 1층",
    "address": "울산광역시 동구 동해안로 98 (동부동, 한라오로라타워)",
    "lat": 35.54507244720742,
    "lng": 129.43187983675278,
    "region": "울산광역시"
  },
  {
    "name": "대하크리스탈 101동 지하 1층",
    "address": "울산광역시 동구 양지5길 5 (화정동, 대하크리스탈)",
    "lat": 35.49577055485483,
    "lng": 129.42008314884484,
    "region": "울산광역시"
  },
  {
    "name": "한아름 현대아파트 101동 지하 1층",
    "address": "울산광역시 동구 방어진순환도로 1045 (서부동, 한아름현대아파트)",
    "lat": 35.534263232454045,
    "lng": 129.43114471750636,
    "region": "울산광역시"
  },
  {
    "name": "한아름 현대아파트 104동 지하 1층",
    "address": "울산광역시 동구 방어진순환도로 1045 (서부동, 한아름현대아파트)",
    "lat": 35.534263232454045,
    "lng": 129.43114471750636,
    "region": "울산광역시"
  },
  {
    "name": "현대패밀리 서부2차 아파트 202동 지하 1층",
    "address": "울산광역시 동구 방어진순환도로 999 (서부동, 현대패밀리서부2차아파트201동)",
    "lat": 35.53008586654218,
    "lng": 129.43287598991492,
    "region": "울산광역시"
  },
  {
    "name": "우진4차아파트 지하주차장 1층",
    "address": "울산광역시 동구 월봉7길 26 (화정동, 우진4차아파트)",
    "lat": 35.491985593871135,
    "lng": 129.41945950416002,
    "region": "울산광역시"
  },
  {
    "name": "남목그린타워 지하주차장 1층",
    "address": "울산광역시 동구 옥류로 87(동부동, 남목그린타워)",
    "lat": 35.54617825674295,
    "lng": 129.4250742037963,
    "region": "울산광역시"
  },
  {
    "name": "현대하이야트맨션 201동 지하1층",
    "address": "울산광역시 동구 옥류로 65(동부동, 현대하이야트맨션)",
    "lat": 35.544775172986895,
    "lng": 129.42498164688698,
    "region": "울산광역시"
  },
  {
    "name": "벽산유토피아아파트 전체 동의 지하1층",
    "address": "울산광역시 동구 옥류로 92(동부동, 벽산유토피아아파트)",
    "lat": 35.546292759724,
    "lng": 129.426092948822,
    "region": "울산광역시"
  },
  {
    "name": "광희빌딩 지하주차장 1층",
    "address": "울산광역시 동구 방어진순환도로 1141(서부동)",
    "lat": 35.53936164849557,
    "lng": 129.42412869898106,
    "region": "울산광역시"
  },
  {
    "name": "헌산빌딩 지하주차장 1층",
    "address": "울산광역시 동구 동해안로 50(동부동)",
    "lat": 35.54213588639429,
    "lng": 129.42868812657414,
    "region": "울산광역시"
  },
  {
    "name": "서영골든타워 지하1층",
    "address": "울산광역시 동구 남목11길 25(서부동, 서영골든타워아파트)",
    "lat": 35.54368506272329,
    "lng": 129.42440402415977,
    "region": "울산광역시"
  },
  {
    "name": "동구청 본관 지하 1층",
    "address": "울산광역시 동구 봉수로 155 (화정동, 동구청사)",
    "lat": 35.50454424597584,
    "lng": 129.41711249207512,
    "region": "울산광역시"
  },
  {
    "name": "현대패밀리 서부2차 아파트 201동 지하 1층",
    "address": "울산광역시 동구 방어진순환도로 999 (서부동, 현대패밀리서부2차아파트201동)",
    "lat": 35.53008586654218,
    "lng": 129.43287598991492,
    "region": "울산광역시"
  },
  {
    "name": "현대패밀리 서부2차 아파트 206동 1층 복도",
    "address": "울산광역시 동구 방어진순환도로 999 (서부동, 현대패밀리서부2차아파트201동)",
    "lat": 35.53008586654218,
    "lng": 129.43287598991492,
    "region": "울산광역시"
  },
  {
    "name": "KT동울산지사 지하주차장 1층",
    "address": "울산광역시 동구 방어진순환도로 775 (전하동, KT동울산지사)",
    "lat": 35.51087339616517,
    "lng": 129.43034958149056,
    "region": "울산광역시"
  },
  {
    "name": "정림빌라트 지하주차장 1층",
    "address": "울산광역시 동구 번덕로 11 (일산동, 정림빌라트)",
    "lat": 35.499225781705206,
    "lng": 129.42661049681467,
    "region": "울산광역시"
  },
  {
    "name": "현대패밀리전하아파트 102동 105동 지하주차장",
    "address": "울산광역시 동구 녹수11길 50 (전하동, 현대패밀리전하아파트)",
    "lat": 35.51560245411992,
    "lng": 129.42671014186,
    "region": "울산광역시"
  },
  {
    "name": "동부경찰서 헬스장 지하 1층",
    "address": "울산광역시 동구 진성4길 11 (전하동, 동부경찰서)",
    "lat": 35.5086107842318,
    "lng": 129.4293298899363,
    "region": "울산광역시"
  },
  {
    "name": "전하2동주민센터 지하주차장 1층",
    "address": "울산광역시 동구 진성4길 45, 전하2동주민센터 (전하동)",
    "lat": 35.508954142626,
    "lng": 129.42668337186066,
    "region": "울산광역시"
  },
  {
    "name": "한라한빛타운101동 지하주차장 1층",
    "address": "울산광역시 동구 전하로 35 (전하동, 한라한빛타운)",
    "lat": 35.512407194156495,
    "lng": 129.42682224925105,
    "region": "울산광역시"
  },
  {
    "name": "한라한빛타운102동 지하주차장 1층",
    "address": "울산광역시 동구 진성1길 45 (전하동, 한라한빛타운)",
    "lat": 35.51184242130512,
    "lng": 129.42679338803163,
    "region": "울산광역시"
  },
  {
    "name": "우진비둘기맨션 3차 아파트 지하주차장 1층",
    "address": "울산광역시 동구 월봉4길 46 (방어동, 우진3차아파트)",
    "lat": 35.489473309579864,
    "lng": 129.4194846559212,
    "region": "울산광역시"
  },
  {
    "name": "꽃바위현대아파트 지하 1층",
    "address": "울산광역시 동구 화잠9길 45 (방어동, 꽃바위현대아파트)",
    "lat": 35.483711886713074,
    "lng": 129.40910888564824,
    "region": "울산광역시"
  },
  {
    "name": "대송현대아파트 101동 지하 1층",
    "address": "울산광역시 동구 대송1길 10 (화정동, 대송현대아파트)",
    "lat": 35.499226522631346,
    "lng": 129.41817972796375,
    "region": "울산광역시"
  },
  {
    "name": "대송현대아파트 102동 지하 1층",
    "address": "울산광역시 동구 대송1길 10 (화정동, 대송현대아파트)",
    "lat": 35.499226522631346,
    "lng": 129.41817972796375,
    "region": "울산광역시"
  },
  {
    "name": "대송현대아파트 103동 지하 1층",
    "address": "울산광역시 동구 대송2길 10 (화정동, 대송현대아파트)",
    "lat": 35.5001622172944,
    "lng": 129.4178284617347,
    "region": "울산광역시"
  },
  {
    "name": "대송현대아파트 104동 지하 1층",
    "address": "울산광역시 동구 대송2길 10 (화정동, 대송현대아파트)",
    "lat": 35.5001622172944,
    "lng": 129.4178284617347,
    "region": "울산광역시"
  },
  {
    "name": "대송현대아파트 201동 지하 1층",
    "address": "울산광역시 동구 대송3길 10 (화정동, 대송현대아파트)",
    "lat": 35.50157341051097,
    "lng": 129.4178172805948,
    "region": "울산광역시"
  },
  {
    "name": "대송현대아파트 202동 지하 1층",
    "address": "울산광역시 동구 대송3길 10 (화정동, 대송현대아파트)",
    "lat": 35.50157341051097,
    "lng": 129.4178172805948,
    "region": "울산광역시"
  },
  {
    "name": "대송현대아파트 203동 지하 1층",
    "address": "울산광역시 동구 대송3길 10 (화정동, 대송현대아파트)",
    "lat": 35.50157341051097,
    "lng": 129.4178172805948,
    "region": "울산광역시"
  },
  {
    "name": "대송현대아파트 204동 지하 1층",
    "address": "울산광역시 동구 봉수로 162 (화정동, 대송현대아파트)",
    "lat": 35.501953963189294,
    "lng": 129.41698257837655,
    "region": "울산광역시"
  },
  {
    "name": "금강아파트 201동 지하 1층",
    "address": "울산광역시 동구 봉수로 170 (화정동, 금강아파트)",
    "lat": 35.50261082719122,
    "lng": 129.41691192213904,
    "region": "울산광역시"
  },
  {
    "name": "금강아파트 202동 지하 1층",
    "address": "울산광역시 동구 봉수로 170 (화정동, 금강아파트)",
    "lat": 35.50261082719122,
    "lng": 129.41691192213904,
    "region": "울산광역시"
  },
  {
    "name": "대송현대아파트 301동 지하 1층",
    "address": "울산광역시 동구 대송4길 5 (화정동, 대송현대아파트)",
    "lat": 35.503345442849465,
    "lng": 129.4174151230972,
    "region": "울산광역시"
  },
  {
    "name": "대송현대아파트 302동 지하 1층",
    "address": "울산광역시 동구 대송4길 5-0 (화정동)",
    "lat": 35.503345442849465,
    "lng": 129.4174151230972,
    "region": "울산광역시"
  },
  {
    "name": "대송현대아파트 303동 지하 1층",
    "address": "울산광역시 동구 대송4길 5-0 (화정동)",
    "lat": 35.503345442849465,
    "lng": 129.4174151230972,
    "region": "울산광역시"
  },
  {
    "name": "벽산우진타운 101동 지하 1층 ~ 2층",
    "address": "울산광역시 동구 진성15길 55 (화정동, 벽산우진타운)",
    "lat": 35.50662837326544,
    "lng": 129.42111328005385,
    "region": "울산광역시"
  },
  {
    "name": "벽산우진타운 102동 지하 1층 ~ 2층",
    "address": "울산광역시 동구 진성15길 55 (화정동, 벽산우진타운)",
    "lat": 35.50662837326544,
    "lng": 129.42111328005385,
    "region": "울산광역시"
  },
  {
    "name": "현대예술관 지하주차장 (지하1층)",
    "address": "울산광역시 동구 명덕로 10 (서부동, 현대예술관)",
    "lat": 35.52263107166585,
    "lng": 129.4316654942386,
    "region": "울산광역시"
  },
  {
    "name": "우진임대아파트 101동, 102동 지하주차장 1층",
    "address": "울산광역시 동구 문재3길 34 (방어동, 우진임대아파트)",
    "lat": 35.48390671450336,
    "lng": 129.4165125898207,
    "region": "울산광역시"
  },
  {
    "name": "풍성비치타운 지하주차장 1층",
    "address": "울산광역시 동구 꽃바위5길 27 (방어동, 풍성비치타운)",
    "lat": 35.48189064284156,
    "lng": 129.413799022096,
    "region": "울산광역시"
  },
  {
    "name": "정림아파트 지하주차장 1층",
    "address": "울산광역시 동구 문현1길 37 (방어동, 정림아파트)",
    "lat": 35.48923539018619,
    "lng": 129.41276837496443,
    "region": "울산광역시"
  },
  {
    "name": "현대파라다이스 702동 지하 1층",
    "address": "울산광역시 동구 봉수로 110 (화정동, 현대아파트)",
    "lat": 35.4973863352913,
    "lng": 129.41820038575463,
    "region": "울산광역시"
  },
  {
    "name": "전하현대홈타운 102동~107동 지하주차장",
    "address": "울산광역시 동구 봉수로 370 (전하동, 전하동현대홈타운)",
    "lat": 35.5182189909352,
    "lng": 129.42565524771743,
    "region": "울산광역시"
  },
  {
    "name": "삼전아이필하모니 지하주차장 1~3층",
    "address": "울산광역시 동구 방어진순환도로 733 (전하동, 삼전아이필하모니)",
    "lat": 35.50710610392206,
    "lng": 129.42976057508588,
    "region": "울산광역시"
  },
  {
    "name": "해븐하늘빛 지하주차장 2층",
    "address": "울산광역시 동구 진성3길 14 (전하동, 해븐하늘빛)",
    "lat": 35.51007895934594,
    "lng": 129.4293444241799,
    "region": "울산광역시"
  },
  {
    "name": "동구보건소 지하주차장 1층",
    "address": "울산광역시 동구 봉수로 155 (화정동, 동구청사)",
    "lat": 35.50454424597584,
    "lng": 129.41711249207512,
    "region": "울산광역시"
  },
  {
    "name": "동울산우체국 지하주차장 1~2층",
    "address": "울산광역시 동구 방어진순환도로 779, 동울산우체국 (전하동)",
    "lat": 35.51129038618082,
    "lng": 129.43041879770252,
    "region": "울산광역시"
  },
  {
    "name": "현대 명덕 2차 아파트 204동 지하 1층",
    "address": "울산광역시 동구 명덕로 70 (서부동, 현대패밀리명덕2차아파트)",
    "lat": 35.52371010658143,
    "lng": 129.42547341844448,
    "region": "울산광역시"
  },
  {
    "name": "서부동 성원상떼빌 아파트 101동 지하 1층",
    "address": "울산광역시 동구 봉수로 450 (서부동, 서부성원상떼빌)",
    "lat": 35.52466781352284,
    "lng": 129.42471044305398,
    "region": "울산광역시"
  },
  {
    "name": "서부동 성원상떼빌 아파트 103동 지하 1층",
    "address": "울산광역시 동구 봉수로 450 (서부동)",
    "lat": 35.52466781352284,
    "lng": 129.42471044305398,
    "region": "울산광역시"
  },
  {
    "name": "서부동 성원상떼빌 아파트 105동 지하 1층",
    "address": "울산광역시 동구 봉수로 450 (서부동)",
    "lat": 35.52466781352284,
    "lng": 129.42471044305398,
    "region": "울산광역시"
  },
  {
    "name": "서부동 성원상떼빌 아파트 107동 지하 1층",
    "address": "울산광역시 동구 봉수로 450 (서부동)",
    "lat": 35.52466781352284,
    "lng": 129.42471044305398,
    "region": "울산광역시"
  },
  {
    "name": "서부동 성원상떼빌 아파트 110동 지하 1층",
    "address": "울산광역시 동구 봉수로 450 (서부동)",
    "lat": 35.52466781352284,
    "lng": 129.42471044305398,
    "region": "울산광역시"
  },
  {
    "name": "서부동 성원상떼빌 아파트 112동 지하 1층",
    "address": "울산광역시 동구 봉수로 450 (서부동)",
    "lat": 35.52466781352284,
    "lng": 129.42471044305398,
    "region": "울산광역시"
  },
  {
    "name": "서부동 성원상떼빌 아파트 114동 지하 1층",
    "address": "울산광역시 동구 봉수로 450 (서부동)",
    "lat": 35.52466781352284,
    "lng": 129.42471044305398,
    "region": "울산광역시"
  },
  {
    "name": "문현아이파크아파트 101동~104동 지하주차장 1층",
    "address": "울산광역시 동구 문현6길 19 (방어동, 문현아이파크)",
    "lat": 35.48633310244649,
    "lng": 129.4126284466517,
    "region": "울산광역시"
  },
  {
    "name": "상일맑은날아파트 지하주차장 1층",
    "address": "울산광역시 동구 남목8길 10(서부동, 상일맑은날)",
    "lat": 35.54094394384218,
    "lng": 129.42482802059772,
    "region": "울산광역시"
  },
  {
    "name": "남목현대아파트 지하1층",
    "address": "울산광역시 동구 제기천길 7-10(서부동, 남목현대아파트)",
    "lat": 35.5386682718792,
    "lng": 129.42463647905254,
    "region": "울산광역시"
  },
  {
    "name": "시온리버빌 지하주차장 1~2층",
    "address": "울산광역시 동구 방어진순환도로 631 (일산동, 시온리버빌)",
    "lat": 35.49813811757941,
    "lng": 129.42783599699834,
    "region": "울산광역시"
  },
  {
    "name": "서부동 성원상떼빌 아파트 109동 지하 1층",
    "address": "울산광역시 동구 봉수로 450 (서부동)",
    "lat": 35.52466781352284,
    "lng": 129.42471044305398,
    "region": "울산광역시"
  },
  {
    "name": "대경넥스빌 101동~106동 지하주차장",
    "address": "울산광역시 동구 바드래길 110 (전하동, 전하대경넥스빌)",
    "lat": 35.516263195193346,
    "lng": 129.42560148959814,
    "region": "울산광역시"
  },
  {
    "name": "삼전아이필 101동 지하주차장",
    "address": "울산광역시 동구 바드래길 125 (전하동, 삼전아이필101동)",
    "lat": 35.51622991551227,
    "lng": 129.42460275303856,
    "region": "울산광역시"
  },
  {
    "name": "동남로얄하이츠빌라 지하주차장",
    "address": "울산광역시 동구 바드래1길 21 (전하동, 동남로얄하이츠빌라)",
    "lat": 35.517268344074445,
    "lng": 129.43018255884763,
    "region": "울산광역시"
  },
  {
    "name": "울산전하푸르지오(101~103,111~112동)지하3층",
    "address": "울산광역시 동구 봉수로 250 (전하동, 울산전하푸르지오)",
    "lat": 35.508311018074764,
    "lng": 129.4231687471617,
    "region": "울산광역시"
  },
  {
    "name": "울산전하푸르지오(104~110동) 지하주차장 3층",
    "address": "울산광역시 동구 봉수로 250 (전하동, 울산전하푸르지오)",
    "lat": 35.508311018074764,
    "lng": 129.4231687471617,
    "region": "울산광역시"
  },
  {
    "name": "울산전하푸르지오(201~204동) 지하주차장 3층",
    "address": "울산광역시 동구 봉수로 250 (전하동, 울산전하푸르지오)",
    "lat": 35.508311018074764,
    "lng": 129.4231687471617,
    "region": "울산광역시"
  },
  {
    "name": "방어휴먼시아아파트 101동~108동 지하주차장 2층",
    "address": "울산광역시 동구 등대4길 25 (방어동, 울산방어휴먼시아)",
    "lat": 35.48931498578704,
    "lng": 129.42955299370098,
    "region": "울산광역시"
  },
  {
    "name": "미래아동병원 지하주차장 1층",
    "address": "울산광역시 동구 방어진순환도로 1162, 미래아동병원 (서부동)",
    "lat": 35.53975371180566,
    "lng": 129.42183058455453,
    "region": "울산광역시"
  },
  {
    "name": "전하아이파크101~109동 지하주차장 1~4층",
    "address": "울산광역시 동구 봉수로 270 (전하동, 전하I`PARK)",
    "lat": 35.509467281231984,
    "lng": 129.42330484633976,
    "region": "울산광역시"
  },
  {
    "name": "전하아이파크201~203동 지하주차장 1~3층",
    "address": "울산광역시 동구 봉수로 270 (전하동, 전하I`PARK)",
    "lat": 35.509467281231984,
    "lng": 129.42330484633976,
    "region": "울산광역시"
  },
  {
    "name": "e편한세상전하101~108동 지하주차장 1~4층",
    "address": "울산광역시 동구 봉수로 290 (전하동)",
    "lat": 35.511956894292105,
    "lng": 129.42308051287904,
    "region": "울산광역시"
  },
  {
    "name": "e편한세상전하109~116동 지하주차장 1~4층",
    "address": "울산광역시 동구 봉수로 290 (전하동)",
    "lat": 35.511956894292105,
    "lng": 129.42308051287904,
    "region": "울산광역시"
  },
  {
    "name": "대왕암엘크루아파트 201동~208동 지하주차장 2층",
    "address": "울산광역시 동구 등대4길 26 (방어동)",
    "lat": 35.48911539578847,
    "lng": 129.4299523479203,
    "region": "울산광역시"
  },
  {
    "name": "힐스테이트이스턴베이 지하주차장 1층",
    "address": "울산광역시 동구 화진길 100 (화정동)",
    "lat": 35.49269267739118,
    "lng": 129.4223688742029,
    "region": "울산광역시"
  },
  {
    "name": "정우6차 센트럴빌 지하주차장 1층",
    "address": "울산광역시 동구 방어진순환도로 580 (화정동, 정우6차센트럴빌)",
    "lat": 35.49356907702177,
    "lng": 129.42700079626889,
    "region": "울산광역시"
  },
  {
    "name": "바로그교회 지하주차장 1층",
    "address": "울산광역시 동구 월봉10길 42, 바로그교회 (화정동)",
    "lat": 35.49272795288588,
    "lng": 129.41914258101949,
    "region": "울산광역시"
  },
  {
    "name": "울산 일산동 테라스파크 A~C동의 지하주차장 1층",
    "address": "울산광역시 동구 방어진순환도로 652 (일산동)",
    "lat": 35.4998551489843,
    "lng": 129.42871268001934,
    "region": "울산광역시"
  },
  {
    "name": "평창리비에르1차아파트 전체동의 지하주차장 1층",
    "address": "울산광역시 북구 명촌10길 22 (명촌동, 리비에르1차아파트)",
    "lat": 35.55200921129968,
    "lng": 129.35697718148424,
    "region": "울산광역시"
  },
  {
    "name": "더반호텔 지하주차장 1층",
    "address": "울산광역시 북구 동해안로 1688 (산하동)",
    "lat": 35.63424981170367,
    "lng": 129.44179338875105,
    "region": "울산광역시"
  },
  {
    "name": "쌍용아진그린타운2차 203동, 201동 지하주차장 1층",
    "address": "울산광역시 북구 아진로 75 (상안동, 쌍용아진그린타운)",
    "lat": 35.63000087694276,
    "lng": 129.3402289299073,
    "region": "울산광역시"
  },
  {
    "name": "효성삼환아파트 전체동의 지하주차장 1층",
    "address": "울산광역시 북구 통샘10길 9(화봉동, 효성,삼환아파트)",
    "lat": 35.59221844765142,
    "lng": 129.3594659674152,
    "region": "울산광역시"
  },
  {
    "name": "한우리아파트 전체동의 지하주차장 1층",
    "address": "울산광역시 북구 상방로 12, 1동 (화봉동, 한우리아파트)",
    "lat": 35.59110793821562,
    "lng": 129.35941760318707,
    "region": "울산광역시"
  },
  {
    "name": "원동현대아파트 101동, 102동 지하주차장 1층",
    "address": "울산광역시 북구 고래로 2 (천곡동, 원동현대아파트)",
    "lat": 35.63221617976136,
    "lng": 129.3433828703628,
    "region": "울산광역시"
  },
  {
    "name": "문화청솔아파트 102동 지하주차장 1층",
    "address": "울산광역시 북구 호계로 327-8 (신천동, 문화청솔아파트)",
    "lat": 35.6320651655205,
    "lng": 129.34965015376608,
    "region": "울산광역시"
  },
  {
    "name": "현대으뜸타운아파트 101동 지하주차장 1층",
    "address": "울산광역시 북구 매곡본길 54 (매곡동, 현대으뜸타운)",
    "lat": 35.638871374845564,
    "lng": 129.36053380446245,
    "region": "울산광역시"
  },
  {
    "name": "무지개타운아파트 101동 지하주차장 1층",
    "address": "울산광역시 북구 제내5길 26 (신천동, 무지개타운)",
    "lat": 35.63497088536806,
    "lng": 129.3511441654174,
    "region": "울산광역시"
  },
  {
    "name": "쌍용아진그린타운4차 전체동의 지하주차장 1층",
    "address": "울산광역시 북구 천곡남로 38 (천곡동, 쌍용아진그린타운4차)",
    "lat": 35.63187033719779,
    "lng": 129.3353345769561,
    "region": "울산광역시"
  },
  {
    "name": "삼우타운아파트 입구 지하주차장 1층",
    "address": "울산광역시 북구 화정1길 28 (중산동, 삼우타운)",
    "lat": 35.65829900424918,
    "lng": 129.3428356324371,
    "region": "울산광역시"
  },
  {
    "name": "한라신천지타운아파트 101동 지하주차장 1층",
    "address": "울산광역시 북구 갈밭길 1, 101동 (신천동, 한라신천지타운)",
    "lat": 35.63481580414453,
    "lng": 129.34795886400363,
    "region": "울산광역시"
  },
  {
    "name": "호계청구타운아파트 101동 지하주차장 1층",
    "address": "울산광역시 북구 호계로 402, 102동 (신천동, 호계청구타운)",
    "lat": 35.63834812062064,
    "lng": 129.34726949086956,
    "region": "울산광역시"
  },
  {
    "name": "현대글로리아아파트 101동 지하주차장 1층",
    "address": "울산광역시 북구 이화5길 23, 101동 (중산동, 현대글로리아)",
    "lat": 35.66272997618053,
    "lng": 129.3383657670248,
    "region": "울산광역시"
  },
  {
    "name": "중산현대아파트 201동 지하주차장 1층",
    "address": "울산광역시 북구 이화5길 20, 201동 (중산동, 현대아파트)",
    "lat": 35.66286453319027,
    "lng": 129.33844966959091,
    "region": "울산광역시"
  },
  {
    "name": "평창리비에르2차아파트 전체동의 지하주차장 1층",
    "address": "울산광역시 북구 명촌로 91 (명촌동, 평창리비에르2차아파트)",
    "lat": 35.55280229476936,
    "lng": 129.35397271178232,
    "region": "울산광역시"
  },
  {
    "name": "평창리비에르3차아파트 전체동의 지하주차장 1층",
    "address": "울산광역시 북구 명촌15길 10 (명촌동, 평창리비에르3차아파트)",
    "lat": 35.55472678710379,
    "lng": 129.3546981925993,
    "region": "울산광역시"
  },
  {
    "name": "명촌주공아파트 전체동의 지하주차장 1층",
    "address": "울산광역시 북구 명촌로 94 (명촌동, 울산명촌주공아파트)",
    "lat": 35.55304275870173,
    "lng": 129.35335700399455,
    "region": "울산광역시"
  },
  {
    "name": "그린카운티1단지아파트 101동 지하주차장 1층",
    "address": "울산광역시 북구 달천로 119 (달천동, 그린카운티아파트)",
    "lat": 35.63184322318818,
    "lng": 129.3245249217909,
    "region": "울산광역시"
  },
  {
    "name": "그린카운티2단지아파트 203동 지하주차장 1층",
    "address": "울산광역시 북구 달천로 109 (달천동, 그린카운티아파트)",
    "lat": 35.63257395633518,
    "lng": 129.3249887697066,
    "region": "울산광역시"
  },
  {
    "name": "그린카운티3단지아파트 302동, 304동 지하주차장",
    "address": "울산광역시 북구 달천로 95 (달천동, 그린카운티아파트)",
    "lat": 35.633906983312016,
    "lng": 129.32582034694073,
    "region": "울산광역시"
  },
  {
    "name": "그린카운티4단지 401동, 403동 지하주차장 1~2층",
    "address": "울산광역시 북구 달천로 100 (달천동, 그린카운티아파트)",
    "lat": 35.633492221801745,
    "lng": 129.3252459216075,
    "region": "울산광역시"
  },
  {
    "name": "염포성원상떼빌아파트 전체동의 지하주차장 1층~2층",
    "address": "울산광역시 북구 염포로 685 (염포동, 염포성원상떼빌)",
    "lat": 35.5318836891642,
    "lng": 129.39225189053582,
    "region": "울산광역시"
  },
  {
    "name": "협성노블리스 107동,110동,103동 지하주차장 1층",
    "address": "울산광역시 북구 호계로 309-20 (신천동, 협성노블리스)",
    "lat": 35.63035002647966,
    "lng": 129.34915676855027,
    "region": "울산광역시"
  },
  {
    "name": "쌍용아진그린타운3차 전체동의 지하주차장 1층",
    "address": "울산광역시 북구 아진로 115 (천곡동, 쌍용아진그린타운)",
    "lat": 35.63070470848232,
    "lng": 129.3362843779621,
    "region": "울산광역시"
  },
  {
    "name": "호계주공2단지아파트 202동, 208동 지하주차장 1층",
    "address": "울산광역시 북구 동대11길 36 (호계동, 호계2단지주공아파트)",
    "lat": 35.631021559902536,
    "lng": 129.35538930667266,
    "region": "울산광역시"
  },
  {
    "name": "삼성코아루아파트 전체동의 지하주차장 1~2층",
    "address": "울산광역시 북구 천곡남로 37 (천곡동, 삼성ㆍ코아루아파트)",
    "lat": 35.63082375664348,
    "lng": 129.33487787165902,
    "region": "울산광역시"
  },
  {
    "name": "호계주공1단지아파트 102동, 107동, 지하주차장1층",
    "address": "울산광역시 북구 동대12길 30 (호계동, 호계1단지주공아파트)",
    "lat": 35.63135467867996,
    "lng": 129.3568202375389,
    "region": "울산광역시"
  },
  {
    "name": "양정힐스테이트1차아파트 전체동의 지하주차장 1층",
    "address": "울산광역시 북구 염포로 459 (양정동, 양정힐스테이트)",
    "lat": 35.55034581341057,
    "lng": 129.3829928309788,
    "region": "울산광역시"
  },
  {
    "name": "양정힐스테이트2차 202동, 204동 지하주차장 1층",
    "address": "울산광역시 북구 양정4길 15 (양정동, 양정힐스테이트2차)",
    "lat": 35.54370576029812,
    "lng": 129.38757868088388,
    "region": "울산광역시"
  },
  {
    "name": "매곡푸르지오1차 아파트 전체동의 지하주차장 1층~2층",
    "address": "울산광역시 북구 신천로 92, 103동 (매곡동, 매곡푸르지오1단지)",
    "lat": 35.64538930834652,
    "lng": 129.35253004709597,
    "region": "울산광역시"
  },
  {
    "name": "신천엠코타운 아파트 전체동의 지하주차장 1층~2층",
    "address": "울산광역시 북구 신천소공원로 15, 104동 (신천동, 울산신천엠코타운)",
    "lat": 35.64569146916124,
    "lng": 129.34549194218732,
    "region": "울산광역시"
  },
  {
    "name": "월드메르디앙1차아파트 전체동의 지하주차장 1층~2층",
    "address": "울산광역시 북구 매산로 65 (매곡동, 월드메르디앙월드시티)",
    "lat": 35.64232309626277,
    "lng": 129.36078788579644,
    "region": "울산광역시"
  },
  {
    "name": "월드메르디앙2차아파트 전체동의 지하주차장 1층~2층",
    "address": "울산광역시 북구 매산로 66 (매곡동, 월드메르디앙월드시티)",
    "lat": 35.642258460413935,
    "lng": 129.36043948958803,
    "region": "울산광역시"
  },
  {
    "name": "화봉휴먼시아2단지 전체동의 지하주차장 1층",
    "address": "울산광역시 북구 화산로 36, 206동 (화봉동, 화봉2주공아파트)",
    "lat": 35.59504774001534,
    "lng": 129.3663426361494,
    "region": "울산광역시"
  },
  {
    "name": "화봉휴먼시아1단지 전체동의 지하주차장 1층",
    "address": "울산광역시 북구 화산로 33, 101동 (화봉동, 화봉1주공아파트)",
    "lat": 35.595150022107035,
    "lng": 129.36596972514135,
    "region": "울산광역시"
  },
  {
    "name": "화봉휴먼시아3단지 전체동의 지하주차장 1층",
    "address": "울산광역시 북구 화산로 19, 303동 (화봉동, 화봉휴먼시아아파트)",
    "lat": 35.59369219859169,
    "lng": 129.36522559505062,
    "region": "울산광역시"
  },
  {
    "name": "천곡벽산블루밍 전체동의 지하주차장 1~2층",
    "address": "울산광역시 북구 천곡길 137 (천곡동)",
    "lat": 35.638703046649,
    "lng": 129.32991250675556,
    "region": "울산광역시"
  },
  {
    "name": "달천아이파크1단지아파트 전체동의 지하주차장 1~2층",
    "address": "울산광역시 북구 달천로 50 (달천동, 달천아이파크1차)",
    "lat": 35.634370802608835,
    "lng": 129.3304988193379,
    "region": "울산광역시"
  },
  {
    "name": "달천아이파크2단지아파트 전체동의 지하주차장 1~2층",
    "address": "울산광역시 북구 달천로 103-19 (달천동, 달천아이파크2차)",
    "lat": 35.632833559182885,
    "lng": 129.32721356670126,
    "region": "울산광역시"
  },
  {
    "name": "달천아이파크3단지아파트 전체동의 지하주차장 1~2층",
    "address": "울산광역시 북구 달천로 103-20 (달천동, 달천아이파크2차)",
    "lat": 35.63268591947301,
    "lng": 129.3268496001517,
    "region": "울산광역시"
  },
  {
    "name": "새천곡한신휴플러스1단지 전체동의 지하주차장 1~2층",
    "address": "울산광역시 북구 천곡남로 97 (천곡동, 새천곡한신휴플러스)",
    "lat": 35.636838760125514,
    "lng": 129.33158465269526,
    "region": "울산광역시"
  },
  {
    "name": "새천곡한신휴플러스2단지 전체동의 지하주차장 1~4층",
    "address": "울산광역시 북구 천곡남로 95 (천곡동, 새천곡한신휴플러스)",
    "lat": 35.6366239711815,
    "lng": 129.3316280025591,
    "region": "울산광역시"
  },
  {
    "name": "블루마시티푸르지오1차  전체동의 지하주차장 1층~2층",
    "address": "울산광역시 북구 강동산하5로 66, 101동 (산하동, 울산블루마시티푸르지오)",
    "lat": 35.63725497413278,
    "lng": 129.4350796733793,
    "region": "울산광역시"
  },
  {
    "name": "블루마시티푸르지오2차  전체동의 지하주차장 1층~2층",
    "address": "울산광역시 북구 강동산하2로 43, 101동 (산하동, 울산블루마시티2차푸르지오)",
    "lat": 35.62529522515535,
    "lng": 129.43725725418705,
    "region": "울산광역시"
  },
  {
    "name": "호계1차 한양수자인 아파트 102동 지하주차장 1층",
    "address": "울산광역시 북구 호수중앙로 46 (호계동, 한양수자인1차)",
    "lat": 35.622789618462946,
    "lng": 129.36017202465945,
    "region": "울산광역시"
  },
  {
    "name": "효문코오롱하늘채 전체동의 지하주차장 1층~2층",
    "address": "울산광역시 북구 율동2길 8 (효문동, 효문코오롱하늘채)",
    "lat": 35.560478473013134,
    "lng": 129.37518525891753,
    "region": "울산광역시"
  },
  {
    "name": "오토밸리복지센터 지하주차장 1층",
    "address": "울산광역시 북구 산업로 1020 (연암동, 오토벨리복지센터)",
    "lat": 35.58435802662228,
    "lng": 129.36021730377533,
    "region": "울산광역시"
  },
  {
    "name": "송정LH1단지아파트 지하주차장 1층",
    "address": "울산광역시 북구 박상진4로 56 (화봉동, 울산송정엘에이치1단지)",
    "lat": 35.6003126635494,
    "lng": 129.367675384358,
    "region": "울산광역시"
  },
  {
    "name": "송정반도유보라아이비파크 지하주차장 1층",
    "address": "울산광역시 북구 화산로 104 (송정동, 반도유보라 아이비파크)",
    "lat": 35.6013170856682,
    "lng": 129.366244484852,
    "region": "울산광역시"
  },
  {
    "name": "송정금강펜테리움2차아파트 지하주차장 1층",
    "address": "울산광역시 북구 박상진3로 55 (송정동, 울산송정금강펜테리움그린테라스2차)",
    "lat": 35.603638487932,
    "lng": 129.366599771216,
    "region": "울산광역시"
  },
  {
    "name": "송정한양수자인아파트 지하주차장 1층",
    "address": "울산광역시 북구 박상진3로 25 (송정동, 울산송정 한양수자인)",
    "lat": 35.6029725225575,
    "lng": 129.363535807837,
    "region": "울산광역시"
  },
  {
    "name": "송정제일풍경채아파트 지하주차장 1층",
    "address": "울산광역시 북구 박상진3로 73 (송정동, 울산송정 제일풍경채 레이크뷰)",
    "lat": 35.6040189512244,
    "lng": 129.368698696924,
    "region": "울산광역시"
  },
  {
    "name": "세명다이아몬드아파트 지하주차장 1층",
    "address": "울산광역시 울주군 언양읍 서문7길 18",
    "lat": 35.56724537478486,
    "lng": 129.11974657094424,
    "region": "울산광역시"
  },
  {
    "name": "상아대안1차아파트 지하주차장 1층",
    "address": "울산광역시 울주군 온양읍 연안1길 3 (상아해미안아파트)",
    "lat": 35.40993517869085,
    "lng": 129.28199756852618,
    "region": "울산광역시"
  },
  {
    "name": "범서현대3차아파트 301동 앞 지하주차장 1층",
    "address": "울산광역시 울주군 범서읍 점촌4길 65 (범서현대아파트 301동 앞)",
    "lat": 35.57114376333375,
    "lng": 129.24149131227847,
    "region": "울산광역시"
  },
  {
    "name": "한신아파트 202동 옆 지하주차장 1층",
    "address": "울산광역시 울주군 범서읍 점촌4길 77 (한신아파트 202동 옆)",
    "lat": 35.57212711907625,
    "lng": 129.2411085856007,
    "region": "울산광역시"
  },
  {
    "name": "반천현대아파트 전체 동의 지하주차장 1층",
    "address": "울산광역시 울주군 언양읍 반천강변길 51 (현대아파트)",
    "lat": 35.55877407983435,
    "lng": 129.18988497158836,
    "region": "울산광역시"
  },
  {
    "name": "온산프라자 지하주차장 1층~2층",
    "address": "울산광역시 울주군 온산읍 덕신로 217",
    "lat": 35.43424436215805,
    "lng": 129.30545844534404,
    "region": "울산광역시"
  },
  {
    "name": "대안현대아파트101동 지하주차장 1층~2층",
    "address": "울산광역시 울주군 온양읍 남창강변로 93(현대아파트)",
    "lat": 35.412461024532,
    "lng": 129.28483656154015,
    "region": "울산광역시"
  },
  {
    "name": "반송대방아파트 전체 동의 지하주차장 1층",
    "address": "울산광역시 울주군 언양읍 언양로 422 (반송대방아파트)",
    "lat": 35.54925502602848,
    "lng": 129.16653848736328,
    "region": "울산광역시"
  },
  {
    "name": "삼성아파트 전체 동의 지하주차장 1층",
    "address": "울산광역시 울주군 언양읍 웃방천1길 33 (삼성아파트)",
    "lat": 35.567778864630824,
    "lng": 129.11240105248783,
    "region": "울산광역시"
  },
  {
    "name": "대안현대아파트105동 지하주차장 1층",
    "address": "울산광역시 울주군 온양읍 남창강변로 102(현대아파트)",
    "lat": 35.41172139844543,
    "lng": 129.28542634844246,
    "region": "울산광역시"
  },
  {
    "name": "언양농협 지하주차장 1층",
    "address": "울산광역시 울주군 언양읍 헌양길 37",
    "lat": 35.564825820790034,
    "lng": 129.12520883499425,
    "region": "울산광역시"
  },
  {
    "name": "신한다솜아파트 중앙광장 지하주차장 1층",
    "address": "울산광역시 울주군 범서읍 천상2길 16 (신한다솜아파트 중앙광장)",
    "lat": 35.562709575469995,
    "lng": 129.2291055162258,
    "region": "울산광역시"
  },
  {
    "name": "언양한라빌리지 지하주차장 1층",
    "address": "울산광역시 울주군 언양읍 헌양길 189 (언양한라빌리지)",
    "lat": 35.56769001189987,
    "lng": 129.1162251645352,
    "region": "울산광역시"
  },
  {
    "name": "산정동부빌라트 지하주차장 1층",
    "address": "울산광역시 울주군 언양읍 동부2길 45 (산정동부빌라트)",
    "lat": 35.56953083439216,
    "lng": 129.12745657168475,
    "region": "울산광역시"
  },
  {
    "name": "대우아파트107동 지하주차장 1층",
    "address": "울산광역시 울주군 온양읍 솔밭1길 12(울산온양대우아파트)",
    "lat": 35.40802809863101,
    "lng": 129.2871326158887,
    "region": "울산광역시"
  },
  {
    "name": "신한디아채아파트 102동 앞 지하주차장 1층",
    "address": "울산광역시 울주군 범서읍 점촌5길 51-3 (신한디아채 102동 앞)",
    "lat": 35.56979801733787,
    "lng": 129.2375518233681,
    "region": "울산광역시"
  },
  {
    "name": "한라그린피스맨션 중앙광장 지하주차장 1층",
    "address": "울산광역시 울주군 범서읍 천상3길 20 (한라그린피스맨션 중앙광장)",
    "lat": 35.56249764950393,
    "lng": 129.22771080998623,
    "region": "울산광역시"
  },
  {
    "name": "천상동아아파트 중앙광장 지하주차장 1층",
    "address": "울산광역시 울주군 범서읍 대동길 34 (천상동아아파트 중앙광장)",
    "lat": 35.56115774320859,
    "lng": 129.23069056931794,
    "region": "울산광역시"
  },
  {
    "name": "천상청구그린타운 103동 앞 지하주차장 1층",
    "address": "울산광역시 울주군 범서읍 평천길 94 (천상청구그린타운 103동 앞)",
    "lat": 35.56393981227538,
    "lng": 129.22300127275864,
    "region": "울산광역시"
  },
  {
    "name": "대우아파트109동 지하주차장 1층",
    "address": "울산광역시 울주군 온양읍 솔밭1길 12(울산온양대우아파트)",
    "lat": 35.40802809863101,
    "lng": 129.2871326158887,
    "region": "울산광역시"
  },
  {
    "name": "언양동부주공아파트 104동 지하주차장 1층",
    "address": "울산광역시 울주군 언양읍 북문8길 17 (언양동부주공아파트)",
    "lat": 35.571794288866506,
    "lng": 129.12260767446568,
    "region": "울산광역시"
  },
  {
    "name": "천상벽산아파트 전체 동의 지하주차장 2층",
    "address": "울산광역시 울주군 범서읍 천상길 55 (천상벽산아파트 도로변 입구)",
    "lat": 35.56066918409994,
    "lng": 129.22581923414327,
    "region": "울산광역시"
  },
  {
    "name": "회야리버아파트101동 지하주차장 1층",
    "address": "울산광역시 울주군 온양읍 원동2길 19-1(회야리버아파트)",
    "lat": 35.458003523966504,
    "lng": 129.2925520574323,
    "region": "울산광역시"
  },
  {
    "name": "회야리버아파트106동 지하주차장 1층",
    "address": "울산광역시 울주군 온양읍 원동2길 19-2(회야리버아파트)",
    "lat": 35.45797469388236,
    "lng": 129.2926650312428,
    "region": "울산광역시"
  },
  {
    "name": "천상국태그린빌아파트 중앙광장 지하주차장 1층",
    "address": "울산광역시 울주군 범서읍 천상4길 4 (천상국태그린빌아파트 중앙광장)",
    "lat": 35.56361639205996,
    "lng": 129.22594433341473,
    "region": "울산광역시"
  },
  {
    "name": "경동태원하이빌아파트 107동 앞 지하주차장",
    "address": "울산광역시 울주군 범서읍 천상길 43 (경동태원하이빌아파트 107동 앞)",
    "lat": 35.561136696820164,
    "lng": 129.22683492539798,
    "region": "울산광역시"
  },
  {
    "name": "굴화주공강변그린빌303동 앞 지하주차장 1층",
    "address": "울산광역시 울주군 범서읍 울밀로 2879-7 (굴화주공강변그린빌3단지 303동 앞)",
    "lat": 35.55687156667888,
    "lng": 129.2630793873942,
    "region": "울산광역시"
  },
  {
    "name": "굴화주공강변그린빌307동 앞 지하주차장 1층",
    "address": "울산광역시 울주군 범서읍 울밀로 2879-7 (굴화주공강변그린빌3단지 307동 앞)",
    "lat": 35.55687156667888,
    "lng": 129.2630793873942,
    "region": "울산광역시"
  },
  {
    "name": "굴화주공강변그린빌406동 앞 지하주차장 1층",
    "address": "울산광역시 울주군 범서읍 울밀로 2879-8 (굴화주공강변그린빌4단지 406동 앞)",
    "lat": 35.55669484229676,
    "lng": 129.2633518001187,
    "region": "울산광역시"
  },
  {
    "name": "온양문화복지센터 지하주차장 1층",
    "address": "울산광역시 울주군 온양읍 남창1길 13",
    "lat": 35.41934376680243,
    "lng": 129.28128297969917,
    "region": "울산광역시"
  },
  {
    "name": "구영주공1단지아파트 106동 앞 지하주차장 1층",
    "address": "울산광역시 울주군 범서읍 대리로 43 (구영1주공아파트 106동 앞)",
    "lat": 35.57064553330856,
    "lng": 129.24738201914806,
    "region": "울산광역시"
  },
  {
    "name": "구영지구푸르지오1단지아파트 101동 앞 지하주차장 1층",
    "address": "울산광역시 울주군 범서읍 대리2길 48 (구영지구푸르지오1단지 101동 앞)",
    "lat": 35.57059531251024,
    "lng": 129.24500083556052,
    "region": "울산광역시"
  },
  {
    "name": "구영지구푸르지오2단지아파트 105동 앞 지하주차장 1층",
    "address": "울산광역시 울주군 범서읍 대리2길 48 (구영지구푸르지오2단지 105동 앞)",
    "lat": 35.57059531251024,
    "lng": 129.24500083556052,
    "region": "울산광역시"
  },
  {
    "name": "구영2차푸르지오아파트 503동 앞 지하주차장 1층",
    "address": "울산광역시 울주군 범서읍 구영로 101-7 (구영2차푸르지오 503동 앞)",
    "lat": 35.57395478227078,
    "lng": 129.2427677733152,
    "region": "울산광역시"
  },
  {
    "name": "구영우미린1차아파트 309동 앞 지하주차장 1층",
    "address": "울산광역시 울주군 범서읍 구영로 75-9 (구영1차우미린아파트 309동 앞)",
    "lat": 35.57619773152178,
    "lng": 129.24204790840673,
    "region": "울산광역시"
  },
  {
    "name": "신울산경남아너스빌아파트 103동 지하주차장 1층~2층",
    "address": "울산광역시 울주군 언양읍 북문11길 9 (신울산 경남아너스빌)",
    "lat": 35.572253589416334,
    "lng": 129.12524727455653,
    "region": "울산광역시"
  },
  {
    "name": "서울산두산위브아파트 104동 지하주차장 1층",
    "address": "울산광역시 울주군 언양읍 헌양길 202 (서울산 두산위브)",
    "lat": 35.568329099065245,
    "lng": 129.11579413260318,
    "region": "울산광역시"
  },
  {
    "name": "서울산한신휴플러스아파트 전동 지하주차장 1층~2층",
    "address": "울산광역시 울주군 언양읍 웃방천1길 48 (서울산한신휴플러스)",
    "lat": 35.5684851662846,
    "lng": 129.1133585426581,
    "region": "울산광역시"
  },
  {
    "name": "문수마을동문굿모닝힐아파트 전체 동의 지하주차장 1층",
    "address": "울산광역시 울주군 범서읍 장검길 123 (문수마을동문굿모닝힐 도로변 입구)",
    "lat": 35.54858277204083,
    "lng": 129.2509987644451,
    "region": "울산광역시"
  },
  {
    "name": "문수산더샵아파트 전체 동의 지하주차장 1층",
    "address": "울산광역시 울주군 범서읍 장검길 88 (울산문수산더샵)",
    "lat": 35.551452045416454,
    "lng": 129.2511981020723,
    "region": "울산광역시"
  },
  {
    "name": "청구제네스아파트 101동 뒤 지하주차장 1층",
    "address": "울산광역시 울주군 범서읍 천상5길 22-5 (청구제네스 101동 뒤)",
    "lat": 35.5616220929091,
    "lng": 129.22462159326852,
    "region": "울산광역시"
  },
  {
    "name": "구영주공2단지아파트 201동 지하주차장 1층",
    "address": "울산광역시 울주군 범서읍 점촌3길 23 (구영2주공아파트)",
    "lat": 35.57277391050392,
    "lng": 129.23925828224455,
    "region": "울산광역시"
  },
  {
    "name": "구영동문굿모닝힐아파트 105동 옆 지하주차장 1층",
    "address": "울산광역시 울주군 범서읍 구영로 75-25 (동문굿모닝힐 105동 옆)",
    "lat": 35.576673405790494,
    "lng": 129.2437869825214,
    "region": "울산광역시"
  },
  {
    "name": "문수애시앙아파트 301동 지하주차장 1층",
    "address": "울산광역시 울주군 범서읍 대동길 21 (문수애시앙 301동)",
    "lat": 35.561745293216376,
    "lng": 129.23220031482958,
    "region": "울산광역시"
  },
  {
    "name": "굴화강변월드메르디앙아파트 전체 동의 지하주차장",
    "address": "울산광역시 울주군 범서읍 굴화1길 55 (굴화강변월드메르디앙 후문 입구)",
    "lat": 35.55599105179592,
    "lng": 129.2598184088238,
    "region": "울산광역시"
  },
  {
    "name": "호반베르디움아파트 106동 앞 지하주차장",
    "address": "울산광역시 울주군 범서읍 대리로 15-12 (호반베르디움 106동 앞)",
    "lat": 35.57279493365474,
    "lng": 129.2444544333141,
    "region": "울산광역시"
  },
  {
    "name": "구영우미린2차아파트 703동 앞 지하주차장 1층",
    "address": "울산광역시 울주군 범서읍 대리로 15-17 (구영2차우미린아파트 703동 앞)",
    "lat": 35.573069206497266,
    "lng": 129.2440635929602,
    "region": "울산광역시"
  },
  {
    "name": "고려아연사원아파트 전체동의 지하주차장 1층",
    "address": "울산광역시 울주군 온산읍 서영남1길 18 (고려아연사원아파트 102동 앞)",
    "lat": 35.43538001958452,
    "lng": 129.30614525534244,
    "region": "울산광역시"
  },
  {
    "name": "풍경채아파트 101동 뒤 지하주차장 1층",
    "address": "울산광역시 울주군 범서읍 구영로 75-26 (풍경채 101동 뒤)",
    "lat": 35.57639591840634,
    "lng": 129.24382459778292,
    "region": "울산광역시"
  },
  {
    "name": "문수데시앙2단지아파트 전체동의 지하주차장 1층",
    "address": "울산광역시 울주군 청량읍 율리영해2길 7 (문수데시앙2단지아파트)",
    "lat": 35.52629567793177,
    "lng": 129.24248284972563,
    "region": "울산광역시"
  },
  {
    "name": "문수데시앙3단지아파트 전체동의 지하주차장 1층~2층",
    "address": "울산광역시 울주군 청량읍 율리영해로 13-9 (문수데시앙3단지아파트)",
    "lat": 35.5260139066674,
    "lng": 129.2437893546982,
    "region": "울산광역시"
  },
  {
    "name": "쌍용하나빌리지 3단지 전체동의 지하주차장 1층",
    "address": "울산광역시 울주군 청량읍 삼정로 92 (쌍용하나빌리지)",
    "lat": 35.4957188266729,
    "lng": 129.23759689635,
    "region": "울산광역시"
  },
  {
    "name": "울주상남골드클래스 전체동의 지하주차장 1층~2층",
    "address": "울산광역시 울주군 청량읍 상남길 25 (울주상남골드클래스)",
    "lat": 35.48385674538466,
    "lng": 129.30530240164097,
    "region": "울산광역시"
  },
  {
    "name": "울산교동리슈빌아파트 전체 동의 지하주차장 1~2층",
    "address": "울산광역시 울주군 삼남읍 향교로 164(울산 교동 리슈빌아파트)",
    "lat": 35.56227027692013,
    "lng": 129.11292447909472,
    "region": "울산광역시"
  },
  {
    "name": "수산로얄팰리스아파트 1동 지하주차장 1층",
    "address": "울산광역시 울주군 삼남읍 작괘들길 17(수산로얄팰리스)",
    "lat": 35.54176949653014,
    "lng": 129.10724372737954,
    "region": "울산광역시"
  },
  {
    "name": "e편한세상울산역어반스퀘어 전동 지하주차장 1층~2층",
    "address": "울산광역시 울주군 언양읍 언양로 77 (e편한세상울산역어반스퀘어아파트)",
    "lat": 35.559852450177104,
    "lng": 129.13487825577266,
    "region": "울산광역시"
  },
  {
    "name": "양우내안애더퍼스트아파트 전동 지하주차장 2층~5층",
    "address": "울산광역시 울주군 언양읍 내곡능골길 93-20 (양우내안애 더퍼스트 아파트)",
    "lat": 35.58112066601355,
    "lng": 129.12238793416662,
    "region": "울산광역시"
  },
  {
    "name": "e편한세상울산역어반스퀘어(지하2층)",
    "address": "울산광역시 울주군 언양읍 언양로 77 (e편한세상울산역어반스퀘어아파트)",
    "lat": 35.559852450469,
    "lng": 129.134878255823,
    "region": "울산광역시"
  },
  {
    "name": "양우내안애 더퍼스트(지하-동별상이)",
    "address": "울산광역시 울주군 언양읍 내곡능골길 93-20 (양우내안애 더퍼스트 아파트)",
    "lat": 35.5811206663024,
    "lng": 129.122387934218,
    "region": "울산광역시"
  },
  {
    "name": "진하비취아파트 지하주차장",
    "address": "울산광역시 울주군 서생면 진하8길 25 (진하비취아파트)",
    "lat": 35.3868915184578,
    "lng": 129.346385309645,
    "region": "울산광역시"
  },
  {
    "name": "문수마을 수필 지하주차장",
    "address": "울산광역시 울주군 범서읍 장검길 122 (문수마을 수필아파트)",
    "lat": 35.5489731940545,
    "lng": 129.250627820755,
    "region": "울산광역시"
  },
  {
    "name": "문수산 푸르지오 지하주차장",
    "address": "울산광역시 울주군 범서읍 장검길 48 (문수산 푸르지오)",
    "lat": 35.5547447004514,
    "lng": 129.253474549611,
    "region": "울산광역시"
  },
  {
    "name": "문수산 동원로얄듀크 지하주차장",
    "address": "울산광역시 울주군 범서읍 장검길 60 (문수산동원로얄듀크)",
    "lat": 35.5536776500023,
    "lng": 129.252308534481,
    "region": "울산광역시"
  },
  {
    "name": "e편한세상 서울산 파크그란데 지하주차장",
    "address": "울산광역시 울주군 상북면 거리1길 77",
    "lat": 35.597925277582,
    "lng": 129.0731422266,
    "region": "울산광역시"
  },
  {
    "name": "e편한세상울산온양 지하주차장",
    "address": "울산광역시 울주군 온양읍 망양길 50 (e편한세상 울산온양)",
    "lat": 35.4530696759683,
    "lng": 129.297315740751,
    "region": "울산광역시"
  },
  {
    "name": "울산온양일동미라주아파트 지하주차장",
    "address": "울산광역시 울주군 온양읍 대안3길 46 (일동미라주더스타)",
    "lat": 35.4112098770877,
    "lng": 129.282980530097,
    "region": "울산광역시"
  },
  {
    "name": "여울목아파트 지하주차장",
    "address": "울산광역시 울주군 온양읍 솔밭3길 19-10 (여울목아파트)",
    "lat": 35.4060507234756,
    "lng": 129.291040093662,
    "region": "울산광역시"
  },
  {
    "name": "신일해피트리 지하주차장",
    "address": "울산광역시 울주군 청량읍 삼정로 811 (울산덕하 신일해피트리)",
    "lat": 35.4876007619421,
    "lng": 129.303023142634,
    "region": "울산광역시"
  },
  {
    "name": "울산뉴시티에일린의뜰 1차 지하주차장",
    "address": "울산광역시 울주군 청량읍 덕하1로 25 (울산뉴시티에일린의뜰1차아파트)",
    "lat": 35.4830996365143,
    "lng": 129.300714797604,
    "region": "울산광역시"
  },
  {
    "name": "덕하한양수자인 지하주차장",
    "address": "울산광역시 울주군 청량읍 덕하로 182 (덕하한양수자인)",
    "lat": 35.4884653243768,
    "lng": 129.301091402592,
    "region": "울산광역시"
  }
]