[
  {
    "name": "다대고등학교운동장",
    "address": "부산광역시 사하구 다대동 1551",
    "lat": "35.05257153565273",
    "lng": "128.96968603134167",
    "region": "부산광역시"
  },
  {
    "name": "광남초등학교 운동장",
    "address": "부산광역시 수영구 남천동 147",
    "lat": "35.14514343048408",
    "lng": "129.11426782608208",
    "region": "부산광역시"
  },
  {
    "name": "민락초등학교 운동장",
    "address": "부산광역시 수영구 민락동 2",
    "lat": "35.160507768158475",
    "lng": "129.12721216678804",
    "region": "부산광역시"
  },
  {
    "name": "한바다중학교 운동장",
    "address": "부산광역시 수영구 광안동 154-1",
    "lat": "35.15703649829417",
    "lng": "129.11826192341587",
    "region": "부산광역시"
  },
  {
    "name": "보수초등학교 운동장",
    "address": "부산광역시 중구 보수동1가 50-1",
    "lat": "35.10588522978146",
    "lng": "129.02421895818253",
    "region": "부산광역시"
  },
  {
    "name": "광안중학교 운동장",
    "address": "부산광역시 수영구 광안동 977-1",
    "lat": "35.16768235410118",
    "lng": "129.10522878170187",
    "region": "부산광역시"
  },
  {
    "name": "부산남고등학교 운동장",
    "address": "부산광역시 영도구 동삼동 592",
    "lat": "35.069791777667525",
    "lng": "129.0658551172196",
    "region": "부산광역시"
  },
  {
    "name": "영도초등학교 운동장",
    "address": "부산광역시 영도구 신선동1가 100",
    "lat": "35.090034072974454",
    "lng": "129.0460697039844",
    "region": "부산광역시"
  },
  {
    "name": "감천중학교운동장",
    "address": "부산광역시 사하구 감천동 632-4",
    "lat": "35.09261473145046",
    "lng": "128.99998573447743",
    "region": "부산광역시"
  },
  {
    "name": "덕문여자고등학교 운동장",
    "address": "부산광역시 수영구 광안동 산8-8",
    "lat": "35.16679214341875",
    "lng": "129.10403788089923",
    "region": "부산광역시"
  },
  {
    "name": "부산수영중학교 운동장",
    "address": "부산광역시 수영구 광안동 732",
    "lat": "35.15734127649885",
    "lng": "129.1097027063387",
    "region": "부산광역시"
  },
  {
    "name": "송정중학교 운동장",
    "address": "부산광역시 강서구 송정동 1437-19",
    "lat": "35.1066052625924",
    "lng": "128.84244328634784",
    "region": "부산광역시"
  },
  {
    "name": "녹산중학교 운동장",
    "address": "부산광역시 강서구 녹산동 124-2",
    "lat": "35.11811890534002",
    "lng": "128.88873850717235",
    "region": "부산광역시"
  },
  {
    "name": "강서고등학교 운동장",
    "address": "부산광역시 강서구 대저1동 421-3",
    "lat": "35.21564722075979",
    "lng": "128.98228168488114",
    "region": "부산광역시"
  },
  {
    "name": "혜화초등학교 운동장",
    "address": "부산광역시 동래구 명장동 산12",
    "lat": "35.202218892174535",
    "lng": "129.11265589410874",
    "region": "부산광역시"
  },
  {
    "name": "반송중학교운동장",
    "address": "부산광역시 해운대구 반송동 418-4",
    "lat": "35.23455182343791",
    "lng": "129.15208697319",
    "region": "부산광역시"
  },
  {
    "name": "센텀고등학교운동장",
    "address": "부산광역시 해운대구 재송동 1222",
    "lat": "35.17667586735937",
    "lng": "129.12755613713438",
    "region": "부산광역시"
  },
  {
    "name": "반안중학교운동장",
    "address": "부산광역시 해운대구 반여동 1164-4",
    "lat": "35.20346250556319",
    "lng": "129.11289453507126",
    "region": "부산광역시"
  },
  {
    "name": "양운중학교운동장",
    "address": "부산광역시 해운대구 좌동 1373",
    "lat": "35.17511062878418",
    "lng": "129.16736483573686",
    "region": "부산광역시"
  },
  {
    "name": "장산초등학교운동장",
    "address": "부산광역시 해운대구 반여동 1449-5",
    "lat": "35.19965769472776",
    "lng": "129.1197073459642",
    "region": "부산광역시"
  },
  {
    "name": "동신중학교 운동장",
    "address": "부산광역시 동래구 명장동 26-1",
    "lat": "35.2057088860204",
    "lng": "129.09790887692142",
    "region": "부산광역시"
  },
  {
    "name": "충렬고등학교 운동장",
    "address": "부산광역시 동래구 명장동 151-5",
    "lat": "35.20245838985354",
    "lng": "129.10993344474034",
    "region": "부산광역시"
  },
  {
    "name": "명장초등학교 운동장",
    "address": "부산광역시 동래구 명장동 273-1",
    "lat": "35.20797793629116",
    "lng": "129.09679457136443",
    "region": "부산광역시"
  },
  {
    "name": "부흥중학교운동장",
    "address": "부산광역시 해운대구 좌동 1304",
    "lat": "35.174772994659406",
    "lng": "129.17917191982772",
    "region": "부산광역시"
  },
  {
    "name": "해운대고등학교운동장",
    "address": "부산광역시 해운대구 우동 278-3",
    "lat": "35.17216834141302",
    "lng": "129.1634005308189",
    "region": "부산광역시"
  },
  {
    "name": "부산대신중학교 운동장",
    "address": "부산광역시 서구 서대신동3가 92",
    "lat": "35.117724248910065",
    "lng": "129.0138848031519",
    "region": "부산광역시"
  },
  {
    "name": "호암근린공원",
    "address": "부산광역시 수영구 광안동 743-5",
    "lat": "35.158280364424364",
    "lng": "129.11153576150755",
    "region": "부산광역시"
  },
  {
    "name": "늘푸른어린이공원",
    "address": "부산광역시 수영구 남천동 152",
    "lat": "35.14175487288391",
    "lng": "129.11348018797133",
    "region": "부산광역시"
  },
  {
    "name": "과정공원",
    "address": "부산광역시 수영구 망미동 417-1",
    "lat": "35.174670973606965",
    "lng": "129.1085367037595",
    "region": "부산광역시"
  },
  {
    "name": "서감초등학교 운동장",
    "address": "부산광역시 사상구 감전동 122-1",
    "lat": "35.15743358446672",
    "lng": "128.98205644348332",
    "region": "부산광역시"
  },
  {
    "name": "학장중학교 운동장",
    "address": "부산광역시 사상구 학장동 574-116",
    "lat": "35.13790077700448",
    "lng": "128.98256096241",
    "region": "부산광역시"
  },
  {
    "name": "한마음공원",
    "address": "부산광역시 연제구 거제동 1482-1",
    "lat": "35.19367807578362",
    "lng": "129.07263098593327",
    "region": "부산광역시"
  },
  {
    "name": "송도초등학교 운동장",
    "address": "부산광역시 서구 암남동 313",
    "lat": "35.07831211029459",
    "lng": "129.01565182030984",
    "region": "부산광역시"
  },
  {
    "name": "동래중학교 운동장",
    "address": "부산광역시 동래구 명륜동 652-24",
    "lat": "35.20875989503711",
    "lng": "129.08017897997505",
    "region": "부산광역시"
  },
  {
    "name": "사직중학교 운동장",
    "address": "부산광역시 동래구 사직동 598-1",
    "lat": "35.19941532119353",
    "lng": "129.0521788457224",
    "region": "부산광역시"
  },
  {
    "name": "금명여자고등학교운동장",
    "address": "부산광역시 북구 화명동 307",
    "lat": "35.244589097407875",
    "lng": "129.02441949297628",
    "region": "부산광역시"
  },
  {
    "name": "만덕고등학교운동장",
    "address": "부산광역시 북구 만덕동 948",
    "lat": "35.20183585882727",
    "lng": "129.0340483895918",
    "region": "부산광역시"
  },
  {
    "name": "백양중학교운동장",
    "address": "부산광역시 북구 만덕동 878",
    "lat": "35.20758868986914",
    "lng": "129.0412243691012",
    "region": "부산광역시"
  },
  {
    "name": "상학초등학교운동장",
    "address": "부산광역시 북구 만덕동 570",
    "lat": "35.21890746976442",
    "lng": "129.03979331850437",
    "region": "부산광역시"
  },
  {
    "name": "양천초등학교운동장",
    "address": "부산광역시 북구 덕천동 132-59",
    "lat": "35.20966014280263",
    "lng": "129.01864395319384",
    "region": "부산광역시"
  },
  {
    "name": "금천어린이공원",
    "address": "부산광역시 금정구 금사동 25-5",
    "lat": "35.22386003166446",
    "lng": "129.11472951099043",
    "region": "부산광역시"
  },
  {
    "name": "구서여자중학교 운동장",
    "address": "부산광역시 금정구 구서동 704",
    "lat": "35.24871354794307",
    "lng": "129.08621334556761",
    "region": "부산광역시"
  },
  {
    "name": "조리2어린이공원",
    "address": "부산광역시 금정구 두구동 1210-1",
    "lat": "35.30326458148488",
    "lng": "129.11257601692614",
    "region": "부산광역시"
  },
  {
    "name": "화잠초등학교운동장",
    "address": "부산광역시 북구 화명동 732-1",
    "lat": "35.23587417883106",
    "lng": "129.0173620868983",
    "region": "부산광역시"
  },
  {
    "name": "동성초등학교운동장",
    "address": "부산광역시 부산진구 전포동 358-56",
    "lat": "35.15269622975685",
    "lng": "129.06901988582666",
    "region": "부산광역시"
  },
  {
    "name": "성지초등학교운동장",
    "address": "부산광역시 부산진구 범전동 229-9",
    "lat": "35.16419161994871",
    "lng": "129.05683368444588",
    "region": "부산광역시"
  },
  {
    "name": "동의고등학교운동장",
    "address": "부산광역시 부산진구 전포동 12-59",
    "lat": "35.164327568429464",
    "lng": "129.07104134559785",
    "region": "부산광역시"
  },
  {
    "name": "수성초등학교 운동장",
    "address": "부산광역시 동구 수정동 488-3",
    "lat": "35.134594040914315",
    "lng": "129.0430650210645",
    "region": "부산광역시"
  },
  {
    "name": "토현초등학교 운동장 ",
    "address": "부산광역시 연제구 연산동 2219-1",
    "lat": "35.181656945759286",
    "lng": "129.1119986772555",
    "region": "부산광역시"
  },
  {
    "name": "명호초등학교 운동장",
    "address": "부산광역시 강서구 명지동 3232-6",
    "lat": "35.085107883317825",
    "lng": "128.89979302882801",
    "region": "부산광역시"
  },
  {
    "name": "주례중학교 운동장",
    "address": "부산광역시 사상구 주례동 55-33",
    "lat": "35.14785366009086",
    "lng": "129.0140045380905",
    "region": "부산광역시"
  },
  {
    "name": "연신초등학교 운동장",
    "address": "부산광역시 연제구 연산동 302-1",
    "lat": "35.19211768127864",
    "lng": "129.0938293933885",
    "region": "부산광역시"
  },
  {
    "name": "감전초등학교 운동장",
    "address": "부산광역시 사상구 감전동 119-6",
    "lat": "35.155787817481475",
    "lng": "128.98827949400078",
    "region": "부산광역시"
  },
  {
    "name": "부경고등학교 운동장",
    "address": "부산광역시 서구 서대신동3가 521",
    "lat": "35.114421018855346",
    "lng": "129.01325340691972",
    "region": "부산광역시"
  },
  {
    "name": "천마초등학교 운동장",
    "address": "부산광역시 서구 암남동 81-11",
    "lat": "35.08138094400468",
    "lng": "129.01836007833492",
    "region": "부산광역시"
  },
  {
    "name": "동양초등학교운동장",
    "address": "부산광역시 부산진구 부암동 719",
    "lat": "35.17645125215304",
    "lng": "129.03076788142982",
    "region": "부산광역시"
  },
  {
    "name": "주원초등학교운동장",
    "address": "부산광역시 부산진구 개금동 565-14",
    "lat": "35.14689037734366",
    "lng": "129.0206180054002",
    "region": "부산광역시"
  },
  {
    "name": "초읍중학교운동장",
    "address": "부산광역시 부산진구 초읍동 510-1",
    "lat": "35.1805382166375",
    "lng": "129.05628334889437",
    "region": "부산광역시"
  },
  {
    "name": "금정고등학교 운동장",
    "address": "부산광역시 동래구 명장동 432",
    "lat": "35.206886172298596",
    "lng": "129.10724929874496",
    "region": "부산광역시"
  },
  {
    "name": "대명여자고등학교 운동장",
    "address": "부산광역시 동래구 명장동 533",
    "lat": "35.211528046764826",
    "lng": "129.09645995872572",
    "region": "부산광역시"
  },
  {
    "name": "동백중학교운동장",
    "address": "부산광역시 해운대구 중동 750-10",
    "lat": "35.165415148094425",
    "lng": "129.1739469766638",
    "region": "부산광역시"
  },
  {
    "name": "사랑공원",
    "address": "부산광역시 북구 금곡동 1107",
    "lat": "35.25425367093644",
    "lng": "129.0141490101827",
    "region": "부산광역시"
  },
  {
    "name": "가산초등학교운동장",
    "address": "부산광역시 부산진구 가야동 464-99",
    "lat": "35.14626781025576",
    "lng": "129.035631889674",
    "region": "부산광역시"
  },
  {
    "name": "양동여자중학교운동장",
    "address": "부산광역시 부산진구 양정동 25-1",
    "lat": "35.170315063412076",
    "lng": "129.0806509623603",
    "region": "부산광역시"
  },
  {
    "name": "연지어린이공원",
    "address": "부산광역시 부산진구 연지동 48",
    "lat": "35.17301913979271",
    "lng": "129.0557187115906",
    "region": "부산광역시"
  },
  {
    "name": "해강고등학교운동장",
    "address": "부산광역시 해운대구 우동 1417-1",
    "lat": "35.163946035015506",
    "lng": "129.13631021976886",
    "region": "부산광역시"
  },
  {
    "name": "명진공원",
    "address": "부산광역시 북구 화명동 2260",
    "lat": "35.23863739117632",
    "lng": "129.00953626846993",
    "region": "부산광역시"
  },
  {
    "name": "금곡초등학교운동장",
    "address": "부산광역시 북구 금곡동 99-1",
    "lat": "35.26146932720148",
    "lng": "129.01718939327253",
    "region": "부산광역시"
  },
  {
    "name": "덕성초등학교운동장",
    "address": "부산광역시 북구 덕천동 335-1",
    "lat": "35.212876773864444",
    "lng": "129.00809591994351",
    "region": "부산광역시"
  },
  {
    "name": "덕��초등학교운동장",
    "address": "부산광역시 북구 만덕동 774-20",
    "lat": "35.209462810369004",
    "lng": "129.02289634339306",
    "region": "부산광역시"
  },
  {
    "name": "부산백양고등학교운동장",
    "address": "부산광역시 북구 구포동 888",
    "lat": "35.19699360701093",
    "lng": "128.99866541777354",
    "region": "부산광역시"
  },
  {
    "name": "와석초등학교운동장",
    "address": "부산광역시 북구 화명동 755",
    "lat": "35.23133244500976",
    "lng": "129.01761125194176",
    "region": "부산광역시"
  },
  {
    "name": "금성초등학교 운동장",
    "address": "부산광역시 금정구 금성동 609",
    "lat": "35.25068123182339",
    "lng": "129.05797898769526",
    "region": "부산광역시"
  },
  {
    "name": "석포초등학교 운동장",
    "address": "부산광역시 남구 대연동 969-17",
    "lat": "35.12630576868669",
    "lng": "129.09182310104717",
    "region": "부산광역시"
  },
  {
    "name": "청룡초등학교 운동장",
    "address": "부산광역시 금정구 청룡동 46",
    "lat": "35.27268426844285",
    "lng": "129.09188918387542",
    "region": "부산광역시"
  },
  {
    "name": "용소초등학교 운동장",
    "address": "부산광역시 남구 대연동 1859",
    "lat": "35.1426080139906",
    "lng": "129.09922599792418",
    "region": "부산광역시"
  },
  {
    "name": "용당초등학교 운동장",
    "address": "부산광역시 남구 용당동 360-1",
    "lat": "35.116968000046896",
    "lng": "129.0944831605261",
    "region": "부산광역시"
  },
  {
    "name": "금명중학교운동장",
    "address": "부산광역시 북구 금곡동 1893",
    "lat": "35.24333340502801",
    "lng": "129.01236400915346",
    "region": "부산광역시"
  },
  {
    "name": "만덕중학교운동장",
    "address": "부산광역시 북구 만덕동 646-18",
    "lat": "35.21479565375677",
    "lng": "129.03144340282634",
    "region": "부산광역시"
  },
  {
    "name": "만덕초등학교운동장",
    "address": "부산광역시 북구 만덕동 646-1",
    "lat": "35.21469806315921",
    "lng": "129.02956832970256",
    "region": "부산광역시"
  },
  {
    "name": "명덕초등학교운동장",
    "address": "부산광역시 북구 화명동 2327",
    "lat": "35.22550035453484",
    "lng": "129.01236734137456",
    "region": "부산광역시"
  },
  {
    "name": "양덕여자중학교운동장",
    "address": "부산광역시 북구 구포동 1",
    "lat": "35.20457977510431",
    "lng": "129.01314103312845",
    "region": "부산광역시"
  },
  {
    "name": "대천중학교 운동장",
    "address": "부산광역시 남구 대연동 643-1",
    "lat": "35.128433657887626",
    "lng": "129.10280830629569",
    "region": "부산광역시"
  },
  {
    "name": "동항중학교 운동장",
    "address": "부산광역시 남구 감만동 176-82",
    "lat": "35.11870190483958",
    "lng": "129.08522749308509",
    "region": "부산광역시"
  },
  {
    "name": "오륙도중학교 운동장",
    "address": "부산광역시 남구 용호동 951",
    "lat": "35.10301369316642",
    "lng": "129.11493301391394",
    "region": "부산광역시"
  },
  {
    "name": "부산배화학교 운동장",
    "address": "부산광역시 수영구 망미동 787",
    "lat": "35.169344346978725",
    "lng": "129.10371065139944",
    "region": "부산광역시"
  },
  {
    "name": "용호초등학교 운동장",
    "address": "부산광역시 남구 용호동 75-1",
    "lat": "35.122762721129114",
    "lng": "129.1090225624113",
    "region": "부산광역시"
  },
  {
    "name": "낙동중학교 운동장",
    "address": "부산광역시 강서구 대저1동 1491-7",
    "lat": "35.21565598608369",
    "lng": "128.96534085274337",
    "region": "부산광역시"
  },
  {
    "name": "명지초등학교 운동장",
    "address": "부산광역시 강서구 명지동 3385",
    "lat": "35.10148639913508",
    "lng": "128.92449617385822",
    "region": "부산광역시"
  },
  {
    "name": "낙동고등학교운동장",
    "address": "부산광역시 북구 덕천동 297-1",
    "lat": "35.21710924114838",
    "lng": "129.01017158474545",
    "region": "부산광역시"
  },
  {
    "name": "용수초등학교운동장",
    "address": "부산광역시 북구 화명동 2305",
    "lat": "35.22881736989943",
    "lng": "129.00899275287168",
    "region": "부산광역시"
  },
  {
    "name": "문현여자고등학교 운동장",
    "address": "부산광역시 남구 문현동 40-1",
    "lat": "35.14488901509565",
    "lng": "129.07419562339743",
    "region": "부산광역시"
  },
  {
    "name": "문현여자중학교 운동장",
    "address": "부산광역시 남구 문현동 490",
    "lat": "35.1422658002762",
    "lng": "129.06922462396787",
    "region": "부산광역시"
  },
  {
    "name": "장전중학교 운동장",
    "address": "부산광역시 금정구 장전동 521-183",
    "lat": "35.22861278643678",
    "lng": "129.07802047318236",
    "region": "부산광역시"
  },
  {
    "name": "한얼고등학교 운동장",
    "address": "부산광역시 남구 문현동 557-1",
    "lat": "35.146740088225364",
    "lng": "129.07104134559853",
    "region": "부산광역시"
  },
  {
    "name": "남성여자고등학교 운동장",
    "address": "부산광역시 중구 대청동1가 10",
    "lat": "35.104670423734014",
    "lng": "129.03372645378246",
    "region": "부산광역시"
  },
  {
    "name": "남성초등학교 운동장",
    "address": "부산광역시 중구 대청동1가 10",
    "lat": "35.104840136425295",
    "lng": "129.03348700102558",
    "region": "부산광역시"
  },
  {
    "name": "가람중학교운동장",
    "address": "부산광역시 북구 구포동 1020-1",
    "lat": "35.20359706741527",
    "lng": "128.99839893434063",
    "region": "부산광역시"
  },
  {
    "name": "명진중학교운동장",
    "address": "부산광역시 북구 화명동 2258",
    "lat": "35.23958641585096",
    "lng": "129.00970057478958",
    "region": "부산광역시"
  },
  {
    "name": "화정초등학교운동장",
    "address": "부산광역시 북구 화명동 2330",
    "lat": "35.21813097864447",
    "lng": "129.0098881243104",
    "region": "부산광역시"
  },
  {
    "name": "백운초등학교 운동장",
    "address": "부산광역시 남구 용호동 713-2",
    "lat": "35.11810954286598",
    "lng": "129.10612463951696",
    "region": "부산광역시"
  },
  {
    "name": "금정초등학교 운동장",
    "address": "부산광역시 금정구 장전동 348-1",
    "lat": "35.22735246736631",
    "lng": "129.08408761024637",
    "region": "부산광역시"
  },
  {
    "name": "용산초등학교 운동장",
    "address": "부산광역시 남구 용호동 382-1",
    "lat": "35.11641504530063",
    "lng": "129.1156066937093",
    "region": "부산광역시"
  },
  {
    "name": "금정중학교 운동장",
    "address": "부산광역시 금정구 남산동 382",
    "lat": "35.27162951630978",
    "lng": "129.09398837132895",
    "region": "부산광역시"
  },
  {
    "name": "금곡고등학교운동장",
    "address": "부산광역시 북구 금곡동 1892",
    "lat": "35.2443105966214",
    "lng": "129.01217574699393",
    "region": "부산광역시"
  },
  {
    "name": "금��중학교운동장",
    "address": "부산광역시 북구 금곡동 99-2",
    "lat": "35.26057897386578",
    "lng": "129.01715460095008",
    "region": "부산광역시"
  },
  {
    "name": "대천리초등학교운동장",
    "address": "부산광역시 북구 화명동 507",
    "lat": "35.24218892847925",
    "lng": "129.02299467268375",
    "region": "부산광역시"
  },
  {
    "name": "신금초등학교운동장",
    "address": "부산광역시 북구 금곡동 1109",
    "lat": "35.250402325369926",
    "lng": "129.0151598888412",
    "region": "부산광역시"
  },
  {
    "name": "신덕중학교운동장",
    "address": "부산광역시 북구 만덕동 946",
    "lat": "35.203058890542046",
    "lng": "129.03085846439907",
    "region": "부산광역시"
  },
  {
    "name": "구서초등학교 운동장",
    "address": "부산광역시 금정구 구서동 752",
    "lat": "35.25380638948261",
    "lng": "129.0870334833365",
    "region": "부산광역시"
  },
  {
    "name": "부산정보관광고등학교 운동장",
    "address": "부산광역시 금정구 부곡동 323-7",
    "lat": "35.22348476505416",
    "lng": "129.09230595458016",
    "region": "부산광역시"
  },
  {
    "name": "화명초등학교운동장",
    "address": "부산광역시 북구 화명동 256",
    "lat": "35.24239326541187",
    "lng": "129.0175411395911",
    "region": "부산광역시"
  },
  {
    "name": "화신중학교운동장",
    "address": "부산광역시 북구 화명동 1408",
    "lat": "35.238425209569456",
    "lng": "129.0148204743704",
    "region": "부산광역시"
  },
  {
    "name": "금창초등학교운동장",
    "address": "부산광역시 북구 금곡동 56-2",
    "lat": "35.26553659852155",
    "lng": "129.0198560801748",
    "region": "부산광역시"
  },
  {
    "name": "백산초등학교운동장",
    "address": "부산광역시 북구 만덕동 923",
    "lat": "35.21153155480024",
    "lng": "129.03246998783038",
    "region": "부산광역시"
  },
  {
    "name": "신덕초등학교운동장",
    "address": "부산광역시 북구 만덕동 947",
    "lat": "35.202655672171545",
    "lng": "129.03243258244447",
    "region": "부산광역시"
  },
  {
    "name": "양덕초등학교운동장",
    "address": "부산광역시 북구 덕천동 812",
    "lat": "35.20612492388593",
    "lng": "129.01122193146705",
    "region": "부산광역시"
  },
  {
    "name": "혜광고등학교 운동장",
    "address": "부산광역시 중구 보수동1가 2-420",
    "lat": "35.109189254675016",
    "lng": "129.02511607757526",
    "region": "부산광역시"
  },
  {
    "name": "내성고등학교 운동장",
    "address": "부산광역시 금정구 부곡동 812-13",
    "lat": "35.22080026686571",
    "lng": "129.09291613078335",
    "region": "부산광역시"
  },
  {
    "name": "장전초등학교 운동장",
    "address": "부산광역시 금정구 장전동 657-8",
    "lat": "35.24076475282497",
    "lng": "129.08271431923072",
    "region": "부산광역시"
  },
  {
    "name": "용문중학교 운동장",
    "address": "부산광역시 남구 용호동 246-1",
    "lat": "35.124647284201934",
    "lng": "129.10746574401915",
    "region": "부산광역시"
  },
  {
    "name": "동상초등학교 운동장",
    "address": "부산광역시 금정구 서동 235",
    "lat": "35.2116526969136",
    "lng": "129.1075916881135",
    "region": "부산광역시"
  },
  {
    "name": "한국조형예술고등학교 운동장",
    "address": "부산광역시 남구 용호동 506-39",
    "lat": "35.12019341521519",
    "lng": "129.11694149284486",
    "region": "부산광역시"
  },
  {
    "name": "예문여자고등학교 운동장",
    "address": "부산광역시 남구 용호동 산73-11",
    "lat": "35.11571316178703",
    "lng": "129.1069194303522",
    "region": "부산광역시"
  },
  {
    "name": "녹산초등학교 운동장",
    "address": "부산광역시 강서구 지사동 1184-2",
    "lat": "35.15094651729442",
    "lng": "128.8371688127569",
    "region": "부산광역시"
  },
  {
    "name": "부산여자중학교 운동장",
    "address": "부산광역시 서구 서대신동3가 60",
    "lat": "35.12002649882702",
    "lng": "129.01460799351014",
    "region": "부산광역시"
  },
  {
    "name": "그린꽃님공원",
    "address": "부산광역시 북구 화명동 513",
    "lat": "35.2399864472184",
    "lng": "129.0225725148362",
    "region": "부산광역시"
  },
  {
    "name": "창신공원",
    "address": "부산광역시 사상구 주례동 294",
    "lat": "35.155977",
    "lng": "129.004713",
    "region": "부산광역시"
  },
  {
    "name": "아시아드 보조경기장",
    "address": "부산광역시 연제구 거제동 1299",
    "lat": "35.19008351127896",
    "lng": "129.05849397182612",
    "region": "부산광역시"
  },
  {
    "name": "야시곡공원",
    "address": "부산광역시 사상구 모라동 1325",
    "lat": "35.194433095135295",
    "lng": "128.99467974906776",
    "region": "부산광역시"
  },
  {
    "name": "연서초등학교 운동장",
    "address": "부산광역시 연제구 연산동 583-3",
    "lat": "35.19024760444102",
    "lng": "129.0861780308886",
    "region": "부산광역시"
  },
  {
    "name": "금정구 공터 2",
    "address": "부산광역시 금정구 회동동 558",
    "lat": "35.23071437224251",
    "lng": "129.12606769217817",
    "region": "부산광역시"
  },
  {
    "name": "모덕초등학교 운동장",
    "address": "부산광역시 사상구 모라동 1364-1",
    "lat": "35.182198029034716",
    "lng": "128.99134476969132",
    "region": "부산광역시"
  },
  {
    "name": "주례여자중학교 운동장",
    "address": "부산광역시 사상구 주례동 95",
    "lat": "35.14834361763334",
    "lng": "129.00694738172564",
    "region": "부산광역시"
  },
  {
    "name": "이사벨중학교, 이사벨고등학교, 지구촌고등학교 운동장",
    "address": "부산광역시 연제구 거제동 75-7",
    "lat": "35.19432715305752",
    "lng": "129.07862663269202",
    "region": "부산광역시"
  },
  {
    "name": "내성초등학교 운동장",
    "address": "부산광역시 동래구 복천동 72",
    "lat": "35.20437123236088",
    "lng": "129.08968853577616",
    "region": "부산광역시"
  },
  {
    "name": "교동초등학교 운동장",
    "address": "부산광역시 동래구 명륜동 105-1",
    "lat": "35.215152207823635",
    "lng": "129.09201467100704",
    "region": "부산광역시"
  },
  {
    "name": "온천초등학교 운동장",
    "address": "부산광역시 동래구 온천동 397-4",
    "lat": "35.21254481284639",
    "lng": "129.07375560605539",
    "region": "부산광역시"
  },
  {
    "name": "대연초등학교 운동장",
    "address": "부산광역시 남구 대연동 289-15",
    "lat": "35.136940326851935",
    "lng": "129.09228444099833",
    "region": "부산광역시"
  },
  {
    "name": "대신여자중학교 운동장",
    "address": "부산광역시 서구 동대신동2가 87-9",
    "lat": "35.1134594422569",
    "lng": "129.02431388316776",
    "region": "부산광역시"
  },
  {
    "name": "혜화여자중학교 운동장",
    "address": "부산광역시 동래구 명장동 41-4",
    "lat": "35.20456296928803",
    "lng": "129.11035874425306",
    "region": "부산광역시"
  },
  {
    "name": "강동초등학교운동장",
    "address": "부산광역시 해운대구 우동 1113",
    "lat": "35.17174737951873",
    "lng": "129.13703441620066",
    "region": "부산광역시"
  },
  {
    "name": "반송초등학교운동장",
    "address": "부산광역시 해운대구 반송동 250-8",
    "lat": "35.223334046236495",
    "lng": "129.14774715900813",
    "region": "부산광역시"
  },
  {
    "name": "송운초등학교운동장",
    "address": "부산광역시 해운대구 반송동 893",
    "lat": "35.22907896886904",
    "lng": "129.15713489055625",
    "region": "부산광역시"
  },
  {
    "name": "신곡중학교운동장",
    "address": "부산광역시 해운대구 좌동 1329",
    "lat": "35.16761657531705",
    "lng": "129.1818702220949",
    "region": "부산광역시"
  },
  {
    "name": "신재초등학교운동장",
    "address": "부산광역시 해운대구 재송동 1024-1",
    "lat": "35.191395630858516",
    "lng": "129.12277050721474",
    "region": "부산광역시"
  },
  {
    "name": "무정초등학교운동장",
    "address": "부산광역시 해운대구 반여동 1651",
    "lat": "35.19796602309733",
    "lng": "129.1236564489679",
    "region": "부산광역시"
  },
  {
    "name": "반여고등학교운동장",
    "address": "부산광역시 해운대구 반여동 1622",
    "lat": "35.20318364751993",
    "lng": "129.1263733084468",
    "region": "부산광역시"
  },
  {
    "name": "부흥초등학교운동장",
    "address": "부산광역시 해운대구 좌동 1303",
    "lat": "35.175742571188664",
    "lng": "129.17839003321302",
    "region": "부산광역시"
  },
  {
    "name": "해원초등학교운동장",
    "address": "부산광역시 해운대구 우동 1405-2",
    "lat": "35.158420178085315",
    "lng": "129.14384722710085",
    "region": "부산광역시"
  },
  {
    "name": "송림공원",
    "address": "부산광역시 서구 암남동 124-1",
    "lat": "35.07690517102356",
    "lng": "129.0228299425037",
    "region": "부산광역시"
  },
  {
    "name": "양운초등학교운동장",
    "address": "부산광역시 해운대구 좌동 1372",
    "lat": "35.17420734472833",
    "lng": "129.16695713996927",
    "region": "부산광역시"
  },
  {
    "name": "운봉초등학교운동장",
    "address": "부산광역시 해운대구 반송동 237-1",
    "lat": "35.22873279511601",
    "lng": "129.15954351425347",
    "region": "부산광역시"
  },
  {
    "name": "해강중학교운동장",
    "address": "부산광역시 해운대구 우동 1417-1",
    "lat": "35.16395919137363",
    "lng": "129.13645505904876",
    "region": "부산광역시"
  },
  {
    "name": "반안초등학교운동장",
    "address": "부산광역시 해운대구 반여동 1164-6",
    "lat": "35.202660354045946",
    "lng": "129.1136401891723",
    "region": "부산광역시"
  },
  {
    "name": "신곡초등학교운동장",
    "address": "부산광역시 해운대구 좌동 1324",
    "lat": "35.169747780762634",
    "lng": "129.1823315620398",
    "region": "부산광역시"
  },
  {
    "name": "해송초등학교운동장",
    "address": "부산광역시 해운대구 좌동 1338",
    "lat": "35.16440650615555",
    "lng": "129.1790378093731",
    "region": "부산광역시"
  },
  {
    "name": "덕포초등학교 운동장",
    "address": "부산광역시 사상구 덕포동 406-1",
    "lat": "35.17412841652299",
    "lng": "128.98526966571922",
    "region": "부산광역시"
  },
  {
    "name": "대신초등학교 운동장",
    "address": "부산광역시 서구 서대신동3가 195",
    "lat": "35.115540152063495",
    "lng": "129.01202621072068",
    "region": "부산광역시"
  },
  {
    "name": "경남고등학교 운동장",
    "address": "부산광역시 서구 동대신동3가 1-28",
    "lat": "35.12088010577361",
    "lng": "129.02017081068976",
    "region": "부산광역시"
  },
  {
    "name": "구남초등학교운동장",
    "address": "부산광역시 북구 구포동 1076-1",
    "lat": "35.200001534282535",
    "lng": "128.9935872772595",
    "region": "부산광역시"
  },
  {
    "name": "덕천초등학교운동장",
    "address": "부산광역시 북구 구포동 127-1",
    "lat": "35.208271584953856",
    "lng": "129.00656880316308",
    "region": "부산광역시"
  },
  {
    "name": "용수중학교운동장",
    "address": "부산광역시 북구 화명동 2302",
    "lat": "35.23002597812025",
    "lng": "129.0080534749284",
    "region": "부산광역시"
  },
  {
    "name": "기찰어린이공원",
    "address": "부산광역시 금정구 부곡동 26-11",
    "lat": "35.241698213687506",
    "lng": "129.09434479900858",
    "region": "부산광역시"
  },
  {
    "name": "포천초등학교운동장",
    "address": "부산광역시 북구 구포동 1231",
    "lat": "35.19654578570148",
    "lng": "129.00877098911695",
    "region": "부산광역시"
  },
  {
    "name": "학사초등학교운동장",
    "address": "부산광역시 북구 화명동 2296",
    "lat": "35.23119361179976",
    "lng": "129.00806754518877",
    "region": "부산광역시"
  },
  {
    "name": "대사초등학교 운동장",
    "address": "부산광역시 강서구 강동동 101-64",
    "lat": "35.219980516321506",
    "lng": "128.93847902011973",
    "region": "부산광역시"
  },
  {
    "name": "대상초등학교 운동장",
    "address": "부산광역시 강서구 대저1동 2355-1",
    "lat": "35.21468028579355",
    "lng": "128.97968408619013",
    "region": "부산광역시"
  },
  {
    "name": "대천리중학교운동장",
    "address": "부산광역시 북구 화명동 509",
    "lat": "35.242138450439896",
    "lng": "129.02169753672425",
    "region": "부산광역시"
  },
  {
    "name": "백양초등학교운동장",
    "address": "부산광역시 북구 만덕동 838-1",
    "lat": "35.20715480161832",
    "lng": "129.0349796925755",
    "region": "부산광역시"
  },
  {
    "name": "봉래초등학교 운동장",
    "address": "부산광역시 중구 영주동 582-2",
    "lat": "35.11149529838566",
    "lng": "129.03603104537387",
    "region": "부산광역시"
  },
  {
    "name": "성동중학교 운동장",
    "address": "부산광역시 남구 문현동 791",
    "lat": "35.14100065419393",
    "lng": "129.06570397881185",
    "region": "부산광역시"
  },
  {
    "name": "부산디지털고등학교 운동장",
    "address": "부산광역시 중구 영주동 446-2",
    "lat": "35.10893953342659",
    "lng": "129.03210846679102",
    "region": "부산광역시"
  },
  {
    "name": "공덕초등학교 운동장",
    "address": "부산광역시 금정구 두구동 224-1",
    "lat": "35.296017213502",
    "lng": "129.111098961659",
    "region": "부산광역시"
  },
  {
    "name": "용두산공원 공터",
    "address": "부산광역시 중구 광복동2가 1-2",
    "lat": "35.100899",
    "lng": "129.032655",
    "region": "부산광역시"
  },
  {
    "name": "화명고등학교운동장",
    "address": "부산광역시 북구 화명동 2259",
    "lat": "35.23941464457137",
    "lng": "129.01080344126066",
    "region": "부산광역시"
  },
  {
    "name": "덕천중학교운동장",
    "address": "부산광역시 북구 덕천동 320-1",
    "lat": "35.21394234726209",
    "lng": "129.0119147300733",
    "region": "부산광역시"
  },
  {
    "name": "신천초등학교운동장",
    "address": "부산광역시 북구 구포동 801",
    "lat": "35.20037721084352",
    "lng": "129.00834247676977",
    "region": "부산광역시"
  },
  {
    "name": "부곡여자중학교 운동장",
    "address": "부산광역시 금정구 부곡동 717-1",
    "lat": "35.22305984246197",
    "lng": "129.09511513228082",
    "region": "부산광역시"
  },
  {
    "name": "반남도란공원",
    "address": "부산광역시 금정구 남산동 975-4",
    "lat": "35.26944468160968",
    "lng": "129.0878310919145",
    "region": "부산광역시"
  },
  {
    "name": "부곡초등학교 운동장",
    "address": "부산광역시 금정구 부곡동 354",
    "lat": "35.23313215923711",
    "lng": "129.0935772657411",
    "region": "부산광역시"
  },
  {
    "name": "동현초등학교 운동장",
    "address": "부산광역시 금정구 부곡동 337-1",
    "lat": "35.2224896191743",
    "lng": "129.09236714995149",
    "region": "부산광역시"
  },
  {
    "name": "해동중학교 운동장",
    "address": "부산광역시 영도구 동삼동 산57",
    "lat": "35.06975346741277",
    "lng": "129.06936228275174",
    "region": "부산광역시"
  },
  {
    "name": "태종대중학교 운동장",
    "address": "부산광역시 영도구 동삼동 523-1",
    "lat": "35.073377901332385",
    "lng": "129.0643132842727",
    "region": "부산광역시"
  },
  {
    "name": "대교초등학교 운동장",
    "address": "부산광역시 영도구 봉래동4가 18",
    "lat": "35.094692225312656",
    "lng": "129.04642560593476",
    "region": "부산광역시"
  },
  {
    "name": "부산문화여자고등학교운동장",
    "address": "부산광역시 해운대구 우동 1025-8",
    "lat": "35.165927992149484",
    "lng": "129.14377481434056",
    "region": "부산광역시"
  },
  {
    "name": "송수초등학교운동장",
    "address": "부산광역시 해운대구 재송동 935-1",
    "lat": "35.18939959786031",
    "lng": "129.1194123029726",
    "region": "부산광역시"
  },
  {
    "name": "해운대관광고등학교운동장",
    "address": "부산광역시 해운대구 우동 351-2",
    "lat": "35.17028715105852",
    "lng": "129.15702223777717",
    "region": "부산광역시"
  },
  {
    "name": "반석초등학교운동장",
    "address": "부산광역시 해운대구 반여동 757-1",
    "lat": "35.21125133647658",
    "lng": "129.12501389216388",
    "region": "부산광역시"
  },
  {
    "name": "다대초등학교운동장",
    "address": "부산광역시 사하구 다대동 270",
    "lat": "35.05947460161187",
    "lng": "128.97620916366972",
    "region": "부산광역시"
  },
  {
    "name": "다송중학교운동장",
    "address": "부산광역시 사하구 다대동 95",
    "lat": "35.06356698347894",
    "lng": "128.9843845367403",
    "region": "부산광역시"
  },
  {
    "name": "부일외국어고등학교운동장",
    "address": "부산광역시 사하구 감천동 634-61",
    "lat": "35.09097889399444",
    "lng": "129.00155067444055",
    "region": "부산광역시"
  },
  {
    "name": "영도여자고등학교 운동장",
    "address": "부산광역시 영도구 동삼동 514-13",
    "lat": "35.07348313302924",
    "lng": "129.06611144542848",
    "region": "부산광역시"
  },
  {
    "name": "태종대초등학교 운동장",
    "address": "부산광역시 영도구 동삼동 962",
    "lat": "35.0657098376503",
    "lng": "129.07885115920385",
    "region": "부산광역시"
  },
  {
    "name": "을숙도초등학교운동장",
    "address": "부산광역시 사하구 하단동 1217-2",
    "lat": "35.115301224431015",
    "lng": "128.96142482757142",
    "region": "부산광역시"
  },
  {
    "name": "장림복합공영주차장",
    "address": "부산광역시 사하구 장림동 1144-1",
    "lat": "35.081483541588504",
    "lng": "128.96143952072373",
    "region": "부산광역시"
  },
  {
    "name": "성일여자고등학교운동장",
    "address": "부산광역시 사하구 신평동 60-1",
    "lat": "35.08840667516716",
    "lng": "128.9786875247961",
    "region": "부산광역시"
  },
  {
    "name": "장림여자중학교운동장",
    "address": "부산광역시 사하구 장림동 60",
    "lat": "35.07823991062956",
    "lng": "128.98156285285555",
    "region": "부산광역시"
  },
  {
    "name": "두송중학교운동장",
    "address": "부산광역시 사하구 다대동 1580",
    "lat": "35.06073922219782",
    "lng": "128.9837622642535",
    "region": "부산광역시"
  },
  {
    "name": "사하중학교운동장",
    "address": "부산광역시 사하구 괴정동 1091-1",
    "lat": "35.1019156953959",
    "lng": "128.98246885895884",
    "region": "부산광역시"
  },
  {
    "name": "당리초등학교운동장",
    "address": "부산광역시 사하구 당리동 511",
    "lat": "35.099880076260234",
    "lng": "128.97525429725877",
    "region": "부산광역시"
  },
  {
    "name": "부산여자고등학교운동장",
    "address": "부산광역시 사하구 하단동 495-1",
    "lat": "35.112949183259516",
    "lng": "128.9668858051263",
    "region": "부산광역시"
  },
  {
    "name": "신평초등학교운동장",
    "address": "부산광역시 사하구 신평동 226",
    "lat": "35.093910217363415",
    "lng": "128.9715966582582",
    "region": "부산광역시"
  },
  {
    "name": "다대포해변공원 공영주차장",
    "address": "부산광역시 사하구 다대동 1552-20",
    "lat": "35.04789962859653",
    "lng": "128.9656285541123",
    "region": "부산광역시"
  },
  {
    "name": "다송초등학교운동장",
    "address": "부산광역시 사하구 다대동 93",
    "lat": "35.06898512194635",
    "lng": "128.97971749305742",
    "region": "부산광역시"
  },
  {
    "name": "당리중학교운동장",
    "address": "부산광역시 사하구 당리동 438-1",
    "lat": "35.10191864897035",
    "lng": "128.9805235137567",
    "region": "부산광역시"
  },
  {
    "name": "화랑어린이공원",
    "address": "부산광역시 금정구 금사동 115-2",
    "lat": "35.21500355429012",
    "lng": "129.11663200960763",
    "region": "부산광역시"
  },
  {
    "name": "용호중학교 운동장",
    "address": "부산광역시 남구 용호동 512",
    "lat": "35.11930304888879",
    "lng": "129.11633849144508",
    "region": "부산광역시"
  },
  {
    "name": "화명중학교운동장",
    "address": "부산광역시 북구 화명동 2326",
    "lat": "35.22592670804365",
    "lng": "129.01118944172322",
    "region": "부산광역시"
  },
  {
    "name": "동천초등학교 운동장",
    "address": "부산광역시 남구 감만동 8-19",
    "lat": "35.1212880501846",
    "lng": "129.08371539673263",
    "region": "부산광역시"
  },
  {
    "name": "동래여자고등학교 운동장",
    "address": "부산광역시 금정구 구서동 67",
    "lat": "35.24577208783122",
    "lng": "129.09612332815885",
    "region": "부산광역시"
  },
  {
    "name": "동래초등학교 운동장",
    "address": "부산광역시 금정구 구서동 74-10",
    "lat": "35.247822729089705",
    "lng": "129.0992796421068",
    "region": "부산광역시"
  },
  {
    "name": "장서초등학교 운동장",
    "address": "부산광역시 금정구 구서동 703",
    "lat": "35.24817320227869",
    "lng": "129.08657401800318",
    "region": "부산광역시"
  },
  {
    "name": "수미초등학교 운동장",
    "address": "부산광역시 수영구 망미동 760",
    "lat": "35.16839378053028",
    "lng": "129.10378746742754",
    "region": "부산광역시"
  },
  {
    "name": "구포중학교운동장",
    "address": "부산광역시 북구 구포동 1139",
    "lat": "35.194703300327234",
    "lng": "128.99641220164537",
    "region": "부산광역시"
  },
  {
    "name": "금명초등학교운동장",
    "address": "부산광역시 북구 금곡동 1896",
    "lat": "35.241596824577016",
    "lng": "129.01106060770695",
    "region": "부산광역시"
  },
  {
    "name": "배영초등학교 운동장",
    "address": "부산광역시 강서구 대저2동 4552",
    "lat": "35.150143847408785",
    "lng": "128.94578218460072",
    "region": "부산광역시"
  },
  {
    "name": "대저중고등학교 운동장",
    "address": "부산광역시 강서구 대저2동 2039",
    "lat": "35.17738349205456",
    "lng": "128.95639361208487",
    "region": "부산광역시"
  },
  {
    "name": "동아중학교 운동장",
    "address": "부산광역시 수영구 광안동 1222-23",
    "lat": "35.156907080360014",
    "lng": "129.10742282867602",
    "region": "부산광역시"
  },
  {
    "name": "부산남일고등학교 운동장",
    "address": "부산광역시 수영구 망미동 920-10",
    "lat": "35.177868652446314",
    "lng": "129.10121083259753",
    "region": "부산광역시"
  },
  {
    "name": "구남중학교운동장",
    "address": "부산광역시 북구 구포동 894",
    "lat": "35.19567370398247",
    "lng": "128.9973626217185",
    "region": "부산광역시"
  },
  {
    "name": "구포초등학교운동장",
    "address": "부산광역시 북구 구포동 725",
    "lat": "35.203258888017835",
    "lng": "129.00096154251827",
    "region": "부산광역시"
  },
  {
    "name": "동현중학교 운동장",
    "address": "부산광역시 금정구 부곡동 777-4",
    "lat": "35.21873700740629",
    "lng": "129.0919817762455",
    "region": "부산광역시"
  },
  {
    "name": "녹명초등학교 운동장",
    "address": "부산광역시 강서구 녹산동 228",
    "lat": "35.11486680402703",
    "lng": "128.88591527938925",
    "region": "부산광역시"
  },
  {
    "name": "부산공업고등학교 운동장",
    "address": "부산광역시 남구 대연동 918-1",
    "lat": "35.12985077573191",
    "lng": "129.08723115921086",
    "region": "부산광역시"
  },
  {
    "name": "동수영중학교 운동장",
    "address": "부산광역시 수영구 광안�� 990",
    "lat": "35.16458580828301",
    "lng": "129.10474266959432",
    "region": "부산광역시"
  },
  {
    "name": "호암초등학교 운동장",
    "address": "부산광역시 수영구 광안동 1194-2",
    "lat": "35.158235976386294",
    "lng": "129.10667181015185",
    "region": "부산광역시"
  },
  {
    "name": "부산동여자고등학교 운동장",
    "address": "부산광역시 수영구 남천동 65",
    "lat": "35.14588912618541",
    "lng": "129.105792045595",
    "region": "부산광역시"
  },
  {
    "name": "배산초등학교 운동장",
    "address": "부산광역시 수영구 망미동 920",
    "lat": "35.177495952014056",
    "lng": "129.10279870033435",
    "region": "부산광역시"
  },
  {
    "name": "우암초등학교 운동장",
    "address": "부산광역시 남구 우암동 133-9",
    "lat": "35.12550155885761",
    "lng": "129.07611513428344",
    "region": "부산광역시"
  },
  {
    "name": "망미중학교 운동장",
    "address": "부산광역시 수영구 망미동 952-2",
    "lat": "35.17542633734789",
    "lng": "129.097879529001",
    "region": "부산광역시"
  },
  {
    "name": "가마실어린이공원",
    "address": "부산광역시 금정구 부곡동 296-2",
    "lat": "35.228036757581464",
    "lng": "129.09168777926604",
    "region": "부산광역시"
  },
  {
    "name": "동항초등학교 운동장",
    "address": "부산광역시 남구 감만동 315-1",
    "lat": "35.114572801028174",
    "lng": "129.08229589462275",
    "region": "부산광역시"
  },
  {
    "name": "성지고등학교 운동장",
    "address": "부산광역시 남구 우암동 109",
    "lat": "35.127981768975715",
    "lng": "129.0812873840338",
    "region": "부산광역시"
  },
  {
    "name": "신연초등학교 운동장",
    "address": "부산광역시 남구 우암동 112-77",
    "lat": "35.12899370235548",
    "lng": "129.0778584701318",
    "region": "부산광역시"
  },
  {
    "name": "대천초등학교 운동장",
    "address": "부산광역시 남구 대연동 1015-1",
    "lat": "35.128780270063125",
    "lng": "129.100255966191",
    "region": "부산광역시"
  },
  {
    "name": "대연고등학교 운동장",
    "address": "부산광역시 남구 대연동 670-4",
    "lat": "35.128383801223336",
    "lng": "129.10161500461842",
    "region": "부산광역시"
  },
  {
    "name": "대양고등학교 운동장",
    "address": "부산광역시 남구 문현동 303-3",
    "lat": "35.132864069008775",
    "lng": "129.07341285253116",
    "region": "부산광역시"
  },
  {
    "name": "대저초등학교 운동장",
    "address": "부산광역시 강서구 대저1동 1605",
    "lat": "35.215867005943686",
    "lng": "128.9553192085124",
    "region": "부산광역시"
  },
  {
    "name": "해연중학교 운동장",
    "address": "부산광역시 남구 대연동 1576-1",
    "lat": "35.139587172247346",
    "lng": "129.0825655979875",
    "region": "부산광역시"
  },
  {
    "name": "연포초등학교 운동장",
    "address": "부산광역시 남구 대연동 1889",
    "lat": "35.13721230592257",
    "lng": "129.0837983711074",
    "region": "부산광역시"
  },
  {
    "name": "남명초등학교 운동장",
    "address": "부산광역시 강서구 명지동 3243-2",
    "lat": "35.083415636925885",
    "lng": "128.91076326369893",
    "region": "부산광역시"
  },
  {
    "name": "세연고등학교(구 부산세무고등학교) 운동장",
    "address": "부산광역시 남구 대연동 1799-1",
    "lat": "35.139226923709465",
    "lng": "129.08562551888272",
    "region": "부산광역시"
  },
  {
    "name": "서명어린이공원",
    "address": "부산광역시 금정구 서동 131-12",
    "lat": "35.21632116063732",
    "lng": "129.1064801787566",
    "region": "부산광역시"
  },
  {
    "name": "스포원",
    "address": "부산광역시 금정구 두구동 1641",
    "lat": "35.29202733919998",
    "lng": "129.10525560379202",
    "region": "부산광역시"
  },
  {
    "name": "성천초등학교 운동장",
    "address": "부산광역시 남구 우암동 216-6",
    "lat": "35.13067558197073",
    "lng": "129.0717065334331",
    "region": "부산광역시"
  },
  {
    "name": "배정고등학교 운동장",
    "address": "부산광역시 남구 문현동 985-26",
    "lat": "35.13255686536329",
    "lng": "129.0678584570069",
    "region": "부산광역시"
  },
  {
    "name": "명호중학교 운동장",
    "address": "부산광역시 강서구 명지동 3235-3",
    "lat": "35.07996079923904",
    "lng": "128.89867186546414",
    "region": "부산광역시"
  },
  {
    "name": "부산혜남학교 운동장",
    "address": "부산광역시 남구 대연동 1573",
    "lat": "35.141305182761",
    "lng": "129.081729948522",
    "region": "부산광역시"
  },
  {
    "name": "부산혜성학교 운동장",
    "address": "부산광역시 남구 대연동 1573-8",
    "lat": "35.1417745553384",
    "lng": "129.08038616181",
    "region": "부산광역시"
  },
  {
    "name": "남산초등학교 운동장",
    "address": "부산광역시 금정구 남산동 126-1",
    "lat": "35.26222172702657",
    "lng": "129.088792855793",
    "region": "부산광역시"
  },
  {
    "name": "민안초등학교 운동장",
    "address": "부산광역시 수영구 민락동 551-12",
    "lat": "35.16282335161795",
    "lng": "129.12118792534054",
    "region": "부산광역시"
  },
  {
    "name": "청동초등학교 운동장",
    "address": "부산광역시 영도구 청학동 71-1",
    "lat": "35.08798422466979",
    "lng": "129.06700451008103",
    "region": "부산광역시"
  },
  {
    "name": "감만중학교 운동장",
    "address": "부산광역시 남구 감만동 2-1",
    "lat": "35.12167245756233",
    "lng": "129.08846497535427",
    "region": "부산광역시"
  },
  {
    "name": "대연중학교 운동장",
    "address": "부산광역시 남구 대연동 1219-80",
    "lat": "35.13253883020113",
    "lng": "129.08452268611953",
    "region": "부산광역시"
  },
  {
    "name": "감만 창의문화촌 입구 공터",
    "address": "부산광역시 남구 감만동 79-1",
    "lat": "35.118267507906076",
    "lng": "129.08110499382073",
    "region": "부산광역시"
  },
  {
    "name": "모라초등학교 운동장",
    "address": "부산광역시 사상구 모라동 655-3",
    "lat": "35.19012004490923",
    "lng": "128.9856201410305",
    "region": "부산광역시"
  },
  {
    "name": "주양초등학교 운동장",
    "address": "부산광역시 사상구 주례동 10-1",
    "lat": "35.15357816630658",
    "lng": "129.0118771791471",
    "region": "부산광역시"
  },
  {
    "name": "괘법초등학교 운동장",
    "address": "부산광역시 사상구 괘법동 556-2",
    "lat": "35.15965551755282",
    "lng": "128.9860027177824",
    "region": "부산광역시"
  },
  {
    "name": "창진초등학교 운동장",
    "address": "부산광역시 사상구 괘법동 519-2",
    "lat": "35.1657705269963",
    "lng": "128.97783274594238",
    "region": "부산광역시"
  },
  {
    "name": "삼덕초등학교 운동장",
    "address": "부산광역시 사상구 삼락동 409-17",
    "lat": "35.173707662673586",
    "lng": "128.9786742050016",
    "region": "부산광역시"
  },
  {
    "name": "모동중학교 운동장",
    "address": "부산광역시 사상구 모라동 75-12",
    "lat": "35.18478741601817",
    "lng": "129.00299906730774",
    "region": "부산광역시"
  },
  {
    "name": "모라중학교 운동장",
    "address": "부산광역시 사상구 모라동 1348",
    "lat": "35.19008257550534",
    "lng": "128.99243947757327",
    "region": "부산광역시"
  },
  {
    "name": "덕포여자중학교 운동장",
    "address": "부산광역시 사상구 덕포동 136",
    "lat": "35.16994127671663",
    "lng": "128.98620301771533",
    "region": "부산광역시"
  },
  {
    "name": "양지1공원",
    "address": "부산광역시 사상구 주례동 306",
    "lat": "35.15502177615552",
    "lng": "129.00309778145572",
    "region": "부산광역시"
  },
  {
    "name": "초장중학교 운동장",
    "address": "부산광역시 서구 초장동 75-56",
    "lat": "35.09491518592053",
    "lng": "129.01828839203145",
    "region": "부산광역시"
  },
  {
    "name": "개금고등학교운동장",
    "address": "부산광역시 부산진구 개금동 2-8",
    "lat": "35.16140404940389",
    "lng": "129.02530328563032",
    "region": "부산광역시"
  },
  {
    "name": "연미초등학교 운동장",
    "address": "부산광역시 연제구 연산동 1824-60",
    "lat": "35.171164168291476",
    "lng": "129.09245073795486",
    "region": "부산광역시"
  },
  {
    "name": "성모여자고등학교운동장",
    "address": "부산광역시 부산진구 양정동 429-5",
    "lat": "35.1667531569328",
    "lng": "129.07186826460796",
    "region": "부산광역시"
  },
  {
    "name": "꿈나무공원",
    "address": "부산광역시 연제구 연산동 1478-1",
    "lat": "35.18460718725285",
    "lng": "129.07618328910553",
    "region": "부산광역시"
  },
  {
    "name": "남천중학교 운동장",
    "address": "부산광역시 남구 대연동 455-12",
    "lat": "35.13599274932316",
    "lng": "129.10505175590768",
    "region": "부산광역시"
  },
  {
    "name": "부산개성중학교운동장",
    "address": "부산광역시 부산진구 가야동 459-45",
    "lat": "35.14631963828286",
    "lng": "129.03294105140765",
    "region": "부산광역시"
  },
  {
    "name": "시청녹음광장",
    "address": "부산광역시 연제구 연산동 1000",
    "lat": "35.179918336090694",
    "lng": "129.07464269413285",
    "region": "부산광역시"
  },
  {
    "name": "서면중학교운동장",
    "address": "부산광역시 부산진구 부암동 127-1",
    "lat": "35.16021864875724",
    "lng": "129.0524705445371",
    "region": "부산광역시"
  },
  {
    "name": "개포초등학교운동장",
    "address": "부산광역시 부산진구 개금동 58",
    "lat": "35.15849449894538",
    "lng": "129.02658823476006",
    "region": "부산광역시"
  },
  {
    "name": "부산마케팅고등학교운동장",
    "address": "부산광역시 부산진구 전포동 487",
    "lat": "35.15133750828848",
    "lng": "129.07044078705454",
    "region": "부산광역시"
  },
  {
    "name": "양정초등학교운동장",
    "address": "부산광역시 부산진구 양정동 273-8",
    "lat": "35.17506223061012",
    "lng": "129.0712021094211",
    "region": "부산광역시"
  },
  {
    "name": "만리산체육공원 입구",
    "address": "부산광역시 부산���구 범천동 1272-372",
    "lat": "35.14488901509358",
    "lng": "129.05180454254292",
    "region": "부산광역시"
  },
  {
    "name": "신호초등학교 운동장",
    "address": "부산광역시 강서구 신호동 254",
    "lat": "35.0818602386353",
    "lng": "128.87830159419715",
    "region": "부산광역시"
  },
  {
    "name": "내성중학교 운동장",
    "address": "부산광역시 동래구 온천동 1458-20",
    "lat": "35.20333243234987",
    "lng": "129.0770403520787",
    "region": "부산광역시"
  },
  {
    "name": "부산동성고등학교운동장",
    "address": "부산광역시 부산진구 전포동 358-8",
    "lat": "35.15144215103386",
    "lng": "129.06890630722202",
    "region": "부산광역시"
  },
  {
    "name": "사직고등학교 운동장",
    "address": "부산광역시 동래구 사직동 632-8",
    "lat": "35.20332049430209",
    "lng": "129.05656335406306",
    "region": "부산광역시"
  },
  {
    "name": "남일중학교 운동장",
    "address": "부산광역시 동래구 안락동 165-1",
    "lat": "35.19244772133555",
    "lng": "129.11147847818282",
    "region": "부산광역시"
  },
  {
    "name": "안락초등학교 운동장",
    "address": "부산광역시 동래구 명장동 104-5",
    "lat": "35.20194729149713",
    "lng": "129.10353822327292",
    "region": "부산광역시"
  },
  {
    "name": "APEC나루공원",
    "address": "부산광역시 해운대구 우동 1494",
    "lat": "35.170195063698046",
    "lng": "129.12579059601018",
    "region": "부산광역시"
  },
  {
    "name": "당감초등학교운동장",
    "address": "부산광역시 부산진구 당감동 271",
    "lat": "35.16404012072213",
    "lng": "129.04059131137745",
    "region": "부산광역시"
  },
  {
    "name": "양정고등학교운동장",
    "address": "부산광역시 부산진구 양정동 33-3",
    "lat": "35.16976951637448",
    "lng": "129.0751009625038",
    "region": "부산광역시"
  },
  {
    "name": "연지초등학교운동장",
    "address": "부산광역시 부산진구 연지동 238-4",
    "lat": "35.172242379902265",
    "lng": "129.052344529721",
    "region": "부산광역시"
  },
  {
    "name": "연학초등학교운동장",
    "address": "부산광역시 부산진구 초읍동 117-1",
    "lat": "35.17686142172273",
    "lng": "129.04658161467722",
    "region": "부산광역시"
  },
  {
    "name": "경남여자고등학교 운동장",
    "address": "부산광역시 동구 수정동 558",
    "lat": "35.131604107508636",
    "lng": "129.04419910419998",
    "region": "부산광역시"
  },
  {
    "name": "수정배수지",
    "address": "부산광역시 동구 수정동 1011-795",
    "lat": "35.12613061997458",
    "lng": "129.04015227556508",
    "region": "부산광역시"
  },
  {
    "name": "반산초등학교운동장",
    "address": "부산광역시 해운대구 재송동 1033-1",
    "lat": "35.193599436845766",
    "lng": "129.1293847560857",
    "region": "부산광역시"
  },
  {
    "name": "반송여자중학교운동장",
    "address": "부산광역시 해운대구 반송동 622-1",
    "lat": "35.23275195170927",
    "lng": "129.14479585486632",
    "region": "부산광역시"
  },
  {
    "name": "영산고등학교운동장",
    "address": "부산광역시 해운대구 반송동 248-1",
    "lat": "35.225170187016076",
    "lng": "129.15597081184626",
    "region": "부산광역시"
  },
  {
    "name": "양운고등학교운동장",
    "address": "부산광역시 해운대구 좌동 1395",
    "lat": "35.17754916044248",
    "lng": "129.17065401825664",
    "region": "부산광역시"
  },
  {
    "name": "재송초등학교운동장",
    "address": "부산광역시 해운대구 재송동 1120-3",
    "lat": "35.186094857663214",
    "lng": "129.12765327596912",
    "region": "부산광역시"
  },
  {
    "name": "연천초등학교 운동장",
    "address": "부산광역시 연제구 연산동 378-11",
    "lat": "35.18601063423646",
    "lng": "129.100215733053",
    "region": "부산광역시"
  },
  {
    "name": "충렬중학교운동장",
    "address": "부산광역시 동래구 명장동 149-9",
    "lat": "35.20274181648497",
    "lng": "129.10862259363984",
    "region": "부산광역시"
  },
  {
    "name": "새싹공원",
    "address": "부산광역시 연제구 연산동 2132-1",
    "lat": "35.17560025662153",
    "lng": "129.09273338848965",
    "region": "부산광역시"
  },
  {
    "name": "동의중학교운동장",
    "address": "부산광역시 부산진구 전포동 12-15",
    "lat": "35.16472101691096",
    "lng": "129.07070149111814",
    "region": "부산광역시"
  },
  {
    "name": "동아고등학교운동장",
    "address": "부산광역시 사하구 괴정동 619-41",
    "lat": "35.09319989139619",
    "lng": "128.98510336876146",
    "region": "부산광역시"
  },
  {
    "name": "동아공업고등학교운동장",
    "address": "부산광역시 사하구 괴정동 619-46",
    "lat": "35.09301448075281",
    "lng": "128.98833232855497",
    "region": "부산광역시"
  },
  {
    "name": "해동고등학교운동장",
    "address": "부산광역시 사하구 괴정동 613",
    "lat": "35.093078795764995",
    "lng": "128.9911171879909",
    "region": "부산광역시"
  },
  {
    "name": "개금초등학교운동장",
    "address": "부산광역시 부산진구 개금동 467-1",
    "lat": "35.15442878489334",
    "lng": "129.01975620377084",
    "region": "부산광역시"
  },
  {
    "name": "성남초등학교 운동장",
    "address": "부산광역시 동구 범일동 305-6",
    "lat": "35.13502762635318",
    "lng": "129.05844935846292",
    "region": "부산광역시"
  },
  {
    "name": "반여중학교운동장",
    "address": "부산광역시 해운대구 반여동 1594-74",
    "lat": "35.20021001703203",
    "lng": "129.13541436195146",
    "region": "부산광역시"
  },
  {
    "name": "부산센텀여자고등학교운동장",
    "address": "부산광역시 해운대구 우동 1025-127",
    "lat": "35.16574145952456",
    "lng": "129.14480547798635",
    "region": "부산광역시"
  },
  {
    "name": "센텀중학교운동장",
    "address": "부산광역시 해운대구 재송동 1206",
    "lat": "35.17504924086651",
    "lng": "129.12329077720622",
    "region": "부산광역시"
  },
  {
    "name": "신도초등학교운동장",
    "address": "부산광역시 해운대구 좌동 1346",
    "lat": "35.16912508864537",
    "lng": "129.1670215129831",
    "region": "부산광역시"
  },
  {
    "name": "해동초등학교운동장",
    "address": "부산광역시 해운대구 우동 350",
    "lat": "35.170006368446614",
    "lng": "129.15555894397627",
    "region": "부산광역시"
  },
  {
    "name": "광무여자중학교운동장",
    "address": "부산광역시 부산진구 개금동 55",
    "lat": "35.16192200883757",
    "lng": "129.03007265603597",
    "region": "부산광역시"
  },
  {
    "name": "연제중학교 운동장",
    "address": "부산광역시 연제구 연산동 1777-10",
    "lat": "35.178749972552815",
    "lng": "129.08959150314493",
    "region": "부산광역시"
  },
  {
    "name": "수정산가족 체육공원",
    "address": "부산광역시 동구 수정동 711-1",
    "lat": "35.13292401399881",
    "lng": "129.03746277094024",
    "region": "부산광역시"
  },
  {
    "name": "연잎공원",
    "address": "부산광역시 연제구 연산동 477-1",
    "lat": "35.185919310191956",
    "lng": "129.10824199717877",
    "region": "부산광역시"
  },
  {
    "name": "모동초등학교 운동장",
    "address": "부산광역시 사상구 모라동 75-11",
    "lat": "35.18500663210682",
    "lng": "129.0019422769559",
    "region": "부산광역시"
  },
  {
    "name": "주감초등학교 운동장",
    "address": "부산광역시 사상구 주례동 319",
    "lat": "35.1534593362293",
    "lng": "129.0008665773339",
    "region": "부산광역시"
  },
  {
    "name": "거성중학교 운동장",
    "address": "부산광역시 연제구 거제동 643-173",
    "lat": "35.18327480888973",
    "lng": "129.06665861606749",
    "region": "부산광역시"
  },
  {
    "name": "개금건강공원",
    "address": "부산광역시 부산진구 개금동 540-288",
    "lat": "35.14882050890123",
    "lng": "129.02250153672583",
    "region": "부산광역시"
  },
  {
    "name": "금성고등학교 운동장",
    "address": "부산광역시 동구 좌천동 747-2",
    "lat": "35.135341091813814",
    "lng": "129.05190164681622",
    "region": "부산광역시"
  },
  {
    "name": "하이자동차운전학원 ",
    "address": "부산광역시 연제구 연산동 2022-462",
    "lat": "35.16784638751452",
    "lng": "129.08699923444152",
    "region": "부산광역시"
  },
  {
    "name": "연일초등학교 운동장",
    "address": "부산광역시 연제구 연산동 1016",
    "lat": "35.184857565230615",
    "lng": "129.0952992439287",
    "region": "부산광역시"
  },
  {
    "name": "수안초등학교 운동장",
    "address": "부산광역시 동래구 수안동 7-1",
    "lat": "35.20031696111549",
    "lng": "129.08037407280318",
    "region": "부산광역시"
  },
  {
    "name": "수정초등학교 운동장",
    "address": "부산광역시 동구 수정동 464-2",
    "lat": "35.13143875923754",
    "lng": "129.04621675342446",
    "region": "부산광역시"
  },
  {
    "name": "미남초등학교 운동장",
    "address": "부산광역시 동래구 온천동 1460-1",
    "lat": "35.203446600492164",
    "lng": "129.07276070139125",
    "region": "부산광역시"
  },
  {
    "name": "백양근린공원",
    "address": "부산광역시 북구 만덕동 843",
    "lat": "35.20662720089972",
    "lng": "129.0384042263045",
    "region": "부산광역시"
  },
  {
    "name": "양동초등학교운동장",
    "address": "부산광역시 부산진구 양정동 24",
    "lat": "35.17127783570261",
    "lng": "129.08108345162404",
    "region": "부산광역시"
  },
  {
    "name": "꿈동산 어린이공원",
    "address": "부산광역시 부산진구 양정동 91-2",
    "lat": "35.174396810894685",
    "lng": "129.07746715649097",
    "region": "부산광역시"
  },
  {
    "name": "부산중학교 운동장",
    "address": "부산광역시 동구 초량동 773-2",
    "lat": "35.122621230286256",
    "lng": "129.03745236586278",
    "region": "부산광역시"
  },
  {
    "name": "영가대",
    "address": "부산광역시 동구 범일동 358-2",
    "lat": "35.135174893534554",
    "lng": "129.06141446389265",
    "region": "부산광역시"
  },
  {
    "name": "신호중학교 운동장",
    "address": "부산광역시 강서구 신호동 302-1",
    "lat": "35.08164214258517",
    "lng": "128.8767904043212",
    "region": "부산광역시"
  },
  {
    "name": "동일중앙초등학교 운동장",
    "address": "부산광역시 동구 수정동 1073-1",
    "lat": "35.1250655024658",
    "lng": "129.0378661421415",
    "region": "부산광역시"
  },
  {
    "name": "토현중학교 운동장",
    "address": "부산광역시 연제구 연산동 2219",
    "lat": "35.181718328688035",
    "lng": "129.1111564636248",
    "region": "부산광역시"
  },
  {
    "name": "미래공원",
    "address": "부산광역시 북구 금곡동 811-2",
    "lat": "35.257527",
    "lng": "129.014132",
    "region": "부산광역시"
  },
  {
    "name": "부산진중학교운동장",
    "address": "부산광역시 부산진구 범전동 227-1",
    "lat": "35.16404213611408",
    "lng": "129.05588007880505",
    "region": "부산광역시"
  },
  {
    "name": "초량초등학교 운동장",
    "address": "부산광역시 동구 초량동 994-13",
    "lat": "35.116260950178365",
    "lng": "129.0363797110863",
    "region": "부산광역시"
  },
  {
    "name": "증산공원",
    "address": "부산광역시 동구 범일동 산81-28",
    "lat": "35.137874732776496",
    "lng": "129.05133515596538",
    "region": "부산광역시"
  },
  {
    "name": "학진초등학교 운동장",
    "address": "부산광역시 사상구 엄궁동 25-21",
    "lat": "35.13308219387903",
    "lng": "128.9747973612267",
    "region": "부산광역시"
  },
  {
    "name": "주감중학교 운동장",
    "address": "부산광역시 사상구 주례동 995",
    "lat": "35.15627928725671",
    "lng": "128.99564183894805",
    "region": "부산광역시"
  },
  {
    "name": "가평초등학교운동장",
    "address": "부산광역시 부산진구 가야동 649-19",
    "lat": "35.148777557895436",
    "lng": "129.02499327109322",
    "region": "부산광역시"
  },
  {
    "name": "동주중학교 운동장",
    "address": "부산광역시 사상구 주례동 543",
    "lat": "35.14563471312605",
    "lng": "129.00408267974979",
    "region": "부산광역시"
  },
  {
    "name": "대덕여자고등학교 운동장",
    "address": "부산광역시 사상구 덕포동 산8-41",
    "lat": "35.178747",
    "lng": "128.993367",
    "region": "부산광역시"
  },
  {
    "name": "천가초등학교 운동장",
    "address": "부산광역시 강서구 성북동 369",
    "lat": "35.05164493466673",
    "lng": "128.83119016885826",
    "region": "부산광역시"
  },
  {
    "name": "금강초등학교 운동장",
    "address": "부산광역시 동래구 온천동 1263",
    "lat": "35.20282294373807",
    "lng": "129.06451167114045",
    "region": "부산광역시"
  },
  {
    "name": "동평여자중학교운동장",
    "address": "부산광역시 부산진구 부암동 450-1",
    "lat": "35.170365846503245",
    "lng": "129.04273921053098",
    "region": "부산광역시"
  },
  {
    "name": "주례초등학교운동장",
    "address": "부산광역시 부산진구 개금동 630-5",
    "lat": "35.14547800491866",
    "lng": "129.01869265189035",
    "region": "부산광역시"
  },
  {
    "name": "신촌초등학교운동장",
    "address": "부산광역시 사하구 신평동 39",
    "lat": "35.09061896381498",
    "lng": "128.98044705391473",
    "region": "부산광역시"
  },
  {
    "name": "홍티문화공원",
    "address": "부산광역시 사하구 다대동 1608",
    "lat": "35.06206509150079",
    "lng": "128.95902448135658",
    "region": "부산광역시"
  },
  {
    "name": "서천초등학교운동장",
    "address": "부산광역시 사하구 감천동 506-1",
    "lat": "35.08859322959997",
    "lng": "129.0036696195593",
    "region": "부산광역시"
  },
  {
    "name": "장림초등학교운동장",
    "address": "부산광역시 사하구 장림동 182",
    "lat": "35.081491252817884",
    "lng": "128.97620959584717",
    "region": "부산광역시"
  },
  {
    "name": "괴정초등학교운동장",
    "address": "부산광역시 사하구 괴정동 230",
    "lat": "35.10355625439476",
    "lng": "128.9996496730949",
    "region": "부산광역시"
  },
  {
    "name": "영남중학교운동장",
    "address": "부산광역시 사하구 장림동 3-4",
    "lat": "35.075324853243224",
    "lng": "128.98189544678098",
    "region": "부산광역시"
  },
  {
    "name": "삼성여자고등학교운동장",
    "address": "부산광역시 사하구 감천동 593",
    "lat": "35.09327011957388",
    "lng": "128.99785995483498",
    "region": "부산광역시"
  },
  {
    "name": "가야여자중학교운동장",
    "address": "부산광역시 부산진구 가야동 414-14",
    "lat": "35.148001019380516",
    "lng": "129.03606615958907",
    "region": "부산광역시"
  },
  {
    "name": "경남공업고등학교운동장",
    "address": "부산광역시 부산진구 전포동 696-1",
    "lat": "35.15284387343098",
    "lng": "129.06378669665204",
    "region": "부산광역시"
  },
  {
    "name": "초연중학교운동장",
    "address": "부산광역시 부산진구 초읍동 50",
    "lat": "35.17992017712864",
    "lng": "129.04449082010555",
    "region": "부산광역시"
  },
  {
    "name": "초연공원",
    "address": "부산광역시 부산진구 초읍동 산61-10",
    "lat": "35.1804909131659",
    "lng": "129.04911246488658",
    "region": "부산광역시"
  },
  {
    "name": "부산서중학교 운동장",
    "address": "부산광역시 동구 수정동 1048-689",
    "lat": "35.12517598464078",
    "lng": "129.03680294752257",
    "region": "부산광역시"
  },
  {
    "name": "범일초등학교 운동장",
    "address": "부산광역시 동구 범일�� 1411-3",
    "lat": "35.139309925517665",
    "lng": "129.05020992194113",
    "region": "부산광역시"
  },
  {
    "name": "남산정공원",
    "address": "부산광역시 북구 덕천동 814-7",
    "lat": "35.21574655629604",
    "lng": "129.02280159883665",
    "region": "부산광역시"
  },
  {
    "name": "부산국제고등학교운동장",
    "address": "부산광역시 부산진구 당감동 897",
    "lat": "35.16758349649663",
    "lng": "129.02384548602052",
    "region": "부산광역시"
  },
  {
    "name": "부산컴퓨터과학고등학교운동장",
    "address": "부산광역시 동구 초량동 827-6",
    "lat": "35.121187252798165",
    "lng": "129.0337516289557",
    "region": "부산광역시"
  },
  {
    "name": "경남여자중학교 운동장",
    "address": "부산광역시 동구 수정동 363-4",
    "lat": "35.12355535833687",
    "lng": "129.0429462660672",
    "region": "부산광역시"
  },
  {
    "name": "과정초등학교 운동장",
    "address": "부산광역시 연제구 연산동 473-1",
    "lat": "35.18677926560939",
    "lng": "129.10991297649167",
    "region": "부산광역시"
  },
  {
    "name": "반여초등학교운동장",
    "address": "부산광역시 해운대구 반여동 1600-12",
    "lat": "35.202726104472234",
    "lng": "129.12854254246167",
    "region": "부산광역시"
  },
  {
    "name": "부흥고등학교운동장",
    "address": "부산광역시 해운대구 좌동 1306",
    "lat": "35.173545222376326",
    "lng": "129.17976737022826",
    "region": "부산광역시"
  },
  {
    "name": "삼어초등학교운동장",
    "address": "부산광역시 해운대구 반여동 1132-2",
    "lat": "35.208213885378754",
    "lng": "129.11626338958496",
    "region": "부산광역시"
  },
  {
    "name": "상당초등학교운동장",
    "address": "부산광역시 해운대구 좌동 1405",
    "lat": "35.17966156322418",
    "lng": "129.17642906689287",
    "region": "부산광역시"
  },
  {
    "name": "송정초등학교운동장",
    "address": "부산광역시 해운대구 송정동 935",
    "lat": "35.189042294643805",
    "lng": "129.2046797275525",
    "region": "부산광역시"
  },
  {
    "name": "운송초등학교운동장",
    "address": "부산광역시 해운대구 반송동 683-1",
    "lat": "35.228737177074066",
    "lng": "129.14649724960464",
    "region": "부산광역시"
  },
  {
    "name": "인지중학교운동장",
    "address": "부산광역시 해운대구 반여동 1621",
    "lat": "35.20342743899613",
    "lng": "129.12531852721986",
    "region": "부산광역시"
  },
  {
    "name": "인지초등학교운동장",
    "address": "부산광역시 해운대구 반여동 1625",
    "lat": "35.20264915358925",
    "lng": "129.12495709449033",
    "region": "부산광역시"
  },
  {
    "name": "장산중학교운동장",
    "address": "부산광역시 해운대구 반여동 1411-8",
    "lat": "35.19897386190298",
    "lng": "129.11684274673905",
    "region": "부산광역시"
  },
  {
    "name": "좌동초등학교운동장",
    "address": "부산광역시 해운대구 좌동 1292",
    "lat": "35.175825356143726",
    "lng": "129.17449951172267",
    "region": "부산광역시"
  },
  {
    "name": "해림초등학교운동장",
    "address": "부산광역시 해운대구 우동 1025-11",
    "lat": "35.164441589561385",
    "lng": "129.14403498172413",
    "region": "부산광역시"
  },
  {
    "name": "해운대여자고등학교운동장",
    "address": "부산광역시 해운대구 우동 산100-2",
    "lat": "35.16980917267782",
    "lng": "129.1536587476804",
    "region": "부산광역시"
  },
  {
    "name": "그린달님공원",
    "address": "부산광역시 북구 화명동 306",
    "lat": "35.245136537141434",
    "lng": "129.0238530846302",
    "region": "부산광역시"
  },
  {
    "name": "신라중학교 운동장",
    "address": "부산광역시 사상구 덕포동 65",
    "lat": "35.169906912105034",
    "lng": "128.99360383542017",
    "region": "부산광역시"
  },
  {
    "name": "사상고등학교 운동장",
    "address": "부산광역시 사상구 덕포동 150-1",
    "lat": "35.16856915861036",
    "lng": "128.98557152142965",
    "region": "부산광역시"
  },
  {
    "name": "감전당산공원",
    "address": "부산광역시 사상구 감전동 920-8",
    "lat": "35.154659479812885",
    "lng": "128.97954144691852",
    "region": "부산광역시"
  },
  {
    "name": "거제초등학교 운동장",
    "address": "부산광역시 연제구 거제동 676-152",
    "lat": "35.177816036018385",
    "lng": "129.06715750694428",
    "region": "부산광역시"
  },
  {
    "name": "세정고등학교운동장",
    "address": "부산광역시 부산진구 양정동 16-185",
    "lat": "35.17008283298478",
    "lng": "129.0787680070306",
    "region": "부산광역시"
  },
  {
    "name": "시청등대광장",
    "address": "부산광역시 연제구 연산동 1000",
    "lat": "35.179918336090694",
    "lng": "129.07464269413285",
    "region": "부산광역시"
  },
  {
    "name": "남부민초등학교 운동장",
    "address": "부산광역시 서구 남부민동 76",
    "lat": "35.089697184169026",
    "lng": "129.02284741401527",
    "region": "부산광역시"
  },
  {
    "name": "동평초등학교운동장",
    "address": "부산광역시 부산진구 당감동 705-1",
    "lat": "35.167111006163374",
    "lng": "129.03520793225897",
    "region": "부산광역시"
  },
  {
    "name": "동평중학교운동장",
    "address": "부산광역시 부산진구 부암동 452-17",
    "lat": "35.17103560526412",
    "lng": "129.0416587338325",
    "region": "부산광역시"
  },
  {
    "name": "부암초등학교운동장",
    "address": "부산광역시 부산진구 부암동 275",
    "lat": "35.164770495774455",
    "lng": "129.0486770868316",
    "region": "부산광역시"
  },
  {
    "name": "가야고등학교운동장",
    "address": "부산광역시 부산진구 가야동 산34",
    "lat": "35.14597685464247",
    "lng": "129.03141975402966",
    "region": "부산광역시"
  },
  {
    "name": "연제고등학교 운동장",
    "address": "부산광역시 연제구 연산동 2143",
    "lat": "35.17732494771447",
    "lng": "129.09142076969312",
    "region": "부산광역시"
  },
  {
    "name": "과정공원",
    "address": "부산광역시 연제구 연산동 407",
    "lat": "35.18739259647632",
    "lng": "129.10197043197044",
    "region": "부산광역시"
  },
  {
    "name": "동래사적공원(읍성광장)",
    "address": "부산광역시 동래구 복천동 1-2",
    "lat": "35.209266779849735",
    "lng": "129.08917753164636",
    "region": "부산광역시"
  },
  {
    "name": "사직여자고등학교 운동장",
    "address": "부산광역시 동래구 사직동 981-1",
    "lat": "35.196590773036014",
    "lng": "129.05206343929794",
    "region": "부산광역시"
  },
  {
    "name": "동인고등학교 운동장",
    "address": "부산광역시 동래구 사직동 981-90",
    "lat": "35.197797845077844",
    "lng": "129.0507012432404",
    "region": "부산광역시"
  },
  {
    "name": "경남중학교 운동장",
    "address": "부산광역시 서구 토성동3가 12",
    "lat": "35.10016096560021",
    "lng": "129.0203797817221",
    "region": "부산광역시"
  },
  {
    "name": "동주초등학교  운동장 ",
    "address": "부산광역시 사상구 주례동 531",
    "lat": "35.14681793046613",
    "lng": "129.00534840260374",
    "region": "부산광역시"
  },
  {
    "name": "부산솔빛학교 운동장",
    "address": "부산광역시 사상구 삼락동 365-8",
    "lat": "35.182152392361544",
    "lng": "128.97882699966542",
    "region": "부산광역시"
  },
  {
    "name": "가락초등학교 운동장",
    "address": "부산광역시 강서구 죽림동 623-2",
    "lat": "35.19590207620028",
    "lng": "128.8959894266949",
    "region": "부산광역시"
  },
  {
    "name": "동원초등학교운동장",
    "address": "부산광역시 부산진구 당감동 786-2",
    "lat": "35.17306045874873",
    "lng": "129.03118969056064",
    "region": "부산광역시"
  },
  {
    "name": "부산진고등학교운동장",
    "address": "부산광역시 부산진구 초읍동 541-1",
    "lat": "35.17913468748067",
    "lng": "129.05515094787637",
    "region": "부산광역시"
  },
  {
    "name": "양성초등학교운동장",
    "address": "부산광역시 부산진구 양정동 445-386",
    "lat": "35.17011555554654",
    "lng": "129.0661262145565",
    "region": "부산광역시"
  },
  {
    "name": "동명초등학교 운동장",
    "address": "부산광역시 연제구 연산동 1784-19",
    "lat": "35.17804370428456",
    "lng": "129.09079255978057",
    "region": "부산광역시"
  },
  {
    "name": "한들공원",
    "address": "부산광역시 연제구 연산동 2314",
    "lat": "35.19024980281841",
    "lng": "129.09563551958462",
    "region": "부산광역시"
  },
  {
    "name": "연천중학교 운동장 ",
    "address": "부산광역시 연제구 연산동 272",
    "lat": "35.184682192085305",
    "lng": "129.10164535045794",
    "region": "부산광역시"
  },
  {
    "name": "내산초등학교 운동장",
    "address": "부산광역시 동래구 온천동 700-1",
    "lat": "35.20714844697403",
    "lng": "129.07649385129477",
    "region": "부산광역시"
  },
  {
    "name": "고지대그린테마공원(쌈지공원)",
    "address": "부산광역시 동구 수정동 771-1",
    "lat": "35.130616499365615",
    "lng": "129.04013545857973",
    "region": "부산광역시"
  },
  {
    "name": "부산고등학교 운동장",
    "address": "부산광역시 동구 초량동 806-177",
    "lat": "35.12089874063561",
    "lng": "129.03647417448727",
    "region": "부산광역시"
  },
  {
    "name": "다대중학교운동장",
    "address": "부산광역시 사하구 다대동 945",
    "lat": "35.05712300105225",
    "lng": "128.968510973632",
    "region": "부산광역시"
  },
  {
    "name": "망미초등학교 운동장",
    "address": "부산광역시 수영구 망미동 268-2",
    "lat": "35.175554053359974",
    "lng": "129.11456328427943",
    "region": "부산광역시"
  },
  {
    "name": "남천초등학교 운동장",
    "address": "부산광역시 수영구 남천동 69-24",
    "lat": "35.14344506719717",
    "lng": "129.10803915399634",
    "region": "부산광역시"
  },
  {
    "name": "사하초등학교운동장",
    "address": "부산광역시 사하구 괴정동 768",
    "lat": "35.09960796378047",
    "lng": "128.98752808570782",
    "region": "부산광역시"
  },
  {
    "name": "부산여자상업고등학교 운동장",
    "address": "부산광역시 수영구 망미동 979-15",
    "lat": "35.16944082045621",
    "lng": "129.09651696682144",
    "region": "부산광역시"
  },
  {
    "name": "명진초등학교운동장",
    "address": "부산광역시 북구 화명동 2261",
    "lat": "35.23846747098813",
    "lng": "129.0106560492177",
    "region": "부산광역시"
  },
  {
    "name": "보림초등학교운동장",
    "address": "부산광역시 사하구 장림동 1137",
    "lat": "35.083885343075124",
    "lng": "128.96760463714307",
    "region": "부산광역시"
  },
  {
    "name": "예원초등학교 운동장",
    "address": "부산광역시 동래구 사직동 1018",
    "lat": "35.195707336944835",
    "lng": "129.0574690126257",
    "region": "부산광역시"
  },
  {
    "name": "학산여자중학교 운동장",
    "address": "부산광역시 동래구 명장동 585-13",
    "lat": "35.20504925188165",
    "lng": "129.09627556801007",
    "region": "부산광역시"
  },
  {
    "name": "용인고등학교 운동장",
    "address": "부산광역시 동래구 명장동 562-3",
    "lat": "35.21435020713268",
    "lng": "129.09442041295029",
    "region": "부산광역시"
  },
  {
    "name": "대남초등학교 운동장",
    "address": "부산광역시 남구 대연동 238-38",
    "lat": "35.14857357413818",
    "lng": "129.09735918045033",
    "region": "부산광역시"
  },
  {
    "name": "평화공원 및 수목전시원",
    "address": "부산광역시 남구 대연동 707",
    "lat": "35.126344337511796",
    "lng": "129.10024594698749",
    "region": "부산광역시"
  },
  {
    "name": "구덕고등학교 운동장",
    "address": "부산광역시 사상구 학장동 180-9",
    "lat": "35.138518135944615",
    "lng": "128.9914709329617",
    "region": "부산광역시"
  },
  {
    "name": "부산예술고등학교 운동장",
    "address": "부산광역시 금정구 부곡동 산7-1",
    "lat": "35.24452807898174",
    "lng": "129.09534125528634",
    "region": "부산광역시"
  },
  {
    "name": "연제구청주차장",
    "address": "부산광역시 연제구 연산동 1555",
    "lat": "35.176221610148716",
    "lng": "129.07961520502272",
    "region": "부산광역시"
  },
  {
    "name": "부곡중학교 운동장",
    "address": "부산광역시 금정구 부곡동 산56-3",
    "lat": "35.230896022268226",
    "lng": "129.09593103674644",
    "region": "부산광역시"
  },
  {
    "name": "지산고등학교 운동장",
    "address": "부산광역시 금정구 부곡동 8-11",
    "lat": "35.243484512610934",
    "lng": "129.09786489153416",
    "region": "부산광역시"
  },
  {
    "name": "금정여자고등학교 운동장",
    "address": "부산광역시 금정구 서동 461-2",
    "lat": "35.22011117670904",
    "lng": "129.10096060517313",
    "region": "부산광역시"
  },
  {
    "name": "금양초등학교 운동장",
    "address": "부산광역시 금정구 부곡동 63-27",
    "lat": "35.24113871167407",
    "lng": "129.0922236530262",
    "region": "부산광역시"
  },
  {
    "name": "금샘초등학교 운동장",
    "address": "부산광역시 금정구 남산동 553-2",
    "lat": "35.26871136525774",
    "lng": "129.08426632454726",
    "region": "부산광역시"
  },
  {
    "name": "남산고등학교 운동장",
    "address": "부산광역시 금정구 남산동 982",
    "lat": "35.267540613220525",
    "lng": "129.085868588782",
    "region": "부산광역시"
  },
  {
    "name": "금양중학교 운동장",
    "address": "부산광역시 금정구 부곡동 354-1",
    "lat": "35.23333809972012",
    "lng": "129.09476280212573",
    "region": "부산광역시"
  },
  {
    "name": "남산중학교 운동장",
    "address": "부산광역시 금정구 남산동 31-11",
    "lat": "35.259376379132476",
    "lng": "129.09351177881754",
    "region": "부산광역시"
  },
  {
    "name": "금빛초등학교 운동장",
    "address": "부산광역시 금정구 장전동 714",
    "lat": "35.2274870693884",
    "lng": "129.0804195618292",
    "region": "부산광역시"
  },
  {
    "name": "명호고등학교 운동장",
    "address": "부산광역시 강서구 명지동 3236-3",
    "lat": "35.08000030900888",
    "lng": "128.90012025833752",
    "region": "부산광역시"
  },
  {
    "name": "부산진여자중학교운동장",
    "address": "부산광역시 부산진구 전포동 342-25",
    "lat": "35.153991821742274",
    "lng": "129.0691630414429",
    "region": "부산광역시"
  },
  {
    "name": "항도중학교운동장",
    "address": "부산광역시 부산진구 전포동 175-33",
    "lat": "35.162330267525036",
    "lng": "129.06648004295445",
    "region": "부산광역시"
  },
  {
    "name": "부산동고등학교운동장",
    "address": "부산광역시 부산진구 전포동 449-8",
    "lat": "35.152568401648885",
    "lng": "129.07057879163804",
    "region": "부산광역시"
  },
  {
    "name": "당평초등학교운동장",
    "address": "부산광역시 부산진구 당감동 517",
    "lat": "35.16139288655488",
    "lng": "129.03491100744495",
    "region": "부산광역시"
  },
  {
    "name": "초읍초등학교운동장",
    "address": "부산광역시 부산진구 초읍동 540",
    "lat": "35.18044342277755",
    "lng": "129.05397527304078",
    "region": "부산광역시"
  },
  {
    "name": "부산진여자고등학교운동장",
    "address": "부산광역시 부산진구 양정동 산31-2",
    "lat": "35.16932899891502",
    "lng": "129.07509148121036",
    "region": "부산광역시"
  },
  {
    "name": "선암초등학교운동장",
    "address": "부산광역시 부산진구 범천동 1223-27",
    "lat": "35.14909702772257",
    "lng": "129.04951053256778",
    "region": "부산광역시"
  },
  {
    "name": "동해중학교 운동장",
    "address": "부산광역시 동래구 명륜동 8-25",
    "lat": "35.21704527795543",
    "lng": "129.08852934837506",
    "region": "부산광역시"
  },
  {
    "name": "덕내공원",
    "address": "부산광역시 북구 덕천동 342-6",
    "lat": "35.213784567956324",
    "lng": "129.01377081871163",
    "region": "부산광역시"
  },
  {
    "name": "혜화여자고등학교 운동장",
    "address": "부산광역시 동래구 명장동 산13",
    "lat": "35.202848838450876",
    "lng": "129.1112637519854",
    "region": "부산광역시"
  },
  {
    "name": "센텀초등학교운동장",
    "address": "부산광역시 해운대구 재송동 1198",
    "lat": "35.180744965360944",
    "lng": "129.1222500801117",
    "region": "부산광역시"
  },
  {
    "name": "신도고등학교운동장",
    "address": "부산광역시 해운대구 좌동 1344",
    "lat": "35.171212403962556",
    "lng": "129.16749894619034",
    "region": "부산광역시"
  },
  {
    "name": "신도중학교운동장",
    "address": "부산광역시 해운대구 좌동 1345",
    "lat": "35.17036169788576",
    "lng": "129.1669785976419",
    "region": "부산광역시"
  },
  {
    "name": "해강초등학교운동장",
    "address": "부산광역시 해운대구 우동 993-26",
    "lat": "35.16218744984296",
    "lng": "129.14113283157965",
    "region": "부산광역시"
  },
  {
    "name": "해운대중학교운동장",
    "address": "부산광역시 해운대구 우동 278-13",
    "lat": "35.171361495868624",
    "lng": "129.16146397590947",
    "region": "부산광역시"
  },
  {
    "name": "해운대초등학교운동장",
    "address": "부산광역시 해운대구 중동 1234",
    "lat": "35.164340724721676",
    "lng": "129.16605591774197",
    "region": "부산광역시"
  },
  {
    "name": "연제초등학교 운동장",
    "address": "부산광역시 연제구 연산동 1300",
    "lat": "35.184242563906366",
    "lng": "129.07853280968135",
    "region": "부산광역시"
  },
  {
    "name": "사직여자중학교 운동장",
    "address": "부산광역시 동래구 사직동 977-5",
    "lat": "35.19381408503241",
    "lng": "129.0552390296438",
    "region": "부산광역시"
  },
  {
    "name": "동신초등학교 운동장",
    "address": "부산광역시 서구 동대신동3가 315",
    "lat": "35.114182285807786",
    "lng": "129.01793842219237",
    "region": "부산광역시"
  },
  {
    "name": "학산여자고등학교 운동장",
    "address": "부산광역시 동래구 명장동 산85-6",
    "lat": "35.2064464562836",
    "lng": "129.09641269604035",
    "region": "부산광역시"
  },
  {
    "name": "주학초등학교 운동장",
    "address": "부산광역시 사상구 주례동 84-192",
    "lat": "35.145720377317076",
    "lng": "129.0124495791179",
    "region": "부산광역시"
  },
  {
    "name": "수정공원",
    "address": "부산광역시 북구 화명동 2321",
    "lat": "35.2227925430429",
    "lng": "129.00630034976447",
    "region": "부산광역시"
  },
  {
    "name": "엄궁초등학교 운동장",
    "address": "부산광역시 사상구 엄궁동 47",
    "lat": "35.12894260174654",
    "lng": "128.9742136001598",
    "region": "부산광역시"
  },
  {
    "name": "거학초등학교 운동장",
    "address": "부산광역시 연제구 거제동 240",
    "lat": "35.197075757286775",
    "lng": "129.07700121402897",
    "region": "부산광역시"
  },
  {
    "name": "모산초등학교 운동장",
    "address": "부산광역시 사상구 모라동 550",
    "lat": "35.18536614521211",
    "lng": "128.99544596672177",
    "region": "부산광역시"
  },
  {
    "name": "동궁초등학교 운동장",
    "address": "부산광역시 사상구 엄궁동 680-4",
    "lat": "35.12336610374605",
    "lng": "128.97419214248765",
    "region": "부산광역시"
  },
  {
    "name": "사상초등학교 운동장",
    "address": "부산광역시 사상구 덕포동 692-1",
    "lat": "35.167971901725714",
    "lng": "128.9828297671519",
    "region": "부산광역시"
  },
  {
    "name": "구학초등학교 운동장",
    "address": "부산광역시 사상구 학장동 168-15",
    "lat": "35.13777822186285",
    "lng": "128.99291396141172",
    "region": "부산광역시"
  },
  {
    "name": "남문초등학교 운동장",
    "address": "부산광역시 연제구 거제동 1474",
    "lat": "35.19409481063816",
    "lng": "129.06975924968873",
    "region": "부산광역시"
  },
  {
    "name": "부산서여자고등학교 운동장",
    "address": "부산광역시 서구 동대신동2가 75-2",
    "lat": "35.1133945076106",
    "lng": "129.0217185004609",
    "region": "부산광역시"
  },
  {
    "name": "연동초등학교 운동장 ",
    "address": "부산광역시 연제구 연산동 799",
    "lat": "35.18437078690845",
    "lng": "129.08819028799167",
    "region": "부산광역시"
  },
  {
    "name": "명동초등학교 운동장",
    "address": "부산광역시 동래구 명장동 433-2",
    "lat": "35.20690879523497",
    "lng": "129.10644203503455",
    "region": "부산광역시"
  },
  {
    "name": "재송여자중학교운동장",
    "address": "부산광역시 해운대구 재송동 1157",
    "lat": "35.189456590861134",
    "lng": "129.1306614875826",
    "region": "부산광역시"
  },
  {
    "name": "재송중학교운동장",
    "address": "부산광역시 해운대구 재송동 1033-1",
    "lat": "35.1936783461518",
    "lng": "129.12809729575875",
    "region": "부산광역시"
  },
  {
    "name": "해운대공업고등학교운동장",
    "address": "부산광역시 해운대구 우동 934-2",
    "lat": "35.167287680620944",
    "lng": "129.14474844932448",
    "region": "부산광역시"
  },
  {
    "name": "해운대여자중학교운동장",
    "address": "부산광역시 해운대구 우동 908",
    "lat": "35.16802878813637",
    "lng": "129.15395915508475",
    "region": "부산광역시"
  },
  {
    "name": "동백초등학교운동장",
    "address": "부산광역시 해운대구 중동 1518-1",
    "lat": "35.16385394048087",
    "lng": "129.18048083781994",
    "region": "부산광역시"
  },
  {
    "name": "상당중학교운동장",
    "address": "부산광역시 해운대구 좌동 1406",
    "lat": "35.17852197025513",
    "lng": "129.17593181133515",
    "region": "부산광역시"
  },
  {
    "name": "좌산초등학교운동장",
    "address": "부산광역시 해운대구 좌동 1444",
    "lat": "35.16867509095814",
    "lng": "129.18404647152022",
    "region": "부산광역시"
  },
  {
    "name": "덕상초등학교 운동장",
    "address": "부산광역시 사상구 덕포동 775-1",
    "lat": "35.17451132464068",
    "lng": "128.99050004425743",
    "region": "부산광역시"
  },
  {
    "name": "덕두초등학교 운동장",
    "address": "부산광역시 강서구 대저2동 2489-1",
    "lat": "35.175079934830855",
    "lng": "128.95599603653056",
    "region": "부산광역시"
  },
  {
    "name": "부산항공고등학교 운동장",
    "address": "부산광역시 사상구 덕포동 45-6",
    "lat": "35.17208550569681",
    "lng": "128.99214084185417",
    "region": "부산광역시"
  },
  {
    "name": "광안초등학교 운동장",
    "address": "부산광역시 수영구 광안동 154",
    "lat": "35.156861",
    "lng": "129.117096",
    "region": "부산광역시"
  },
  {
    "name": "명륜초등학교 운동장",
    "address": "부산광역시 동래구 명륜동 228",
    "lat": "35.20803753217152",
    "lng": "129.0829651489659",
    "region": "부산광역시"
  },
  {
    "name": "여명중학교 운동장",
    "address": "부산광역시 동래구 사직동 130-1",
    "lat": "35.19559780981302",
    "lng": "129.07035652310913",
    "region": "부산광역시"
  },
  {
    "name": "학장초등학교 운동장",
    "address": "부산광역시 사상구 학장동 242-1",
    "lat": "35.145873621342965",
    "lng": "128.98375509001323",
    "region": "부산광역시"
  },
  {
    "name": "부민초등학교 운동장",
    "address": "부산광역시 서구 부용동2가 11",
    "lat": "35.106431521033414",
    "lng": "129.0195072556931",
    "region": "부산광역시"
  },
  {
    "name": "엄궁중학교 운동장",
    "address": "부산광역시 사상구 엄궁동 2",
    "lat": "35.13499660199708",
    "lng": "128.97554207993727",
    "region": "부산광역시"
  },
  {
    "name": "부산관광고등학교 운동장",
    "address": "부산광역시 서구 남부민동 611",
    "lat": "35.08320931654375",
    "lng": "129.0216243267054",
    "region": "부산광역시"
  },
  {
    "name": "부산시민공원",
    "address": "부산광역시 부산진구 범전동 200",
    "lat": "35.16647640132833",
    "lng": "129.05578494072105",
    "region": "부산광역시"
  },
  {
    "name": "온천중학교 운동장",
    "address": "부산광역시 동래구 온천동 1622",
    "lat": "35.20397054838407",
    "lng": "129.0590619423378",
    "region": "부산광역시"
  },
  {
    "name": "여고초등학교 운동장",
    "address": "부산광역시 동래구 사직동 126-1",
    "lat": "35.19790720658614",
    "lng": "129.06955626268137",
    "region": "부산광역시"
  },
  {
    "name": "개화초등학교운동장",
    "address": "부산광역시 부산진구 개금동 404",
    "lat": "35.15833989095592",
    "lng": "129.02060130549998",
    "region": "부산광역시"
  },
  {
    "name": "개성고등학교운동장",
    "address": "부산광역시 부산진구 당감동 642",
    "lat": "35.16925985638229",
    "lng": "129.03070313912093",
    "region": "부산광역시"
  },
  {
    "name": "아미초등학교 운동장",
    "address": "부산광역시 서구 아미동2가 89",
    "lat": "35.09837101905532",
    "lng": "129.01599992854702",
    "region": "부산광역시"
  },
  {
    "name": "경원고등학교운동장",
    "address": "부산광역시 부산진구 당감동 611-1",
    "lat": "35.163292946907895",
    "lng": "129.03165299311502",
    "region": "부산광역시"
  },
  {
    "name": "개금여자중학교운동장",
    "address": "부산광역시 부산진구 당감동 611-2",
    "lat": "35.163415601422436",
    "lng": "129.03297845878987",
    "region": "부산광역시"
  },
  {
    "name": "연제문화체육공원",
    "address": "부산광역시 연제구 연산동 952-46",
    "lat": "35.18484043089612",
    "lng": "129.09114360396188",
    "region": "부산광역시"
  },
  {
    "name": "달북초등학교 운동장",
    "address": "부산광역시 동래구 온천동 1602",
    "lat": "35.20376933737901",
    "lng": "129.06011939048915",
    "region": "부산광역시"
  },
  {
    "name": "주례여자고등학교 운동장",
    "address": "부산광역시 사상구 주례동 84-176",
    "lat": "35.145082019945626",
    "lng": "129.01376545429358",
    "region": "부산광역시"
  },
  {
    "name": "옛골공원",
    "address": "부산광역시 연제구 연산동 2274",
    "lat": "35.18727736526573",
    "lng": "129.09027602331247",
    "region": "부산광역시"
  },
  {
    "name": "연산초등학교 운동장",
    "address": "부산광역시 연제구 연산동 774-1",
    "lat": "35.177886191248135",
    "lng": "129.0843451023118",
    "region": "부산광역시"
  },
  {
    "name": "승학초등학교운동장",
    "address": "부산광역시 사하구 괴정동 354-111",
    "lat": "35.101618063541885",
    "lng": "129.00337457656715",
    "region": "부산광역시"
  },
  {
    "name": "동주여자중학교운동장",
    "address": "부산광역시 사하구 괴정동 380-1",
    "lat": "35.100687630516965",
    "lng": "129.00084257125906",
    "region": "부산광역시"
  },
  {
    "name": "하단초등학교운동장",
    "address": "부산광역시 사하구 하단동 593-1",
    "lat": "35.10504111365199",
    "lng": "128.96459216822956",
    "region": "부산광역시"
  },
  {
    "name": "중현초등학교 운동장",
    "address": "부산광역시 사하구 다대동 1550-4",
    "lat": "35.0505690103822",
    "lng": "128.96658539772676",
    "region": "부산광역시"
  },
  {
    "name": "남도여자중학교 운동장",
    "address": "부산광역시 영도구 신선동2가 102",
    "lat": "35.08715965041744",
    "lng": "129.04569886671885",
    "region": "부산광역시"
  },
  {
    "name": "동삼초등학교 운동장",
    "address": "부산광역시 영도구 동삼동 258",
    "lat": "35.079396439748756",
    "lng": "129.07350702995953",
    "region": "부산광역시"
  },
  {
    "name": "상리초등학교 운동장",
    "address": "부산광역시 영도구 동삼동 1123-11",
    "lat": "35.08396478070864",
    "lng": "129.06781106188743",
    "region": "부산광역시"
  },
  {
    "name": "부산남중학교 운동장",
    "address": "부산광역시 영도구 남항동2가 217-1",
    "lat": "35.08810186818085",
    "lng": "129.03982760052932",
    "region": "부산광역시"
  },
  {
    "name": "청학초등학교 운동장",
    "address": "부산광역시 영도구 청학동 412-3",
    "lat": "35.09317423200913",
    "lng": "129.0590340569336",
    "region": "부산광역시"
  },
  {
    "name": "신선초등학교 운동장",
    "address": "부산광역시 영도구 신선동3가 76-6",
    "lat": "35.08317543187265",
    "lng": "129.0474724180096",
    "region": "부산광역시"
  },
  {
    "name": "봉학초등학교 운동장",
    "address": "부산광역시 영도구 청학동 389-53",
    "lat": "35.095854048923876",
    "lng": "129.05464710648067",
    "region": "부산광역시"
  },
  {
    "name": "명서초등학교 운동장",
    "address": "부산광역시 동래구 명장동 502-1",
    "lat": "35.21172902620214",
    "lng": "129.1008996963518",
    "region": "부산광역시"
  },
  {
    "name": "안남초등학교 운동장",
    "address": "부산광역시 동래구 안락동 175-16",
    "lat": "35.19157407186859",
    "lng": "129.10817384720025",
    "region": "부산광역시"
  },
  {
    "name": "부산조리고등학교 운동장",
    "address": "부산광역시 사상구 삼락동 359-11",
    "lat": "35.18384404934677",
    "lng": "128.98039609196644",
    "region": "부산광역시"
  },
  {
    "name": "안락중학교 운동장",
    "address": "부산광역시 동래구 안락동 175-9",
    "lat": "35.191403402572476",
    "lng": "129.1090963994239",
    "region": "부산광역시"
  },
  {
    "name": "부산맹학교 운동장",
    "address": "부산광역시 동래구 명장동 263-5",
    "lat": "35.20674638272436",
    "lng": "129.09806177788812",
    "region": "부산광역시"
  },
  {
    "name": "안진초등학교 운동장",
    "address": "부산광역시 동래구 안락동 1252",
    "lat": "35.19471683413308",
    "lng": "129.09940152076416",
    "region": "부산광역시"
  },
  {
    "name": "안민초등학교 운동장",
    "address": "부산광역시 동래구 낙민동 85-10",
    "lat": "35.193828992385015",
    "lng": "129.09405612969834",
    "region": "부산광역시"
  },
  {
    "name": "동래원예고등학교 운동장",
    "address": "부산광역시 동래구 온천동 406",
    "lat": "35.21509062075015",
    "lng": "129.07520949840705",
    "region": "부산광역시"
  },
  {
    "name": "유락여자중학교 운동장",
    "address": "부산광역시 동래구 온천동 433-3",
    "lat": "35.214569078698155",
    "lng": "129.07622337341468",
    "region": "부산광역시"
  },
  {
    "name": "금사중학교 운동장",
    "address": "부산광역시 금정구 서동 22",
    "lat": "35.22093143201671",
    "lng": "129.10593712289347",
    "region": "부산광역시"
  },
  {
    "name": "서동초등학교 운동장",
    "address": "부산광역시 금정구 서동 505-10",
    "lat": "35.21908753766814",
    "lng": "129.09770250320605",
    "region": "부산광역시"
  },
  {
    "name": "현곡초등학교 운동장",
    "address": "부산광역시 금정구 부곡동 658-18",
    "lat": "35.227383224597524",
    "lng": "129.0966101777247",
    "region": "부산광역시"
  },
  {
    "name": "감천초등학교운동장",
    "address": "부산광역시 사하구 감천동 212",
    "lat": "35.082984374592",
    "lng": "129.00746961095032",
    "region": "부산광역시"
  },
  {
    "name": "부산일과학고등학교운동장",
    "address": "부산광역시 사하구 당리동 2",
    "lat": "35.116020865253525",
    "lng": "128.98864388465526",
    "region": "부산광역시"
  },
  {
    "name": "사동초등학교운동장",
    "address": "부산광역시 사하구 당리동 467-6",
    "lat": "35.10424252965685",
    "lng": "128.98128390311777",
    "region": "부산광역시"
  },
  {
    "name": "신평레포츠공원",
    "address": "부산광역시 사하구 신평동 651-9",
    "lat": "35.09326202258879",
    "lng": "128.95972113481437",
    "region": "부산광역시"
  },
  {
    "name": "다선초등학교운동장",
    "address": "부산광역시 사하구 다대동 3",
    "lat": "35.0632157141094",
    "lng": "128.98543596268107",
    "region": "부산광역시"
  },
  {
    "name": "삼성중학교운동장",
    "address": "부산광역시 사하구 감천동 564-4",
    "lat": "35.09416552357093",
    "lng": "128.99911522865835",
    "region": "부산광역시"
  },
  {
    "name": "사남초등학교운동장",
    "address": "부산광역시 사하구 괴정동 1206-9",
    "lat": "35.0963776559909",
    "lng": "128.98224949836953",
    "region": "부산광역시"
  },
  {
    "name": "대동고등학교운동장",
    "address": "부산광역시 사하구 구평동 112-24",
    "lat": "35.08677375695765",
    "lng": "128.9833331108145",
    "region": "부산광역시"
  },
  {
    "name": "응봉초등학교운동장",
    "address": "부산광역시 사하구 다대동 1549-4",
    "lat": "35.05264179879892",
    "lng": "128.96545886993377",
    "region": "부산광역시"
  },
  {
    "name": "효림초등학교운동장",
    "address": "부산광역시 사하구 장림동 394",
    "lat": "35.075711192134364",
    "lng": "128.97359132766863",
    "region": "부산광역시"
  },
  {
    "name": "구평초등학교운동장",
    "address": "부산광역시 사하구 구평동 24-19",
    "lat": "35.086826432241665",
    "lng": "128.98959875106965",
    "region": "부산광역시"
  },
  {
    "name": "신선중학교 운동장",
    "address": "부산광역시 영도구 신선동3가 110-1",
    "lat": "35.08025245441983",
    "lng": "129.0454361062781",
    "region": "부산광역시"
  },
  {
    "name": "부산영선중학교 운동장",
    "address": "부산광역시 영도구 신선동3가 8",
    "lat": "35.085433892180326",
    "lng": "129.0443965501525",
    "region": "부산광역시"
  },
  {
    "name": "광명고등학교 운동장",
    "address": "부산광역시 영도구 동삼동 226-118",
    "lat": "35.0831654185248",
    "lng": "129.06434655189665",
    "region": "부산광역시"
  },
  {
    "name": "중리초등학교 운동장",
    "address": "부산광역시 영도구 동삼동 454-34",
    "lat": "35.074021607370256",
    "lng": "129.07063092686255",
    "region": "부산광역시"
  },
  {
    "name": "대평초등학교 운동장",
    "address": "부산광역시 영도구 남항동2가 65-9",
    "lat": "35.08745746286341",
    "lng": "129.03862775122994",
    "region": "부산광역시"
  },
  {
    "name": "영도중학교 운동장",
    "address": "부산광역시 영도구 동삼동 510-5",
    "lat": "35.0771180978523",
    "lng": "129.06894616788372",
    "region": "부산광역시"
  },
  {
    "name": "부산체육고등학교 운동장",
    "address": "부산광역시 영도구 동삼동 525",
    "lat": "35.07095035307397",
    "lng": "129.06515487718616",
    "region": "부산광역시"
  },
  {
    "name": "절영초등학교 운동장",
    "address": "부산광역시 영도구 동삼동 1124-5",
    "lat": "35.07286258652145",
    "lng": "129.06264941514712",
    "region": "부산광역시"
  },
  {
    "name": "봉삼초등학교 운동장",
    "address": "부산광역시 영도구 동삼동 510-8",
    "lat": "35.07472082861582",
    "lng": "129.06377701789125",
    "region": "부산광역시"
  },
  {
    "name": "낙동초등학교운동장",
    "address": "부산광역시 사하구 당리동 313-6",
    "lat": "35.10535418674635",
    "lng": "128.97290664609642",
    "region": "부산광역시"
  },
  {
    "name": "하남중학교운동장",
    "address": "부산광역시 사하구 하단동 1181-2",
    "lat": "35.0992831831903",
    "lng": "128.95891427994346",
    "region": "부산광역시"
  },
  {
    "name": "부산자동차고등학교운동장",
    "address": "부산광역시 사하구 장림동 878",
    "lat": "35.075848177467854",
    "lng": "128.9640416655613",
    "region": "부산광역시"
  },
  {
    "name": "몰운대초등학교운동장",
    "address": "부산광역시 사하구 다대동 1633",
    "lat": "35.054580598833425",
    "lng": "128.96302074194475",
    "region": "부산광역시"
  },
  {
    "name": "다선중학교운동장",
    "address": "부산광역시 사하구 다대동 1549-3",
    "lat": "35.05226413364854",
    "lng": "128.96419286728218",
    "region": "부산광역시"
  },
  {
    "name": "하단중학교운동장",
    "address": "부산광역시 사하구 하단동 502-1",
    "lat": "35.11076086376922",
    "lng": "128.96006239987344",
    "region": "부산광역시"
  },
  {
    "name": "건국중학교운동장",
    "address": "부산광역시 사하구 하단동 산40-1",
    "lat": "35.10940344063089",
    "lng": "128.9692032337172",
    "region": "부산광역시"
  },
  {
    "name": "장평중학교운동장",
    "address": "부산광역시 사하구 감천동 567-9",
    "lat": "35.09368709810237",
    "lng": "128.99456441408012",
    "region": "부산광역시"
  },
  {
    "name": "신남초등학교운동장",
    "address": "부산광역시 사하구 신평동 667-1",
    "lat": "35.0985633945652",
    "lng": "128.96191835403553",
    "region": "부산광역시"
  },
  {
    "name": "건국고등학교운동장",
    "address": "부산광역시 사하구 하단동 716",
    "lat": "35.11056196757242",
    "lng": "128.96912813186944",
    "region": "부산광역시"
  },
  {
    "name": "중앙공원",
    "address": "부산광역시 중구 영주동 산10-7",
    "lat": "35.10972014278306",
    "lng": "129.0280020671117",
    "region": "부산광역시"
  },
  {
    "name": "하남초등학교운동장",
    "address": "부산광역시 사하구 하단동 1181-25",
    "lat": "35.09927408799163",
    "lng": "128.95985252441326",
    "region": "부산광역시"
  },
  {
    "name": "두실초등학교 운동장",
    "address": "부산광역시 금정구 구서동 1052",
    "lat": "35.25301016328731",
    "lng": "129.0891575942873",
    "region": "부산광역시"
  },
  {
    "name": "부산과학고등학교 운동장",
    "address": "부산광역시 금정구 구서동 915",
    "lat": "35.263237736047195",
    "lng": "129.0833365917222",
    "region": "부산광역시"
  },
  {
    "name": "낙민초등학교 운동장",
    "address": "부산광역시 동래구 낙민동 303",
    "lat": "35.19881166993522",
    "lng": "129.08836841583414",
    "region": "부산광역시"
  },
  {
    "name": "알로이시오초등학교 운동장",
    "address": "부산광역시 서구 암남동 2-18",
    "lat": "35.08328511092019",
    "lng": "129.01580467602886",
    "region": "부산광역시"
  },
  {
    "name": "충렬사 정문 밖 진입로",
    "address": "부산광역시 동래구 안락동 421-1",
    "lat": "35.199506844960325",
    "lng": "129.0965419140679",
    "region": "부산광역시"
  },
  {
    "name": "가야초등학교운동장",
    "address": "부산광역시 부산진구 가야동 280-2",
    "lat": "35.15340711170355",
    "lng": "129.03597146272853",
    "region": "부산광역시"
  },
  {
    "name": "부산진초등학교운동장",
    "address": "부산광역시 부산진구 범천동 890-1",
    "lat": "35.14968768176026",
    "lng": "129.0563803911178",
    "region": "부산광역시"
  },
  {
    "name": "해빛초등학교 운동장",
    "address": "부산광역시 기장군 일광읍 삼성리 787",
    "lat": "35.264464152315064",
    "lng": "129.22105193138376",
    "region": "부산광역시"
  },
  {
    "name": "광일초등학교 운동장",
    "address": "부산광역시 중구 대청동4가 95",
    "lat": "35.10375630149279",
    "lng": "129.03017251328424",
    "region": "부산광역시"
  },
  {
    "name": "온샘초등학교",
    "address": "부산광역시 동래구 온천동 1853-12",
    "lat": "35.209511261807734",
    "lng": "129.06866490841065",
    "region": "부산광역시"
  },
  {
    "name": "오션중학교 운동장",
    "address": "부산광역시 강서구 명지동 3242-3",
    "lat": "35.079930",
    "lng": "128.909860",
    "region": "부산광역시"
  },
  {
    "name": "경일고등학교 운동장",
    "address": "부산광역시 강서구 명지동 299",
    "lat": "35.111979385319096",
    "lng": "128.92247378825766",
    "region": "부산광역시"
  },
  {
    "name": "경일중학교 운동장",
    "address": "부산광역시 강서구 명지동 3408",
    "lat": "35.09377049360488",
    "lng": "128.91614109277526",
    "region": "부산광역시"
  },
  {
    "name": "명일초등학교 운동장",
    "address": "부산광역시 강서구 명지동 3477-2",
    "lat": "35.10939466385268",
    "lng": "128.92207145691012",
    "region": "부산광역시"
  },
  {
    "name": "덕문고등학교 운동장",
    "address": "부산광역시 강서구 성북동 401",
    "lat": "35.05138364007197",
    "lng": "128.8294923305518",
    "region": "부산광역시"
  },
  {
    "name": "옥천초등학교운동장",
    "address": "부산광역시 사하구 괴정동 472-3",
    "lat": "35.09346128250195",
    "lng": "128.9937553864633",
    "region": "부산광역시"
  },
  {
    "name": "덕문중학교 운동장",
    "address": "부산광역시 강서구 성북동 407-2",
    "lat": "35.05214556399201",
    "lng": "128.83044183254307",
    "region": "부산광역시"
  },
  {
    "name": "명지중학교 운동장",
    "address": "부산광역시 강서구 명지동 3386",
    "lat": "35.10135473451394",
    "lng": "128.92574071884258",
    "region": "부산광역시"
  },
  {
    "name": "송정초등학교 운동장",
    "address": "부산광역시 강서구 신호동 254",
    "lat": "35.08183178084236",
    "lng": "128.87793663067708",
    "region": "부산광역시"
  },
  {
    "name": "신명초등학교 운동장",
    "address": "부산광역시 강서구 명지동 3427",
    "lat": "35.09478224060422",
    "lng": "128.92091602811172",
    "region": "부산광역시"
  },
  {
    "name": "부산소프트웨어마이스터 고등학교 운동장",
    "address": "부산광역시 강서구 봉림동 15",
    "lat": "35.1888726586331",
    "lng": "128.90363873709416",
    "region": "부산광역시"
  },
  {
    "name": "일광역 교통광장",
    "address": "부산광역시 기장군 일광읍 삼성리 892",
    "lat": "35.26711402408114",
    "lng": "129.23208117485308",
    "region": "부산광역시"
  },
  {
    "name": "일광중학교 운동장",
    "address": "부산광역시 기장군 일광읍 삼성리 749",
    "lat": "35.264994133601306",
    "lng": "129.22046720981845",
    "region": "부산광역시"
  },
  {
    "name": "오션초등학교 운동장",
    "address": "부산광역시 강서구 명지동 3241-3",
    "lat": "35.079991529059036",
    "lng": "128.90699744224372",
    "region": "부산광역시"
  },
  {
    "name": "충렬초등학교 운동장",
    "address": "부산광역시 동래구 안락동 467-1",
    "lat": "35.20014824395052",
    "lng": "129.11171610805553",
    "region": "부산광역시"
  },
  {
    "name": "달산초등학교 운동장",
    "address": "부산광역시 기장군 정관읍 달산리 1204",
    "lat": "35.319082159099196",
    "lng": "129.18779253959883",
    "region": "부산광역시"
  },
  {
    "name": "가동초등학교 운동장",
    "address": "부산광역시 기장군 정관읍 용수리 1305",
    "lat": "35.326160838750745",
    "lng": "129.1788792223259",
    "region": "부산광역시"
  },
  {
    "name": "기장초등학교 운동장",
    "address": "부산광역시 기장군 기장읍 동부리 320",
    "lat": "35.24590824255422",
    "lng": "129.21207189560178",
    "region": "부산광역시"
  },
  {
    "name": "내리초등학교 운동장",
    "address": "부산광역시 기장군 기장읍 내리 772",
    "lat": "35.20539671001736",
    "lng": "129.20572598186428",
    "region": "부산광역시"
  },
  {
    "name": "대청초등학교 운동장",
    "address": "부산광역시 기장군 기장읍 대라리 229-1",
    "lat": "35.23510291432484",
    "lng": "129.21045451863827",
    "region": "부산광역시"
  },
  {
    "name": "모전초등학교 운동장",
    "address": "부산광역시 기장군 정관읍 모전리 719",
    "lat": "35.33886847360807",
    "lng": "129.16212916374417",
    "region": "부산광역시"
  },
  {
    "name": "방곡초등학교 운동장",
    "address": "부산광역시 기장군 정관읍 방곡리 412",
    "lat": "35.32240428740922",
    "lng": "129.18686985969768",
    "region": "부산광역시"
  },
  {
    "name": "신정초등학교 운동장",
    "address": "부산광역시 기장군 정관읍 용수리 1358",
    "lat": "35.3281684470175",
    "lng": "129.1680085659048",
    "region": "부산광역시"
  },
  {
    "name": "신진초등학교 운동장",
    "address": "부산광역시 기장군 철마면 고촌리 655",
    "lat": "35.2403024237315",
    "lng": "129.1715500824738",
    "region": "부산광역시"
  },
  {
    "name": "월내초등학교 운동장",
    "address": "부산광역시 기장군 장안읍 길천리 191-1",
    "lat": "35.327888360869295",
    "lng": "129.28293349891305",
    "region": "부산광역시"
  },
  {
    "name": "월평초등학교 운동장",
    "address": "부산광역시 기장군 정관읍 월평리 125-2",
    "lat": "35.35975679349503",
    "lng": "129.13884758949476",
    "region": "부산광역시"
  },
  {
    "name": "일광초등학교 운동장",
    "address": "부산광역시 기장군 일광읍 삼성리 774",
    "lat": "35.26779290290193",
    "lng": "129.2228436470057",
    "region": "부산광역시"
  },
  {
    "name": "장안초등학교 운동장",
    "address": "부산광역시 기장군 장안읍 기룡리 301-1",
    "lat": "35.346307329964795",
    "lng": "129.25380975008287",
    "region": "부산광역시"
  },
  {
    "name": "정관초등학교 운동장",
    "address": "부산광역시 기장군 정관읍 용수리 1393",
    "lat": "35.32277194539474",
    "lng": "129.17188704014038",
    "region": "부산광역시"
  },
  {
    "name": "정원초등학�� 운동장",
    "address": "부산광역시 기장군 정관읍 모전리 754",
    "lat": "35.33232608983632",
    "lng": "129.1677832603476",
    "region": "부산광역시"
  },
  {
    "name": "좌천초등학교 운동장",
    "address": "부산광역시 기장군 장안읍 좌천리 115",
    "lat": "35.31178329511181",
    "lng": "129.24039725054553",
    "region": "부산광역시"
  },
  {
    "name": "죽성초등학교 운동장",
    "address": "부산광역시 기장군 기장읍 죽성리 86",
    "lat": "35.242416488238725",
    "lng": "129.2439204454449",
    "region": "부산광역시"
  },
  {
    "name": "용암초등학교 운동장",
    "address": "부산광역시 기장군 기장읍 대변리 444",
    "lat": "35.22489290313934",
    "lng": "129.2270963692962",
    "region": "부산광역시"
  },
  {
    "name": "칠암초등학교 운동장",
    "address": "부산광역시 기장군 일광읍 칠암리 134",
    "lat": "35.29852920178402",
    "lng": "129.25552368164338",
    "region": "부산광역시"
  },
  {
    "name": "철마초등학교 운동장",
    "address": "부산광역시 기장군 철마면 와여리 481-2",
    "lat": "35.27493504056844",
    "lng": "129.15051529818817",
    "region": "부산광역시"
  },
  {
    "name": "기장중학교 운동장",
    "address": "부산광역시 기장군 기장읍 대라리 40",
    "lat": "35.244287246074975",
    "lng": "129.21770989895114",
    "region": "부산광역시"
  },
  {
    "name": "대청중학교 운동장",
    "address": "부산광역시 기장군 기장읍 청강리 711",
    "lat": "35.233947154684564",
    "lng": "129.2122328281427",
    "region": "부산광역시"
  },
  {
    "name": "모전중학교 운동장",
    "address": "부산광역시 기장군 정관읍 모전리 720",
    "lat": "35.337507526366174",
    "lng": "129.1621506214163",
    "region": "부산광역시"
  },
  {
    "name": "부산중앙중학교 운동장",
    "address": "부산광역시 기장군 정관읍 방곡리 409",
    "lat": "35.3223",
    "lng": "129.1880",
    "region": "부산광역시"
  },
  {
    "name": "신정중학교 운동장",
    "address": "부산광역시 기장군 정관읍 용수리 1363",
    "lat": "35.3291400416451",
    "lng": "129.16942477226473",
    "region": "부산광역시"
  },
  {
    "name": "장안제일고등학교(장안중학교) 운동장",
    "address": "부산광역시 기장군 장안읍 좌천리 323",
    "lat": "35.31486474164489",
    "lng": "129.24141258001598",
    "region": "부산광역시"
  },
  {
    "name": "기장고등학교 운동장",
    "address": "부산광역시 기장군 기장읍 대라리 374-1",
    "lat": "35.23951519106481",
    "lng": "129.2096626409875",
    "region": "부산광역시"
  },
  {
    "name": "부산장안고등학교 운동장",
    "address": "부산광역시 기장군 장안읍 좌천리 425",
    "lat": "35.3185656631235",
    "lng": "129.2369842529323",
    "region": "부산광역시"
  },
  {
    "name": "신정고등학교 운동장",
    "address": "부산광역시 기장군 정관읍 용수리 1357",
    "lat": "35.32774391777097",
    "lng": "129.16696786880703",
    "region": "부산광역시"
  },
  {
    "name": "동천고등학교 운동장",
    "address": "부산광역시 남구 대연동 1676-1",
    "lat": "35.14438212306462",
    "lng": "129.08749922372857",
    "region": "부산광역시"
  },
  {
    "name": "오륙도초등학교 운동장",
    "address": "부산광역시 남구 용호동 946",
    "lat": "35.10375038587459",
    "lng": "129.11622568281993",
    "region": "부산광역시"
  },
  {
    "name": "문현초등학교 운동장",
    "address": "부산광역시 남구 문현동 12-1",
    "lat": "35.14494250499048",
    "lng": "129.07281561889712",
    "region": "부산광역시"
  },
  {
    "name": "성동초등학교 운동장",
    "address": "부산광역시 남구 문현동 497",
    "lat": "35.14297347869605",
    "lng": "129.06897409945685",
    "region": "부산광역시"
  },
  {
    "name": "부경대학교 운동장",
    "address": "부산광역시 남구 대연동 599-1",
    "lat": "35.132755451181346",
    "lng": "129.10618528019316",
    "region": "부산광역시"
  },
  {
    "name": "석포여자중학교 운동장",
    "address": "부산광역시 남구 용당동 596-1",
    "lat": "35.12269519455158",
    "lng": "129.09478291134224",
    "region": "부산광역시"
  },
  {
    "name": "운산초등학교 운동장",
    "address": "부산광역시 남구 용호동 776",
    "lat": "35.1098431300954",
    "lng": "129.11505445151266",
    "region": "부산광역시"
  },
  {
    "name": "파랑새공원",
    "address": "부산광역시 수영구 광안동 180-1",
    "lat": "35.1518129",
    "lng": "129.112781",
    "region": "부산광역시"
  },
  {
    "name": "햇살공원",
    "address": "부산광역시 수영구 망미동 824-8",
    "lat": "35.1726593880821",
    "lng": "129.09920932204898",
    "region": "부산광역시"
  },
  {
    "name": "망미공원",
    "address": "부산광역시 수영구 망미동 640-13",
    "lat": "35.17392882537521",
    "lng": "129.10457669168812",
    "region": "부산광역시"
  },
  {
    "name": "부산전자공업고등학교",
    "address": "부산광역시 동래구 온천동 386-1",
    "lat": "35.215024880339946",
    "lng": "129.07397568226014",
    "region": "부산광역시"
  },
  {
    "name": "개림중학교운동장",
    "address": "부산광역시 부산진구 개금동 445-1",
    "lat": "35.157012340239234",
    "lng": "129.01828229427753",
    "region": "부산광역시"
  },
  {
    "name": "망미공원",
    "address": "부산광역시 수영구 망미동 640-11",
    "lat": "35.174217682591326",
    "lng": "129.10696968455386",
    "region": "부산광역시"
  },
  {
    "name": "수영사적공원",
    "address": "부산광역시 수영구 수영동 229-1",
    "lat": "35.170846950042296",
    "lng": "129.11429500437148",
    "region": "부산광역시"
  },
  {
    "name": "부산교육역사관  버스전용주차장",
    "address": "부산광역시 사하구 감천동 10-2",
    "lat": "35.09714219818317",
    "lng": "129.0108602212753",
    "region": "부산광역시"
  },
  {
    "name": "오름소공원",
    "address": "부산광역시 중구 동광동5가 14-1",
    "lat": "35.10855362787045",
    "lng": "129.03285218447053",
    "region": "부산광역시"
  },
  {
    "name": "감천문화마을 노외공영주차장",
    "address": "부산광역시 사하구 감천동 17-46",
    "lat": "35.091480849677566",
    "lng": "129.00727467572258",
    "region": "부산광역시"
  },
  {
    "name": "용두산 공영주차장",
    "address": "부산광역시 중구 대청동1가 43-1",
    "lat": "35.102404099254684",
    "lng": "129.0330332335778",
    "region": "부산광역시"
  },
  {
    "name": "화랑초등학교 운동장",
    "address": "부산광역시 서구 동대신동1가 348",
    "lat": "35.108414708129246",
    "lng": "129.02119420455415",
    "region": "부산광역시"
  },
  {
    "name": "교리초등학교 운동장",
    "address": "부산광역시 기장군 기장읍 교리 218-6",
    "lat": "35.25475101196377",
    "lng": "129.2163809120716",
    "region": "부산광역시"
  },
  {
    "name": "정관중학교 운동장",
    "address": "부산광역시 기장군 정관읍 용수리 1335",
    "lat": "35.32347455952606",
    "lng": "129.1727100024335",
    "region": "부산광역시"
  },
  {
    "name": "기장철마체육공원 축구장",
    "address": "부산광역시 기장군 철마면 연구리 566",
    "lat": "35.2726558269987",
    "lng": "129.15551377228215",
    "region": "부산광역시"
  },
  {
    "name": "부산해마루학교 운동장",
    "address": "부산광역시 기장군 정관읍 모전리 678",
    "lat": "35.33973929277586",
    "lng": "129.16563212871762",
    "region": "부산광역시"
  },
  {
    "name": "정관고등학교 운동장",
    "address": "부산광역시 기장군 정관읍 용수리 1395",
    "lat": "35.3218134050016",
    "lng": "129.1707551479361",
    "region": "부산광역시"
  },
  {
    "name": "부경대수산과학연구소 공터",
    "address": "부산광역시 기장군 일광읍 동백리 256",
    "lat": "35.28436454115814",
    "lng": "129.25803422928138",
    "region": "부산광역시"
  },
  {
    "name": "부산성우학교 운동장",
    "address": "부산광역시 기장군 장안읍 명례리 133-1",
    "lat": "35.37420874551768",
    "lng": "129.26323186536604",
    "region": "부산광역시"
  }
]