[
  {
    "name": "천안시종합운동장(주경기장)",
    "address": "충청남도 천안시 서북구 백석동 251",
    "lat": "36.818758746861185",
    "lng": "127.11512625217436",
    "region": "충청남도"
  },
  {
    "name": "문산초등학교 운동장",
    "address": "충청남도 서천군 문산면 신농리 21-1",
    "lat": "36.14264673957438",
    "lng": "126.75134928905837",
    "region": "충청남도"
  },
  {
    "name": "송림초등학교 운동장",
    "address": "충청남도 서천군 장항읍 옥산리 639-5",
    "lat": "36.02921254668083",
    "lng": "126.68408453464504",
    "region": "충청남도"
  },
  {
    "name": "마동초등학교 운동장",
    "address": "충청남도 서천군 마서면 송내리 419-1",
    "lat": "36.02494239220149",
    "lng": "126.71492692181863",
    "region": "충청남도"
  },
  {
    "name": "장항중학교 운동장",
    "address": "충청남도 서천군 장항읍 원��리 923-19",
    "lat": "36.0079764230969",
    "lng": "126.70263685448728",
    "region": "충청남도"
  },
  {
    "name": "부내초등학교 운동장",
    "address": "충청남도 서천군 종천면 종천리 208-60",
    "lat": "36.10256936568732",
    "lng": "126.6464378207613",
    "region": "충청남도"
  },
  {
    "name": "비인초등학교 운동장",
    "address": "충청남도 서천군 비인면 성내리 212-4",
    "lat": "36.14185167380294",
    "lng": "126.6019767522779",
    "region": "충청남도"
  },
  {
    "name": "부여 종합운동장",
    "address": "충청남도 부여군 규암면 나복리 456",
    "lat": "36.2787945549941",
    "lng": "126.86362156032007",
    "region": "충청남도"
  },
  {
    "name": "서천고등학교 운동장",
    "address": "충청남도 서천군 서천읍 사곡리 203",
    "lat": "36.08576966884219",
    "lng": "126.6894794110327",
    "region": "충청남도"
  },
  {
    "name": "서산시종합운동장",
    "address": "충청남도 서산시 갈산동 90",
    "lat": "36.79786291935665",
    "lng": "126.43577509074606",
    "region": "충청남도"
  },
  {
    "name": "천안시종합운동장(보조경기장)",
    "address": "충청남도 천안시 서북구 백석동 272",
    "lat": "36.82066114485193",
    "lng": "127.11649149656296",
    "region": "충청남도"
  },
  {
    "name": "장항중앙초등학교 운동장",
    "address": "충청남도 서천군 장항읍 신창리 45",
    "lat": "36.01227184443584",
    "lng": "126.6910314559936",
    "region": "충청남도"
  },
  {
    "name": "시초초등학교 운동장",
    "address": "충청남도 서천군 시초면 초현리 61-1",
    "lat": "36.12165289124774",
    "lng": "126.75191491842052",
    "region": "충청남도"
  },
  {
    "name": "이순신종합운동장",
    "address": "충청남도 아산시 풍기동 366-2",
    "lat": "36.76788320770711",
    "lng": "127.02134549617769",
    "region": "충청남도"
  },
  {
    "name": "화양초등학교 운동장",
    "address": "충청남도 서천군 화양면 봉명리 132-2",
    "lat": "36.04345506888142",
    "lng": "126.77634231742665",
    "region": "충청남도"
  },
  {
    "name": "비인중학교 운동장",
    "address": "충청남도 서천군 비인면 성내리 151",
    "lat": "36.1392523793721",
    "lng": "126.60540461539938",
    "region": "충청남도"
  },
  {
    "name": "상록수공원",
    "address": "충청남도 당진시 송악읍 부곡리 566",
    "lat": "36.9610",
    "lng": "126.7811",
    "region": "충청남도"
  },
  {
    "name": "신도초등학교 운동장",
    "address": "충청남도 계룡시 엄사면 엄사리 232-92",
    "lat": "36.28234075739889",
    "lng": "127.23561644554248",
    "region": "충청남도"
  },
  {
    "name": "금암초등학교 운동장",
    "address": "충청남도 계룡시 금암동 191",
    "lat": "36.27075073329083",
    "lng": "127.24639892578095",
    "region": "충청남도"
  },
  {
    "name": "대정초등학교 운동장",
    "address": "충청남도 홍성군 구항면 지정리 55",
    "lat": "36.547104703768035",
    "lng": "126.63801379706419",
    "region": "충청남도"
  },
  {
    "name": "은하초등학교 운동장",
    "address": "충청남도 홍성군 은하면 대천리 108",
    "lat": "36.52887410816617",
    "lng": "126.58905886192322",
    "region": "충청남도"
  },
  {
    "name": "계룡중학교 운동장",
    "address": "충청남도 계룡시 금암동 75-1",
    "lat": "36.267643325967974",
    "lng": "127.25541946687238",
    "region": "충청남도"
  },
  {
    "name": "장곡초등학교 운동장",
    "address": "충청남도 홍성군 장곡면 도산리 479",
    "lat": "36.505237584603265",
    "lng": "126.69361301112379",
    "region": "충청남도"
  },
  {
    "name": "용남고등학교 운동장",
    "address": "충청남도 계룡시 신도안면 남선리 1278",
    "lat": "36.29352695807953",
    "lng": "127.24548161029931",
    "region": "충청남도"
  },
  {
    "name": "서부초등학교 운동장",
    "address": "충청남도 홍성군 서부면 이호리 235",
    "lat": "36.57885992644918",
    "lng": "126.51205725839336",
    "region": "충청남도"
  },
  {
    "name": "엄사중학교 운동장",
    "address": "충청남도 계룡시 엄사면 엄사리 396-9",
    "lat": "36.287339505241036",
    "lng": "127.22971022128665",
    "region": "충청남도"
  },
  {
    "name": "신당초등학교 운동장",
    "address": "충청남도 홍성군 서부면 남당리 664",
    "lat": "36.54752809120601",
    "lng": "126.47362721372484",
    "region": "충청남도"
  },
  {
    "name": "한울초등학교 운동장",
    "address": "충청남도 홍성군 홍북읍 신경리 1206",
    "lat": "36.64519058313088",
    "lng": "126.68015696430129",
    "region": "충청남도"
  },
  {
    "name": "내포초등학교 운동장",
    "address": "충청남도 홍성군 홍북읍 신경리 1362",
    "lat": "36.64927842164545",
    "lng": "126.6709152638551",
    "region": "충청남도"
  },
  {
    "name": "천안중앙고등학교 ",
    "address": "충청남도 천안시 동남구 원성동 460-1",
    "lat": "36.810311185125464",
    "lng": "127.15918153524397",
    "region": "충청남도"
  },
  {
    "name": "송석초등학교 운동장",
    "address": "충청남도 서천군 마서면 송석리 49-1",
    "lat": "36.07327948056654",
    "lng": "126.64324522017928",
    "region": "충청남도"
  },
  {
    "name": "서천중학교 운동장",
    "address": "충청남도 서천군 서천읍 군사리 601",
    "lat": "36.07490975043514",
    "lng": "126.693735122676",
    "region": "충청남도"
  },
  {
    "name": "기산초등학교 운동장",
    "address": "충청남도 서천군 기산면 화산리 216",
    "lat": "36.07407453181526",
    "lng": "126.76769854956274",
    "region": "충청남도"
  },
  {
    "name": "오성초등학교 운동장",
    "address": "충청남도 서천군 판교면 현암리 365",
    "lat": "36.15486622831518",
    "lng": "126.68352206427434",
    "region": "충청남도"
  },
  {
    "name": "서도초등학교 운동장",
    "address": "충청남도 서천군 서면 도둔리 677-2",
    "lat": "36.153066154199145",
    "lng": "126.52129378045205",
    "region": "충청남도"
  },
  {
    "name": "천안축구센터(잔디구장)",
    "address": "충청남도 천안시 서북구 성정동 354",
    "lat": "36.82180144733541",
    "lng": "127.14679308012379",
    "region": "충청남도"
  },
  {
    "name": "보령시청 테니스장 앞 공터",
    "address": "충청남도 보령시 명천동 269-4",
    "lat": "36.33473385257776",
    "lng": "126.611858010292",
    "region": "충청남도"
  },
  {
    "name": "서남초등학교 운동장",
    "address": "충청남도 서천군 마서면 봉남리 255",
    "lat": "36.05840120426258",
    "lng": "126.67981411993313",
    "region": "충청남도"
  },
  {
    "name": "한산초등학교 운동장",
    "address": "충청남도 서천군 한산면 지현리 182-1",
    "lat": "36.085965210128265",
    "lng": "126.80487513542401",
    "region": "충청남도"
  },
  {
    "name": "마산초등학교 운동장",
    "address": "충청남도 서천군 마산면 마명리 353",
    "lat": "36.12065387756774",
    "lng": "126.79517502005943",
    "region": "충청남도"
  },
  {
    "name": "건양고등학교 운동장",
    "address": "충청남도 논산시 양촌면 남산리 564",
    "lat": "36.14103290534454",
    "lng": "127.23419487476347",
    "region": "충청남도"
  },
  {
    "name": "가남초등학교 운동장",
    "address": "충청남도 청양군 비봉면 록평리 29",
    "lat": "36.51675001807217",
    "lng": "126.78833468469055",
    "region": "충청남도"
  },
  {
    "name": "청신여자중학교 운동장",
    "address": "충청남도 청양군 청양읍 벽천리 36",
    "lat": "36.441752062260285",
    "lng": "126.80002739565442",
    "region": "충청남도"
  },
  {
    "name": "오천초등학교 운동장",
    "address": "충청남도 보령시 오천면 소성리 665-1",
    "lat": "36.43829726189381",
    "lng": "126.52320955893776",
    "region": "충청남도"
  },
  {
    "name": "청보초등학교 운동장",
    "address": "충청남도 보령시 청라면 내현리 636",
    "lat": "36.38940728473003",
    "lng": "126.65621599007713",
    "region": "충청남도"
  },
  {
    "name": "주산초등학교 운동장",
    "address": "충청남도 보령시 주산면 금암리 570",
    "lat": "36.199524",
    "lng": "126.634348",
    "region": "충청남도"
  },
  {
    "name": "미산초,중학교 운동장",
    "address": "충청남도 보령시 미산면 도화담리 94",
    "lat": "36.288636319774945",
    "lng": "126.67697635295298",
    "region": "충청남도"
  },
  {
    "name": "대천여자중학교 운동장",
    "address": "충청남도 보령시 대천동 453-1",
    "lat": "36.354570341076034",
    "lng": "126.59340590848717",
    "region": "충청남도"
  },
  {
    "name": "당진초등학교운동장",
    "address": "충청남도 당진시 읍내동 213-1",
    "lat": "36.89212077807102",
    "lng": "126.6327994335488",
    "region": "충청남도"
  },
  {
    "name": "운곡초등학교 운동장",
    "address": "충청남도 청양군 운곡면 신대리 598",
    "lat": "36.52447184185376",
    "lng": "126.84609360191345",
    "region": "충청남도"
  },
  {
    "name": "정산중학교 운동장",
    "address": "충청남도 청양군 정산면 역촌리 564-4",
    "lat": "36.4119",
    "lng": "126.9563",
    "region": "충청남도"
  },
  {
    "name": "남포초등학교 운동장",
    "address": "충청남도 보령시 남포면 읍내리 360-1",
    "lat": "36.304666162804935",
    "lng": "126.60908997058863",
    "region": "충청남도"
  },
  {
    "name": "대천동대초등학교 운동장",
    "address": "충청남도 보령시 동대동 319-118",
    "lat": "36.35262370203957",
    "lng": "126.6141305558815",
    "region": "충청남도"
  },
  {
    "name": "면천초등학교운동장",
    "address": "충청남도 당진시 면천면 성상리 995-3",
    "lat": "36.817684562164956",
    "lng": "126.66284155383177",
    "region": "충청남도"
  },
  {
    "name": "원당초등학교운동장",
    "address": "충청남도 당진시 원당동 1171",
    "lat": "36.9020",
    "lng": "126.6389",
    "region": "충청남도"
  },
  {
    "name": "합도초등학교운동장",
    "address": "충청남도 당진시 합덕읍 운산리 685-1",
    "lat": "36.81038168877387",
    "lng": "126.75460586162623",
    "region": "충청남도"
  },
  {
    "name": "만리포중 ",
    "address": "충청남도 태안군 소원면 신덕리 631-2",
    "lat": "36.765188779355555",
    "lng": "126.1943721771227",
    "region": "충청남도"
  },
  {
    "name": "인지중학교 운동장",
    "address": "충청남도 서산시 인지면 야당리 545-10",
    "lat": "36.74967819860958",
    "lng": "126.42690072633133",
    "region": "충청남도"
  },
  {
    "name": "서일고등학교 운동장",
    "address": "충청남도 서산시 지곡면 화천리 908",
    "lat": "36.85906111823512",
    "lng": "126.43278398855686",
    "region": "충청남도"
  },
  {
    "name": "서동초등학교 운동장",
    "address": "충청남도 서산시 동문동 90",
    "lat": "36.783166218440336",
    "lng": "126.46759798315625",
    "region": "충청남도"
  },
  {
    "name": "동영중학교 운동장",
    "address": "충청남도 청양군 남양면 구룡리 402-1",
    "lat": "36.40123091690175",
    "lng": "126.76643767366424",
    "region": "충청남도"
  },
  {
    "name": "유곡초등학교",
    "address": "충청남도 당진시 송산면 유곡리 219-2",
    "lat": "36.9601",
    "lng": "126.6944",
    "region": "충청남도"
  },
  {
    "name": "서령고등학교 운동장",
    "address": "충청남도 서산시 동문동 542",
    "lat": "36.79267867517012",
    "lng": "126.45952463150005",
    "region": "충청남도"
  },
  {
    "name": "오산초등학교 운동장",
    "address": "충청남도 서산시 오남동 305-6",
    "lat": "36.74550866374938",
    "lng": "126.48332483527614",
    "region": "충청남도"
  },
  {
    "name": "갈산초등���교 운동장",
    "address": "충청남도 홍성군 갈산면 상촌리 70",
    "lat": "36.6021186954612",
    "lng": "126.55521102249152",
    "region": "충청남도"
  },
  {
    "name": "정산초등학교 운동장",
    "address": "충청남도 청양군 정산면 서정리 34",
    "lat": "36.416239259037795",
    "lng": "126.94575736511422",
    "region": "충청남도"
  },
  {
    "name": "청양고등학교 운동장",
    "address": "충청남도 청양군 청양읍 송방리 133",
    "lat": "36.45208824981697",
    "lng": "126.79713696241298",
    "region": "충청남도"
  },
  {
    "name": "시목초 ",
    "address": "충청남도 태안군 소원면 시목리 288",
    "lat": "36.768497713197505",
    "lng": "126.24477356671706",
    "region": "충청남도"
  },
  {
    "name": "만리포고",
    "address": "충청남도 태안군 소원면 신덕리 180",
    "lat": "36.75985550887635",
    "lng": "126.19121789932053",
    "region": "충청남도"
  },
  {
    "name": "동암초등학교 운동장",
    "address": "충청남도 서산시 음암면 신장리 228-12",
    "lat": "36.76186068649984",
    "lng": "126.51213672767216",
    "region": "충청남도"
  },
  {
    "name": "목면초등학교 운동장",
    "address": "충청남도 청양군 목면 안심리 355",
    "lat": "36.42094489182667",
    "lng": "127.00433477675614",
    "region": "충청남도"
  },
  {
    "name": "남포중학교 운동장",
    "address": "충청남도 보령시 남포면 달산리 149",
    "lat": "36.29478081954711",
    "lng": "126.59067392349232",
    "region": "충청남도"
  },
  {
    "name": "대천여자상업고등학교",
    "address": "충청남도 보령시 내항동 502",
    "lat": "36.33214326791759",
    "lng": "126.57895203122963",
    "region": "충청남도"
  },
  {
    "name": "석문초등학교운동장",
    "address": "충청남도 당진시 석문면 통정리 594",
    "lat": "36.98680175046041",
    "lng": "126.58886976624936",
    "region": "충청남도"
  },
  {
    "name": "천의초등학교운동장",
    "address": "충청남도 당진시 정미면 천의리 335",
    "lat": "36.8775",
    "lng": "126.5723",
    "region": "충청남도"
  },
  {
    "name": "한정초등학교운동장",
    "address": "충청남도 당진시 신평면 한정리 70-1",
    "lat": "36.8933",
    "lng": "126.8052",
    "region": "충청남도"
  },
  {
    "name": "상록초등학교운동장",
    "address": "충청남도 당진시 송악읍 부곡리 187-8",
    "lat": "36.9588",
    "lng": "126.7694",
    "region": "충청남도"
  },
  {
    "name": "안중초 ",
    "address": "충청남도 태안군 안면읍 중장리 653",
    "lat": "36.473642449429406",
    "lng": "126.37216508388626",
    "region": "충청남도"
  },
  {
    "name": "창기초 ",
    "address": "충청남도 태안군 안면읍 창기리 341",
    "lat": "36.57954874268762",
    "lng": "126.33856505155529",
    "region": "충청남도"
  },
  {
    "name": "홍성공업고등학교 운동장",
    "address": "충청남도 홍성군 결성면 읍내리 527-1",
    "lat": "36.52976380363161",
    "lng": "126.54795117656168",
    "region": "충청남도"
  },
  {
    "name": "청양초등학교 운동장",
    "address": "충청남도 청양군 청양읍 읍내리 5-2",
    "lat": "36.45361177240581",
    "lng": "126.8058400154513",
    "region": "충청남도"
  },
  {
    "name": "고산초등학교운동장",
    "address": "충청남도 당진시 고대면 장항리 1050-2",
    "lat": "36.95746860425458",
    "lng": "126.57269580376796",
    "region": "충청남도"
  },
  {
    "name": "기지초등학교운동장",
    "address": "충청남도 당진시 송악읍 기지시리 153",
    "lat": "36.9025",
    "lng": "126.6933",
    "region": "충청남도"
  },
  {
    "name": "당산초등학교운동장",
    "address": "충청남도 당진시 송산면 당산리 215-1",
    "lat": "36.9359",
    "lng": "126.6503",
    "region": "충청남도"
  },
  {
    "name": "조금초등학교운동장",
    "address": "충청남도 당진시 대호지면 조금리 354",
    "lat": "36.901178230471274",
    "lng": "126.50001056326197",
    "region": "충청남도"
  },
  {
    "name": "근흥중 ",
    "address": "충청남도 태안군 근흥면 용신리 409-6",
    "lat": "36.716225667870184",
    "lng": "126.22972905636294",
    "region": "충청남도"
  },
  {
    "name": "원이중 ",
    "address": "충청남도 태안군 원북면 마산리 510-2",
    "lat": "36.82924926041617",
    "lng": "126.26687765121565",
    "region": "충청남도"
  },
  {
    "name": "서산여자고등학교 운동장",
    "address": "충청남도 서산시 석림동 486-1",
    "lat": "36.76945673081533",
    "lng": "126.46739911929407",
    "region": "충청남도"
  },
  {
    "name": "인지초등학교 운동장",
    "address": "충청남도 서산시 인지면 둔당리 235",
    "lat": "36.75553835456711",
    "lng": "126.42572024217061",
    "region": "충청남도"
  },
  {
    "name": "소원초 ",
    "address": "충청남도 태안군 소원면 신덕리 223",
    "lat": "36.7633795486716",
    "lng": "126.19410395622062",
    "region": "충청남도"
  },
  {
    "name": "서령중학교 운동장",
    "address": "충청남도 서산시 동문동 552",
    "lat": "36.79190722734083",
    "lng": "126.45855287932444",
    "region": "충청남도"
  },
  {
    "name": "석림초등학교 운동장",
    "address": "충청남도 서산시 석림동 457-7",
    "lat": "36.76958338933145",
    "lng": "126.46569798836788",
    "region": "충청남도"
  },
  {
    "name": "장항초등학교 운동장",
    "address": "충청남도 서천군 장항읍 창선2리 3-2",
    "lat": "36.019750152387985",
    "lng": "126.70071691274639",
    "region": "충청남도"
  },
  {
    "name": "태안고",
    "address": "충청남도 태안군 태안읍 평천리 710",
    "lat": "36.75360638655241",
    "lng": "126.31777524948488",
    "region": "충청남도"
  },
  {
    "name": "근흥초 ",
    "address": "충청남도 태안군 근흥면 용신리 447",
    "lat": "36.714370130019475",
    "lng": "126.22809559107282",
    "region": "충청남도"
  },
  {
    "name": "예천초등학교 운동장",
    "address": "충청남도 서산시 예천동 78-4",
    "lat": "36.76922606216081",
    "lng": "126.44964002097771",
    "region": "충청남도"
  },
  {
    "name": "충남드론항공고등학교 운동장",
    "address": "충청남도 홍성군 광천읍 광천리 124-11",
    "lat": "36.504381144721805",
    "lng": "126.62791811108478",
    "region": "충청남도"
  },
  {
    "name": "고북초등학교 운동장",
    "address": "충청남도 서산시 고북면 기포리 218",
    "lat": "36.66704184754712",
    "lng": "126.53129383391907",
    "region": "충청남도"
  },
  {
    "name": "고북중학교 운동장",
    "address": "충청남도 서산시 고북면 가구리 624-27",
    "lat": "36.669678687360125",
    "lng": "126.53415261391459",
    "region": "충청남도"
  },
  {
    "name": "장곡농협 주차장",
    "address": "충청남도 홍성군 장곡면 도산리 508-17",
    "lat": "36.50442426450269",
    "lng": "126.69109605594186",
    "region": "충청남도"
  },
  {
    "name": "장항공업고등학교운동장",
    "address": "충청남도 서천군 장항읍 화천리 330",
    "lat": "36.015747",
    "lng": "126.685394",
    "region": "충청남도"
  },
  {
    "name": "모항초 ",
    "address": "충청남도 태안군 소원면 모항리 344",
    "lat": "36.77278622275455",
    "lng": "126.14015400409525",
    "region": "충청남도"
  },
  {
    "name": "소원초 의항분교",
    "address": "충청남도 태안군 소원면 의항리 337",
    "lat": "36.82965931882743",
    "lng": "126.16075873374527",
    "region": "충청남도"
  },
  {
    "name": "대기초 ",
    "address": "충청남도 태안군 원북면 대기리 15-1",
    "lat": "36.799813780247035",
    "lng": "126.25722169875783",
    "region": "충청남도"
  },
  {
    "name": "운산초등학교 운동장",
    "address": "충청남도 서산시 운산면 용장리 369",
    "lat": "36.81151603746547",
    "lng": "126.58328183566857",
    "region": "충청남도"
  },
  {
    "name": "성연중학교 운동장",
    "address": "충청남도 서산시 성연면 평리 299-1",
    "lat": "36.836815833139795",
    "lng": "126.46252088866017",
    "region": "충청남도"
  },
  {
    "name": "한산중학교 운동장",
    "address": "충청남도 서천군 한산면 성외리 198",
    "lat": "36.09201947128205",
    "lng": "126.80428237868485",
    "region": "충청남도"
  },
  {
    "name": "충남디자인예술고등학교",
    "address": "충청남도 서천군 한산면 성외리 144",
    "lat": "36.09005750370034",
    "lng": "126.8025147914925",
    "region": "충청남도"
  },
  {
    "name": "충남도청 잔디광장",
    "address": "충청남도 홍성군 홍북읍 신경리 543",
    "lat": "36.65954641488746",
    "lng": "126.67722173346269",
    "region": "충청남도"
  },
  {
    "name": "성정공원",
    "address": "충청남도 천안시 서북구 성정동 1285",
    "lat": "36.82943244230944",
    "lng": "127.1396523560955",
    "region": "충청남도"
  },
  {
    "name": "천안목천초등학교 운동장",
    "address": "충청남도 천안시 동남구 목천읍 서리 1",
    "lat": "36.787297",
    "lng": "127.235522",
    "region": "충청남도"
  },
  {
    "name": "반포중학교 운동장",
    "address": "충청남도 공주시 반포면 봉곡리 242-6",
    "lat": "36.40433706834082",
    "lng": "127.24316010491718",
    "region": "충청남도"
  },
  {
    "name": "수촌초등학교 운동장",
    "address": "충청남도 공주시 의당면 수촌리 200-1",
    "lat": "36.517063035355804",
    "lng": "127.13492074383323",
    "region": "충청남도"
  },
  {
    "name": "호계초등학교 운동장",
    "address": "충청남도 공주시 사곡면 호계리 420",
    "lat": "36.507785",
    "lng": "127.023793",
    "region": "충청남도"
  },
  {
    "name": "부여중학교 운동장",
    "address": "충청남도 부여군 부여읍 동남리 463",
    "lat": "36.27741472600082",
    "lng": "126.9141586251383",
    "region": "충청남도"
  },
  {
    "name": "홍산중학교 운동장",
    "address": "충청남도 부여군 홍산면 북촌리 124-48",
    "lat": "36.214037357019656",
    "lng": "126.76670931887556",
    "region": "충청남도"
  },
  {
    "name": "논산내동초등학교 운동장",
    "address": "충청남도 논산시 내동 162-1",
    "lat": "36.18575434614927",
    "lng": "127.10449019484757",
    "region": "충청남도"
  },
  {
    "name": "성덕초등학교 운동장",
    "address": "충청남도 논산시 은진면 성덕리 218",
    "lat": "36.17641409932778",
    "lng": "127.12935805320741",
    "region": "충청남도"
  },
  {
    "name": "충남외국어고등학교 운동장",
    "address": "충청남도 아산시 탕정면 명암리 851",
    "lat": "36.80389333458935",
    "lng": "127.06050965179215",
    "region": "충청남도"
  },
  {
    "name": "천안광덕초등학교 운동장",
    "address": "충청남도 천안시 동남구 광덕면 신흥리 318-1",
    "lat": "36.69839940362184",
    "lng": "127.11006088032765",
    "region": "충청남도"
  },
  {
    "name": "내산초등학교 운동장",
    "address": "충청남도 부여군 내산면 운치리 442-6",
    "lat": "36.28158700242005",
    "lng": "126.77740008513393",
    "region": "충청남도"
  },
  {
    "name": "세도중학교 운동장",
    "address": "충청남도 부여군 세도면 간대리 402",
    "lat": "36.16695676326557",
    "lng": "126.94383266666681",
    "region": "충청남도"
  },
  {
    "name": "인주중학교 운동장",
    "address": "충청남도 아산시 인주면 관암리 418-1",
    "lat": "36.860743",
    "lng": "126.879814",
    "region": "충청남도"
  },
  {
    "name": "청수호수공원",
    "address": "충청남도 천안시 동남구 청수동 270",
    "lat": "36.78742894415112",
    "lng": "127.14878261089326",
    "region": "충청남도"
  },
  {
    "name": "천안성거초등학교 운동장",
    "address": "충청남도 천안시 서북구 성거읍 송남리 18-1",
    "lat": "36.87152363596017",
    "lng": "127.19988694673552",
    "region": "충청남도"
  },
  {
    "name": "천안양대초등학교 운동장",
    "address": "충청남도 천안시 서북구 입장면 하장리 18-1",
    "lat": "36.91515800378907",
    "lng": "127.22624813165861",
    "region": "충청남도"
  },
  {
    "name": "천안수신초등학교 운동장",
    "address": "충청남도 천안시 동남구 수신면 속창리 139",
    "lat": "36.73269348323258",
    "lng": "127.28328198194504",
    "region": "충청남도"
  },
  {
    "name": "신방공원",
    "address": "충청남도 천안시 동남구 신방동 719",
    "lat": "36.785100388564025",
    "lng": "127.12107002735138",
    "region": "충청남도"
  },
  {
    "name": "구룡초등학교 운동장",
    "address": "충청남도 부여군 구룡면 태양리 68-1",
    "lat": "36.25331793503136",
    "lng": "126.81411802230154",
    "region": "충청남도"
  },
  {
    "name": "석성중학교 운동장",
    "address": "충청남도 부여군 석성면 증산리 1249-2",
    "lat": "36.24938518149393",
    "lng": "126.99794464434325",
    "region": "충청남도"
  },
  {
    "name": "온양용화고등학교 운동장",
    "address": "충청남도 아산시 용화동 39-9",
    "lat": "36.773577205251925",
    "lng": "127.00335226396271",
    "region": "충청남도"
  },
  {
    "name": "용당초등학교 운동장",
    "address": "충청남도 부여군 구룡면 용당리 629",
    "lat": "36.23665621940287",
    "lng": "126.82588138391081",
    "region": "충청남도"
  },
  {
    "name": "규암초등학교 운동장",
    "address": "충청남도 부여군 규암면 외리 205-2",
    "lat": "36.27494714651288",
    "lng": "126.88088125529383",
    "region": "충청남도"
  },
  {
    "name": "부여전자고등학교 운동장",
    "address": "충청남도 부여군 임천면 만사리 199",
    "lat": "36.17670515534516",
    "lng": "126.89219791555801",
    "region": "충청남도"
  },
  {
    "name": "아산성심학교 운동장",
    "address": "충청남도 아산시 선장면 군덕리 191-2",
    "lat": "36.775918041255494",
    "lng": "126.86291562903605",
    "region": "충청남도"
  },
  {
    "name": "천안오성초등학교 운동장",
    "address": "충청남도 천안시 서북구 두정동 675",
    "lat": "36.83132374404774",
    "lng": "127.13010496950025",
    "region": "충청남도"
  },
  {
    "name": "경천초등학교 운동장",
    "address": "충청남도 공주시 계룡면 경천리 371-1",
    "lat": "36.32414668699789",
    "lng": "127.1496054782928",
    "region": "충청남도"
  },
  {
    "name": "석송초등학교 운동장",
    "address": "충청남도 공주시 정안면 전평리 28-2",
    "lat": "36.56407851435779",
    "lng": "127.11454684584123",
    "region": "충청남도"
  },
  {
    "name": "공주영명고등학교 운동장",
    "address": "충청남도 공주시 중동 318",
    "lat": "36.45127273112823",
    "lng": "127.12735712528229",
    "region": "충청남도"
  },
  {
    "name": "궁남초등학교 운동장",
    "address": "충청남도 부여군 부여읍 동남리 214-4",
    "lat": "36.27464742220565",
    "lng": "126.9067293405533",
    "region": "충청남도"
  },
  {
    "name": "설화중학교 운동장",
    "address": "충청남도 아산시 배방읍 장재리 1567",
    "lat": "36.78565014918744",
    "lng": "127.09634305110802",
    "region": "충청남도"
  },
  {
    "name": "도고중학교 운동장",
    "address": "충청남도 아산시 도고면 시전리 159",
    "lat": "36.74355144077731",
    "lng": "126.9008369514644",
    "region": "충청남도"
  },
  {
    "name": "도솔광장",
    "address": "충청남도 천안시 동남구 신부동 124",
    "lat": "36.82428974126986",
    "lng": "127.16150701045989",
    "region": "충청남도"
  },
  {
    "name": "금산여자중학교 운동장",
    "address": "충청남도 금산군 금산읍 아인리 26",
    "lat": "36.10559605157187",
    "lng": "127.4830611818712",
    "region": "충청남도"
  },
  {
    "name": "부리초등학교 운동장",
    "address": "충청남도 금산군 부리면 양곡리 699",
    "lat": "36.06190865631735",
    "lng": "127.55560866585412",
    "region": "충청남도"
  },
  {
    "name": "대왕초등학교 운동장",
    "address": "충청남도 부여군 부여읍 가탑리 377-1",
    "lat": "36.26834282052814",
    "lng": "126.92795297255005",
    "region": "충청남도"
  },
  {
    "name": "설화고등학교 운동장",
    "address": "충청남도 아산시 배방읍 장재리 1441",
    "lat": "36.78778026894314",
    "lng": "127.09198002376327",
    "region": "충청남도"
  },
  {
    "name": "온양신정중학교 운동장",
    "address": "충청남도 아산시 실옥동 191-21",
    "lat": "36.78883355782239",
    "lng": "126.98689252094088",
    "region": "충청남도"
  },
  {
    "name": "천안부대초등학교 운동장",
    "address": "충청남도 천안시 서북구 부대동 717",
    "lat": "36.84865485056225",
    "lng": "127.15191274881364",
    "region": "충청남도"
  },
  {
    "name": "천안신대초등학교 운동장",
    "address": "충청남도 천안시 서북구 두정동 1546",
    "lat": "36.837200031527985",
    "lng": "127.14306581621675",
    "region": "충청남도"
  },
  {
    "name": "천안생활체육공원",
    "address": "충청남도 천안시 동남구 청당동 976",
    "lat": "36.77951500374422",
    "lng": "127.16324776411057",
    "region": "충청남도"
  },
  {
    "name": "천안삼은초등학교 운동장",
    "address": "충청남도 천안시 서북구 직산읍 삼은리 76-16",
    "lat": "36.87773282007995",
    "lng": "127.14769866202046",
    "region": "충청남도"
  },
  {
    "name": "천안천동초등학교 운동장",
    "address": "충청남도 천안시 동남구 동면 동산리 551",
    "lat": "36.7778865726117",
    "lng": "127.34823971986769",
    "region": "충청남도"
  },
  {
    "name": "천안업성초등학교 운동장",
    "address": "충청남도 천안시 서북구 업성동 99-1",
    "lat": "36.86112653298051",
    "lng": "127.14160510445389",
    "region": "충청남도"
  },
  {
    "name": "태조산공원",
    "address": "충청남도 천안시 동남구 유량동 24",
    "lat": "36.823",
    "lng": "127.1912",
    "region": "충청남도"
  },
  {
    "name": "천안불당초등학교 운동장",
    "address": "충청남도 천안시 서북구 불당동 860",
    "lat": "36.80569365462683",
    "lng": "127.10916537250225",
    "region": "충청남도"
  },
  {
    "name": "제원초등학교 운동장",
    "address": "충청남도 금산군 제원면 제원리 200",
    "lat": "36.113674117851836",
    "lng": "127.54587135386816",
    "region": "충청남도"
  },
  {
    "name": "추부중학교 운동장",
    "address": "충청남도 금산군 추부면 마전리 407",
    "lat": "36.192325213719265",
    "lng": "127.4688530869082",
    "region": "충청남도"
  },
  {
    "name": "복수중학교 운동장",
    "address": "충청남도 금산군 복수면 수영리 240-1",
    "lat": "36.18102124819723",
    "lng": "127.38798949127529",
    "region": "충청남도"
  },
  {
    "name": "부리중학교 운동장",
    "address": "충청남도 금산군 부리면 양곡리 644-1",
    "lat": "36.065733509108064",
    "lng": "127.55544219997314",
    "region": "충청남도"
  },
  {
    "name": "금산하이텍고등학교 운동장",
    "address": "충청남도 금산군 진산면 읍내리 172",
    "lat": "36.14276607378028",
    "lng": "127.37408528600702",
    "region": "충청남도"
  },
  {
    "name": "금산초등학교 운동장",
    "address": "충청남도 금산군 금산읍 상리 176-9",
    "lat": "36.10392674980951",
    "lng": "127.48968044917454",
    "region": "충청남도"
  },
  {
    "name": "추부초등학교 운동장",
    "address": "충청남도 금산군 추부면 마전리 412",
    "lat": "36.19103383122448",
    "lng": "127.46881460653725",
    "region": "충청남도"
  },
  {
    "name": "유구초등학교 운동장",
    "address": "충청남도 공주시 유구읍 석남리 189-2",
    "lat": "36.55397492259146",
    "lng": "126.94999102524206",
    "region": "충청남도"
  },
  {
    "name": "상곡초등학교 운동장",
    "address": "충청남도 금산군 군북면 상곡리 159",
    "lat": "36.206412302847845",
    "lng": "127.57126959409243",
    "region": "충청남도"
  },
  {
    "name": "신대초등학교 운동장",
    "address": "충청남도 금산군 복수면 신대리 502",
    "lat": "36.209553006617625",
    "lng": "127.37805670810998",
    "region": "충청남도"
  },
  {
    "name": "신창초등학교 운동장",
    "address": "충청남도 아산시 신창면 읍내리 305",
    "lat": "36.77958854185004",
    "lng": "126.9325546550441",
    "region": "충청남도"
  },
  {
    "name": "금성초등학교 운동장",
    "address": "충청남도 아산시 인주면 금성리 83",
    "lat": "36.84418536055174",
    "lng": "126.87987141639812",
    "region": "충청남도"
  },
  {
    "name": "연화초등학교 운동장",
    "address": "충청남도 아산시 배방읍 장재리 1434",
    "lat": "36.786843511581466",
    "lng": "127.09530860739837",
    "region": "충청남도"
  },
  {
    "name": "주포초등학교 운동장",
    "address": "충청남도 보령시 주포면 보령리 170-4",
    "lat": "36.41553251419517",
    "lng": "126.59063905477512",
    "region": "충청남도"
  },
  {
    "name": "한내여자중학교 운동장",
    "address": "충청남도 보령시 동대동 4-1",
    "lat": "36.348982759422746",
    "lng": "126.62380779903185",
    "region": "충청남도"
  },
  {
    "name": "삼봉초등학교운동장",
    "address": "충청남도 당진시 석문면 삼봉리 960",
    "lat": "37.0131",
    "lng": "126.5394",
    "region": "충청남도"
  },
  {
    "name": "정산고등학교 운동장",
    "address": "충청남도 청양군 정산면 서정리 91-1",
    "lat": "36.41332227454549",
    "lng": "126.9497738631394",
    "region": "충청남도"
  },
  {
    "name": "청남초등학교 운동장",
    "address": "충청남도 청양군 청남면 청소리 216-1",
    "lat": "36.3550068757586",
    "lng": "126.95176467490228",
    "region": "충청남도"
  },
  {
    "name": "장평중학교 운동장",
    "address": "충청남도 청양군 장평면 중추리 14",
    "lat": "36.34767051240129",
    "lng": "126.90174361104607",
    "region": "충청남도"
  },
  {
    "name": "청양중학교 운동장",
    "address": "충청남도 청양군 청양읍 송방리 133-1",
    "lat": "36.45164541546615",
    "lng": "126.79583750917615",
    "region": "충청남도"
  },
  {
    "name": "청송초등학교 운동장",
    "address": "충청남도 청양군 청양읍 송방리 292-1",
    "lat": "36.44929467980413",
    "lng": "126.78772395425938",
    "region": "충청남도"
  },
  {
    "name": "주산산업고등학교 운동장",
    "address": "충청남도 보령시 주산면 금암리 506",
    "lat": "36.1981516105394",
    "lng": "126.63628179534811",
    "region": "충청남도"
  },
  {
    "name": "청룡초등학교 학교운동장",
    "address": "충청남도 보령시 신흑동 350",
    "lat": "36.31945479897706",
    "lng": "126.5387385915049",
    "region": "충청남도"
  },
  {
    "name": "청파초등학교 운동장",
    "address": "충청남도 보령시 신흑동 835",
    "lat": "36.31839422033395",
    "lng": "126.51158396591997",
    "region": "충청남도"
  },
  {
    "name": "송산초등학교운동장",
    "address": "충청남도 당진시 송산면 상거리 322-2",
    "lat": "36.9317",
    "lng": "126.6801",
    "region": "충청남도"
  },
  {
    "name": "은하면 행정복지센터 주차장",
    "address": "충청남도 홍성군 은하면 대천리 238-2",
    "lat": "36.53186034934759",
    "lng": "126.59031651997033",
    "region": "충청남도"
  },
  {
    "name": "금강신관공원",
    "address": "충청남도 공주시 신관동 553",
    "lat": "36.46819099999853",
    "lng": "127.13001200000134",
    "region": "충청남도"
  },
  {
    "name": "홍동중학교 운동장",
    "address": "충청남도 홍성군 홍동면 구정리 716-1",
    "lat": "36.56250759304513",
    "lng": "126.69223614388646",
    "region": "충청남도"
  },
  {
    "name": "계룡고등학교 운동장",
    "address": "충청남도 계룡시 두마면 농소리 778",
    "lat": "36.26764102737419",
    "lng": "127.25841522217003",
    "region": "충청남도"
  },
  {
    "name": "금마초등학교 운동장",
    "address": "충청남도 홍성군 금마면 부평리 108",
    "lat": "36.61324276057495",
    "lng": "126.73290596162579",
    "region": "충청남도"
  },
  {
    "name": "두마초등학교 운동장",
    "address": "충청남도 계룡시 두마면 두계리 60-1",
    "lat": "36.269768961914444",
    "lng": "127.2702598571832",
    "region": "충청남도"
  },
  {
    "name": "엄사초등학교 운동장",
    "address": "충청남도 계룡시 엄사면 엄사리 286",
    "lat": "36.28622821960739",
    "lng": "127.23777294159096",
    "region": "충청남도"
  },
  {
    "name": "홍주종합경기장",
    "address": "충청남도 홍성군 홍성읍 소향리 397-118",
    "lat": "36.60667578217304",
    "lng": "126.64384313161383",
    "region": "충청남도"
  },
  {
    "name": "결성초등학교 운동장",
    "address": "충청남도 홍성군 결성면 읍내리 459-1",
    "lat": "36.52535129696486",
    "lng": "126.54453419105545",
    "region": "충청남도"
  },
  {
    "name": "홍북초등학교 운동장",
    "address": "충청남도 홍성군 홍북읍 대동리 48-3",
    "lat": "36.65086568979501",
    "lng": "126.69478118419643",
    "region": "충청남도"
  },
  {
    "name": "금산종합운동장",
    "address": "충청남도 금산군 금산읍 하옥리 73",
    "lat": "36.08141868412079",
    "lng": "127.49066207657081",
    "region": "충청남도"
  },
  {
    "name": "군북초등학교 운동장",
    "address": "충청남도 금산군 군북면 두두리 355-1",
    "lat": "36.16806349347017",
    "lng": "127.52678769744668",
    "region": "충청남도"
  },
  {
    "name": "용문초등학교 운동장",
    "address": "충청남도 금산군 군북면 내부리 367",
    "lat": "36.13445058420638",
    "lng": "127.5024191999966",
    "region": "충청남도"
  },
  {
    "name": "덕암초등학교 운동장",
    "address": "충청남도 공주시 유구읍 덕곡리 3-11",
    "lat": "36.629711760161754",
    "lng": "126.96988492935583",
    "region": "충청남도"
  },
  {
    "name": "진산초등학교 운동장",
    "address": "충청남도 금산군 진산면 읍내리 531",
    "lat": "36.14325097752421",
    "lng": "127.36772665571675",
    "region": "충청남도"
  },
  {
    "name": "계룡초등학교 운동장",
    "address": "충청남도 공주시 계룡면 유평리 286",
    "lat": "36.35726909764895",
    "lng": "127.14117105523879",
    "region": "충청남도"
  },
  {
    "name": "금산산업고등학교 운동장",
    "address": "충청남도 금산군 금산읍 아인리 107",
    "lat": "36.1040888429261",
    "lng": "127.47929517005049",
    "region": "충청남도"
  },
  {
    "name": "남이초등학교 운동장",
    "address": "충청남도 금산군 남이면 하금리 381",
    "lat": "36.050500630489175",
    "lng": "127.43659712741928",
    "region": "충청남도"
  },
  {
    "name": "구만초등학교",
    "address": "충청남도 예산군 고덕면 구만리 813-4",
    "lat": "36.733131",
    "lng": "126.732993",
    "region": "충청남도"
  },
  {
    "name": "양신초등학교",
    "address": "충청남도 예산군 오가면 분천리 11-3",
    "lat": "36.706052",
    "lng": "126.784813",
    "region": "충청남도"
  },
  {
    "name": "금성초등학교 운동장",
    "address": "충청남도 금산군 금성면 상가리 152-2",
    "lat": "36.13051932721361",
    "lng": "127.45480625369478",
    "region": "충청남도"
  },
  {
    "name": "거산초등학교 운동장",
    "address": "충청남도 아산시 송악면 송학리 28",
    "lat": "36.691827",
    "lng": "126.989546",
    "region": "충청남도"
  },
  {
    "name": "충무초등학교 운동장",
    "address": "충청남도 아산시 권곡동 86-2",
    "lat": "36.790151",
    "lng": "127.020407",
    "region": "충청남도"
  },
  {
    "name": "부적초등학교 운동장",
    "address": "충청남도 논산시 부적면 반송리 237-6",
    "lat": "36.21190051371376",
    "lng": "127.13579535484313",
    "region": "충청남도"
  },
  {
    "name": "광석중학교 운동장",
    "address": "충청남도 논산시 광석면 천동리 642-1",
    "lat": "36.238164036923656",
    "lng": "127.08185076713563",
    "region": "충청남도"
  },
  {
    "name": "도고온천초등학교 운동장",
    "address": "충청남도 아산시 도고면 신언리 60-1",
    "lat": "36.75754728040499",
    "lng": "126.87592177964792",
    "region": "충청남도"
  },
  {
    "name": "신화초등학교 운동장",
    "address": "충청남도 아산시 영인면 신화리 350",
    "lat": "36.886145",
    "lng": "126.968659",
    "region": "충청남도"
  },
  {
    "name": "온양온천초등학교 운동장",
    "address": "충청남도 아산시 온천동 307-1",
    "lat": "36.78221026313586",
    "lng": "127.00815459179374",
    "region": "충청남도"
  },
  {
    "name": "온양초사초등학교 운동장",
    "address": "충청남도 아산시 초사동 112-5",
    "lat": "36.750915",
    "lng": "126.973889",
    "region": "충청남도"
  },
  {
    "name": "온양권곡초등학교 운동장",
    "address": "충청남도 아산시 권곡동 201-1",
    "lat": "36.790642",
    "lng": "127.013818",
    "region": "충청남도"
  },
  {
    "name": "운신초등학교 운동장",
    "address": "충청남도 서산시 운산면 신창리 304-1",
    "lat": "36.75639985457119",
    "lng": "126.56201525264282",
    "region": "충청남도"
  },
  {
    "name": "온양천도초등학교 운동장",
    "address": "충청남도 아산시 실옥동 183-6",
    "lat": "36.787509",
    "lng": "126.991848",
    "region": "충청남도"
  },
  {
    "name": "대철중학교 운동장",
    "address": "충청남도 서산시 운산면 갈산리 419-16",
    "lat": "36.80385447521142",
    "lng": "126.57872325227135",
    "region": "충청남도"
  },
  {
    "name": "서산중앙고등학교 운동장",
    "address": "충청남도 서산시 동문동 173-2",
    "lat": "36.77819460756935",
    "lng": "126.47116747084408",
    "region": "충청남도"
  },
  {
    "name": "성연초등학교 운동장",
    "address": "충청남도 서산시 성연면 일람리 1084",
    "lat": "36.82404470289583",
    "lng": "126.44884025215457",
    "region": "충청남도"
  },
  {
    "name": "연무초등학교 운동장",
    "address": "충청남도 논산시 연무읍 금곡리 40",
    "lat": "36.11812341993462",
    "lng": "127.09749341011046",
    "region": "충청남도"
  },
  {
    "name": "벌곡초등학교 운동장",
    "address": "충청남도 논산시 벌곡면 한삼천리 260",
    "lat": "36.20794009741571",
    "lng": "127.26598978042603",
    "region": "충청남도"
  },
  {
    "name": "도고초등학교 운동장",
    "address": "충청남도 아산시 도고면 시전리 200",
    "lat": "36.74633314496322",
    "lng": "126.89948038383835",
    "region": "충청남도"
  },
  {
    "name": "금성초등학교(금계분교) 운동장",
    "address": "충청남도 금산군 금성면 하신리 240-2",
    "lat": "36.16096000297054",
    "lng": "127.47938733933086",
    "region": "충청남도"
  },
  {
    "name": "예덕초등학교",
    "address": "충청남도 예산군 고덕면 몽곡리 74-1",
    "lat": "36.778130",
    "lng": "126.716209",
    "region": "충청남도"
  },
  {
    "name": "음봉초등학교 운동장",
    "address": "충청남도 아산시 음봉면 삼거리 282",
    "lat": "36.849185",
    "lng": "127.011219",
    "region": "충청남도"
  },
  {
    "name": "남면초 ",
    "address": "충청남도 태안군 남면 달산리 1174-2",
    "lat": "36.672923846056214",
    "lng": "126.2996488809614",
    "region": "충청남도"
  },
  {
    "name": "안흥초 신진도분교",
    "address": "충청남도 태안군 근흥면 신진도리 85",
    "lat": "36.682801922364725",
    "lng": "126.13939762115538",
    "region": "충청남도"
  },
  {
    "name": "음암초등학교 운동장",
    "address": "충청남도 서산시 음암면 도당리 849",
    "lat": "36.80027066385118",
    "lng": "126.5189302085044",
    "region": "충청남도"
  },
  {
    "name": "이원초 관동분교",
    "address": "충청남도 태안군 이원면 관리 572-3",
    "lat": "36.900815144429814",
    "lng": "126.29946649074174",
    "region": "충청남도"
  },
  {
    "name": "남창초등학교 운동장",
    "address": "충청남도 아산시 둔포면 신남리 230",
    "lat": "36.920610651846964",
    "lng": "127.00137446815793",
    "region": "충청남도"
  },
  {
    "name": "고남초 ",
    "address": "충청남도 태안군 고남면 고남리 1609",
    "lat": "36.42619890001533",
    "lng": "126.40414774417675",
    "region": "충청남도"
  },
  {
    "name": "원북초 ",
    "address": "충청남도 태안군 원북면 반계리 222",
    "lat": "36.82571107355883",
    "lng": "126.25883370638209",
    "region": "충청남도"
  },
  {
    "name": "서산석림중학교 운동장",
    "address": "충청남도 서산시 석림동 557-10",
    "lat": "36.773182530283506",
    "lng": "126.46850126436523",
    "region": "충청남도"
  },
  {
    "name": "동방초등학교 운동장",
    "address": "충청남도 아산시 ��방읍 휴대리 145",
    "lat": "36.77941547824563",
    "lng": "127.11413938155464",
    "region": "충청남도"
  },
  {
    "name": "송곡초등학교 운동장",
    "address": "충청남도 아산시 염치읍 송곡리 53-1",
    "lat": "36.80732584820309",
    "lng": "127.01815192434589",
    "region": "충청남도"
  },
  {
    "name": "탕정초등학교 운동장",
    "address": "충청남도 아산시 탕정면 갈산리 530",
    "lat": "36.80167826814427",
    "lng": "127.06642276178934",
    "region": "충청남도"
  },
  {
    "name": "아산북수초등학교 운동장",
    "address": "충청남도 아산시 배방읍 북수리 299-24",
    "lat": "36.76793508102993",
    "lng": "127.0772892638629",
    "region": "충청남도"
  },
  {
    "name": "신례원초등학교",
    "address": "충청남도 예산군 예산읍 신례원리 256-2",
    "lat": "36.726069",
    "lng": "126.842589",
    "region": "충청남도"
  },
  {
    "name": "평촌초등학교",
    "address": "충청남도 예산군 응봉면 평촌리 156-3",
    "lat": "36.634356",
    "lng": "126.785940",
    "region": "충청남도"
  },
  {
    "name": "논산반월초등학교 운동장",
    "address": "충청남도 논산시 반월동 130",
    "lat": "36.20353795690362",
    "lng": "127.08402872085568",
    "region": "충청남도"
  },
  {
    "name": "감곡초등학교 운동장",
    "address": "충청남도 논산시 부적면 외성리 366-3",
    "lat": "36.210653978067526",
    "lng": "127.16063261032104",
    "region": "충청남도"
  },
  {
    "name": "둔포초등학교 운동장",
    "address": "충청남도 아산시 둔포면 둔포리 388",
    "lat": "36.92663157209744",
    "lng": "127.03877483308325",
    "region": "충청남도"
  },
  {
    "name": "쌍룡초등학교 운동장",
    "address": "충청남도 아산시 음봉면 쌍룡리 58-1",
    "lat": "36.880025181524665",
    "lng": "127.07454811359179",
    "region": "충청남도"
  },
  {
    "name": "염티초등학교 운동장",
    "address": "충청남도 아산시 염치읍 염성리 173",
    "lat": "36.816498",
    "lng": "126.977429",
    "region": "충청남도"
  },
  {
    "name": "온양중앙초등학교 운동장",
    "address": "충청남도 아산시 온천동 617-2",
    "lat": "36.77640505452243",
    "lng": "127.00162580523869",
    "region": "충청남도"
  },
  {
    "name": "월랑초등학교 운동장",
    "address": "충청남도 아산시 음봉면 월랑리 697",
    "lat": "36.845539",
    "lng": "127.069439",
    "region": "충청남도"
  },
  {
    "name": "예산고등학교",
    "address": "충청남도 예산군 예산읍 주교리 125-1",
    "lat": "36.681228",
    "lng": "126.837698",
    "region": "충청남도"
  },
  {
    "name": "양촌초등학교 운동장",
    "address": "충청남도 논산시 양촌면 인천리 403",
    "lat": "36.13834496606283",
    "lng": "127.23347201408868",
    "region": "충청남도"
  },
  {
    "name": "백화초",
    "address": "충청남도 태안군 태안읍 동문리 45",
    "lat": "36.75240077170603",
    "lng": "126.30816489458206",
    "region": "충청남도"
  },
  {
    "name": "대흥초등학교",
    "address": "충청남도 예산군 대흥면 동서리 82-1",
    "lat": "36.607159",
    "lng": "126.789932",
    "region": "충청남도"
  },
  {
    "name": "성동초등학교 운동장",
    "address": "충청남도 논산시 성동면 삼산리 108",
    "lat": "36.19905800844084",
    "lng": "127.03362130399724",
    "region": "충청남도"
  },
  {
    "name": "원봉초등학교 운동장",
    "address": "충청남도 논산시 성동면 정지리 100",
    "lat": "36.21224677009147",
    "lng": "127.0605432987213",
    "region": "충청남도"
  },
  {
    "name": "오목초등학��� 운동장",
    "address": "충청남도 아산시 신창면 오목리 310-4",
    "lat": "36.808229",
    "lng": "126.928230",
    "region": "충청남도"
  },
  {
    "name": "태안여고",
    "address": "충청남도 태안군 태안읍 남문리 416",
    "lat": "36.76021221782657",
    "lng": "126.28964424133571",
    "region": "충청남도"
  },
  {
    "name": "명지중학교 운동장",
    "address": "충청남도 서산시 대산읍 대로리 313-20",
    "lat": "36.967398316664685",
    "lng": "126.41041018854465",
    "region": "충청남도"
  },
  {
    "name": "대흥중학교",
    "address": "충청남도 예산군 대흥면 상중리 231",
    "lat": "36.604812",
    "lng": "126.792524",
    "region": "충청남도"
  },
  {
    "name": "왕전초등학교 운동장",
    "address": "충청남도 논산시 광석면 왕전리 308",
    "lat": "36.23939715412586",
    "lng": "127.10886061191559",
    "region": "충청남도"
  },
  {
    "name": "노성초등학교 운동장",
    "address": "충청남도 논산시 노성면 송당리 114-4",
    "lat": "36.27795145443749",
    "lng": "127.1217727661133",
    "region": "충청남도"
  },
  {
    "name": "채운초등학교 운동장",
    "address": "충청남도 논산시 채운면 용화리 415-10",
    "lat": "36.16888356090517",
    "lng": "127.06771552562712",
    "region": "충청남도"
  },
  {
    "name": "신양초등학교",
    "address": "충청남도 예산군 신양면 신양리 346-3",
    "lat": "36.601989",
    "lng": "126.868811",
    "region": "충청남도"
  },
  {
    "name": "삽교중학교",
    "address": "충청남도 예산군 삽교읍 두리 558",
    "lat": "36.686607721639064",
    "lng": "126.74868328933061",
    "region": "충청남도"
  },
  {
    "name": "부창초등학교 운동장",
    "address": "충청남도 논산시 부창동 39",
    "lat": "36.19938664577428",
    "lng": "127.08577752113342",
    "region": "충청남도"
  },
  {
    "name": "안면중 ",
    "address": "충청남도 태안군 안면읍 승언리 60-1",
    "lat": "36.50872638591884",
    "lng": "126.35422646999183",
    "region": "충청남도"
  },
  {
    "name": "상월초등학교 운동장",
    "address": "충청남도 논산시 상월면 신충리 25",
    "lat": "36.29327618337056",
    "lng": "127.13978111743928",
    "region": "충청남도"
  },
  {
    "name": "종합운동장",
    "address": "충청남도 태안군 태안읍 평천리 1193",
    "lat": "36.73782659188626",
    "lng": "126.33167982101406",
    "region": "충청남도"
  },
  {
    "name": "방포초 ",
    "address": "충청남도 태안군 안면읍 승언리 1312",
    "lat": "36.50686800444334",
    "lng": "126.34833097457859",
    "region": "충청남도"
  },
  {
    "name": "천안월봉초등학교 운동장",
    "address": "충청남도 천안시 서북구 쌍용동 1549",
    "lat": "36.796717450934736",
    "lng": "127.11597820276253",
    "region": "충청남도"
  },
  {
    "name": "천안일봉초등학교 운동장",
    "address": "충청남도 천안시 동남구 다가동 380-8",
    "lat": "36.79964167311374",
    "lng": "127.13888865350171",
    "region": "충청남도"
  },
  {
    "name": "예산중학교",
    "address": "충청남도 예산군 예산읍 주교리 350",
    "lat": "36.678438",
    "lng": "126.833068",
    "region": "충청남도"
  },
  {
    "name": "천안구성초등학교 운동장",
    "address": "충청남도 천안시 동남구 구성동 388-71",
    "lat": "36.79306728059818",
    "lng": "127.1582512722981",
    "region": "충청남도"
  },
  {
    "name": "송악초등학교운동장",
    "address": "충청남도 당진시 송악읍 중흥리 250-1",
    "lat": "36.93978122115813",
    "lng": "126.74399025027404",
    "region": "충청남도"
  },
  {
    "name": "천안용소초등학교 운동장",
    "address": "충청남도 천안시 동남구 용곡동 476-17",
    "lat": "36.78945224779238",
    "lng": "127.13541060849563",
    "region": "충청남도"
  },
  {
    "name": "고대초등학교운동장",
    "address": "충청남도 당진시 고대면 진관리 770-2",
    "lat": "36.93622672067222",
    "lng": "126.59419678247626",
    "region": "충청남도"
  },
  {
    "name": "관대초등학교 운동장",
    "address": "충청남도 아산시 둔포면 산전리 322",
    "lat": "36.89837561836664",
    "lng": "127.03692105238173",
    "region": "충청남도"
  },
  {
    "name": "신리초등학교 운동장",
    "address": "충청남도 아산시 모종동 732",
    "lat": "36.78651815223779",
    "lng": "127.02434420585496",
    "region": "충청남도"
  },
  {
    "name": "아산남성초등학교 운동장",
    "address": "충청남도 아산시 신창면 남성리 119-4",
    "lat": "36.78754559056738",
    "lng": "126.95654429314897",
    "region": "충청남도"
  },
  {
    "name": "천안수곡초등학교 운동장",
    "address": "충청남도 천안시 서북구 쌍용동 440-27",
    "lat": "36.79033735290041",
    "lng": "127.12270292270588",
    "region": "충청남도"
  },
  {
    "name": "천안삼거리초등학교 운동장",
    "address": "충청남도 천안시 동남구 삼룡동 246-24",
    "lat": "36.789215900952705",
    "lng": "127.16369477597036",
    "region": "충청남도"
  },
  {
    "name": "천안와촌초등학교 운동장",
    "address": "충청남도 천안시 서북구 와촌동 174",
    "lat": "36.805992761906104",
    "lng": "127.14443151053584",
    "region": "충청남도"
  },
  {
    "name": "천안봉서초등학교 운동장",
    "address": "충청남도 천안시 동남구 봉명동 482",
    "lat": "36.81279990768605",
    "lng": "127.13124754880906",
    "region": "충청남도"
  },
  {
    "name": "웅산초등학교",
    "address": "충청남도 예산군 광시면 광시리 76",
    "lat": "36.55090739923369",
    "lng": "126.77373737096784",
    "region": "충청남도"
  },
  {
    "name": "삽교고등학교",
    "address": "충청남도 예산군 삽교읍 두리 532-40",
    "lat": "36.687629",
    "lng": "126.747993",
    "region": "충청남도"
  },
  {
    "name": "신암중학교",
    "address": "충청남도 예산군 신암면 오산리 1-4",
    "lat": "36.739734",
    "lng": "126.813066",
    "region": "충청남도"
  },
  {
    "name": "백석초등학교 운동장",
    "address": "충청남도 논산시 연산면 백석리 543-7",
    "lat": "36.24722807599069",
    "lng": "127.17883944511414",
    "region": "충청남도"
  },
  {
    "name": "조림초등학교",
    "address": "충청남도 예산군 신암면 조곡리 158-8",
    "lat": "36.738479",
    "lng": "126.785118",
    "region": "충청남도"
  },
  {
    "name": "덕산중학교",
    "address": "충청남도 예산군 삽교읍 목리 841",
    "lat": "36.66539460097437",
    "lng": "126.68218711457332",
    "region": "충청남도"
  },
  {
    "name": "강경중앙초등학교  운동장",
    "address": "충청남도 논산시 강경읍 남교리 87-1",
    "lat": "36.160087634148475",
    "lng": "127.01962351799013",
    "region": "충청남도"
  },
  {
    "name": "천안남산초등학교 운동장",
    "address": "충청남도 천안시 동남구 원성동 304",
    "lat": "36.804489254711804",
    "lng": "127.15391367673874",
    "region": "충청남도"
  },
  {
    "name": "천안신부초등학교 ",
    "address": "충청남도 천안시 동남구 신부동 670",
    "lat": "36.822694480090824",
    "lng": "127.16053176023485",
    "region": "충청남도"
  },
  {
    "name": "시량초등학교",
    "address": "충청남도 예산군 덕산면 시량리 223",
    "lat": "36.685609",
    "lng": "126.643729",
    "region": "충청남도"
  },
  {
    "name": "청동초등학교 운동장",
    "address": "충청남도 논산시 연산면 청동리 540",
    "lat": "36.21232034937435",
    "lng": "127.1965581178665",
    "region": "충청남도"
  },
  {
    "name": "도산초등학교 운동장",
    "address": "충청남도 논산시 벌곡면 도산리 167-3",
    "lat": "36.16202338295618",
    "lng": "127.31564538897356",
    "region": "충청남도"
  },
  {
    "name": "이화초등학교 운동장",
    "address": "충청남도 논산시 채운면 심암리 351",
    "lat": "36.150238143234155",
    "lng": "127.07144379615787",
    "region": "충청남도"
  },
  {
    "name": "천안미라초등학교 운동장",
    "address": "충청남도 천안시 서북구 쌍용동 1231",
    "lat": "36.80047147327708",
    "lng": "127.12857389625044",
    "region": "충청남도"
  },
  {
    "name": "천안서초등학교 운동장",
    "address": "충청남도 천안시 서북구 성정동 644",
    "lat": "36.8235742434285",
    "lng": "127.13995960621286",
    "region": "충청남도"
  },
  {
    "name": "고덕초등학교",
    "address": "충청남도 예산군 고덕면 대천리 650-4",
    "lat": "36.74718911704902",
    "lng": "126.7028492689132",
    "region": "충청남도"
  },
  {
    "name": "대술중학교",
    "address": "충청남도 예산군 대술면 화천리 869-1",
    "lat": "36.656635",
    "lng": "126.891548",
    "region": "충청남도"
  },
  {
    "name": "황산초등학교 운동장",
    "address": "충청남도 논산시 강경읍 황산리 31-2",
    "lat": "36.158203525910835",
    "lng": "127.01315838702932",
    "region": "충청남도"
  },
  {
    "name": "천안용암초등학교 운동장",
    "address": "충청남도 천안시 서북구 쌍용동 1922",
    "lat": "36.803823022283254",
    "lng": "127.11822505800849",
    "region": "충청남도"
  },
  {
    "name": "천안신용초등학교 운동장",
    "address": "충청남도 천안시 동남구 신방동 40",
    "lat": "36.79096886020168",
    "lng": "127.13237535254328",
    "region": "충청남도"
  },
  {
    "name": "천안가온초등학교 운동장",
    "address": "충청남도 천안시 동남구 청당동 469",
    "lat": "36.78504260147119",
    "lng": "127.14918856670475",
    "region": "충청남도"
  },
  {
    "name": "응봉초등학교",
    "address": "충청남도 예산군 응봉면 증곡리 436",
    "lat": "36.656220",
    "lng": "126.770012",
    "region": "충청남도"
  },
  {
    "name": "금오초등학교",
    "address": "충청남도 예산군 예산읍 산성리 865",
    "lat": "36.690354",
    "lng": "126.834157",
    "region": "충청남도"
  },
  {
    "name": "신암초등학교",
    "address": "충청남도 예산군 신암면 종경리 215-2",
    "lat": "36.732876",
    "lng": "126.820784",
    "region": "충청남도"
  },
  {
    "name": "천안쌍용초등학교 운동장",
    "address": "충청남도 천안시 서북구 쌍용동 1300",
    "lat": "36.80126443555659",
    "lng": "127.12310717104734",
    "region": "충청남도"
  },
  {
    "name": "삽교초등학교",
    "address": "충청남도 예산군 삽교읍 두리 542-2",
    "lat": "36.688296",
    "lng": "126.743185",
    "region": "충청남도"
  },
  {
    "name": "예산여자중학교",
    "address": "충청남도 예산군 예산읍 발연리 135-5",
    "lat": "36.698666",
    "lng": "126.835020",
    "region": "충청남도"
  },
  {
    "name": "광석초등학교 운동장",
    "address": "충청남도 논산시 광석면 신당리 14",
    "lat": "36.243511730781236",
    "lng": "127.08065986633301",
    "region": "충청남도"
  },
  {
    "name": "천안청당초등학교 운동장",
    "address": "충청남도 천안시 동남구 청당동 300",
    "lat": "36.77967238842658",
    "lng": "127.15120131168148",
    "region": "충청남도"
  },
  {
    "name": "천안여자중학교 운동장",
    "address": "충청남도 천안시 동남구 원성동 559-1",
    "lat": "36.80163074176077",
    "lng": "127.15729057788849",
    "region": "충청남도"
  },
  {
    "name": "보성초등학교",
    "address": "충청남도 예산군 삽교읍 목리 1963",
    "lat": "36.66705367004995",
    "lng": "126.68118589804186",
    "region": "충청남도"
  },
  {
    "name": "봉산초등학교",
    "address": "충청남도 예산군 봉산면 구암리 2",
    "lat": "36.748589",
    "lng": "126.680468",
    "region": "충청남도"
  },
  {
    "name": "고덕중학교",
    "address": "충청남도 예산군 고덕면 대천리 692",
    "lat": "36.745689",
    "lng": "126.699107",
    "region": "충청남도"
  },
  {
    "name": "임성중학교",
    "address": "충청남도 예산군 오가면 역탑리 463-18",
    "lat": "36.68934932088235",
    "lng": "126.78569197654724",
    "region": "충청남도"
  },
  {
    "name": "덕산고등학교",
    "address": "충청남도 예산군 삽교읍 목리 842",
    "lat": "36.666191043228764",
    "lng": "126.68265088087426",
    "region": "충청남도"
  },
  {
    "name": "청어람센터(청남면 기초생활거점시설)",
    "address": "충청남도 청양군 청남면 청소리 218-1",
    "lat": "36.3549381455686",
    "lng": "126.95088118314744",
    "region": "충청남도"
  },
  {
    "name": "낙동초등학교 운동장",
    "address": "충청남도 보령시 천북면 낙동리 293-5",
    "lat": "36.4938235844421",
    "lng": "126.56538605689994",
    "region": "충청남도"
  },
  {
    "name": "순성초등학교운동장",
    "address": "충청남도 당진시 순성면 봉소리 59",
    "lat": "36.8427",
    "lng": "126.7115",
    "region": "충청남도"
  },
  {
    "name": "천안성정초등학교 운동장",
    "address": "충청남도 천안시 서북구 성정동 716-1",
    "lat": "36.81533373089605",
    "lng": "127.14090099628862",
    "region": "충청남도"
  },
  {
    "name": "합천초등학교 운동장",
    "address": "충청남도 청양군 화성면 산정리 243",
    "lat": "36.425498518790725",
    "lng": "126.71422678942088",
    "region": "충청남도"
  },
  {
    "name": "관창초등학교 운동장",
    "address": "충청남도 보령시 주교면 관창리 130-3",
    "lat": "36.385234224167135",
    "lng": "126.58340546414571",
    "region": "충청남도"
  },
  {
    "name": "성주초등학교 운동장",
    "address": "충청남도 보령시 성주면 성주리 117",
    "lat": "36.34184872948333",
    "lng": "126.65335178374839",
    "region": "충청남도"
  },
  {
    "name": "대천여자고등학교 운동장",
    "address": "충청남도 보령시 대천동 500-2",
    "lat": "36.36013717218253",
    "lng": "126.58442623048559",
    "region": "충청남도"
  },
  {
    "name": "명천초등학교 운동장",
    "address": "충청남도 보령시 명천동 325-1",
    "lat": "36.33900213664804",
    "lng": "126.61119400399758",
    "region": "충청남도"
  },
  {
    "name": "용동초등학교",
    "address": "충청남도 예산군 삽교읍 상성리 95-1",
    "lat": "36.702359",
    "lng": "126.715619",
    "region": "충청남도"
  },
  {
    "name": "신양중학교",
    "address": "충청남도 예산군 신양면 신양리 318-5",
    "lat": "36.603516674728596",
    "lng": "126.8705983245142",
    "region": "충청남도"
  },
  {
    "name": "광시중학교",
    "address": "충청남도 예산군 광시면 하장대리 1-3",
    "lat": "36.548069615512745",
    "lng": "126.77245259284967",
    "region": "충청남도"
  },
  {
    "name": "초락초등학교운동장",
    "address": "충청남도 당진시 석문면 초락도리 210-2",
    "lat": "36.99306180967348",
    "lng": "126.51042543221328",
    "region": "충청남도"
  },
  {
    "name": "예산종합운동장",
    "address": "충청남도 예산군 예산읍 향천리 257",
    "lat": "36.677135950952874",
    "lng": "126.86138391494751",
    "region": "충청남도"
  },
  {
    "name": "서면중학교 운동장",
    "address": "충청남도 서천군 서면 신합리 475-23",
    "lat": "36.15407586683731",
    "lng": "126.54952883720031",
    "region": "충청남도"
  },
  {
    "name": "청소초등학교 운동장",
    "address": "충청남도 보령시 청소면 진죽리 267-1",
    "lat": "36.451486736519314",
    "lng": "126.59230354876513",
    "region": "충청남도"
  },
  {
    "name": "대천초등학교 운동장",
    "address": "충청남도 보령시 대천동 37-2",
    "lat": "36.35405993985876",
    "lng": "126.59967138815188",
    "region": "충청남도"
  },
  {
    "name": "우강초등학교운동장",
    "address": "충청남도 당진시 우강면 송산리 29",
    "lat": "36.8248",
    "lng": "126.7892",
    "region": "충청남도"
  },
  {
    "name": "정미초등학교운동장",
    "address": "충청남도 당진시 정미면 매방리 120",
    "lat": "36.85631735703961",
    "lng": "126.55443154260156",
    "region": "충청남도"
  },
  {
    "name": "화성중학교 운동장",
    "address": "충청남도 청양군 화성면 구재리 156-3",
    "lat": "36.43633636525241",
    "lng": "126.72209291015179",
    "region": "충청남도"
  },
  {
    "name": "웅천중고등학교 운동장",
    "address": "충청남도 보령시 웅천읍 대창리 449-1",
    "lat": "36.23410616363357",
    "lng": "126.60444776185176",
    "region": "충청남도"
  },
  {
    "name": "대남초등학교 운동장",
    "address": "충청남도 보령시 대천동 158-2",
    "lat": "36.35207536699034",
    "lng": "126.59455579836526",
    "region": "충청남도"
  },
  {
    "name": "계성초등학교운동장",
    "address": "충청남도 당진시 읍내동 13",
    "lat": "36.8984",
    "lng": "126.6382",
    "region": "충청남도"
  },
  {
    "name": "천안새샘초등학교 운동장",
    "address": "충청남도 천안시 동남구 신방동 1924",
    "lat": "36.77085973524933",
    "lng": "127.13110850250243",
    "region": "충청남도"
  },
  {
    "name": "서면초등학교 운동장",
    "address": "충청남도 서천군 서면 신합리 466-1",
    "lat": "36.153361180853885",
    "lng": "126.55541360377848",
    "region": "충청남도"
  },
  {
    "name": "송학초등학교 운동장",
    "address": "충청남도 보령시 주교면 송학리 110",
    "lat": "36.37988401623229",
    "lng": "126.52702768000647",
    "region": "충청남도"
  },
  {
    "name": "신촌초등학교운동장",
    "address": "충청남도 당진시 합덕읍 신리 273-1",
    "lat": "36.7633",
    "lng": "126.7646",
    "region": "충청남도"
  },
  {
    "name": "합덕초등학교운동장",
    "address": "충청남도 당진시 합덕읍 운산리 3-8",
    "lat": "36.8045",
    "lng": "126.7791",
    "region": "충청남도"
  },
  {
    "name": "성당초등학교운동장",
    "address": "충청남도 당진시 사기소동 644-5",
    "lat": "36.8364",
    "lng": "126.6044",
    "region": "충청남도"
  },
  {
    "name": "청라초등학교 운동장",
    "address": "충청남도 보령시 청라면 나원리 916",
    "lat": "36.3903164246013",
    "lng": "126.67252025699068",
    "region": "충청남도"
  },
  {
    "name": "전대초등학교운동장",
    "address": "충청남도 당진시 송악읍 전대리 791-23",
    "lat": "36.9091",
    "lng": "126.7496",
    "region": "충청남도"
  },
  {
    "name": "덕산초등학교",
    "address": "충청남도 예산군 덕산면 읍내리 348-1",
    "lat": "36.706170",
    "lng": "126.669267",
    "region": "충청남도"
  },
  {
    "name": "수덕초등학교",
    "address": "충청남도 예산군 덕산면 외라리 238",
    "lat": "36.639981",
    "lng": "126.604636",
    "region": "충청남도"
  },
  {
    "name": "개화초등학교 운동장",
    "address": "충청남도 보령시 성주면 개화리 307-3",
    "lat": "36.30647967275311",
    "lng": "126.65423959493631",
    "region": "충청남도"
  },
  {
    "name": "백강초등학교 운동장",
    "address": "충청남도 부여군 규암면 오수리 208",
    "lat": "36.29649816487494",
    "lng": "126.8914518604745",
    "region": "충청남도"
  },
  {
    "name": "은산초등학교 운동장",
    "address": "충청남도 부여군 은산면 신대리 333",
    "lat": "36.313888584911425",
    "lng": "126.85514275568198",
    "region": "충청남도"
  },
  {
    "name": "서정초등학교운동장",
    "address": "충청남도 당진시 신평면 거산리 40",
    "lat": "36.8801",
    "lng": "126.7558",
    "region": "충청남도"
  },
  {
    "name": "예산초등학교",
    "address": "충청남도 예산군 예산읍 예산리 742-1",
    "lat": "36.68340420306243",
    "lng": "126.84979677200315",
    "region": "충청남도"
  },
  {
    "name": "남양초등학교 운동장",
    "address": "충청남도 청양군 남양면 구룡리 22",
    "lat": "36.40089261347397",
    "lng": "126.77684777106958",
    "region": "충청남도"
  },
  {
    "name": "미당초등학교 운동장",
    "address": "충청남도 청양군 장평면 미당리 38",
    "lat": "36.37498647835111",
    "lng": "126.93362255568597",
    "region": "충청남도"
  },
  {
    "name": "장평초등학교 운동장",
    "address": "충청남도 청양군 장평면 중추리 26-2",
    "lat": "36.34608594558796",
    "lng": "126.8988186812072",
    "region": "충청남도"
  },
  {
    "name": "천북초등학교 운동장",
    "address": "충청남도 보령시 천북면 하만리 246-5",
    "lat": "36.48179777791678",
    "lng": "126.53153049157159",
    "region": "충청남도"
  },
  {
    "name": "북창초등학교운동장",
    "address": "충청남도 당진시 순성면 중방리 15",
    "lat": "36.8498",
    "lng": "126.7648",
    "region": "충청남도"
  },
  {
    "name": "신평초등학교운동장",
    "address": "충청남도 당진시 신평면 금천리 426",
    "lat": "36.88686262290297",
    "lng": "126.77177661317268",
    "region": "충청남도"
  },
  {
    "name": "수정초등학교 운동장",
    "address": "충청남도 청양군 대치면 주정리 258-5",
    "lat": "36.445417577056176",
    "lng": "126.82855831342583",
    "region": "충청남도"
  },
  {
    "name": "웅천초등학교 운동장",
    "address": "충청남도 보령시 웅천읍 대천리 130",
    "lat": "36.23992567386797",
    "lng": "126.59167644296363",
    "region": "충청남도"
  },
  {
    "name": "보령중학교 운동장",
    "address": "충청남도 보령시 주포면 보령리 266-1",
    "lat": "36.41660837337015",
    "lng": "126.58984690113293",
    "region": "충청남도"
  },
  {
    "name": "대천고등학교 운동장",
    "address": "충청남도 보령시 죽정동 562",
    "lat": "36.36553380821017",
    "lng": "126.60411054105282",
    "region": "충청남도"
  },
  {
    "name": "한내초등학교 운동장",
    "address": "충청남도 보령시 명천동 431",
    "lat": "36.341703826952205",
    "lng": "126.60157689513326",
    "region": "충청남도"
  },
  {
    "name": "공주대학교옥룡캠퍼스 운동장",
    "address": "충청남도 공주시 옥룡동 201",
    "lat": "36.451913",
    "lng": "127.132499",
    "region": "충청남도"
  },
  {
    "name": "용강중학교 운동장",
    "address": "충청남도 부여군 구룡면 태양리 340",
    "lat": "36.25114463373679",
    "lng": "126.80795915325736",
    "region": "충청남도"
  },
  {
    "name": "양화초등학교 운동장",
    "address": "충청남도 부여군 양화면 족교리 201-2",
    "lat": "36.12816092334788",
    "lng": "126.85703938113342",
    "region": "충청남도"
  },
  {
    "name": "임천초등학교 운동장",
    "address": "충청남도 부여군 임천면 군사리 252",
    "lat": "36.19097087365296",
    "lng": "126.89333392873824",
    "region": "충청남도"
  },
  {
    "name": "온양여자고등학교 운동장",
    "address": "충청남도 아산시 풍기동 214-25",
    "lat": "36.778284410748874",
    "lng": "127.0142962866162",
    "region": "충청남도"
  },
  {
    "name": "온양고등학교 운동장",
    "address": "충청남도 아산시 온천동 261",
    "lat": "36.785280832670054",
    "lng": "126.99542194604874",
    "region": "충청남도"
  },
  {
    "name": "온양여자중학교 운동장",
    "address": "충청남도 아산시 풍기동 214-28",
    "lat": "36.776715",
    "lng": "127.013603",
    "region": "충청남도"
  },
  {
    "name": "석성초등학교 운동장",
    "address": "충청남도 부여군 석성면 석성리 745-1",
    "lat": "36.223321392655684",
    "lng": "126.9891577876899",
    "region": "충청남도"
  },
  {
    "name": "이인초등학교 운동장",
    "address": "충청남도 공주시 이인면 이인리 286",
    "lat": "36.36181578020678",
    "lng": "127.06005628493648",
    "region": "충청남도"
  },
  {
    "name": "공주태봉초등학교 운동장",
    "address": "충청남도 공주시 태봉동 407",
    "lat": "36.415877",
    "lng": "127.089196",
    "region": "충청남도"
  },
  {
    "name": "부여여자고등학교 운동장",
    "address": "충청남도 부여군 부여읍 쌍북리 646-10",
    "lat": "36.284594525404415",
    "lng": "126.91648313438648",
    "region": "충청남도"
  },
  {
    "name": "옥산초등학교 운동장",
    "address": "충청남도 부여군 옥산면 안서리 368-2",
    "lat": "36.19041305006881",
    "lng": "126.73276196430567",
    "region": "충청남도"
  },
  {
    "name": "초촌초등학교 운동장",
    "address": "충청남도 부여군 초촌면 응평리 80",
    "lat": "36.26273065506947",
    "lng": "127.02400743850903",
    "region": "충청남도"
  },
  {
    "name": "배방중학교 운동장",
    "address": "충청남도 아산시 배방읍 북수리 257-4",
    "lat": "36.769891",
    "lng": "127.070831",
    "region": "충청남도"
  },
  {
    "name": "아산용연초등학교 운동장",
    "address": "충청남도 아산시 배방읍 장재리 2052",
    "lat": "36.79197171443509",
    "lng": "127.09252960303616",
    "region": "충청남도"
  },
  {
    "name": "구산초등학교 운동장",
    "address": "충청남도 공주시 유구읍 유구리 440-3",
    "lat": "36.551328983179026",
    "lng": "126.95789034746544",
    "region": "충청남도"
  },
  {
    "name": "탄천초등학교 운동장",
    "address": "충청남도 공주시 탄천면 삼각리 458-1",
    "lat": "36.331194537245096",
    "lng": "127.03165054321289",
    "region": "충청남도"
  },
  {
    "name": "공주고등학교 운동장",
    "address": "충청남도 공주시 중학동 137-1",
    "lat": "36.4474176160235",
    "lng": "127.12253008408214",
    "region": "충청남도"
  },
  {
    "name": "송간초등학교 운동장",
    "address": "충청남도 부여군 부여읍 가증리 1",
    "lat": "36.30754510328392",
    "lng": "126.95767566195317",
    "region": "충청남도"
  },
  {
    "name": "탕정중학교 운동장",
    "address": "충청남도 아산시 탕정면 명암리 852",
    "lat": "36.802023441771645",
    "lng": "127.06366125451652",
    "region": "충청남도"
  },
  {
    "name": "음봉중학교 운동장",
    "address": "충청남도 아산시 음봉면 동암리 716",
    "lat": "36.84251238882092",
    "lng": "127.06715891237592",
    "region": "충청남도"
  },
  {
    "name": "금산동초등학교 운동장",
    "address": "충청남도 금산군 금산읍 중도리 102",
    "lat": "36.10399369510824",
    "lng": "127.4987618385583",
    "region": "충청남도"
  },
  {
    "name": "제원중학교 운동장",
    "address": "충청남도 금산군 제원면 명암리 167-1",
    "lat": "36.11192235655081",
    "lng": "127.54067101059307",
    "region": "충청남도"
  },
  {
    "name": "정안초등학교 운동장",
    "address": "충청남도 공주시 정안면 내촌리 189-1",
    "lat": "36.60241970644888",
    "lng": "127.11711687062005",
    "region": "충청남도"
  },
  {
    "name": "마곡초등학교 운동장",
    "address": "충청남도 공주시 사곡면 운암리 453",
    "lat": "36.55860260844028",
    "lng": "127.01828943093548",
    "region": "충청남도"
  },
  {
    "name": "송남중학교 운동장",
    "address": "충청남도 아산시 송악면 역촌리 353-1",
    "lat": "36.72215881208529",
    "lng": "127.00404074845073",
    "region": "충청남도"
  },
  {
    "name": "안면고",
    "address": "충청남도 태안군 안면읍 승언리 60-27",
    "lat": "36.50888592006403",
    "lng": "126.35584384203254",
    "region": "충청남도"
  },
  {
    "name": "명지초등학교 운동장",
    "address": "충청남도 서산시 대산읍 대로리 278",
    "lat": "36.97147205030582",
    "lng": "126.41011030370547",
    "region": "충청남도"
  },
  {
    "name": "백제중학교  운동장",
    "address": "충청남도 부여군 규암면 반산리 276",
    "lat": "36.27274633215933",
    "lng": "126.86509448884397",
    "region": "충청남도"
  },
  {
    "name": "마정초등학교 운동장",
    "address": "충청남도 부여군 남면 마정리 811",
    "lat": "36.21754803630013",
    "lng": "126.83919276620131",
    "region": "충청남도"
  },
  {
    "name": "탕정미래초등학교 운동장",
    "address": "충청남도 아산시 탕정면 갈산리 483",
    "lat": "36.79748584278181",
    "lng": "127.06414942452857",
    "region": "충청남도"
  },
  {
    "name": "금산동중학교 운동장",
    "address": "충청남도 금산군 금산읍 아인리 134-2",
    "lat": "36.10571979655422",
    "lng": "127.48115313296483",
    "region": "충청남도"
  },
  {
    "name": "송남초등학교 운동장",
    "address": "충청남도 아산시 송악면 역촌리 50",
    "lat": "36.732575",
    "lng": "127.010051",
    "region": "충청남도"
  },
  {
    "name": "염작초등학교 운동장",
    "address": "충청남도 아산시 둔포면 석곡리 1785",
    "lat": "36.923872258192965",
    "lng": "127.05167490991491",
    "region": "충청남도"
  },
  {
    "name": "온양신정초등학교 운동장",
    "address": "충청남도 아산시 실옥동 191-24",
    "lat": "36.7880271907853",
    "lng": "126.98618920538492",
    "region": "충청남도"
  },
  {
    "name": "대진초등학교 운동장",
    "address": "충청남도 서산시 대산읍 기은리 612-19",
    "lat": "36.97726472865417",
    "lng": "126.3843316764718",
    "region": "충청남도"
  },
  {
    "name": "화동초 ",
    "address": "충청남도 태안군 태안읍 평천리 679-8",
    "lat": "36.7534237188489",
    "lng": "126.32047355174987",
    "region": "충청남도"
  },
  {
    "name": "대산초등학교 운동장",
    "address": "충청남도 서산시 대산읍 대산리 97-2",
    "lat": "36.93964973090111",
    "lng": "126.43507942605362",
    "region": "충청남도"
  },
  {
    "name": "안흥초",
    "address": "충청남도 태안군 근흥면 정죽리 823-1",
    "lat": "36.69541871737922",
    "lng": "126.17461502551855",
    "region": "충청남도"
  },
  {
    "name": "온양초등학교 운동장",
    "address": "충청남도 아산시 읍내동 374-1",
    "lat": "36.760742315055914",
    "lng": "127.01846195998134",
    "region": "충청남도"
  },
  {
    "name": "동덕초등학교 운동장",
    "address": "충청남도 아산시 탕정면 동산리 423-1",
    "lat": "36.82045541681177",
    "lng": "127.08455214510916",
    "region": "충청남도"
  },
  {
    "name": "용화초등학교",
    "address": "충청남도 아산시 용화동 708",
    "lat": "36.77323323356519",
    "lng": "126.99589155350732",
    "region": "충청남도"
  },
  {
    "name": "인주초등학교 운동장",
    "address": "충청남도 아산시 인주면 신성리 220",
    "lat": "36.875644",
    "lng": "126.895573",
    "region": "충청남도"
  },
  {
    "name": "송암초",
    "address": "충청남도 태안군 태안읍 송암리 765-1",
    "lat": "36.73498063936382",
    "lng": "126.30064666270873",
    "region": "충청남도"
  },
  {
    "name": "차동초등학교 운동장",
    "address": "충청남도 서산시 인지면 차리 41",
    "lat": "36.776287621326404",
    "lng": "126.40090869570585",
    "region": "충청남도"
  },
  {
    "name": "음암중학교 운동장",
    "address": "충청남도 서산시 음암면 도당리 585-18",
    "lat": "36.7897399424343",
    "lng": "126.51837260858775",
    "region": "충청남도"
  },
  {
    "name": "이원초 ",
    "address": "충청남도 태안군 이원면 포지리 44",
    "lat": "36.868682092941256",
    "lng": "126.2811362743319",
    "region": "충청남도"
  },
  {
    "name": "서산여자중학교 운동장",
    "address": "충청남도 서산시 석림동 420",
    "lat": "36.76816875691411",
    "lng": "126.46758892628083",
    "region": "충청남도"
  },
  {
    "name": "서림초등학교 운동장",
    "address": "충청남도 ��산시 석남동 64-1",
    "lat": "36.76763330510685",
    "lng": "126.46061238574403",
    "region": "충청남도"
  },
  {
    "name": "태안여중 ",
    "address": "충청남도 태안군 태안읍 동문리 350-3",
    "lat": "36.75138855637559",
    "lng": "126.3062471151344",
    "region": "충청남도"
  },
  {
    "name": "태안중",
    "address": "충청남도 태안군 태안읍 동문리 300",
    "lat": "36.7527553662731",
    "lng": "126.30129039287239",
    "region": "충청남도"
  },
  {
    "name": "서령초등학교 운동장",
    "address": "충청남도 서산시 죽성동 77-2",
    "lat": "36.74376766382543",
    "lng": "126.44778073521275",
    "region": "충청남도"
  },
  {
    "name": "삼성초 ",
    "address": "충청남도 태안군 남면 원청리 산33-5",
    "lat": "36.622562957462186",
    "lng": "126.31137013435645",
    "region": "충청남도"
  },
  {
    "name": "서산공업고등학교 운동장",
    "address": "충청남도 서산시 운산면 용장리 246-1",
    "lat": "36.80923832710571",
    "lng": "126.58713301904491",
    "region": "충청남도"
  },
  {
    "name": "논산시민운동장",
    "address": "충청남도 논산시 관촉동 342",
    "lat": "36.19426237897098",
    "lng": "127.10329837564719",
    "region": "충청남도"
  },
  {
    "name": "구항면사무소 주차장",
    "address": "충청남도 홍성군 구항면 오봉리 735-1",
    "lat": "36.5875",
    "lng": "126.6108",
    "region": "충청남도"
  },
  {
    "name": "태안군청 ",
    "address": "충청남도 태안군 태안읍 남문리 90",
    "lat": "36.74524620758289",
    "lng": "126.29861891269137",
    "region": "충청남도"
  },
  {
    "name": "갈산고등학교 운동장",
    "address": "충청남도 홍성군 갈산면 상촌리 227-1",
    "lat": "36.604874825668574",
    "lng": "126.54846377639127",
    "region": "충청남도"
  },
  {
    "name": "남문공영주차장",
    "address": "충청남도 태안군 태안읍 남문리 156-3",
    "lat": "36.75211778170971",
    "lng": "126.29663472097931",
    "region": "충청남도"
  },
  {
    "name": "서동공원 서문주차장",
    "address": "충청남도 부여군 부여읍 동남리 172-1",
    "lat": "36.27138698936891",
    "lng": "126.90975581812845",
    "region": "충청남도"
  },
  {
    "name": "천안신사초등학교 운동장",
    "address": "충청남도 천안시 동남구 성남면 신사리 345",
    "lat": "36.742598269460835",
    "lng": "127.23760664463042",
    "region": "충청남도"
  },
  {
    "name": "천안서당초등학교 운동장",
    "address": "충청남도 천안시 서북구 불당동 816",
    "lat": "36.803871293232774",
    "lng": "127.11371594315345",
    "region": "충청남도"
  },
  {
    "name": "홍동초등학교 운동장",
    "address": "충청남도 홍성군 홍동면 운월리 221",
    "lat": "36.557025722961775",
    "lng": "126.68852873484715",
    "region": "충청남도"
  },
  {
    "name": "은진초등학교 운동장",
    "address": "충청남도 논산시 은진면 연서리 231-1",
    "lat": "36.167759764110315",
    "lng": "127.10966393351556",
    "region": "충청남도"
  },
  {
    "name": "논산동성초등학교 운동장",
    "address": "충청남도 논산시 취암동 310-1",
    "lat": "36.2024767895061",
    "lng": "127.09278964931998",
    "region": "충청남도"
  },
  {
    "name": "부춘중학교 운동장",
    "address": "충청남도 서산시 읍내동 585-1",
    "lat": "36.786056",
    "lng": "126.444292",
    "region": "충청남도"
  },
  {
    "name": "예산여자고등학교",
    "address": "충청남도 예산군 예산읍 주교리 161-1",
    "lat": "36.684671",
    "lng": "126.833533",
    "region": "충청남도"
  },
  {
    "name": "온양동신초등학교 운동장",
    "address": "충청남도 아산시 모종동 586-1",
    "lat": "36.7794415730286",
    "lng": "127.01754556747605",
    "region": "충청남도"
  },
  {
    "name": "학돌초등학교 운동장",
    "address": "충청남도 서산시 읍내동 624-2",
    "lat": "36.784715999999925",
    "lng": "126.4446779999998",
    "region": "충청남도"
  },
  {
    "name": "금산중앙초등학교 운동장",
    "address": "충청남도 금산군 금산읍 상옥리 137-1",
    "lat": "36.10144524151132",
    "lng": "127.4871670693691",
    "region": "충청남도"
  },
  {
    "name": "금산여자고등학교 운동장",
    "address": "충청남도 금산군 금산읍 아인리 9-1",
    "lat": "36.105039018650096",
    "lng": "127.48442021934828",
    "region": "충청남도"
  },
  {
    "name": "금산중고등학교 운동장",
    "address": "충청남도 금산군 금산읍 중도리 166",
    "lat": "36.106955516607705",
    "lng": "127.49529214249159",
    "region": "충청남도"
  },
  {
    "name": "남일초등학교 운동장",
    "address": "충청남도 금산군 남일면 초현리 253-2",
    "lat": "36.04332887288646",
    "lng": "127.50371815252228",
    "region": "충청남도"
  },
  {
    "name": "공주교대부설초등학교 운동장",
    "address": "충청남도 공주시 금학동 231-1",
    "lat": "36.44284088726081",
    "lng": "127.11840927600863",
    "region": "충청남도"
  },
  {
    "name": "외산초등학교 운동장",
    "address": "충청남도 부여군 외산면 장항리 211-1",
    "lat": "36.31526897397403",
    "lng": "126.71588024662775",
    "region": "충청남도"
  },
  {
    "name": "용남초등학교 운동장",
    "address": "충청남도 계룡시 신도안면 남선리 1322",
    "lat": "36.29863307473009",
    "lng": "127.24441140890319",
    "region": "충청남도"
  },
  {
    "name": "부성초등학교 운동장",
    "address": "충청남도 서산시 지곡면 화천리 307",
    "lat": "36.864557564046095",
    "lng": "126.43575912383861",
    "region": "충청남도"
  },
  {
    "name": "원북초 방갈분교",
    "address": "충청남도 태안군 원북면 방갈리 202",
    "lat": "36.87341772974472",
    "lng": "126.21258169412211",
    "region": "충청남도"
  },
  {
    "name": "서산중학교 운동장",
    "address": "충청남도 서산시 석남동 57-1",
    "lat": "36.768612467674885",
    "lng": "126.45905811149593",
    "region": "충청남도"
  },
  {
    "name": "서산동문초등학교 운동장",
    "address": "충청남도 서산시 동문동 11",
    "lat": "36.787782386326164",
    "lng": "126.46673587527398",
    "region": "충청남도"
  },
  {
    "name": "천안병천초등학교 운동장",
    "address": "충청남도 천안시 동남구 병천면 병천리 123",
    "lat": "36.76552397655979",
    "lng": "127.30122059583663",
    "region": "충청남도"
  },
  {
    "name": "천안풍세초등학교 운동장",
    "address": "충청남도 천안시 동남구 풍세면 풍서리 452",
    "lat": "36.72599677550778",
    "lng": "127.1182374949155",
    "region": "충청남도"
  },
  {
    "name": "천안부성초등학교 운동장",
    "address": "충청남도 천안시 서북구 두정동 956",
    "lat": "36.83510282559484",
    "lng": "127.13686369699181",
    "region": "충청남도"
  },
  {
    "name": "천안백석초등학교 운동장",
    "address": "충청남도 천안시 서북구 백석동 902",
    "lat": "36.82042735892953",
    "lng": "127.12197146597693",
    "region": "충청남도"
  },
  {
    "name": "서북구청 운동장",
    "address": "충청남도 천안시 서북구 성거읍 신월리 343-1",
    "lat": "36.87807068381618",
    "lng": "127.15508796590552",
    "region": "충청남도"
  },
  {
    "name": "천안입장초등학교 운동장 ",
    "address": "충청남도 천안시 서북구 입장면 하장리 54-1",
    "lat": "36.91307299455215",
    "lng": "127.2200210523342",
    "region": "충청남도"
  },
  {
    "name": "모산초등학교 운동장",
    "address": "충청남도 아산시 배방읍 공수리 176-35",
    "lat": "36.77002416755558",
    "lng": "127.05170660500245",
    "region": "충청남도"
  },
  {
    "name": "온양풍기초등학교 운동장",
    "address": "충청남도 아산시 풍기동 200",
    "lat": "36.7743988594391",
    "lng": "127.0191200553193",
    "region": "충청남도"
  },
  {
    "name": "천안위례초등학교 운동장",
    "address": "충청남도 천안시 동남구 북면 오곡리 360",
    "lat": "36.82442947190121",
    "lng": "127.27404323011062",
    "region": "충청남도"
  },
  {
    "name": "천안불무초등학교 운동장",
    "address": "충청남도 천안시 서북구 불당동 1501",
    "lat": "36.819183891824444",
    "lng": "127.10485607385637",
    "region": "충청남도"
  },
  {
    "name": "천안성환초등학교 운동장",
    "address": "충청남도 천안시 서북구 성환읍 성환리 274-2",
    "lat": "36.91765137099207",
    "lng": "127.13251146377999",
    "region": "충청남도"
  },
  {
    "name": "천안환서초등학교 운동장",
    "address": "충청남도 천안시 서북구 백석동 105",
    "lat": "36.827750527316674",
    "lng": "127.12241041354388",
    "region": "충청남도"
  },
  {
    "name": "공주교동초등학교 운동장",
    "address": "충청남도 공주시 교동 199-1",
    "lat": "36.459522450700454",
    "lng": "127.11693942546843",
    "region": "충청남도"
  },
  {
    "name": "공주금성여자고등학교 운동장",
    "address": "충청남도 공주시 웅진동 277",
    "lat": "36.45787714224267",
    "lng": "127.11187760032794",
    "region": "충청남도"
  },
  {
    "name": "효포초등학교 운동장",
    "address": "충청남도 공주시 신기동 407",
    "lat": "36.428750",
    "lng": "127.148108",
    "region": "충청남도"
  },
  {
    "name": "충화초등학교 운동장",
    "address": "충청남도 부여군 충화면 천당리 463-1",
    "lat": "36.18272341654642",
    "lng": "126.81468254537639",
    "region": "충청남도"
  },
  {
    "name": "배방고등학교 운동장",
    "address": "충청남도 아산시 배방읍 북수리 729",
    "lat": "36.768642035491915",
    "lng": "127.06673099764429",
    "region": "충청남도"
  },
  {
    "name": "방아다리공원",
    "address": "충청남도 천안시 서북구 쌍용동 1563",
    "lat": "36.793093564567",
    "lng": "127.11792701586504",
    "region": "충청남도"
  },
  {
    "name": "천안성신초등학교 운동장",
    "address": "충청남도 천안시 서북구 성환읍 성환리 449-5",
    "lat": "36.91856177553727",
    "lng": "127.12890987837719",
    "region": "충청남도"
  },
  {
    "name": "천안신흥초등학교 운동장",
    "address": "충청남도 천안시 동남구 목천읍 신계리 105-9",
    "lat": "36.77366666835143",
    "lng": "127.21661204612701",
    "region": "충청남도"
  },
  {
    "name": "천안아름초등학교 운동장",
    "address": "충청남도 천안시 서북구 불당동 1574",
    "lat": "36.813482",
    "lng": "127.102472",
    "region": "충청남도"
  },
  {
    "name": "천안쌍정초등학교 운동장",
    "address": "충청남도 천안시 서북구 쌍��동 2076",
    "lat": "36.786869142715965",
    "lng": "127.11521005359901",
    "region": "충청남도"
  },
  {
    "name": "천안청룡초등학교 운동장",
    "address": "충청남도 천안시 동남구 용곡동 584",
    "lat": "36.78072151760657",
    "lng": "127.13950212130004",
    "region": "충청남도"
  },
  {
    "name": "천안안서초등학교 운동장",
    "address": "충청남도 천안시 동남구 안서동 318-7",
    "lat": "36.832163676679954",
    "lng": "127.17551327340922",
    "region": "충청남도"
  },
  {
    "name": "우성중학교 운동장",
    "address": "충청남도 공주시 우성면 방흥리 20",
    "lat": "36.46376346601281",
    "lng": "127.05420255661014",
    "region": "충청남도"
  },
  {
    "name": "상서초등학교 운동장",
    "address": "충청남도 공주시 우성면 상서리 710-3",
    "lat": "36.47885759646045",
    "lng": "127.07797016561726",
    "region": "충청남도"
  },
  {
    "name": "신풍초등학교 운동장",
    "address": "충청남도 공주시 신풍면 산정리 191",
    "lat": "36.51693827577655",
    "lng": "126.95371409026009",
    "region": "충청남도"
  },
  {
    "name": "공주정보고등학교 운동장",
    "address": "충청남도 공주시 송선동 566-1",
    "lat": "36.48530579394908",
    "lng": "127.15727448463436",
    "region": "충청남도"
  },
  {
    "name": "부여초등학교 운동장",
    "address": "충청남도 부여군 부여읍 쌍북리 228-1",
    "lat": "36.285896581092665",
    "lng": "126.92278928817632",
    "region": "충청남도"
  },
  {
    "name": "세도초등학교 운동장",
    "address": "충청남도 부여군 세도면 청송리 466-3",
    "lat": "36.17524892557061",
    "lng": "126.94768838502267",
    "region": "충청남도"
  },
  {
    "name": "신창중학교 운동장",
    "address": "충청남도 아산시 신창면 오목리 268-4",
    "lat": "36.79966343870883",
    "lng": "126.93068951368335",
    "region": "충청남도"
  },
  {
    "name": "천안차암초등학교 운동장",
    "address": "충청남도 천안시 서북구 차암동 549",
    "lat": "36.84459914483129",
    "lng": "127.10596552602964",
    "region": "충청남도"
  },
  {
    "name": "천안신촌초등학교 운동장",
    "address": "충청남도 천안시 동남구 신방동 768-1",
    "lat": "36.78683100517804",
    "lng": "127.12329379186633",
    "region": "충청남도"
  },
  {
    "name": "천안봉명초등학교 운동장",
    "address": "충청남도 천안시 동남구 봉명동 214",
    "lat": "36.80565938087312",
    "lng": "127.13505987090929",
    "region": "충청남도"
  },
  {
    "name": "천안신안초등학교 운동장",
    "address": "충청남도 천안시 동남구 신부동 58-11",
    "lat": "36.81494657762777",
    "lng": "127.16223885477521",
    "region": "충청남도"
  },
  {
    "name": "천안두정초등학교 운동장",
    "address": "충청남도 천안시 서북구 두정동 1626",
    "lat": "36.83614636524133",
    "lng": "127.14736413452049",
    "region": "충청남도"
  },
  {
    "name": "천안초등학교 운동장",
    "address": "충청남도 천안시 동남구 성황동 36",
    "lat": "36.813207739655674",
    "lng": "127.15160848206781",
    "region": "충청남도"
  },
  {
    "name": "금곡초등학교 운동장",
    "address": "충청남도 아산시 배방읍 중리 345",
    "lat": "36.7497780164572",
    "lng": "127.04093593535848",
    "region": "충청남도"
  },
  {
    "name": "신광초등학교 운동장",
    "address": "충청남도 아산시 배미동 174-2",
    "lat": "36.78870279550803",
    "lng": "126.96970139516415",
    "region": "충청남도"
  },
  {
    "name": "쌍용공원",
    "address": "충청남도 천안시 서북구 쌍용동 산84",
    "lat": "36.81086634252401",
    "lng": "127.12977203310945",
    "region": "충청남도"
  },
  {
    "name": "천안소망초등학교 운동장",
    "address": "충청남도 천안시 서북구 성거읍 소우리 188-29",
    "lat": "36.87579481179811",
    "lng": "127.16208806600838",
    "region": "충청남도"
  },
  {
    "name": "금마중학교 운동장",
    "address": "충청남도 홍성군 금마면 화양리 306-2",
    "lat": "36.62104596634636",
    "lng": "126.72309942982005",
    "region": "충청남도"
  },
  {
    "name": "배양초등학교 운동장",
    "address": "충청남도 홍성군 금마면 죽림리 381-2",
    "lat": "36.613740",
    "lng": "126.709690",
    "region": "충청남도"
  },
  {
    "name": "홍주중학교 운동장",
    "address": "충청남도 홍성군 홍성읍 오관리 516",
    "lat": "36.59331488995944",
    "lng": "126.66187487812503",
    "region": "충청남도"
  },
  {
    "name": "예산중앙초등학교",
    "address": "충청남도 예산군 예산읍 주교리 250-5",
    "lat": "36.683600",
    "lng": "126.831525",
    "region": "충청남도"
  },
  {
    "name": "오가초등학교",
    "address": "충청남도 예산군 오가면 역탑리 242-1",
    "lat": "36.687512",
    "lng": "126.794028",
    "region": "충청남도"
  },
  {
    "name": "예산전자공업고등학교",
    "address": "충청남도 예산군 예산읍 관작리 315-7",
    "lat": "36.713684",
    "lng": "126.838274",
    "region": "충청남도"
  },
  {
    "name": "가야곡초등학교 운동장",
    "address": "충청남도 논산시 가야곡면 강청리 343-14",
    "lat": "36.14424294861335",
    "lng": "127.16923713684083",
    "region": "충청남도"
  },
  {
    "name": "부춘초등학교 운동장",
    "address": "충청남도 서산시 읍내동 130",
    "lat": "36.77862799999992",
    "lng": "126.4465279999998",
    "region": "충청남도"
  },
  {
    "name": "당진종합운동장",
    "address": "충청남도 당진시 고대면 진관리 349-20",
    "lat": "36.9222",
    "lng": "126.5999",
    "region": "충청남도"
  },
  {
    "name": "공주대학교",
    "address": "충청남도 공주시 신관동 182",
    "lat": "36.46973286489842",
    "lng": "127.14096055032151",
    "region": "충청남도"
  },
  {
    "name": "외산중학교 운동장",
    "address": "충청남도 부여군 외산면 만수리 34-17",
    "lat": "36.29963934406122",
    "lng": "126.70091310212102",
    "region": "충청남도"
  },
  {
    "name": "영인중학교 운동장",
    "address": "충청남도 아산시 영인면 아산리 35-6",
    "lat": "36.854401",
    "lng": "126.960764",
    "region": "충청남도"
  },
  {
    "name": "안면초 ",
    "address": "충청남도 태안군 안면읍 승언리 846-4",
    "lat": "36.52748942268904",
    "lng": "126.34679595372627",
    "region": "충청남도"
  },
  {
    "name": "귀산초등학교 운동장",
    "address": "충청남도 공주시 우성면 귀산리 135",
    "lat": "36.4994927815896",
    "lng": "127.11242881143392",
    "region": "충청남도"
  },
  {
    "name": "공주중학교 운동장",
    "address": "충청남도 공주시 금성동 85",
    "lat": "36.464487",
    "lng": "127.118528",
    "region": "충청남도"
  },
  {
    "name": "공주여자중학교 운동장",
    "address": "충청남도 공주시 교동 3-2",
    "lat": "36.46003318299621",
    "lng": "127.11898702613308",
    "region": "충청남도"
  },
  {
    "name": "신관초등학교 운동장",
    "address": "충청남도 공주시 신관동 318-1",
    "lat": "36.47528007414348",
    "lng": "127.13882483333627",
    "region": "충청남도"
  },
  {
    "name": "합송초등학교 운동장",
    "address": "충청남도 부여군 규암면 합송리 986-1",
    "lat": "36.266409922957884",
    "lng": "126.84578024968376",
    "region": "충청남도"
  },
  {
    "name": "온양용화중학교 운동장",
    "address": "충청남도 아산시 온천동 2716",
    "lat": "36.77486270517949",
    "lng": "127.00668516126291",
    "region": "충청남도"
  },
  {
    "name": "영인초등학교 운동장",
    "address": "충청남도 아산시 영인면 아산리 412-2",
    "lat": "36.854221",
    "lng": "126.953276",
    "region": "충청남도"
  },
  {
    "name": "선도중학교 운동장",
    "address": "충청남도 아산시 선장면 군덕리 413",
    "lat": "36.78944790344835",
    "lng": "126.86359267296001",
    "region": "충청남도"
  },
  {
    "name": "태안초 ",
    "address": "충청남도 태안군 태안읍 남문리 315",
    "lat": "36.758692969983834",
    "lng": "126.29572749137598",
    "region": "충청남도"
  },
  {
    "name": "복수초등학교 운동장",
    "address": "충청남도 금산군 복수면 곡남리 180",
    "lat": "36.16587521039458",
    "lng": "127.39759639666889",
    "region": "충청남도"
  },
  {
    "name": "충남과학고등학교 운동장",
    "address": "충청남도 공주시 반포면 마암리 702",
    "lat": "36.426466512058376",
    "lng": "127.218434214592",
    "region": "충청남도"
  },
  {
    "name": "신월초등학교 운동장",
    "address": "충청남도 공주시 신관동 1-32",
    "lat": "36.473540933358315",
    "lng": "127.14857596482041",
    "region": "충청남도"
  },
  {
    "name": "부여고등학교 운동장",
    "address": "충청남도 부여군 부여읍 가탑리 259",
    "lat": "36.27252133203821",
    "lng": "126.923511536012",
    "region": "충청남도"
  },
  {
    "name": "장암초등학교 운동장",
    "address": "충청남도 부여군 장암면 석동리 39-2",
    "lat": "36.24114351797879",
    "lng": "126.89534701080989",
    "region": "충청남도"
  },
  {
    "name": "아산스마트팩토리마이스트고등학교 운동장",
    "address": "충청남도 아산시 둔포면 둔포리 235",
    "lat": "36.92941310001882",
    "lng": "127.04346808854712",
    "region": "충청남도"
  },
  {
    "name": "온양중학교 운동장",
    "address": "충청남도 아산시 용화동 271-1",
    "lat": "36.77426125661419",
    "lng": "126.99780619511061",
    "region": "충청남도"
  },
  {
    "name": "탑동초등학교 운동장",
    "address": "충청남도 당진시 채운동 488-1",
    "lat": "36.89725023987655",
    "lng": "126.62319839000695",
    "region": "충청남도"
  },
  {
    "name": "팔봉중학교 운동장",
    "address": "충청남도 서산시 팔봉면 진장리 913",
    "lat": "36.78214018530901",
    "lng": "126.36171519756292",
    "region": "충청남도"
  },
  {
    "name": "부석초등학교 운동장",
    "address": "충청남도 서산시 부석면 취평리 387-2",
    "lat": "36.716384773318126",
    "lng": "126.39283418655369",
    "region": "충청남도"
  },
  {
    "name": "서산고등학교 운동장",
    "address": "충청남도 서산시 해미면 읍내리 426",
    "lat": "36.71516352306818",
    "lng": "126.54671788215627",
    "region": "충청남도"
  },
  {
    "name": "대덕초등학교",
    "address": "충청남도 당진시 대덕동 1882",
    "lat": "36.88333152045308",
    "lng": "126.63971195808662",
    "region": "충청남도"
  }
]