[
  {
    "name": "청룡초등학교 운동장",
    "address": "충청북도 음성군 삼성면 청용리 352-7",
    "lat": 37.0007614242613,
    "lng": 127.47284934147629,
    "region": "충청북도"
  },
  {
    "name": "이월초등학교 운동장",
    "address": "충청북도 진천군 이월면 송림리 667",
    "lat": 36.93106026492745,
    "lng": 127.43134574040734,
    "region": "충청북도"
  },
  {
    "name": "이월중학교 운동장",
    "address": "충청북도 진천군 이월면 송림리 455-5",
    "lat": 36.92699258652761,
    "lng": 127.42846200786771,
    "region": "충청북도"
  },
  {
    "name": "문상초등학교 운동장",
    "address": "충청북도 진천군 문백면 사양리 38-1",
    "lat": 36.83754673012188,
    "lng": 127.47216644322636,
    "region": "충청북도"
  },
  {
    "name": "만승초등학교 운동장",
    "address": "충청북도 진천군 광혜원면 광혜원리 79",
    "lat": 36.99255942013796,
    "lng": 127.44213044643402,
    "region": "충청북도"
  },
  {
    "name": "진천삼수초등학교 운동장",
    "address": "충청북도 진천군 진천읍 읍내리 333-1",
    "lat": 36.85612510552614,
    "lng": 127.44090301514228,
    "region": "충청북도"
  },
  {
    "name": "진천중학교 운동장",
    "address": "충청북도 진천군 진천읍 성석리 462",
    "lat": 36.867819579742786,
    "lng": 127.44670027062644,
    "region": "충청북도"
  },
  {
    "name": "문백초등학교 운동장",
    "address": "충청북도 진천군 문백면 봉죽리 297",
    "lat": 36.78627638961693,
    "lng": 127.43288471911032,
    "region": "충청북도"
  },
  {
    "name": "백곡초등학교 운동장",
    "address": "충청북도 진천군 백곡면 구수리 21-1",
    "lat": 36.88608896674715,
    "lng": 127.35955160479519,
    "region": "충청북도"
  },
  {
    "name": "군남초등학교 운동장",
    "address": "충청북도 옥천군 옥천읍 서대리 279",
    "lat": 36.27760930506341,
    "lng": 127.58167523742969,
    "region": "충청북도"
  },
  {
    "name": "군서초등학교 운동장",
    "address": "충청북도 옥천군 군서면 동평리 551",
    "lat": 36.278304191258556,
    "lng": 127.52729412027708,
    "region": "충청북도"
  },
  {
    "name": "안남초등학교 운동장",
    "address": "충청북도 옥천군 안남면 연주리 416",
    "lat": 36.355094230033664,
    "lng": 127.6723950422997,
    "region": "충청북도"
  },
  {
    "name": "동이초등학교 운동장",
    "address": "충청북도 옥천군 동이면 평산리 72-1",
    "lat": 36.28596804571228,
    "lng": 127.61921462172671,
    "region": "충청북도"
  },
  {
    "name": "죽향초등학교 운동장",
    "address": "충청북도 옥천군 옥천읍 문정리 83",
    "lat": 36.313312646841524,
    "lng": 127.57741537241024,
    "region": "충청북도"
  },
  {
    "name": "증약초등학교 운동장",
    "address": "충청북도 옥천군 군북면 증약리 641",
    "lat": 36.334010523386695,
    "lng": 127.52332423124454,
    "region": "충청북도"
  },
  {
    "name": "가덕초중학교 운동장",
    "address": "충청북도 청주시 상당구 가덕면 병암리 125",
    "lat": 36.57833980129691,
    "lng": 127.57816462066137,
    "region": "충청북도"
  },
  {
    "name": "舊가덕중학교 운동장",
    "address": "충청북도 청주시 상당구 가덕면 수곡리 255",
    "lat": 36.562502281734496,
    "lng": 127.56111548938614,
    "region": "충청북도"
  },
  {
    "name": "주중초등학교 운동장",
    "address": "충청북도 청주시 청원구 주중동 173-3",
    "lat": 36.67179338628185,
    "lng": 127.49151179501756,
    "region": "충청북도"
  },
  {
    "name": "남당초등학교  운동장",
    "address": "충청북도 제천시 영천동 760",
    "lat": 37.13053402309271,
    "lng": 128.202471777215,
    "region": "충청북도"
  },
  {
    "name": "흥덕초등학교 운동장",
    "address": "충청북도 청주시 흥덕구 운천동 865",
    "lat": 36.6452214986984,
    "lng": 127.47354007617089,
    "region": "충청북도"
  },
  {
    "name": "진천근린공원(1호)",
    "address": "충청북도 진천군 진천읍 읍내리 산3-10",
    "lat": 36.856651942771116,
    "lng": 127.4394994124317,
    "region": "충청북도"
  },
  {
    "name": "옥동공원",
    "address": "충청북도 진천군 덕산읍 두촌리 2407",
    "lat": 36.909188368672595,
    "lng": 127.53335237503053,
    "region": "충청북도"
  },
  {
    "name": "제천시립도서관",
    "address": "충청북도 제천시 장락동 672-8",
    "lat": 37.14502438601789,
    "lng": 128.22057752992157,
    "region": "충청북도"
  },
  {
    "name": "의림초등학교  운동장",
    "address": "충청북도 제천시 의림동 186",
    "lat": 37.141103708780804,
    "lng": 128.20681913988176,
    "region": "충청북도"
  },
  {
    "name": "제천제일고등학교  운동장",
    "address": "충청북도 제천시 동현동 15-3",
    "lat": 37.13489451699092,
    "lng": 128.22059316186807,
    "region": "충청북도"
  },
  {
    "name": "제천중학교  운동장",
    "address": "충청북도 제천시 서부동 251",
    "lat": 37.13900817908991,
    "lng": 128.20394550656383,
    "region": "충청북도"
  },
  {
    "name": "제천시청",
    "address": "충청북도 제천시 천남동 12-2",
    "lat": 37.13248861744821,
    "lng": 128.19125719598853,
    "region": "충청북도"
  },
  {
    "name": "제천의림여자중학교  운동장",
    "address": "충청북도 제천시 하소동 49-2",
    "lat": 37.142458162851234,
    "lng": 128.19756470379394,
    "region": "충청북도"
  },
  {
    "name": "용두초등학교  운동장",
    "address": "충청북도 제천시 하소동 405",
    "lat": 37.14368553111228,
    "lng": 128.1969040294983,
    "region": "충청북도"
  },
  {
    "name": "제천종합운동장",
    "address": "충청북도 제천시 화산동 1",
    "lat": 37.13018895503688,
    "lng": 128.21781054477657,
    "region": "충청북도"
  },
  {
    "name": "장락초등학교  운동장",
    "address": "충청북도 제천시 장락동 626",
    "lat": 37.15430712595068,
    "lng": 128.22256772279943,
    "region": "충청북도"
  },
  {
    "name": "남천초등학교 운동장",
    "address": "충청북도 제천시 남천동 260",
    "lat": 37.136669728158296,
    "lng": 128.21659093898876,
    "region": "충청북도"
  },
  {
    "name": "어상천초등학교 운동장",
    "address": "충청북도 단양군 어상천면 임현리 456-1",
    "lat": 37.10277179039893,
    "lng": 128.35780068839426,
    "region": "충청북도"
  },
  {
    "name": "매포중학교 운동장",
    "address": "충청북도 단양군 매포읍 평동리 118",
    "lat": 37.02956370265991,
    "lng": 128.30547747522158,
    "region": "충청북도"
  },
  {
    "name": "백자리 마을회관 공터",
    "address": "충청북도 단양군 영춘면 백자리 82",
    "lat": 37.04137517719974,
    "lng": 128.48514927134835,
    "region": "충청북도"
  },
  {
    "name": "문학공원",
    "address": "충청북도 진천군 진천읍 교성리 104",
    "lat": 36.849383314899804,
    "lng": 127.43908616325737,
    "region": "충청북도"
  },
  {
    "name": "한울공원",
    "address": "충청북도 진천군 덕산읍 두촌리 2304",
    "lat": 36.908495639343315,
    "lng": 127.52896964550018,
    "region": "충청북도"
  },
  {
    "name": "옥천중학교 운동장",
    "address": "충청북도 옥천군 옥천읍 삼양리 163",
    "lat": 36.305099820159484,
    "lng": 127.56897320225035,
    "region": "충청북도"
  },
  {
    "name": "동이면사무소",
    "address": "충청북도 옥천군 동이면 평산리 976-2",
    "lat": 36.28366471182611,
    "lng": 127.62038309397357,
    "region": "충청북도"
  },
  {
    "name": "안남면사무소",
    "address": "충청북도 옥천군 안남면 연주리 408-3",
    "lat": 36.356222161717376,
    "lng": 127.67285166231146,
    "region": "충청북도"
  },
  {
    "name": "안내중학교 운동장",
    "address": "충청북도 옥천군 안내면 인포리 289",
    "lat": 36.376629836933304,
    "lng": 127.65327458794242,
    "region": "충청북도"
  },
  {
    "name": "용성초등학교 운동장",
    "address": "충청북도 청주시 상당구 용암동 2840",
    "lat": 36.62379254762196,
    "lng": 127.51695299608642,
    "region": "충청북도"
  },
  {
    "name": "청주농업고등학교운동장",
    "address": "충청북도 청주시 청원구 내덕동 322",
    "lat": 36.658917628348675,
    "lng": 127.48430246767838,
    "region": "충청북도"
  },
  {
    "name": "원봉초등학교 운동장",
    "address": "충청북도 청주시 상당구 용암동 1328",
    "lat": 36.61253850365232,
    "lng": 127.50146394687481,
    "region": "충청북도"
  },
  {
    "name": "시외버스공영주차장",
    "address": "충청북도 옥천군 옥천읍 삼양리 206",
    "lat": 36.30657953099809,
    "lng": 127.56463636194508,
    "region": "충청북도"
  },
  {
    "name": "사리면사무소 광장",
    "address": "충청북도 괴산군 사리면 사담리 522",
    "lat": 36.816775665388334,
    "lng": 127.6486921018164,
    "region": "충청북도"
  },
  {
    "name": "운동초등학교 운동장",
    "address": "충청북도 청주시 상당구 용암동 2948",
    "lat": 36.606498741724565,
    "lng": 127.51342319852296,
    "region": "충청북도"
  },
  {
    "name": "교동초등학교 운동장",
    "address": "충청북도 청주시 상당구 용암동 2084",
    "lat": 36.610376267542705,
    "lng": 127.51079654239243,
    "region": "충청북도"
  },
  {
    "name": "무지개공원",
    "address": "충청북도 청주시 상당구 용암동 1986",
    "lat": 36.6071215860195,
    "lng": 127.50699277430776,
    "region": "충청북도"
  },
  {
    "name": "동주초등학교 운동장",
    "address": "충청북도 청주시 상당구 금천동 323",
    "lat": 36.62997059437674,
    "lng": 127.51022537434991,
    "region": "충청북도"
  },
  {
    "name": "금천중학교 운동장",
    "address": "충청북도 청주시 상당구 금천동 326",
    "lat": 36.631673498444925,
    "lng": 127.51143842857108,
    "region": "충청북도"
  },
  {
    "name": "호미골 공원",
    "address": "충청북도 청주시 상당구 용정동 476",
    "lat": 36.63166868587266,
    "lng": 127.51486643987319,
    "region": "충청북도"
  },
  {
    "name": "한송초중학교  운동장",
    "address": "충청북도 제천시 한수면 송계리 753",
    "lat": 36.88269327582435,
    "lng": 128.08003048596433,
    "region": "충청북도"
  },
  {
    "name": "입석초등학교  운동장",
    "address": "충청북도 제천시 송학면 입석리 609-2",
    "lat": 37.19960239957492,
    "lng": 128.2934873648729,
    "region": "충청북도"
  },
  {
    "name": "제천고등학교  운동장",
    "address": "충청북도 제천시 청전동 162",
    "lat": 37.14296889194094,
    "lng": 128.2169855728486,
    "region": "충청북도"
  },
  {
    "name": "각리초등학교 운동장",
    "address": "충청북도 청주시 청원구 오창읍 각리 646-2",
    "lat": 36.706407487663014,
    "lng": 127.4241873941267,
    "region": "충청북도"
  },
  {
    "name": "속리초등학교 운동장 ",
    "address": "충청북도 보은군 장안면 장안리 243-2",
    "lat": 36.470891,
    "lng": 127.789339,
    "region": "충청북도"
  },
  {
    "name": "관기초등학교 운동장 ",
    "address": "충청북도 보은군 마로면 관기리 297",
    "lat": 36.43595115233851,
    "lng": 127.82155301627495,
    "region": "충청북도"
  },
  {
    "name": "대강초등학교 운동장",
    "address": "충청북도 단양군 대강면 장림리 91",
    "lat": 36.92209374915948,
    "lng": 128.35890616837358,
    "region": "충청북도"
  },
  {
    "name": "의풍1리 분교 운동장",
    "address": "충청북도 단양군 영춘면 의풍리 760",
    "lat": 37.06601398922473,
    "lng": 128.61215671003464,
    "region": "충청북도"
  },
  {
    "name": "상1리 회관앞 공터",
    "address": "충청북도 단양군 적성면 상리 297-3",
    "lat": 36.97235,
    "lng": 128.28438847453054,
    "region": "충청북도"
  },
  {
    "name": "애곡리 주차장",
    "address": "충청북도 단양군 적성면 애곡리 526",
    "lat": 36.967872800591294,
    "lng": 128.31490327440397,
    "region": "충청북도"
  },
  {
    "name": "매포읍사무소",
    "address": "충청북도 단양군 매포읍 평동리 277-2",
    "lat": 37.03230088385421,
    "lng": 128.30341617800298,
    "region": "충청북도"
  },
  {
    "name": "장연면사무소 다목적광장",
    "address": "충청북도 괴산군 장연면 오가리 351-1",
    "lat": 36.824206625429156,
    "lng": 127.95518882927178,
    "region": "충청북도"
  },
  {
    "name": "내수중학교 운동장",
    "address": "충청북도 청주시 청원구 내수읍 마산리 1",
    "lat": 36.7231828348982,
    "lng": 127.53784014861424,
    "region": "충청북도"
  },
  {
    "name": "수성초등학교 운동장",
    "address": "충청북도 청주시 청원구 내수읍 내수리 263-1",
    "lat": 36.718494447551286,
    "lng": 127.52683992806286,
    "region": "충청북도"
  },
  {
    "name": "학산초등학교 운동장",
    "address": "충청북도 영동군 학산면 서산리 738-1",
    "lat": 36.09318287795021,
    "lng": 127.68936392942186,
    "region": "충청북도"
  },
  {
    "name": "문백면사무소",
    "address": "충청북도 진천군 문백면 옥성리 312-1",
    "lat": 36.784365942786025,
    "lng": 127.43735575989905,
    "region": "충청북도"
  },
  {
    "name": "애곡1리 마을회관 공터",
    "address": "충청북도 보은군 회인면 애곡리 98",
    "lat": 36.48968,
    "lng": 127.615405,
    "region": "충청북도"
  },
  {
    "name": "소담공원",
    "address": "충청북도 진천군 덕산읍 두촌리 3014",
    "lat": 36.896877009192394,
    "lng": 127.53377616405487,
    "region": "충청북도"
  },
  {
    "name": "청천초등학교 운동장",
    "address": "충청북도 괴산군 청천면 청천리 77-1",
    "lat": 36.661295425346786,
    "lng": 127.73754063981738,
    "region": "충청북도"
  },
  {
    "name": "송면초등학교 운동장",
    "address": "충청북도 괴산군 청천면 송면리 119",
    "lat": 36.6742220410761,
    "lng": 127.86261539078363,
    "region": "충청북도"
  },
  {
    "name": "종곡초등학교 운동장 ",
    "address": "충청북도 보은군 보은읍 강신리 54",
    "lat": 36.50206241535917,
    "lng": 127.74997664556462,
    "region": "충청북도"
  },
  {
    "name": "장연초등학교 운동장",
    "address": "충청북도 괴산군 장연면 오가리 349",
    "lat": 36.82479631931297,
    "lng": 127.95500148060485,
    "region": "충청북도"
  },
  {
    "name": "연풍초등학교 운동장",
    "address": "충청북도 괴산군 연풍면 삼풍리 162",
    "lat": 36.762529141602606,
    "lng": 127.99696315763593,
    "region": "충청북도"
  },
  {
    "name": "장갑2리 마을회관 공터",
    "address": "충청북도 보은군 산외면 장갑리 623-1",
    "lat": 36.572752,
    "lng": 127.767161,
    "region": "충청북도"
  },
  {
    "name": "청천중학교 운동장",
    "address": "충청북도 괴산군 청천면 선평리 155",
    "lat": 36.65713228348085,
    "lng": 127.73589484809429,
    "region": "충청북도"
  },
  {
    "name": "송면중학교 운동장",
    "address": "충청북도 괴산군 청천면 이평리 191",
    "lat": 36.65957535048119,
    "lng": 127.87440174162727,
    "region": "충청북도"
  },
  {
    "name": "청안농협 광장",
    "address": "충청북도 괴산군 청안면 읍내리 215-32",
    "lat": 36.771221824900785,
    "lng": 127.6392646700278,
    "region": "충청북도"
  },
  {
    "name": "별방초중학교 운동장",
    "address": "충청북도 단양군 영춘면 별방리 540",
    "lat": 37.09640178702058,
    "lng": 128.41600366982823,
    "region": "충청북도"
  },
  {
    "name": "영춘중학교 운동장",
    "address": "충청북도 단양군 영춘면 상리 496-1",
    "lat": 37.083064858714806,
    "lng": 128.48389388513246,
    "region": "충청북도"
  },
  {
    "name": "단양중학교 운동장",
    "address": "충청북도 단양군 단양읍 도전리 222",
    "lat": 36.97987085613099,
    "lng": 128.36670694388098,
    "region": "충청북도"
  },
  {
    "name": "별곡리공원(여성회관 앞)",
    "address": "충청북도 단양군 단양읍 별곡리 639",
    "lat": 36.98753663842647,
    "lng": 128.36988514767123,
    "region": "충청북도"
  },
  {
    "name": "중방리마을회관",
    "address": "충청북도 단양군 단성면 중방리 105-19",
    "lat": 36.93112706813092,
    "lng": 128.31892416456444,
    "region": "충청북도"
  },
  {
    "name": "새별공원",
    "address": "충청북도 단양군 가곡면 사평리 505-3",
    "lat": 37.02381484285222,
    "lng": 128.38326430419102,
    "region": "충청북도"
  },
  {
    "name": "소수초등학교 운동장",
    "address": "충청북도 괴산군 소수면 수리 554",
    "lat": 36.85419547871711,
    "lng": 127.74529307510443,
    "region": "충청북도"
  },
  {
    "name": "대가초등학교 운동장",
    "address": "충청북도 단양군 적성면 대가리 191",
    "lat": 37.03319380094475,
    "lng": 128.26279797889265,
    "region": "충청북도"
  },
  {
    "name": "소금정공원",
    "address": "충청북도 단양군 단양읍 상진리 1017",
    "lat": 36.9754852795296,
    "lng": 128.3640901013125,
    "region": "충청북도"
  },
  {
    "name": "대강면사무소 주차장",
    "address": "충청북도 단양군 대강면 장림리 149-1",
    "lat": 36.92226366053866,
    "lng": 128.35201652313225,
    "region": "충청북도"
  },
  {
    "name": "만종리 마을회관 앞 공터",
    "address": "충청북도 단양군 영춘면 만종리 59-5",
    "lat": 37.09779937687318,
    "lng": 128.40135711830894,
    "region": "충청북도"
  },
  {
    "name": "덕산읍사무소",
    "address": "충청북도 진천군 덕산면 용몽리 637",
    "lat": 36.91372375896363,
    "lng": 127.50936012576695,
    "region": "충청북도"
  },
  {
    "name": "백곡면사무소",
    "address": "충청북도 진천군 백곡면 석현리 293",
    "lat": 36.88386974744105,
    "lng": 127.37683792700727,
    "region": "충청북도"
  },
  {
    "name": "신척산단 어린이공원",
    "address": "충청북도 진천군 덕산읍 신척리 960",
    "lat": 36.917382686247805,
    "lng": 127.49219119548798,
    "region": "충청북도"
  },
  {
    "name": "다목적운동장",
    "address": "충청북도 괴산군 괴산읍 서부리 661",
    "lat": 36.81444840307066,
    "lng": 127.78486091201502,
    "region": "충청북도"
  },
  {
    "name": "봉양중학교  운동장",
    "address": "충청북도 제천시 봉양읍 장평리 864-1",
    "lat": 37.1292555742911,
    "lng": 128.12434281303916,
    "region": "충청북도"
  },
  {
    "name": "청풍초중학교  운동장",
    "address": "충청북도 제천시 청풍면 물태리 144-3",
    "lat": 36.99608336673362,
    "lng": 128.16464552466687,
    "region": "충청북도"
  },
  {
    "name": "백운중학교  운동장",
    "address": "충청북도 제천시 백운면 평동리 570",
    "lat": 37.1425368876251,
    "lng": 128.01694939381946,
    "region": "충청북도"
  },
  {
    "name": "석성초등학교 운동장",
    "address": "충청북도 청주시 청원구 북이면 내둔리 344",
    "lat": 36.74848427755441,
    "lng": 127.51374087453421,
    "region": "충청북도"
  },
  {
    "name": "북이면사무소 주차장",
    "address": "충청북도 청주시 청원구 북이면 신대리 4-8",
    "lat": 36.73919298440515,
    "lng": 127.54190751450784,
    "region": "충청북도"
  },
  {
    "name": "이원초등학교 운동장",
    "address": "충청북도 옥천군 이원면 강청리 14-7",
    "lat": 36.24640221151524,
    "lng": 127.62279716552219,
    "region": "충청북도"
  },
  {
    "name": "보은정보고등학교 운동장 ",
    "address": "충청북도 보은군 보은읍 성주리 171-2",
    "lat": 36.490755,
    "lng": 127.734215,
    "region": "충청북도"
  },
  {
    "name": "송죽초등학교 운���장 ",
    "address": "충청북도 보은군 삼승면 송죽리 192-4",
    "lat": 36.437503,
    "lng": 127.734859,
    "region": "충청북도"
  },
  {
    "name": "속리산중학교 운동장",
    "address": "충청북도 보은군 삼승면 내망리 653",
    "lat": 36.392397,
    "lng": 127.736235,
    "region": "충청북도"
  },
  {
    "name": "회인초등학교 운동장 ",
    "address": "충청북도 보은군 회인면 중앙리 96",
    "lat": 36.491535,
    "lng": 127.595778,
    "region": "충청북도"
  },
  {
    "name": "연풍중학교 운동장",
    "address": "충청북도 괴산군 연풍면 행촌리 488",
    "lat": 36.76641723055821,
    "lng": 127.99940406403361,
    "region": "충청북도"
  },
  {
    "name": "산외면사무소 공터",
    "address": "충청북도 보은군 산외면 구티리 50-1",
    "lat": 36.551858,
    "lng": 127.73279,
    "region": "충청북도"
  },
  {
    "name": "만수리 마을회관 공터",
    "address": "충청북도 보은군 속리산면 만수리 44-2",
    "lat": 36.514425,
    "lng": 127.887852,
    "region": "충청북도"
  },
  {
    "name": "벽지리 마을회관 공터 ",
    "address": "충청북도 보은군 탄부면 벽지리 231-1",
    "lat": 36.43186112035416,
    "lng": 127.78340902879998,
    "region": "충청북도"
  },
  {
    "name": "청안중학교 운동장",
    "address": "충청북도 괴산군 청안면 읍내리 231",
    "lat": 36.773107159236,
    "lng": 127.64136769040014,
    "region": "충청북도"
  },
  {
    "name": "가평초등학교 운동장",
    "address": "충청북도 단양군 매포읍 가평리 181-2",
    "lat": 37.072464428095024,
    "lng": 128.28234428723053,
    "region": "충청북도"
  },
  {
    "name": "단성중학교 운동장",
    "address": "충청북도 단양군 단성면 상방리 79-1",
    "lat": 36.93537504344581,
    "lng": 128.32167218384623,
    "region": "충청북도"
  },
  {
    "name": "단양고등학교 운동장",
    "address": "충청북도 단양군 단양읍 도전리 324",
    "lat": 36.97676805081738,
    "lng": 128.36736398094334,
    "region": "충청북도"
  },
  {
    "name": "단양군 보건소 주차장",
    "address": "충청북도 단양군 단양읍 상진리 84",
    "lat": 36.98126328690454,
    "lng": 128.350408,
    "region": "충청북도"
  },
  {
    "name": "중방리주차장(뉴타운)",
    "address": "충청북도 단양군 단성면 중방리 405",
    "lat": 36.93657880942545,
    "lng": 128.31097957408795,
    "region": "충청북도"
  },
  {
    "name": "오성중학교 운동장",
    "address": "충청북도 괴산군 감물면 오성리 123",
    "lat": 36.84154833927864,
    "lng": 127.86850941187733,
    "region": "충청북도"
  },
  {
    "name": "속리산면사무소 공터",
    "address": "충청북도 보은군 속리산면 상판리 196",
    "lat": 36.512305,
    "lng": 127.81047,
    "region": "충청북도"
  },
  {
    "name": "상진제3어린이공원",
    "address": "충청북도 단양군 단양읍 상진리 806",
    "lat": 36.977864648642466,
    "lng": 128.35774859326187,
    "region": "충청북도"
  },
  {
    "name": "단양문화의집 주차장",
    "address": "충청북도 단양군 단양읍 도전리 636",
    "lat": 36.98266668321677,
    "lng": 128.37117032510878,
    "region": "충청북도"
  },
  {
    "name": "대강면 체육공원",
    "address": "충청북도 단양군 대강면 두음리 527",
    "lat": 36.91972335741533,
    "lng": 128.3575327556629,
    "region": "충청북도"
  },
  {
    "name": "두음리 마을주차장",
    "address": "충청북도 단양군 대강면 두음리 590-12",
    "lat": 36.91351645866386,
    "lng": 128.35336157980845,
    "region": "충청북도"
  },
  {
    "name": "하1리 마을공터",
    "address": "충청북도 단양군 영춘면 하리 292-9",
    "lat": 37.075561025935535,
    "lng": 128.48949544444167,
    "region": "충청북도"
  },
  {
    "name": "남천리 마을회관 앞 공터",
    "address": "충청북도 단양군 영춘면 남천리 250-2",
    "lat": 37.04566828920159,
    "lng": 128.50663763394994,
    "region": "충청북도"
  },
  {
    "name": "동대1리 분교 운동장",
    "address": "충청북도 단양군 영춘면 동대리 761",
    "lat": 37.07447333905241,
    "lng": 128.52139422695652,
    "region": "충청북도"
  },
  {
    "name": "외중방리마을회관",
    "address": "충청북도 단양군 단성면 외중방리 149",
    "lat": 36.92758574568392,
    "lng": 128.29711856528223,
    "region": "충청북도"
  },
  {
    "name": "보은중학교 운동장 ",
    "address": "충청북도 보은군 보은읍 이평리 30-1",
    "lat": 36.485289,
    "lng": 127.727326,
    "region": "충청북도"
  },
  {
    "name": "동인초등학교 운동장",
    "address": "충청북도 괴산군 괴산읍 서부리 485",
    "lat": 36.80567136196097,
    "lng": 127.78984989970961,
    "region": "충청북도"
  },
  {
    "name": "보은국민체육센터 공터",
    "address": "충청북도 보은군 보은읍 이평리 45-6",
    "lat": 36.48850384890301,
    "lng": 127.72932261228561,
    "region": "충청북도"
  },
  {
    "name": "기대리 마을회관 공터",
    "address": "충청북도 보은군 마로면 기대리 560-1",
    "lat": 36.409784,
    "lng": 127.819071,
    "region": "충청북도"
  },
  {
    "name": "단양초등학교 운동장",
    "address": "충청북도 단양군 단양읍 도전리 405",
    "lat": 36.97911797476602,
    "lng": 128.36883180949562,
    "region": "충청북도"
  },
  {
    "name": "단천초등학교 운동장",
    "address": "충청북도 단양군 단성면 북상리 108",
    "lat": 36.92663154758583,
    "lng": 128.3390429194282,
    "region": "충청북도"
  },
  {
    "name": "단양중앙공원",
    "address": "충청북도 단양군 단양읍 별곡리 309-1",
    "lat": 36.986562674118154,
    "lng": 128.36909675060997,
    "region": "충청북도"
  },
  {
    "name": "오사리 마을회관 앞 공터",
    "address": "충청북도 단양군 영춘면 오사리 73-5",
    "lat": 37.10127366062185,
    "lng": 128.51038393204038,
    "region": "충청북도"
  },
  {
    "name": "회산리마을회관",
    "address": "충청북도 단양군 단성면 회산리 106",
    "lat": 36.89260004654199,
    "lng": 128.29352762447166,
    "region": "충청북도"
  },
  {
    "name": "진천역사테마공원",
    "address": "충청북도 진천군 진천읍 장관리 705",
    "lat": 36.869126455772026,
    "lng": 127.41126933340111,
    "region": "충청북도"
  },
  {
    "name": "상진초등학교 운동장",
    "address": "충청북도 단양군 단양읍 상진리 734",
    "lat": 36.978864725415484,
    "lng": 128.3565559305452,
    "region": "충청북도"
  },
  {
    "name": "하2리 소재지 공원",
    "address": "충청북도 단양군 적성면 하리 282",
    "lat": 36.95920474937643,
    "lng": 128.29311338745384,
    "region": "충청북도"
  },
  {
    "name": "단양읍 공설운동장",
    "address": "충청북도 단양군 단양읍 별곡리 15-6",
    "lat": 36.98748851071982,
    "lng": 128.3670184963424,
    "region": "충청북도"
  },
  {
    "name": "천동리 주차장",
    "address": "충청북도 단양군 단양읍 천동리 201",
    "lat": 36.973017974903335,
    "lng": 128.4178950089332,
    "region": "충청북도"
  },
  {
    "name": "한일사택 주차장",
    "address": "충청북도 단양군 매포읍 평동리 16",
    "lat": 37.0257006632913,
    "lng": 128.31134917662183,
    "region": "충청북도"
  },
  {
    "name": "가산1리마을회관",
    "address": "충청북도 단양군 단성면 가산리 68-6",
    "lat": 36.88950839224693,
    "lng": 128.3061008121249,
    "region": "충청북도"
  },
  {
    "name": "청안초등학교 운동장",
    "address": "충청북도 괴산군 청안면 읍내리 221-1",
    "lat": 36.77241933290278,
    "lng": 127.63936971061156,
    "region": "충청북도"
  },
  {
    "name": "목도초등학교 운동장",
    "address": "충청북도 괴산군 불정면 목도리 290",
    "lat": 36.87399571818555,
    "lng": 127.85450249930159,
    "region": "충청북도"
  },
  {
    "name": "수산초중학교  운동장",
    "address": "충청북도 제천시 수산면 수산리 349",
    "lat": 36.93572437971049,
    "lng": 128.18722769656804,
    "region": "충청북도"
  },
  {
    "name": "제천중앙공원",
    "address": "충청북도 제천시 중앙로2가 26-1",
    "lat": 37.13957372404277,
    "lng": 128.21062631278411,
    "region": "충청북도"
  },
  {
    "name": "제천여자고등학교  운동장",
    "address": "충청북도 제천시 서부동 740",
    "lat": 37.136028501482,
    "lng": 128.20451012318816,
    "region": "충청북도"
  },
  {
    "name": "증안초등학교 운동장",
    "address": "충청북도 청주시 흥덕구 복대동 2610",
    "lat": 36.63419509572689,
    "lng": 127.42730423651987,
    "region": "충청북도"
  },
  {
    "name": "제천체육관의병광장",
    "address": "충청북도 제천시 화산동 128-1",
    "lat": 37.13083632791308,
    "lng": 128.21505013144989,
    "region": "충청북도"
  },
  {
    "name": "제천보건복지센터",
    "address": "충청북도 제천시 청전동 110",
    "lat": 37.148950409834185,
    "lng": 128.21588265768335,
    "region": "충청북도"
  },
  {
    "name": "한국호텔관광고등학교 운동장",
    "address": "충청북도 단양군 단성면 북하리 58",
    "lat": 36.92739954549686,
    "lng": 128.3369637494886,
    "region": "충청북도"
  },
  {
    "name": "상진제2공원(어린이 교통교육장)",
    "address": "충청북도 단양군 단양읍 상진리 583",
    "lat": 36.979874093880795,
    "lng": 128.35320946595417,
    "region": "충청북도"
  },
  {
    "name": "하2리 공터",
    "address": "충청북도 단양군 영춘면 남천리 629-1",
    "lat": 37.06052800972908,
    "lng": 128.49462342222378,
    "region": "충청북도"
  },
  {
    "name": "각기민원센터",
    "address": "충청북도 단양군 적성면 각기리 140",
    "lat": 37.0215567423461,
    "lng": 128.28640896852144,
    "region": "충청북도"
  },
  {
    "name": "장회리 선착장 주차장",
    "address": "충청북도 단양군 단성면 장회리 14-2",
    "lat": 36.93070197464108,
    "lng": 128.25702930548465,
    "region": "충청북도"
  },
  {
    "name": "두항리마을회관",
    "address": "충청북도 단양군 단성면 두항리 151-5",
    "lat": 36.92158651419284,
    "lng": 128.24266917377034,
    "region": "충청북도"
  },
  {
    "name": "주민자치센터 광장",
    "address": "충청북도 괴산군 불정면 목도리 303-1",
    "lat": 36.87115730583741,
    "lng": 127.85404179434164,
    "region": "충청북도"
  },
  {
    "name": "원봉중학교 운동장",
    "address": "충청북도 청주시 상당구 용암동 2100",
    "lat": 36.61395499713531,
    "lng": 127.50571240106161,
    "region": "충청북도"
  },
  {
    "name": "동중학교 운동장",
    "address": "충청북도 청주시 상당구 금천동 47-5",
    "lat": 36.628005984251075,
    "lng": 127.50583121718188,
    "region": "충청북도"
  },
  {
    "name": "각리중학교 운동장",
    "address": "충청북도 청주시 청원구 오창읍 각리 637-4",
    "lat": 36.70875700307633,
    "lng": 127.42189433167272,
    "region": "충청북도"
  },
  {
    "name": "오창초등학교 운동장",
    "address": "충청북도 청주시 청원구 오창읍 장대리 238",
    "lat": 36.74029905707404,
    "lng": 127.45782100263102,
    "region": "충청북도"
  },
  {
    "name": "매포초등학교 운동장",
    "address": "충청북도 단양군 매포읍 평동리 271",
    "lat": 37.03385486790337,
    "lng": 128.30176998097164,
    "region": "충청북도"
  },
  {
    "name": "장정리 마을 분교",
    "address": "충청북도 단양군 대강면 장정리 30",
    "lat": 36.846484313029215,
    "lng": 128.3955786242499,
    "region": "충청북도"
  },
  {
    "name": "상2리 마을회관",
    "address": "충청북도 단양군 영춘면 상리 66-3",
    "lat": 37.08653215233561,
    "lng": 128.49381758256106,
    "region": "충청북도"
  },
  {
    "name": "사이곡리 마을경로당 앞",
    "address": "충청북도 단양군 영춘면 사이곡리 104-1",
    "lat": 37.11579056241257,
    "lng": 128.40269516930812,
    "region": "충청북도"
  },
  {
    "name": "청성면사무소",
    "address": "충청북도 옥천군 청성면 산계리 225",
    "lat": 36.32731698598451,
    "lng": 127.75979239437116,
    "region": "충청북도"
  },
  {
    "name": "안내초등학교 운동장",
    "address": "충청북도 옥천군 안내면 현리 115-2",
    "lat": 36.39426245644863,
    "lng": 127.66104038007256,
    "region": "충청북도"
  },
  {
    "name": "청산면사무소",
    "address": "충청북도 옥천군 청산면 지전리 74-3",
    "lat": 36.34642165681486,
    "lng": 127.7919475142803,
    "region": "충청북도"
  },
  {
    "name": "풍광초등학교 운동장",
    "address": "충청북도 청주시 흥덕구 가경동 1172",
    "lat": 36.62957789816321,
    "lng": 127.43525322164685,
    "region": "충청북도"
  },
  {
    "name": "원평중학교 운동장",
    "address": "충청북도 청주시 서원구 분평동 1362",
    "lat": 36.60750891787098,
    "lng": 127.49377863642043,
    "region": "충청북도"
  },
  {
    "name": "원평초등학교 운동장",
    "address": "충청북도 청주시 서원구 분평동 1263",
    "lat": 36.61091707489708,
    "lng": 127.4958827734562,
    "region": "충청북도"
  },
  {
    "name": "청운중학교 운동장",
    "address": "충청북도 청주시 상당구 영운동 73-48",
    "lat": 36.61848775450658,
    "lng": 127.50544506078293,
    "region": "충청북도"
  },
  {
    "name": "모충초등학교 운동장",
    "address": "충청북도 청주시 서원구 모충동 372",
    "lat": 36.626143285918324,
    "lng": 127.47850530570614,
    "region": "충청북도"
  },
  {
    "name": "옥산중학교 운동장",
    "address": "충청북도 청주시 흥덕구 옥산면 오산리 77-3",
    "lat": 36.67040070576812,
    "lng": 127.370977165582,
    "region": "충청북도"
  },
  {
    "name": "미원중학교 운동장",
    "address": "충청북도 청주시 상당구 미원면 미원리 281-3",
    "lat": 36.63646225131254,
    "lng": 127.66111909474864,
    "region": "충청북도"
  },
  {
    "name": "영운동 주민센터 옆 나누리소공원",
    "address": "충청북도 청주시 상당구 영운동 107-17",
    "lat": 36.617831921161915,
    "lng": 127.4991059767621,
    "region": "충청북도"
  },
  {
    "name": "덕성초등학교 운동장",
    "address": "충청북도 청주시 청원구 율량동 1335",
    "lat": 36.66692420180754,
    "lng": 127.48452740753969,
    "region": "충청북도"
  },
  {
    "name": "추산초등학교 운동장",
    "address": "충청북도 괴산군 불정면 추산리 575-1",
    "lat": 36.90249500885111,
    "lng": 127.81724625162056,
    "region": "충청북도"
  },
  {
    "name": "운천초등학교 운동장",
    "address": "충청북도 청주시 흥덕구 운천동 543-7",
    "lat": 36.65400672019522,
    "lng": 127.47348272718776,
    "region": "충청북도"
  },
  {
    "name": "영우리 어린이공원",
    "address": "충청북도 청주시 상당구 영운동 61-1",
    "lat": 36.61992639607103,
    "lng": 127.50621980019712,
    "region": "충청북도"
  },
  {
    "name": "청남초등학교 운동장",
    "address": "충청북도 청주시 상당구 영운동 127",
    "lat": 36.62012621431665,
    "lng": 127.49771106936252,
    "region": "충청북도"
  },
  {
    "name": "삼보초등학교 운동장",
    "address": "충청북도 증평군 증평읍 초중리 11-19",
    "lat": 36.77795092682087,
    "lng": 127.57906467685363,
    "region": "충청북도"
  },
  {
    "name": "창수경로당 앞 광장",
    "address": "충청북도 청주시 서원구 사창동 475",
    "lat": 36.63245954201235,
    "lng": 127.45917749050638,
    "region": "충청북도"
  },
  {
    "name": "동화초등학교 운동장",
    "address": "충청북도 청주시 상당구 남일면 화당리 361-1",
    "lat": 36.54731898784911,
    "lng": 127.49281643847323,
    "region": "충청북도"
  },
  {
    "name": "미원초등학교 운동장",
    "address": "충청북도 청주시 상당구 미원면 미원리 292-2",
    "lat": 36.63628512883023,
    "lng": 127.65925581158652,
    "region": "충청북도"
  },
  {
    "name": "대성고등학교 운동장",
    "address": "충청북도 청주시 청원구 내덕동 232",
    "lat": 36.65406825035201,
    "lng": 127.48978013766624,
    "region": "충청북도"
  },
  {
    "name": "도안초등학교 운동장",
    "address": "충청북도 증평군 도안면 화성리 87",
    "lat": 36.81669193786304,
    "lng": 127.61136186746714,
    "region": "충청북도"
  },
  {
    "name": "서촌초등학교 운동장",
    "address": "충청북도 청주시 흥덕구 서촌동 183",
    "lat": 36.65023473542421,
    "lng": 127.39951454723209,
    "region": "충청북도"
  },
  {
    "name": "남평초등학교 운동장",
    "address": "충청북도 청주시 서원구 분평동 1209",
    "lat": 36.611405600237035,
    "lng": 127.48933185246452,
    "region": "충청북도"
  },
  {
    "name": "신흥고등학교 운동장",
    "address": "충청북도 청주시 청원구 율량동 516",
    "lat": 36.668622964428224,
    "lng": 127.49587327792862,
    "region": "충청북도"
  },
  {
    "name": "사천초등학교 운동장",
    "address": "충청북도 청주시 청원구 사천동 26-2",
    "lat": 36.67062006535577,
    "lng": 127.48013256357726,
    "region": "충청북도"
  },
  {
    "name": "청주여자고등학교 운동장",
    "address": "충청북도 청주시 청원구 율량동 534",
    "lat": 36.667166141353476,
    "lng": 127.48970328770626,
    "region": "충청북도"
  },
  {
    "name": "율량초등학교 운동장",
    "address": "충청북도 청주시 청원구 율량동 1034",
    "lat": 36.66753356877649,
    "lng": 127.4914778607588,
    "region": "충청북도"
  },
  {
    "name": "서원리 마을회관 공터",
    "address": "충청북도 보은군 장안면 서원리 299-1",
    "lat": 36.479771,
    "lng": 127.798349,
    "region": "충청북도"
  },
  {
    "name": "건천리 마을회관 공터 ",
    "address": "충청북도 보은군 회인면 건천리 170-13",
    "lat": 36.478646170226654,
    "lng": 127.62505441904068,
    "region": "충청북도"
  },
  {
    "name": "백봉초등학교 운동장",
    "address": "충청북도 괴산군 청안면 부흥리 428",
    "lat": 36.70703028089109,
    "lng": 127.72750340813946,
    "region": "충청북도"
  },
  {
    "name": "소수주민센터 광장",
    "address": "충청북도 괴산군 소수면 수리 610-3",
    "lat": 36.85658911624646,
    "lng": 127.74420243501665,
    "region": "충청북도"
  },
  {
    "name": "마로면사무소 공터",
    "address": "충청북도 보은군 마로면 관기리 293",
    "lat": 36.435506,
    "lng": 127.820381,
    "region": "충청북도"
  },
  {
    "name": "회인면사무소 공터",
    "address": "충청북도 보은군 회인면 중앙리 172-2",
    "lat": 36.494646,
    "lng": 127.596464,
    "region": "충청북도"
  },
  {
    "name": "뱃들공원 공터 ",
    "address": "충청북도 보은군 보은읍 이평리 175-1",
    "lat": 36.486351,
    "lng": 127.723292,
    "region": "충청북도"
  },
  {
    "name": "오동리 마을회관 공터 ",
    "address": "충청북도 보은군 회인면 오동리 131-9",
    "lat": 36.51550845296445,
    "lng": 127.59228587150575,
    "region": "충청북도"
  },
  {
    "name": "죽암리 마을회관 공터",
    "address": "충청북도 보은군 회인면 죽암리 71",
    "lat": 36.47475537388498,
    "lng": 127.59881436824797,
    "region": "충청북도"
  },
  {
    "name": "목도고등학교 운동장",
    "address": "충청북도 괴산군 불정면 목도리 360",
    "lat": 36.87136465312065,
    "lng": 127.85148057222239,
    "region": "충청북도"
  },
  {
    "name": "중앙중학교 운동장",
    "address": "충청북도 청주시 청원구 우암동 261-174",
    "lat": 36.654124868642285,
    "lng": 127.47998822061572,
    "region": "충청북도"
  },
  {
    "name": "덕벌초등학교 운동장",
    "address": "충청북도 청주시 청원구 우암동 261-10",
    "lat": 36.65502430718347,
    "lng": 127.47923420678758,
    "region": "충청북도"
  },
  {
    "name": "금성초등학교  운동장",
    "address": "충청북도 제천시 금성면 구룡리 294",
    "lat": 37.06719875510558,
    "lng": 128.16544612145643,
    "region": "충청북도"
  },
  {
    "name": "제천상업고등학교  운동장",
    "address": "충청북도 제천시 신백동 182-3",
    "lat": 37.13319796406564,
    "lng": 128.2282301106867,
    "region": "충청북도"
  },
  {
    "name": "솔밭초등학교 운동장",
    "address": "충청북도 청주시 흥덕구 복대동 288-9",
    "lat": 36.64107050675158,
    "lng": 127.42637515639721,
    "region": "충청북도"
  },
  {
    "name": "제천여자중학교  운동장",
    "address": "충청북도 제천시 청전동 71-1",
    "lat": 37.15323750379251,
    "lng": 128.21895897772126,
    "region": "충청북도"
  },
  {
    "name": "직지초등학교 운동장",
    "address": "충청북도 청주시 흥덕구 복대동 3368",
    "lat": 36.63952052718761,
    "lng": 127.43811786959454,
    "region": "충청북도"
  },
  {
    "name": "이원 다목적회관",
    "address": "충청북도 옥천군 이원면 강청리 91-1",
    "lat": 36.24659978803714,
    "lng": 127.61847308672232,
    "region": "충청북도"
  },
  {
    "name": "가화쌈지숲공원",
    "address": "충청북도 옥천군 옥천읍 금구리 223",
    "lat": 36.30559118049312,
    "lng": 127.56092723265328,
    "region": "충청북도"
  },
  {
    "name": "금천고등학교 운동장",
    "address": "충청북도 청주시 상당구 금천동 4-6",
    "lat": 36.6273359963585,
    "lng": 127.51184622223956,
    "region": "충청북도"
  },
  {
    "name": "봉정초등학교 운동장",
    "address": "충청북도 청주시 흥덕구 봉명동 2141",
    "lat": 36.64769917355678,
    "lng": 127.45687318433906,
    "region": "충청북도"
  },
  {
    "name": "봉명중학교 운동장",
    "address": "충청북도 청주시 흥덕구 봉명동 1305",
    "lat": 36.64650933198051,
    "lng": 127.46045441921477,
    "region": "충청북도"
  },
  {
    "name": "내수초등학교 운동장",
    "address": "충청북도 청주시 청원구 내수읍 마산리 171",
    "lat": 36.72663122806498,
    "lng": 127.53748135988164,
    "region": "충청북도"
  },
  {
    "name": "현도초등학교 운동장",
    "address": "충청북도 청주시 서원구 현도면 달계리 548-1",
    "lat": 36.47586217303206,
    "lng": 127.42676252926499,
    "region": "충청북도"
  },
  {
    "name": "광혜원화랑공원",
    "address": "충청북도 진천군 광혜원면 광혜원리 529-2",
    "lat": 36.99418950201514,
    "lng": 127.43792994599754,
    "region": "충청북도"
  },
  {
    "name": "덕산초등학교  운동장",
    "address": "충청북도 제천시 덕산면 도전리 422-1",
    "lat": 36.908184659734836,
    "lng": 128.1696528196335,
    "region": "충청북도"
  },
  {
    "name": "금천배수지 체육공원(팔각정공원)",
    "address": "충청북도 청주시 상당구 금천동 329",
    "lat": 36.624818557500696,
    "lng": 127.51310617409919,
    "region": "충청북도"
  },
  {
    "name": "부용초등학교 운동장",
    "address": "충청북도 영동군 영동읍 부용리 224",
    "lat": 36.16736911780332,
    "lng": 127.76675993314569,
    "region": "충청북도"
  },
  {
    "name": "구읍 공영주차장",
    "address": "충청북도 옥천군 옥천읍 하계리 60",
    "lat": 36.31423535971082,
    "lng": 127.58081625728674,
    "region": "충청북도"
  },
  {
    "name": "매곡초등학교 운동장",
    "address": "충청북도 영동군 매곡면 노천리 53-1",
    "lat": 36.192160475761504,
    "lng": 127.93216169146834,
    "region": "충청북도"
  },
  {
    "name": "군서면사무소",
    "address": "충청북도 옥천군 군서면 동평리 580",
    "lat": 36.27945828211647,
    "lng": 127.52747234083495,
    "region": "충청북도"
  },
  {
    "name": "추풍령 초등학교 운동장",
    "address": "충청북도 영동군 추풍령면 추풍령리 375-1",
    "lat": 36.214462,
    "lng": 127.998058,
    "region": "충청북도"
  },
  {
    "name": "상촌 초등학교 운동장",
    "address": "충청북도 영동군 상촌면 임산리 357-1",
    "lat": 36.14722020752415,
    "lng": 127.9118533279602,
    "region": "충청북도"
  },
  {
    "name": "기동리 회관앞 공터",
    "address": "충청북도 단양군 적성면 기동리 487-1",
    "lat": 36.99231663736719,
    "lng": 128.28831634149535,
    "region": "충청북도"
  },
  {
    "name": "상원곡리 회관앞 공터",
    "address": "충청북도 단양군 적성면 상원곡리 78-6",
    "lat": 37.046648695286585,
    "lng": 128.23718064777057,
    "region": "충청북도"
  },
  {
    "name": "고수리주차장",
    "address": "충청북도 단양군 단양읍 고수리 105-6",
    "lat": 36.986192404203294,
    "lng": 128.3808343754431,
    "region": "충청북도"
  },
  {
    "name": "매포종합운동장",
    "address": "충청북도 단양군 매포읍 평동리 462",
    "lat": 37.03185198026149,
    "lng": 128.2950094825427,
    "region": "충청북도"
  },
  {
    "name": "노근리 평화공원 주차장",
    "address": "충청북도 영동군 황간면 노근리 657",
    "lat": 36.21142155574802,
    "lng": 127.88211249696744,
    "region": "충청북도"
  },
  {
    "name": "대길초등학교 운동장",
    "address": "충청북도 청주시 청원구 북이면 대길리 228",
    "lat": 36.7323584237813,
    "lng": 127.55872753147762,
    "region": "충청북도"
  },
  {
    "name": "사인암리 마을 주차장",
    "address": "충청북도 단양군 대강면 직티리 82-7",
    "lat": 36.89115248995894,
    "lng": 128.34238171161516,
    "region": "충청북도"
  },
  {
    "name": "용진리 마을회관 앞 공터",
    "address": "충청북도 단양군 영춘면 용진리 413",
    "lat": 37.08721541285425,
    "lng": 128.51077199752376,
    "region": "충청북도"
  },
  {
    "name": "하원곡리 회관앞 공터",
    "address": "충청북도 단양군 적성면 하원곡리 148",
    "lat": 37.039734918705875,
    "lng": 128.24341278078788,
    "region": "충청북도"
  },
  {
    "name": "소선암오토캠핑장",
    "address": "충청북도 단양군 단성면 상방리 291",
    "lat": 36.92617991555707,
    "lng": 128.31232866802458,
    "region": "충청북도"
  },
  {
    "name": "회인중학교 운동장 ",
    "address": "충청북도 보은군 회인면 중앙리 130",
    "lat": 36.494064,
    "lng": 127.596488,
    "region": "충청북도"
  },
  {
    "name": "용부원1리 공터",
    "address": "충청북도 단양군 대강면 용부원리 526-1",
    "lat": 36.91406562854327,
    "lng": 128.38018017365064,
    "region": "충청북도"
  },
  {
    "name": "영춘소백농협광장",
    "address": "충청북도 단양군 영춘면 상리 402",
    "lat": 37.078307609791246,
    "lng": 128.4844220402179,
    "region": "충청북도"
  },
  {
    "name": "남천리 마을회관 앞 공터",
    "address": "충청북도 단양군 영춘면 남천리 483-1",
    "lat": 37.05543422658524,
    "lng": 128.5038314867727,
    "region": "충청북도"
  },
  {
    "name": "적성면사무소",
    "address": "충청북도 단양군 적성면 하리 357-2",
    "lat": 36.960693495111244,
    "lng": 128.29295633580625,
    "region": "충청북도"
  },
  {
    "name": "현곡리 도로변주차장",
    "address": "충청북도 단양군 적성면 현곡리 93",
    "lat": 36.95043612039106,
    "lng": 128.3003399947159,
    "region": "충청북도"
  },
  {
    "name": "상2리 회관앞 공터",
    "address": "충청북도 단양군 적성면 상리 605",
    "lat": 36.97217507435871,
    "lng": 128.27641158883208,
    "region": "충청북도"
  },
  {
    "name": "하방리 체육시설",
    "address": "충청북도 단양군 단성면 하방리 162-2",
    "lat": 36.93845919365405,
    "lng": 128.31971367754844,
    "region": "충청북도"
  },
  {
    "name": "고평리마을회관",
    "address": "충청북도 단양군 단성면 고평리 147-1",
    "lat": 36.91561180280943,
    "lng": 128.25073046090088,
    "region": "충청북도"
  },
  {
    "name": "대잠리마을회관",
    "address": "충청북도 단양군 단성면 대잠리 246-1",
    "lat": 36.9030000749664,
    "lng": 128.3114778138129,
    "region": "충청북도"
  },
  {
    "name": "레인보우 힐링타운 주차장",
    "address": "충청북도 영동군 영동읍 매천리 131",
    "lat": 36.16423305091236,
    "lng": 127.78469764666917,
    "region": "충청북도"
  },
  {
    "name": "영신중학교 운동장",
    "address": "충청북도 영동군 영동읍 매천리 458-1",
    "lat": 36.16885136016807,
    "lng": 127.77455728615992,
    "region": "충청북도"
  },
  {
    "name": "황간고등학교 운동장",
    "address": "충청북도 영동군 황간면 남성리 409",
    "lat": 36.234667614834876,
    "lng": 127.91025597268165,
    "region": "충청북도"
  },
  {
    "name": "양강초등학교 운동장",
    "address": "충청북도 영동군 양강면 묘동리 331-2",
    "lat": 36.145626369098785,
    "lng": 127.74696351470267,
    "region": "충청북도"
  },
  {
    "name": "양당리마을회관",
    "address": "충청북도 단양군 단성면 양당리 204-2",
    "lat": 36.90296373303736,
    "lng": 128.24776830832883,
    "region": "충청북도"
  },
  {
    "name": "회남초등학교 운동장",
    "address": "충청북도 보은군 회남면 거교리 249",
    "lat": 36.445877,
    "lng": 127.579963,
    "region": "충청북도"
  },
  {
    "name": "삼승면사무소 공터",
    "address": "충청북도 보은군 삼승면 원남리 210-5",
    "lat": 36.395494,
    "lng": 127.727728,
    "region": "충청북도"
  },
  {
    "name": "가곡초중학교 운동장",
    "address": "충청북도 단양군 가곡면 사평리 435",
    "lat": 37.027466920041235,
    "lng": 128.38522368054333,
    "region": "충청북도"
  },
  {
    "name": "영천리 마을회관 주차장",
    "address": "충청북도 단양군 매포읍 영천리 193-1",
    "lat": 37.06959964592351,
    "lng": 128.298730535798,
    "region": "충청북도"
  },
  {
    "name": "벌천리마을회관",
    "address": "충청북도 단양군 단성면 벌천리 130-3",
    "lat": 36.858041924953184,
    "lng": 128.27678506671194,
    "region": "충청북도"
  },
  {
    "name": "영동미래고등학교 운동장",
    "address": "충청북도 영동군 영동읍 계산리 270-2",
    "lat": 36.17836693118736,
    "lng": 127.77944704381893,
    "region": "충청북도"
  },
  {
    "name": "송호국민관광지",
    "address": "충청북도 영동군 양산면 송호리 279",
    "lat": 36.131844719474444,
    "lng": 127.67332615963,
    "region": "충청북도"
  },
  {
    "name": "이월면사무소",
    "address": "충청북도 진천군 이월면 노원리 683-4",
    "lat": 36.925561797197595,
    "lng": 127.42855604898568,
    "region": "충청북도"
  },
  {
    "name": "용두공원",
    "address": "충청북도 영동군 영동읍 매천리 378-7",
    "lat": 36.1687433126776,
    "lng": 127.78375755766344,
    "region": "충청북도"
  },
  {
    "name": "화랑공원",
    "address": "충청북도 진천군 진천읍 교성리 126",
    "lat": 36.84949506257417,
    "lng": 127.44257105017195,
    "region": "충청북도"
  },
  {
    "name": "덕산근린공원(1호)",
    "address": "충청북도 진천군 덕산읍 용몽리 640-1",
    "lat": 36.91532185856591,
    "lng": 127.5094512104988,
    "region": "충청북도"
  },
  {
    "name": "두레봉공원",
    "address": "충청북도 진천군 덕산읍 두촌리 2447",
    "lat": 36.90654609796508,
    "lng": 127.53654956817627,
    "region": "충청북도"
  },
  {
    "name": "강당말공원",
    "address": "충청북도 진천군 덕산읍 두촌리 2609",
    "lat": 36.90132991833032,
    "lng": 127.54033684730527,
    "region": "충청북도"
  },
  {
    "name": "보은여중고등학교 운동장",
    "address": "충청북도 보은군 보은읍 교사리 174-2",
    "lat": 36.49442959579601,
    "lng": 127.71693181770821,
    "region": "충청북도"
  },
  {
    "name": "감물초등학교 운동장",
    "address": "충청북도 괴산군 감물면 오성리 81-1",
    "lat": 36.83902209305557,
    "lng": 127.87169142964972,
    "region": "충청북도"
  },
  {
    "name": "내북초등학교 운동장 ",
    "address": "충청북도 보은군 내북면 화전리 5-1",
    "lat": 36.575025,
    "lng": 127.652051,
    "region": "충청북도"
  },
  {
    "name": "수한면사무소 공터",
    "address": "충청북도 보은군 수한면 후평리 238",
    "lat": 36.479568,
    "lng": 127.698658,
    "region": "충청북도"
  },
  {
    "name": "농업기술센터 주차장",
    "address": "충청북도 보은군 보은읍 강산리 342",
    "lat": 36.503851932083386,
    "lng": 127.71492624955421,
    "region": "충청북도"
  },
  {
    "name": "혜윰공원",
    "address": "충청북도 진천군 덕산읍 두촌리 2406",
    "lat": 36.90923984056983,
    "lng": 127.53085792064665,
    "region": "충청북도"
  },
  {
    "name": "창신초등학교 운동장",
    "address": "충청북도 청주시 서원구 사창동 351",
    "lat": 36.629684039258635,
    "lng": 127.46420855824674,
    "region": "충청북도"
  },
  {
    "name": "문의초등학교 운동장",
    "address": "충청북도 청주시 상당구 문의면 미천리 228",
    "lat": 36.51815306257508,
    "lng": 127.4935411837257,
    "region": "충청북도"
  },
  {
    "name": "중앙여자고등학교 운동장",
    "address": "충청북도 청주시 서원구 사창동 227",
    "lat": 36.63728256874269,
    "lng": 127.46468448332003,
    "region": "충청북도"
  },
  {
    "name": "용담초등학교 운동장",
    "address": "충청북도 청주시 상당구 용담동 186",
    "lat": 36.63570109286813,
    "lng": 127.50148053046327,
    "region": "충청북도"
  },
  {
    "name": "증평공업고등학교 운동장",
    "address": "충청북도 증평군 증평읍 증천리 714",
    "lat": 36.781427033373355,
    "lng": 127.59124478601575,
    "region": "충청북도"
  },
  {
    "name": "보강천 체육공원 운동장",
    "address": "충청북도 증평군 증평읍 송산리 211-2",
    "lat": 36.78700532698701,
    "lng": 127.5761024866563,
    "region": "충청북도"
  },
  {
    "name": "옥산생활체육공원",
    "address": "충청북도 청주시 흥덕구 옥산면 오산리 776",
    "lat": 36.66635027284507,
    "lng": 127.36583592104877,
    "region": "충청북도"
  },
  {
    "name": "영동중학교 운동장",
    "address": "충청북도 영동군 영동읍 계산리 78",
    "lat": 36.170292606148735,
    "lng": 127.78748057878467,
    "region": "충청북도"
  },
  {
    "name": "양산초등학교 운동장",
    "address": "충청북도 영동군 양산면 가곡리 293-2",
    "lat": 36.12463865786919,
    "lng": 127.66657968381392,
    "region": "충청북도"
  },
  {
    "name": "광혜원면사무소",
    "address": "충청북도 진천군 광혜원면 광혜원리 542-10",
    "lat": 36.993291183116376,
    "lng": 127.43564053080915,
    "region": "충청북도"
  },
  {
    "name": "구룡초등학교 운동장",
    "address": "충청북도 영동군 용산면 구촌리 141-1",
    "lat": 36.265731,
    "lng": 127.826841,
    "region": "충청북도"
  },
  {
    "name": "심천초등학교 운동장",
    "address": "충청북도 영동군 심천면 심천리 524-1",
    "lat": 36.234537646201,
    "lng": 127.72465344072407,
    "region": "충청북도"
  },
  {
    "name": "한벌초등학교 운동장",
    "address": "충청북도 청주시 서원구 사직동 560",
    "lat": 36.63644443309886,
    "lng": 127.47493654489516,
    "region": "충청북도"
  },
  {
    "name": "용화초등학교 운동장",
    "address": "충청북도 영동군 용화면 용화리 760",
    "lat": 36.02319522968476,
    "lng": 127.7659836960761,
    "region": "충청북도"
  },
  {
    "name": "괴산북중학교 운동장",
    "address": "충청북도 괴산군 괴산읍 서부리 725",
    "lat": 36.81545720225895,
    "lng": 127.78055279967674,
    "region": "충청북도"
  },
  {
    "name": "보은읍사무소 공터",
    "address": "충청북도 보은군 보은읍 삼산리 130",
    "lat": 36.483316,
    "lng": 127.717098,
    "region": "충청북도"
  },
  {
    "name": "초평면사무소",
    "address": "충청북도 진천군 초평면 용정리 584-8",
    "lat": 36.845882043219326,
    "lng": 127.52652579631902,
    "region": "충청북도"
  },
  {
    "name": "내북면사무소 공터",
    "address": "충청북도 보은군 내북면 창리 63-1",
    "lat": 36.577803,
    "lng": 127.663886,
    "region": "충청북도"
  },
  {
    "name": "용촌1리 마을회관 공터",
    "address": "충청북도 보은군 회인면 용촌리 97-3",
    "lat": 36.500374098465336,
    "lng": 127.59696096181871,
    "region": "충청북도"
  },
  {
    "name": "충북상업정보고등학교운동장",
    "address": "충청북도 청주시 청원구 율량동 1496",
    "lat": 36.66377242280564,
    "lng": 127.47921380308772,
    "region": "충청북도"
  },
  {
    "name": "내곡초등학교 운동장",
    "address": "충청북도 청주시 흥덕구 송절동 849",
    "lat": 36.666381276064264,
    "lng": 127.45717436924276,
    "region": "충청북도"
  },
  {
    "name": "오갑초등학교 운동장",
    "address": "충청북도 음성군 감곡면 오궁리 2-1",
    "lat": 37.11211032649739,
    "lng": 127.67703189364126,
    "region": "충청북도"
  },
  {
    "name": "음성고등학교 운동장",
    "address": "충청북도 음성군 음성읍 읍내리 503-7",
    "lat": 36.93364137828773,
    "lng": 127.68649495915417,
    "region": "충청북도"
  },
  {
    "name": "수봉초등학교 운동장",
    "address": "충청북도 음성군 음성읍 읍내리 209",
    "lat": 36.94018804863209,
    "lng": 127.69289463915273,
    "region": "충청북도"
  },
  {
    "name": "대소초등학교 운동장",
    "address": "충청북도 음성군 대소면 오산리 186-1",
    "lat": 36.96695558313074,
    "lng": 127.4856897488727,
    "region": "충청북도"
  },
  {
    "name": "능산보건진료소 앞",
    "address": "충청북도 음성군 삼성면 능산리 185-19",
    "lat": 37.03872915982756,
    "lng": 127.53668193870529,
    "region": "충청북도"
  },
  {
    "name": "음성여자중학교 운동장",
    "address": "충청북도 음성군 음성읍 평곡리 830-3",
    "lat": 36.92745457310469,
    "lng": 127.69909016007972,
    "region": "충청북도"
  },
  {
    "name": "소이면사무소 광장",
    "address": "충청북도 음성군 소이면 대장리 145-3",
    "lat": 36.92346797975359,
    "lng": 127.7576210011674,
    "region": "충청북도"
  },
  {
    "name": "원남초등학교 운동장",
    "address": "충청북도 음성군 원남면 보룡리 371-1",
    "lat": 36.87865814607417,
    "lng": 127.65382652847923,
    "region": "충청북도"
  },
  {
    "name": "충북반도체고 운동장",
    "address": "충청북도 음성군 금왕읍 금석리 103",
    "lat": 36.99456968485014,
    "lng": 127.60606637184021,
    "region": "충청북도"
  },
  {
    "name": "삼양초등학교 운동장",
    "address": "충청북도 옥천군 옥천읍 마암리 5-1",
    "lat": 36.29744254854639,
    "lng": 127.56891261918479,
    "region": "충청북도"
  },
  {
    "name": "옥천여자중학교 운동장",
    "address": "충청북도 옥천군 옥천읍 문정리 455-2",
    "lat": 36.304088104794786,
    "lng": 127.57270957838739,
    "region": "충청북도"
  },
  {
    "name": "원당초등학교 운동장",
    "address": "충청북도 음성군 감곡면 원당리 159-1",
    "lat": 37.074038748999826,
    "lng": 127.61572367766476,
    "region": "충청북도"
  },
  {
    "name": "대소중학교 운동장",
    "address": "충청북도 음성군 대소면 삼정리 613-7",
    "lat": 36.963388725989894,
    "lng": 127.4899592505417,
    "region": "충청북도"
  },
  {
    "name": "영동체육관",
    "address": "충청북도 영동군 영동읍 매천리 313",
    "lat": 36.16609619063971,
    "lng": 127.78377429738165,
    "region": "충청북도"
  },
  {
    "name": "대금고등학교 운동장",
    "address": "충청북도 음성군 금왕읍 본대리 267-4",
    "lat": 36.98112345824877,
    "lng": 127.5290361668231,
    "region": "충청북도"
  },
  {
    "name": "쌍봉초등학교 운동장",
    "address": "충청북도 음성군 금왕읍 쌍봉리 413",
    "lat": 37.0026103748397,
    "lng": 127.54232594193589,
    "region": "충청북도"
  },
  {
    "name": "삼성초등학교 운동장",
    "address": "충청북도 음성군 삼성면 덕정리 508-1",
    "lat": 37.019867058130416,
    "lng": 127.49660275036061,
    "region": "충청북도"
  },
  {
    "name": "증약초등학교 대정분교 운동장",
    "address": "충청북도 옥천군 군북면 대정리 577",
    "lat": 36.389187451799444,
    "lng": 127.53850147244479,
    "region": "충청북도"
  },
  {
    "name": "부윤초등학교 운동장",
    "address": "충청북도 음성군 대소면 부윤리 392",
    "lat": 36.948566827920395,
    "lng": 127.52488671317994,
    "region": "충청북도"
  },
  {
    "name": "평곡초등학교 운동장",
    "address": "충청북도 음성군 음성읍 평곡리 813",
    "lat": 36.929188906550166,
    "lng": 127.70109773025447,
    "region": "충청북도"
  },
  {
    "name": "삼성중학교 운동장",
    "address": "충청북도 음성군 삼성면 덕정리 431-1",
    "lat": 37.02475219149618,
    "lng": 127.49959810490923,
    "region": "충청북도"
  },
  {
    "name": "한천초등학교 운동장",
    "address": "충청북도 진천군 덕산면 용몽리 518-3",
    "lat": 36.906678648702616,
    "lng": 127.50777122782814,
    "region": "충청북도"
  },
  {
    "name": "생극초등학교 운동장",
    "address": "충청북도 음성군 생극면 신양리 451-1",
    "lat": 37.03363188041537,
    "lng": 127.60474503078765,
    "region": "충청북도"
  },
  {
    "name": "용천초등학교 운동장",
    "address": "충청북도 음성군 금왕읍 무극리 50",
    "lat": 36.991070587119026,
    "lng": 127.5920213226429,
    "region": "충청북도"
  },
  {
    "name": "덕산중학교 운동장",
    "address": "충청북도 진천군 덕산읍 용몽리 566-1",
    "lat": 36.90729246292604,
    "lng": 127.5104033946991,
    "region": "충청북도"
  },
  {
    "name": "구정초등학교 운동장",
    "address": "충청북도 진천군 초평면 용산리 236-1",
    "lat": 36.780942612098556,
    "lng": 127.53519021111381,
    "region": "충청북도"
  },
  {
    "name": "설성공원",
    "address": "충청북도 음성군 음성읍 읍내리 446-1",
    "lat": 36.93241457420551,
    "lng": 127.6909802970027,
    "region": "충청북도"
  },
  {
    "name": "남신초등학교 운동장",
    "address": "충청북도 음성군 음성읍 읍내리 757-6",
    "lat": 36.932725523256224,
    "lng": 127.68423166472135,
    "region": "충청북도"
  },
  {
    "name": "오선초등학교 운동장",
    "address": "충청북도 음성군 금왕읍 오선리 206",
    "lat": 36.97875449375904,
    "lng": 127.56636025688505,
    "region": "충청북도"
  },
  {
    "name": "무극초등학교 운동장",
    "address": "충청북도 음성군 금왕읍 무극리 86",
    "lat": 36.991267551297184,
    "lng": 127.59889155809408,
    "region": "충청북도"
  },
  {
    "name": "동성초등학교 운동장",
    "address": "충청북도 음성군 맹동면 동성리 452",
    "lat": 36.912834454348626,
    "lng": 127.54370431486629,
    "region": "충청북도"
  },
  {
    "name": "무극중학교 운동장",
    "address": "충청북도 음성군 금왕읍 무극리 23-2",
    "lat": 36.98882579174074,
    "lng": 127.59180670551282,
    "region": "충청북도"
  },
  {
    "name": "매괴고등학교 운동장",
    "address": "충청북도 음성군 감곡면 왕장리 498-1",
    "lat": 37.120614177372715,
    "lng": 127.64055239926013,
    "region": "충청북도"
  },
  {
    "name": "명덕초등학교 운동장",
    "address": "충청북도 괴산군 괴산읍 서부리 335",
    "lat": 36.80925082060943,
    "lng": 127.78683741011088,
    "region": "충청북도"
  },
  {
    "name": "수정초등학교 운동장",
    "address": "충청북도 보은군 속리산면 사내리 181-1",
    "lat": 36.535839,
    "lng": 127.822021,
    "region": "충청북도"
  },
  {
    "name": "수한초등학교 운동장",
    "address": "충청북도 보은군 수한면 소계리 17-2",
    "lat": 36.458147,
    "lng": 127.701162,
    "region": "충청북도"
  },
  {
    "name": "산외초등학교 운동장",
    "address": "충청북도 보은군 산외면 구티리 52-2",
    "lat": 36.552283,
    "lng": 127.731882,
    "region": "충청북도"
  },
  {
    "name": "보은군보건소 주차장",
    "address": "충청북도 보은군 보은읍 삼산리 170-2",
    "lat": 36.486416,
    "lng": 127.716224,
    "region": "충청북도"
  },
  {
    "name": "괴산종합운동장",
    "address": "충청북도 괴산군 괴산읍 서부리 177",
    "lat": 36.81167417545534,
    "lng": 127.78688862935287,
    "region": "충청북도"
  },
  {
    "name": "괴산미니축구장",
    "address": "충청북도 괴산군 괴산읍 서부리 160",
    "lat": 36.813769492187106,
    "lng": 127.78703896928477,
    "region": "충청북도"
  },
  {
    "name": "산남중학교 운동장",
    "address": "충청북도 청주시 서원구 산남동 672",
    "lat": 36.6112534799244,
    "lng": 127.46367740370582,
    "region": "충청북도"
  },
  {
    "name": "산남유수지",
    "address": "충청북도 청주시 서원구 분평동 1465",
    "lat": 36.608518841344214,
    "lng": 127.47751425724644,
    "region": "충청북도"
  },
  {
    "name": "충주여자중학교 운동장",
    "address": "충청북도 충주시 교현동 369-1",
    "lat": 36.975956794267226,
    "lng": 127.9344016313553,
    "region": "충청북도"
  },
  {
    "name": "칠금초등학교 운동장",
    "address": "충청북도 충주시 칠금동 727",
    "lat": 36.98390182456841,
    "lng": 127.92334020137787,
    "region": "충청북도"
  },
  {
    "name": "중앙공원",
    "address": "충청북도 청주시 상당구 서문동 119",
    "lat": 36.632656698562556,
    "lng": 127.48699234062475,
    "region": "충청북도"
  },
  {
    "name": "충주 관아공원",
    "address": "충청북도 충주시 성내동 232-2",
    "lat": 36.970503212207625,
    "lng": 127.93620139360428,
    "region": "충청북도"
  },
  {
    "name": "국원고등학교 운동장",
    "address": "충청북도 충주시 봉방동 72",
    "lat": 36.97849166616466,
    "lng": 127.9208269715309,
    "region": "충청북도"
  },
  {
    "name": "남양공원",
    "address": "충청북도 충주시 연수동 929",
    "lat": 36.985611568885474,
    "lng": 127.9316121339798,
    "region": "충청북도"
  },
  {
    "name": "대소원초등학교 운동장",
    "address": "충청북도 충주시 대소원면 본리 647",
    "lat": 36.98747124714509,
    "lng": 127.82759606838223,
    "region": "충청북도"
  },
  {
    "name": "금제공원",
    "address": "충청북도 충주시 금릉동 691",
    "lat": 36.98949370276836,
    "lng": 127.925520837307,
    "region": "충청북도"
  },
  {
    "name": "중앙탑초등학교 운동장",
    "address": "충청북도 충주시 중앙탑면 용전리 691",
    "lat": 37.01542949854498,
    "lng": 127.83134579658507,
    "region": "충청북도"
  },
  {
    "name": "중원체육공원",
    "address": "충청북도 충주시 중앙탑면 탑평리 206-4",
    "lat": 37.02993307436523,
    "lng": 127.85699542911519,
    "region": "충청북도"
  },
  {
    "name": "노은초등학교 운동장",
    "address": "충청북도 충주시 노은면 연하리 535-2",
    "lat": 37.04818146072722,
    "lng": 127.7553802728653,
    "region": "충청북도"
  },
  {
    "name": "세성초등학교",
    "address": "충청북도 충주시 살미면 세성리 154-1",
    "lat": 36.90419153411778,
    "lng": 127.96834394168259,
    "region": "충청북도"
  },
  {
    "name": "달천초등학교 운동장",
    "address": "충청북도 충주시 용두동 411-1",
    "lat": 36.962863254529,
    "lng": 127.87907302379608,
    "region": "충청북도"
  },
  {
    "name": "금릉소공원",
    "address": "충청북도 충주시 칠금동 823",
    "lat": 36.98315620975149,
    "lng": 127.9195100069046,
    "region": "충청북도"
  },
  {
    "name": "금가초등학교 운동장",
    "address": "충청북도 충주시 금가면 도촌리 400-1",
    "lat": 37.04396834939631,
    "lng": 127.92248725891113,
    "region": "충청북도"
  },
  {
    "name": "봉방소공원",
    "address": "충청북도 충주시 봉방동 170-14",
    "lat": 36.97326326642824,
    "lng": 127.91902720928192,
    "region": "충청북도"
  },
  {
    "name": "목행초등학교 운동장",
    "address": "충청북도 충주시 목행동 577-1",
    "lat": 37.00732497734011,
    "lng": 127.91858196258545,
    "region": "충청북도"
  },
  {
    "name": "수안보 생활체육공원",
    "address": "충청북도 충주시 수안보면 안보리 425-4",
    "lat": 36.83957089966348,
    "lng": 128.0064645409584,
    "region": "충청북도"
  },
  {
    "name": "연수초등학교 운동장",
    "address": "충청북도 충주시 연수동 1232",
    "lat": 36.987484101905714,
    "lng": 127.93837130069736,
    "region": "충청북도"
  },
  {
    "name": "신백초등학교  운동장",
    "address": "충청북도 제천시 신백동 212-7",
    "lat": 37.128248801002,
    "lng": 128.22633255633826,
    "region": "충청북도"
  },
  {
    "name": "대원대학교  운동장",
    "address": "충청북도 제천시 신월동 599",
    "lat": 37.17579546798715,
    "lng": 128.19140341760334,
    "region": "충청북도"
  },
  {
    "name": "적성면 복지회관",
    "address": "충청북도 단양군 적성면 하리 350-5",
    "lat": 36.959918339144615,
    "lng": 128.2929432040089,
    "region": "충청북도"
  },
  {
    "name": "상2리 주차장",
    "address": "충청북도 단양군 적성면 상리 1013-93",
    "lat": 36.97050079328484,
    "lng": 128.27614503422583,
    "region": "충청북도"
  },
  {
    "name": "한일시멘트 운동장",
    "address": "충청북도 단양군 매포읍 평동리 60",
    "lat": 37.02541576351807,
    "lng": 128.30847667399013,
    "region": "충청북도"
  },
  {
    "name": "보광초등학교 운동장",
    "address": "충청북도 괴산군 사리면 사담리 516-1",
    "lat": 36.81766715950287,
    "lng": 127.64966196208047,
    "region": "충청북도"
  },
  {
    "name": "동광초등학교 운동장 ",
    "address": "충청북도 보은군 보은읍 교사리 54-1",
    "lat": 36.487598,
    "lng": 127.718609,
    "region": "충청북도"
  },
  {
    "name": "괴산중학교 운동장",
    "address": "충청북도 괴산군 괴산읍 대사리 165",
    "lat": 36.796779060508804,
    "lng": 127.78365571954708,
    "region": "충청북도"
  },
  {
    "name": "칠성초등학교 운동장",
    "address": "충청북도 괴산군 칠성면 도정리 311",
    "lat": 36.78564008343656,
    "lng": 127.86236953275566,
    "region": "충청북도"
  },
  {
    "name": "용수리 마을회관 공터",
    "address": "충청북도 보은군 내북면 용수리 21-1",
    "lat": 36.54584,
    "lng": 127.651733,
    "region": "충청북도"
  },
  {
    "name": "문광초등학교 운동장",
    "address": "충청북도 괴산군 문광면 광덕리 294",
    "lat": 36.79062522256386,
    "lng": 127.78318673372266,
    "region": "충청북도"
  },
  {
    "name": "옥천공설운동장",
    "address": "충청북도 옥천군 옥천읍 문정리 390",
    "lat": 36.30255662055246,
    "lng": 127.57362885904418,
    "region": "충청북도"
  },
  {
    "name": "강내초등학교",
    "address": "충청북도 청주시 흥덕구 강내면 다락리 348-1",
    "lat": 36.59665473949915,
    "lng": 127.35690857388384,
    "region": "충청북도"
  },
  {
    "name": "원봉공원",
    "address": "충청북도 청주시 상당구 용암동 2075",
    "lat": 36.611985160324856,
    "lng": 127.51277825947194,
    "region": "충청북도"
  },
  {
    "name": "금천초등학교 운동장",
    "address": "충청북도 청주시 상당구 금천동 213-1",
    "lat": 36.62682548959878,
    "lng": 127.50555191306059,
    "region": "충청북도"
  },
  {
    "name": "보은고등학교 운동장",
    "address": "충청북도 보은군 보은읍 죽전리 61",
    "lat": 36.475325,
    "lng": 127.721263,
    "region": "충청북도"
  },
  {
    "name": "회남면사무소 공터",
    "address": "충청북도 보은군 회남면 거교리 251",
    "lat": 36.44515633329154,
    "lng": 127.57907560939813,
    "region": "충청북도"
  },
  {
    "name": "진천읍사무소",
    "address": "충청북도 진천군 진천읍 읍내리 370-1",
    "lat": 36.85497605095984,
    "lng": 127.4413997459511,
    "region": "충청북도"
  },
  {
    "name": "북이초등학교 운동장",
    "address": "충청북도 청주시 청원구 북이면 내추리 2-3",
    "lat": 36.76165220274669,
    "lng": 127.55554832230935,
    "region": "충청북도"
  },
  {
    "name": "상당고등학교 운동장",
    "address": "충청북도 청주시 상당구 용암동 2033",
    "lat": 36.60603848132935,
    "lng": 127.50897499587212,
    "region": "충청북도"
  },
  {
    "name": "현도중학교 운동장",
    "address": "충청북도 청주시 서원구 현도면 선동리 256-3",
    "lat": 36.48354605265062,
    "lng": 127.42575824260712,
    "region": "충청북도"
  },
  {
    "name": "현도정보고등학교 운동장",
    "address": "충청북도 청주시 서원구 현도면 죽암리 262",
    "lat": 36.52133832022437,
    "lng": 127.43657594779737,
    "region": "충청북도"
  },
  {
    "name": "어상천 삼구인화원",
    "address": "충청북도 단양군 어상천면 임현리 311",
    "lat": 37.10126425476379,
    "lng": 128.3601049331437,
    "region": "충청북도"
  },
  {
    "name": "단양한옥학교 운동장",
    "address": "충청북도 단양군 적성면 하리 59",
    "lat": 36.96072987555389,
    "lng": 128.2937935367471,
    "region": "충청북도"
  },
  {
    "name": "각기리 회관앞 공터",
    "address": "충청북도 단양군 적성면 각기리 249-3",
    "lat": 37.015522743311024,
    "lng": 128.28347937857205,
    "region": "충청북도"
  },
  {
    "name": "하방리마을회관",
    "address": "충청북도 단양군 단성면 하방리 165-1",
    "lat": 36.93902978924642,
    "lng": 128.3207802151865,
    "region": "충청북도"
  },
  {
    "name": "가산2리마을회관",
    "address": "충청북도 단양군 단성면 가산리 737-9",
    "lat": 36.87203847071865,
    "lng": 128.29481911100214,
    "region": "충청북도"
  },
  {
    "name": "용암중학교 운동장",
    "address": "충청북도 청주시 상당구 용암동 2081",
    "lat": 36.61102909031023,
    "lng": 127.50991756234495,
    "region": "충청북도"
  },
  {
    "name": "영춘초등학교 운동장",
    "address": "충청북도 단양�� 영춘면 상리 640",
    "lat": 37.08004556853466,
    "lng": 128.4832818331923,
    "region": "충청북도"
  },
  {
    "name": "도전제3공원(천사어린이집앞)",
    "address": "충청북도 단양군 단양읍 도전리 10",
    "lat": 36.98283390474042,
    "lng": 128.3671441487249,
    "region": "충청북도"
  },
  {
    "name": "하진리 주차장",
    "address": "충청북도 단양군 적성면 하진리 58-3",
    "lat": 36.94115623267441,
    "lng": 128.30181767008182,
    "region": "충청북도"
  },
  {
    "name": "소야리 회관앞 공터",
    "address": "충청북도 단양군 적성면 소야리 62-8",
    "lat": 37.02203613679934,
    "lng": 128.277493474252,
    "region": "충청북도"
  },
  {
    "name": "삼산초등학교 운동장 ",
    "address": "충청북도 보은군 보은읍 삼산리 156-3",
    "lat": 36.484427,
    "lng": 127.717019,
    "region": "충청북도"
  },
  {
    "name": "세중초등학교 운동장",
    "address": "충청북도 보은군 마로면 세중리 575-2",
    "lat": 36.387963,
    "lng": 127.829288,
    "region": "충청북도"
  },
  {
    "name": "장안면사무소 공터",
    "address": "충청북도 보은군 장안면 장안리 265-3",
    "lat": 36.469794,
    "lng": 127.789081,
    "region": "충청북도"
  },
  {
    "name": "탄부면사무소 공터 ",
    "address": "충청북도 보은군 탄부면 하장리 347",
    "lat": 36.430468,
    "lng": 127.795919,
    "region": "충청북도"
  },
  {
    "name": "괴산고등학교 운동장",
    "address": "충청북도 괴산군 괴산읍 대사리 201",
    "lat": 36.79641235308766,
    "lng": 127.780761130948,
    "region": "충청북도"
  },
  {
    "name": "판동초등학교 운동장 ",
    "address": "충청북도 보은군 삼승면 내망리 536-1",
    "lat": 36.397918,
    "lng": 127.741573,
    "region": "충청북도"
  },
  {
    "name": "감물면사무소",
    "address": "충청북도 괴산군 감물면 광전리 90",
    "lat": 36.836724037437655,
    "lng": 127.87490195261246,
    "region": "충청북도"
  },
  {
    "name": "탄부초등학교 운동장",
    "address": "충청북도 보은군 탄부면 덕동리 77",
    "lat": 36.424829,
    "lng": 127.776924,
    "region": "충청북도"
  },
  {
    "name": "보덕중학교 운동장",
    "address": "충청북도 보은군 탄부면 하장리 27-1",
    "lat": 36.435745,
    "lng": 127.80578,
    "region": "충청북도"
  },
  {
    "name": "칠성중학교 운동장",
    "address": "충청북도 괴산군 칠성면 사평리 240",
    "lat": 36.78862465767487,
    "lng": 127.87348420835514,
    "region": "충청북도"
  },
  {
    "name": "구)복대초등학교 운동장",
    "address": "충청북도 청주시 흥덕구 복대동 709-4",
    "lat": 36.62915410658191,
    "lng": 127.4477869161157,
    "region": "충청북도"
  },
  {
    "name": "경덕초등학교 운동장",
    "address": "충청북도 청주시 흥덕구 가경동 1504",
    "lat": 36.6212084171375,
    "lng": 127.4381042032088,
    "region": "충청북도"
  },
  {
    "name": "남성초등학교 운동장",
    "address": "충청북도 청주시 서원구 분평동 219-1",
    "lat": 36.60798244927178,
    "lng": 127.48376291927732,
    "region": "충청북도"
  },
  {
    "name": "봉명초등학교 운동장",
    "address": "충청북도 청주시 흥덕구 봉명동 205",
    "lat": 36.639684979276424,
    "lng": 127.45652955860781,
    "region": "충청북도"
  },
  {
    "name": "분평초등학교 운동장",
    "address": "충청북도 청주시 서원구 분평동 1198",
    "lat": 36.613309857837535,
    "lng": 127.49311274672401,
    "region": "충청북도"
  },
  {
    "name": "사직초등학교 운동장",
    "address": "충청북도 청주시 서원구 사직동 38-4",
    "lat": 36.6307003682622,
    "lng": 127.47773474948418,
    "region": "충청북도"
  },
  {
    "name": "수곡초등학교 운동장",
    "address": "충청북도 청주시 서원구 수곡동 779",
    "lat": 36.6180989116588,
    "lng": 127.4712498743902,
    "region": "충청북도"
  },
  {
    "name": "한솔초등학교 운동장",
    "address": "충청북도 청주시 서원구 수곡동 322",
    "lat": 36.61843539364645,
    "lng": 127.4761645072923,
    "region": "충청북도"
  },
  {
    "name": "낭성초등학교 운동장",
    "address": "충청북도 청주시 상당구 낭성면 이목리 108-1",
    "lat": 36.62314611752259,
    "lng": 127.60211131746065,
    "region": "충청북도"
  },
  {
    "name": "남이면사무소 주차장",
    "address": "충청북도 청주시 서원구 남이면 척산리 608-1",
    "lat": 36.5605884842585,
    "lng": 127.43363040261198,
    "region": "충청북도"
  },
  {
    "name": "갈원초등학교 운동장",
    "address": "충청북도 청주시 서원구 남이면 갈원리 143-1",
    "lat": 36.568710927640474,
    "lng": 127.39654559649644,
    "region": "충청북도"
  },
  {
    "name": "남이초등학교 운동장",
    "address": "충청북도 청주시 서원구 남이면 대련리 255",
    "lat": 36.57700330708442,
    "lng": 127.45416037691402,
    "region": "충청북도"
  },
  {
    "name": "증평초등학교 운동장",
    "address": "충청북도 증평군 증평읍 증평리 479",
    "lat": 36.782552952848604,
    "lng": 127.58780329005862,
    "region": "충청북도"
  },
  {
    "name": "서현초등학교 운동장",
    "address": "충청북도 청주시 흥덕구 가경동 1917",
    "lat": 36.618918319910925,
    "lng": 127.42982402256281,
    "region": "충청북도"
  },
  {
    "name": "석교초등학교",
    "address": "충청북도 청주시 상당구 석교동 10",
    "lat": 36.626288176646554,
    "lng": 127.49425806824719,
    "region": "충청북도"
  },
  {
    "name": "증평중학교 운동장",
    "address": "충청북도 증평군 증평읍 증천리 726",
    "lat": 36.782045341731454,
    "lng": 127.58993008897198,
    "region": "충청북도"
  },
  {
    "name": "형석중학교 운동장",
    "address": "충청북도 증평군 증평읍 미암리 603",
    "lat": 36.79279093756006,
    "lng": 127.59314496391403,
    "region": "충청북도"
  },
  {
    "name": "남이면복지회관쉼터 주차장",
    "address": "충청북도 청주시 서원구 남이면 척산리 609-1",
    "lat": 36.56048024472492,
    "lng": 127.43297726819178,
    "region": "충청북도"
  },
  {
    "name": "옥산초등학교",
    "address": "충청북도 청주시 흥덕구 옥산면 오산리 223",
    "lat": 36.66380881183167,
    "lng": 127.37308904444974,
    "region": "충청북도"
  },
  {
    "name": "중앙초등학교 운동장",
    "address": "충청북도 청주시 청원구 율량동 2105",
    "lat": 36.666766123174035,
    "lng": 127.50122887237616,
    "region": "충청북도"
  },
  {
    "name": "강서초등학교 운동장",
    "address": "충청북도 청주시 흥덕구 비하동 121-1",
    "lat": 36.628246348836754,
    "lng": 127.4231308277131,
    "region": "충청북도"
  },
  {
    "name": "청주중앙여자중학교운동장",
    "address": "충청북도 청주시 청원구 사천동 229-5",
    "lat": 36.66359713494487,
    "lng": 127.47790421209773,
    "region": "충청북도"
  },
  {
    "name": "새터초등학교 운동장",
    "address": "충청북도 청주시 청원구 사천동 200",
    "lat": 36.666781315057044,
    "lng": 127.4713541719574,
    "region": "충청북도"
  },
  {
    "name": "문의중학교 운동장",
    "address": "충청북도 청주시 상당구 문의면 미천리 108-2",
    "lat": 36.51571539799041,
    "lng": 127.50137507915602,
    "region": "충청북도"
  },
  {
    "name": "증평여자중학교 운동장",
    "address": "충청북도 증평군 증평읍 초중리 11-8",
    "lat": 36.77909620511682,
    "lng": 127.57928581219832,
    "region": "충청북도"
  },
  {
    "name": "오송초교 운동장",
    "address": "충청북도 청주시 흥덕구 오송읍 오송리 60-1",
    "lat": 36.61270071078473,
    "lng": 127.32570626607759,
    "region": "충청북도"
  },
  {
    "name": "청주하이텍고등학교 운동장",
    "address": "충청북도 청주시 서원구 분평동 1257",
    "lat": 36.60895952932116,
    "lng": 127.49240662608352,
    "region": "충청북도"
  },
  {
    "name": "생극보건지소 앞",
    "address": "충청북도 음성군 생극면 신양리 376-5",
    "lat": 37.03350453400574,
    "lng": 127.6087778641587,
    "region": "충청북도"
  },
  {
    "name": "청룡1리 회관 앞",
    "address": "충청북도 음성군 삼성면 청용리 313-3",
    "lat": 36.99657766622897,
    "lng": 127.46824358961332,
    "region": "충청북도"
  },
  {
    "name": "용촌3리 경로당 앞",
    "address": "충청북도 음성군 맹동면 용촌리 443-7",
    "lat": 36.9314544695628,
    "lng": 127.51949079671327,
    "region": "충청북도"
  },
  {
    "name": "대소보건지소 앞",
    "address": "충청북도 음성군 대소면 오류리 70-3",
    "lat": 36.97161327030841,
    "lng": 127.48344176092145,
    "region": "충청북도"
  },
  {
    "name": "충도보건진료소 앞",
    "address": "충청북도 음성군 소이면 충도리 662-4",
    "lat": 36.895344542575835,
    "lng": 127.72830021184257,
    "region": "충청북도"
  },
  {
    "name": "금왕보건지소 앞",
    "address": "충청북도 음성군 금왕읍 무극리 507-7",
    "lat": 36.992246684216255,
    "lng": 127.58618792647412,
    "region": "충청북도"
  },
  {
    "name": "덕정5리 회관 앞",
    "address": "충청북도 음성군 삼성면 덕정리 436",
    "lat": 37.02373268245145,
    "lng": 127.50083083314084,
    "region": "충청북도"
  },
  {
    "name": "소이보건지소 앞",
    "address": "충청북도 음성군 소이면 대장리 145-3",
    "lat": 36.92346797975359,
    "lng": 127.7576210011674,
    "region": "충청북도"
  },
  {
    "name": "맹동보건지소 앞",
    "address": "충청북도 음성군 맹동면 쌍정리 137-9",
    "lat": 36.929705481061596,
    "lng": 127.56236993602855,
    "region": "충청북도"
  },
  {
    "name": "유포보건진료소 앞",
    "address": "충청북도 음성군 금왕읍 유포리 123",
    "lat": 36.96462546087464,
    "lng": 127.54863381253818,
    "region": "충청북도"
  },
  {
    "name": "조촌보건진료소 앞",
    "address": "충청북도 음성군 원남면 조촌리 565",
    "lat": 36.876054012181996,
    "lng": 127.60768965260898,
    "region": "충청북도"
  },
  {
    "name": "삼생보건진료소 앞",
    "address": "충청북도 음성군 음성읍 삼생리 767-6",
    "lat": 36.90796533116827,
    "lng": 127.6070442231799,
    "region": "충청북도"
  },
  {
    "name": "오류4리 회관 앞",
    "address": "충청북도 음성군 대소면 오류리 30-65",
    "lat": 36.980030388032134,
    "lng": 127.48156730804361,
    "region": "충청북도"
  },
  {
    "name": "소이면사무소 앞",
    "address": "충청북도 음성군 소이면 대장리 145-3",
    "lat": 36.92346797975359,
    "lng": 127.7576210011674,
    "region": "충청북도"
  },
  {
    "name": "생2리 회관 앞",
    "address": "충청북도 음성군 생극면 생리 609-6",
    "lat": 37.02841338344149,
    "lng": 127.63274394967901,
    "region": "충청북도"
  },
  {
    "name": "건강생활지원센터 앞",
    "address": "충청북도 음성군 맹동면 동성리 241",
    "lat": 36.913702983603876,
    "lng": 127.54508611513414,
    "region": "충청북도"
  },
  {
    "name": "천평1리 회관 앞",
    "address": "충청북도 음성군 삼성면 천평리 475-8",
    "lat": 36.985607417891444,
    "lng": 127.49907503817262,
    "region": "충청북도"
  },
  {
    "name": "원남면사무소 앞",
    "address": "충청북도 음성군 원남면 보천리 374-3",
    "lat": 36.87533299745274,
    "lng": 127.64894898966894,
    "region": "충청북도"
  },
  {
    "name": "대소스포츠문화회관 앞",
    "address": "충청북도 음성군 대소면 태생리 604",
    "lat": 36.96570847552579,
    "lng": 127.4960743793379,
    "region": "충청북도"
  },
  {
    "name": " 상평보건진료소 앞",
    "address": "충청북도 음성군 감곡면 상평리 716",
    "lat": 37.07038475668193,
    "lng": 127.63434171498926,
    "region": "충청북도"
  },
  {
    "name": "맹동면사무소 앞",
    "address": "충청북도 음성군 맹동면 쌍정리 137-9",
    "lat": 36.92998357332462,
    "lng": 127.56270133044444,
    "region": "충청북도"
  },
  {
    "name": "용촌보건지소 앞",
    "address": "충청북도 음성군 맹동면 용촌리 149-6",
    "lat": 36.92974597545705,
    "lng": 127.53050658064508,
    "region": "충청북도"
  },
  {
    "name": "두성보건진료소 앞",
    "address": "충청북도 음성군 맹동면 두성리 63-2",
    "lat": 36.91330451505816,
    "lng": 127.55869727989013,
    "region": "충청북도"
  },
  {
    "name": "삼성보건지소 앞",
    "address": "충청북도 음성군 삼성면 덕정리 529-1",
    "lat": 37.01797274517739,
    "lng": 127.4950358561133,
    "region": "충청북도"
  },
  {
    "name": "오궁보건진료소 앞",
    "address": "충청북도 음성군 감곡면 오궁리 108",
    "lat": 37.11504267905054,
    "lng": 127.67101599356616,
    "region": "충청북도"
  },
  {
    "name": "금왕생활체육공원",
    "address": "충청북도 음성군 금왕읍 금석리 98",
    "lat": 36.99388967632009,
    "lng": 127.60408685632557,
    "region": "충청북도"
  },
  {
    "name": "삼정2리 회관 앞",
    "address": "충청북도 음성군 대소면 삼정리 196-3",
    "lat": 36.95722156374668,
    "lng": 127.49907255343324,
    "region": "충청북도"
  },
  {
    "name": "대소부윤진료소 앞",
    "address": "충청북도 음성군 대소면 부윤리 82",
    "lat": 36.95262598555503,
    "lng": 127.52324358431657,
    "region": "충청북도"
  },
  {
    "name": "삼성 공용주차장 1",
    "address": "충청북도 음성군 삼성면 덕정리 520-5",
    "lat": 37.019663923914756,
    "lng": 127.49951846839228,
    "region": "충청북도"
  },
  {
    "name": "선정2리 회관 앞",
    "address": "충청북도 음성군 삼성면 선정리 169",
    "lat": 36.98897181333198,
    "lng": 127.50946815828928,
    "region": "충청북도"
  },
  {
    "name": "왕장3리 회관 앞",
    "address": "충청북도 음성군 감곡면 왕장리 470-5",
    "lat": 37.11882919894535,
    "lng": 127.63880409731739,
    "region": "충청북도"
  },
  {
    "name": "금왕읍사무소 앞",
    "address": "충청북도 음성군 금왕읍 무극리 507-7",
    "lat": 36.992246684216255,
    "lng": 127.58618792647412,
    "region": "충청북도"
  },
  {
    "name": "내곡보건진료소 앞",
    "address": "충청북도 음성군 금왕읍 내곡리 71-7",
    "lat": 37.00850596554398,
    "lng": 127.53829536787077,
    "region": "충청북도"
  },
  {
    "name": "관성보건진료소 앞",
    "address": "충청북도 음성군 생극면 관성리 688-1",
    "lat": 37.02522692417808,
    "lng": 127.56810840073551,
    "region": "충청북도"
  },
  {
    "name": "태생3리 회관 앞",
    "address": "충청북도 음성군 대소면 태생리 142-19",
    "lat": 36.969544742333014,
    "lng": 127.49521711995065,
    "region": "충청북도"
  },
  {
    "name": "왕장1리 회관 앞",
    "address": "충청북도 음성군 감곡면 왕장리 420-3",
    "lat": 37.12209138199302,
    "lng": 127.63920499931596,
    "region": "충청북도"
  },
  {
    "name": "대소면사무소 앞",
    "address": "충청북도 음성군 대소면 오류리 70-3",
    "lat": 36.97159722104517,
    "lng": 127.48343087702321,
    "region": "충청북도"
  },
  {
    "name": "감곡보건지소 앞",
    "address": "충청북도 음성군 감곡면 왕장리 529-1",
    "lat": 37.117651672547304,
    "lng": 127.63687634615769,
    "region": "충청북도"
  },
  {
    "name": "차평보건진료소 앞",
    "address": "충청북도 음성군 생극면 차평리 500-1",
    "lat": 37.053702548678885,
    "lng": 127.60373383864416,
    "region": "충청북도"
  },
  {
    "name": "선정보건진료소 앞",
    "address": "충청북도 음성군 삼성면 천평리 275",
    "lat": 36.98749488344854,
    "lng": 127.5052823019612,
    "region": "충청북도"
  },
  {
    "name": "대소내산진료소 앞",
    "address": "충청북도 음성군 대소면 내산리 483-7",
    "lat": 36.94940589926916,
    "lng": 127.44872141860745,
    "region": "충청북도"
  },
  {
    "name": "주봉보건진료소 앞",
    "address": "충청북도 음성군 원남면 주봉리 648",
    "lat": 36.87537289219027,
    "lng": 127.67487698437247,
    "region": "충청북도"
  },
  {
    "name": " 음성군보건소 앞",
    "address": "충청북도 음성군 음성읍 읍내리 406-4",
    "lat": 36.92853744859496,
    "lng": 127.6886982302831,
    "region": "충청북도"
  },
  {
    "name": "차평1리 회관 앞",
    "address": "충청북도 음성군 생극면 차평리 144-20",
    "lat": 37.0518054336198,
    "lng": 127.61453266728526,
    "region": "충청북도"
  },
  {
    "name": "팔성 2리 회관 앞",
    "address": "충청북도 음성군 생극면 팔성리 601-3",
    "lat": 37.04523828102687,
    "lng": 127.58663246534283,
    "region": "충청북도"
  },
  {
    "name": "미곡1리 회관 앞",
    "address": "충청북도 음성군 대소면 미곡리 92-8",
    "lat": 36.94002520025957,
    "lng": 127.48301502453467,
    "region": "충청북도"
  },
  {
    "name": " 마산2리 회관 앞",
    "address": "충청북도 음성군 맹동면 마산리 373-5",
    "lat": 36.934650087527466,
    "lng": 127.54873895413172,
    "region": "충청북도"
  },
  {
    "name": "선정3리 회관 앞",
    "address": "충청북도 음성군 삼성면 선정리 597-3",
    "lat": 36.99457695884009,
    "lng": 127.4998400312275,
    "region": "충청북도"
  },
  {
    "name": "상곡보건진료소 앞",
    "address": "충청북도 음성군 삼성면 상곡리 275-4",
    "lat": 37.004198809533975,
    "lng": 127.45883067090968,
    "region": "충청북도"
  },
  {
    "name": " 원남보건지소 앞",
    "address": "충청북도 음성군 원남면 보천리 374-3",
    "lat": 36.87530386143046,
    "lng": 127.64881926707531,
    "region": "충청북도"
  },
  {
    "name": "오산1리 회관 앞",
    "address": "충청북도 음성군 대소면 오산리 211-1",
    "lat": 36.9643631074894,
    "lng": 127.48331643078569,
    "region": "충청북도"
  },
  {
    "name": "봉현보건진료소 앞",
    "address": "충청북도 음성군 맹동면 봉현리 333",
    "lat": 36.93740332652127,
    "lng": 127.53460615255213,
    "region": "충청북도"
  },
  {
    "name": "명지초등학교  운동장",
    "address": "충청북도 제천시 명지동 46",
    "lat": 37.11844776230591,
    "lng": 128.2054072656209,
    "region": "충청북도"
  },
  {
    "name": "삼성 공용주차장 2",
    "address": "충청북도 음성군 삼성면 덕정리 535-16",
    "lat": 37.01924979822358,
    "lng": 127.49933476843842,
    "region": "충청북도"
  },
  {
    "name": "오생2리 회관 앞",
    "address": "충청북도 음성군 생극면 오생리 299",
    "lat": 37.005116527597494,
    "lng": 127.64763708601033,
    "region": "충청북도"
  },
  {
    "name": "삼성면 체육공원",
    "address": "충청북도 음성군 삼성면 덕정리 497-4",
    "lat": 37.02245169054234,
    "lng": 127.49112964108498,
    "region": "충청북도"
  },
  {
    "name": "쌍정1리 경로당 앞",
    "address": "충청북도 음성군 맹동면 쌍정리 69-5",
    "lat": 36.92619181103914,
    "lng": 127.5642137996019,
    "region": "충청북도"
  },
  {
    "name": "백운초등학교  운동장",
    "address": "충청북도 제천시 백운면 평동리 600",
    "lat": 37.14081072922553,
    "lng": 128.0203288793564,
    "region": "충청북도"
  },
  {
    "name": "송학중학교  운동장",
    "address": "충청북도 제천시 송학면 시곡리 1100-2",
    "lat": 37.1879980341844,
    "lng": 128.26508000524976,
    "region": "충청북도"
  },
  {
    "name": "내토중학교  운동장",
    "address": "충청북도 제천시 장락동 687-1",
    "lat": 37.144697223523515,
    "lng": 128.22220921702566,
    "region": "충청북도"
  },
  {
    "name": "내토초등학교  운동장",
    "address": "충청북도 제천시 신백동 132",
    "lat": 37.13408970311929,
    "lng": 128.22884463748372,
    "region": "충청북도"
  },
  {
    "name": "두학초등학교  운동장",
    "address": "충청북도 제천시 흑석동 436",
    "lat": 37.13440698489407,
    "lng": 128.24481763879191,
    "region": "충청북도"
  },
  {
    "name": "중앙초등학교  운동장",
    "address": "충청북도 제천시 청전동 625",
    "lat": 37.1529359302545,
    "lng": 128.21516361604836,
    "region": "충청북도"
  },
  {
    "name": "솔밭공원 주차장",
    "address": "충청북도 청주시 흥덕구 송정동 314",
    "lat": 36.64512269120877,
    "lng": 127.43230086114876,
    "region": "충청북도"
  },
  {
    "name": "대제중학교  운동장",
    "address": "충청북도 제천시 청전동 526-22",
    "lat": 37.147024579173646,
    "lng": 128.19997757635994,
    "region": "충청북도"
  },
  {
    "name": "제천동중학교  운동장",
    "address": "충청북도 제천시 신백동 21",
    "lat": 37.13273933412353,
    "lng": 128.23438922710355,
    "region": "충청북도"
  },
  {
    "name": "왕미초등학교  운동장",
    "address": "충청북도 제천시 봉양읍 미당리 757",
    "lat": 37.154959575475885,
    "lng": 128.1584250926972,
    "region": "충청북도"
  },
  {
    "name": "화산초등학교  운동장",
    "address": "충청북도 제천시 화산동 606",
    "lat": 37.12992586645327,
    "lng": 128.21351591162636,
    "region": "충청북도"
  },
  {
    "name": "세명대학교  운동장",
    "address": "충청북도 제천시 신월동 579",
    "lat": 37.17797091511795,
    "lng": 128.19447398185733,
    "region": "충청북도"
  },
  {
    "name": "주성초등학교 운동장",
    "address": "충청북도 청주시 상당구 영동 48-1",
    "lat": 36.64117289814761,
    "lng": 127.4852781519147,
    "region": "충청북도"
  },
  {
    "name": "대림초등학교 운동장",
    "address": "충청북도 충주시 문화동 181",
    "lat": 36.968698836946444,
    "lng": 127.91768342256547,
    "region": "충청북도"
  },
  {
    "name": "칠금4호 공원",
    "address": "충청북도 충주시 칠금동 965",
    "lat": 36.9814849775829,
    "lng": 127.92059630155563,
    "region": "충청북도"
  },
  {
    "name": "대가미공원",
    "address": "충청북도 충주시 교현동 714",
    "lat": 36.980679344860164,
    "lng": 127.92553424835206,
    "region": "충청북도"
  },
  {
    "name": "충주중앙중학교 운동장",
    "address": "충청북도 충주시 교현동 1088",
    "lat": 36.981532115403574,
    "lng": 127.93070554733275,
    "region": "충청북도"
  },
  {
    "name": "화당초등학교  운동장",
    "address": "충청북도 제천시 백운면 화당리 84-1",
    "lat": 37.16885301910598,
    "lng": 127.98660499690467,
    "region": "충청북도"
  },
  {
    "name": "송학초등학교  운동장",
    "address": "충청북도 제천시 송학면 시곡리 1164-2",
    "lat": 37.18544606180167,
    "lng": 128.2620978355408,
    "region": "충청북도"
  },
  {
    "name": "샛별초등학교 운동장",
    "address": "충청북도 청주시 서원구 산남동 1095",
    "lat": 36.60884476874845,
    "lng": 127.47188687324524,
    "region": "충청북도"
  },
  {
    "name": "형석고등학교 운동장",
    "address": "충청북도 증평군 증평읍 미암리 603",
    "lat": 36.79279093756006,
    "lng": 127.59314496391403,
    "region": "충청북도"
  },
  {
    "name": "대성여자중학교 운동장",
    "address": "충청북도 청주시 상당구 수동 398-1",
    "lat": 36.64433868930951,
    "lng": 127.49270081520082,
    "region": "충청북도"
  },
  {
    "name": "주성고등학교 운동장",
    "address": "충청북도 청주시 상당구 용담동 437",
    "lat": 36.634652583149055,
    "lng": 127.51052521843448,
    "region": "충청북도"
  },
  {
    "name": "남일초등학교 운동장",
    "address": "충청북도 청주시 상당구 남일면 쌍수리 321-33",
    "lat": 36.57579121575956,
    "lng": 127.51027236729324,
    "region": "충청북도"
  },
  {
    "name": "죽리초등학교 운동장",
    "address": "충청북도 증평군 증평읍 죽리 308",
    "lat": 36.75341575729222,
    "lng": 127.61213462596704,
    "region": "충청북도"
  },
  {
    "name": "성화중학교 운동장",
    "address": "충청북도 청주시 서원구 성화동 615",
    "lat": 36.61683993916343,
    "lng": 127.45939602480142,
    "region": "충청북도"
  },
  {
    "name": "개신초등학교 운동장",
    "address": "충청북도 청주시 서원구 개신동 637",
    "lat": 36.61977489401988,
    "lng": 127.44885907539086,
    "region": "충청북도"
  },
  {
    "name": "죽림초등학교 운동장",
    "address": "충청북도 청주시 서원구 죽림동 293",
    "lat": 36.612239853151124,
    "lng": 127.44324489862122,
    "region": "충청북도"
  },
  {
    "name": "청주종합경기장",
    "address": "충청북도 청주시 서원구 사직동 808",
    "lat": 36.63818307184125,
    "lng": 127.472121270665,
    "region": "충청북도"
  },
  {
    "name": "청주야구장",
    "address": "충청북도 청주시 서원구 사직동 888-1",
    "lat": 36.63869890704834,
    "lng": 127.4699914599597,
    "region": "충청북도"
  },
  {
    "name": "소태초등학교 운동장",
    "address": "충청북도 충주시 소태면 오량리 199",
    "lat": 37.11069125901165,
    "lng": 127.84698575735094,
    "region": "충청북도"
  },
  {
    "name": "엄정초등학교 운동장",
    "address": "충청북도 충주시 엄정면 미내리 157",
    "lat": 37.08703004072048,
    "lng": 127.91606124351146,
    "region": "충청북도"
  },
  {
    "name": "앙성초등학교 운동장",
    "address": "충청북도 충주시 앙성면 용대리 258-1",
    "lat": 37.106223385922306,
    "lng": 127.75753745316928,
    "region": "충청북도"
  },
  {
    "name": "수회초등학교 운동장",
    "address": "충청북도 충주시 수안보면 수회리 672",
    "lat": 36.878161655115,
    "lng": 127.97408223152159,
    "region": "충청북도"
  },
  {
    "name": "남한강초등학교 운동장",
    "address": "충청북도 충주시 호암동 1075",
    "lat": 36.954774564863094,
    "lng": 127.92950391769409,
    "region": "충청북도"
  },
  {
    "name": "의림지동주민센터 앞(비행장)",
    "address": "충청북도 제천시 고암동 1179-1",
    "lat": 37.16262173550178,
    "lng": 128.21505283747746,
    "region": "충청북도"
  },
  {
    "name": "동명초등학교 운동장",
    "address": "충청북도 제천시 천남동 9-45",
    "lat": 37.13333339366881,
    "lng": 128.1940202237496,
    "region": "충청북도"
  },
  {
    "name": "충주남산초등학교 운동장",
    "address": "충청북도 충주시 용산동 2109",
    "lat": 36.96019283885276,
    "lng": 127.93703824281693,
    "region": "충청북도"
  },
  {
    "name": "산척초등학교 운동장",
    "address": "충청북도 충주시 산척면 송강리 1282-1",
    "lat": 37.079275892486,
    "lng": 127.95784413814543,
    "region": "충청북도"
  },
  {
    "name": "충북생명산업고등학교 운동장",
    "address": "충청북도 보은군 보은읍 교사리 123",
    "lat": 36.4927371470732,
    "lng": 127.71696126243104,
    "region": "충청북도"
  },
  {
    "name": "동량초등학교 운동장",
    "address": "충청북도 충주시 동량면 조동리 1426-1",
    "lat": 37.02734268917388,
    "lng": 127.96550720930101,
    "region": "충청북도"
  },
  {
    "name": "주덕중학교 운동장",
    "address": "충청북도 충주시 주덕읍 신중리 130-3",
    "lat": 36.97176967808455,
    "lng": 127.78615593910219,
    "region": "충청북도"
  },
  {
    "name": "달천초등학교 매현분교 운동장",
    "address": "충청북도 충주시 대소원면 매현리 480",
    "lat": 36.90831763048118,
    "lng": 127.87070989608763,
    "region": "충청북도"
  },
  {
    "name": "용원초등학교 운동장",
    "address": "충청북도 충주시 신니면 용원리 245-3",
    "lat": 36.995972054503,
    "lng": 127.73537099361423,
    "region": "충청북도"
  },
  {
    "name": "충주교현초등학교 운동장",
    "address": "충청북도 충주시 교현동 339-1",
    "lat": 36.974079691855984,
    "lng": 127.93667614459991,
    "region": "충청북도"
  },
  {
    "name": "충주예성여자중학교 운동장",
    "address": "충청북도 충주시 호암동 532-2",
    "lat": 36.9571151007666,
    "lng": 127.92891919612883,
    "region": "충청북도"
  },
  {
    "name": "충주금릉초등학교 운동장",
    "address": "충청북도 충주시 금릉동 31-5",
    "lat": 36.993945486586995,
    "lng": 127.93042123317717,
    "region": "충청북도"
  },
  {
    "name": "수안보초등학교 운동장",
    "address": "충청북도 충주시 수안보면 안보리 598",
    "lat": 36.84435341664667,
    "lng": 127.99941837787627,
    "region": "충청북도"
  },
  {
    "name": "용산초등학교 운동장",
    "address": "충청북도 충주시 용산동 1671",
    "lat": 36.9623167485098,
    "lng": 127.9440897703171,
    "region": "충청북도"
  },
  {
    "name": "광혜원중학교운동장",
    "address": "충청북도 진천군 광혜원면 광혜원리 520",
    "lat": 36.9911592269821,
    "lng": 127.44014319893827,
    "region": "충청북도"
  },
  {
    "name": "청산초등학교 운동장",
    "address": "충청북도 옥천군 청산면 지전리 34",
    "lat": 36.34654769201468,
    "lng": 127.79337376356125,
    "region": "충청북도"
  }
]