[
  {
    "name": "미리내공원",
    "address": "대구광역시 달성군 화원읍 본리리 113-3",
    "lat": 35.80280460703621,
    "lng": 128.50976838967148,
    "region": "대구광역시"
  },
  {
    "name": "나무놀이터",
    "address": "대구광역시 달성군 화원읍 천내리 110",
    "lat": 35.80656371135822,
    "lng": 128.49592359650003,
    "region": "대구광역시"
  },
  {
    "name": "세현초등학교 운동장",
    "address": "대구광역시 달성군 구지면 창리 1446",
    "lat": 35.659546197294766,
    "lng": 128.4199781464263,
    "region": "대구광역시"
  },
  {
    "name": "율금초등학교(운동장) ",
    "address": "대구광역시 동구 율하동 1403",
    "lat": 35.861786259148786,
    "lng": 128.6920281702349,
    "region": "대구광역시"
  },
  {
    "name": "안심중학교(운동장)",
    "address": "대구광역시 동구 서호동 121",
    "lat": 35.866984840891284,
    "lng": 128.71029545674594,
    "region": "대구광역시"
  },
  {
    "name": "율원중학교(운동장)",
    "address": "대구광역시 동구 율하동 1623",
    "lat": 35.86138808517041,
    "lng": 128.70185351792406,
    "region": "대구광역시"
  },
  {
    "name": "정동고등학교(운동장)",
    "address": "대구광역시 동구 용계동 산38-4",
    "lat": 35.87722490700513,
    "lng": 128.69407740915068,
    "region": "대구광역시"
  },
  {
    "name": "조일로봇고등학교(운동장)",
    "address": "대구광역시 동구 신평동 50",
    "lat": 35.88174276696115,
    "lng": 128.69479741445502,
    "region": "대구광역시"
  },
  {
    "name": "신암선열공원",
    "address": "대구광역시 동구 신암동 산27-1",
    "lat": 35.89184915737465,
    "lng": 128.6313507417279,
    "region": "대구광역시"
  },
  {
    "name": "불로고분공원",
    "address": "대구광역시 동구 불로동 산4",
    "lat": 35.91365235239408,
    "lng": 128.64877112519613,
    "region": "대구광역시"
  },
  {
    "name": "신서중앙공원",
    "address": "대구광역시 동구 신서동 1185",
    "lat": 35.87985340290693,
    "lng": 128.73077630996747,
    "region": "대구광역시"
  },
  {
    "name": "내서초등학교",
    "address": "대구광역시 서구 내당동 11-33",
    "lat": 35.864128371659056,
    "lng": 128.5666088177947,
    "region": "대구광역시"
  },
  {
    "name": "이현초등학교",
    "address": "대구광역시 서구 평리동 1500",
    "lat": 35.87319555942155,
    "lng": 128.55048169204582,
    "region": "대구광역시"
  },
  {
    "name": "북비산초등학교",
    "address": "대구광역시 서구 비산동 786-1",
    "lat": 35.8816794557637,
    "lng": 128.5641015119632,
    "region": "대구광역시"
  },
  {
    "name": "지산공원",
    "address": "대구광역시 수성구 지산동 1274",
    "lat": 35.82125441913961,
    "lng": 128.63806457533468,
    "region": "대구광역시"
  },
  {
    "name": "선돌마당공원",
    "address": "대구광역시 달서구 월암동 1163",
    "lat": 35.82255002404392,
    "lng": 128.51567746050856,
    "region": "대구광역시"
  },
  {
    "name": "동도초등학교",
    "address": "대구광역시 수성구 범어동 784-2",
    "lat": 35.856558492508576,
    "lng": 128.624114692266,
    "region": "대구광역시"
  },
  {
    "name": "범어초등학교",
    "address": "대구광역시 수성구 범어동 154",
    "lat": 35.86072283718551,
    "lng": 128.63294273614912,
    "region": "대구광역시"
  },
  {
    "name": "동천초등학교",
    "address": "대구광역시 수성구 범어동 9",
    "lat": 35.86531155103141,
    "lng": 128.62521708011656,
    "region": "대구광역시"
  },
  {
    "name": "경동초등학교",
    "address": "대구광역시 수성구 범어동 89",
    "lat": 35.85265698347569,
    "lng": 128.6393362284801,
    "region": "대구광역시"
  },
  {
    "name": "중앙초등학교",
    "address": "대구광역시 수성구 만촌동 1425",
    "lat": 35.8697297394891,
    "lng": 128.64077210426362,
    "region": "대구광역시"
  },
  {
    "name": "동문고등학교",
    "address": "대구광역시 수성구 만촌동 82-4",
    "lat": 35.8767,
    "lng": 128.6512,
    "region": "대구광역시"
  },
  {
    "name": "대륜중학교",
    "address": "대구광역시 수성구 만촌동 산241",
    "lat": 35.8527,
    "lng": 128.6545,
    "region": "대구광역시"
  },
  {
    "name": "경신중.고등학교",
    "address": "대구광역시 수성구 범어동 100-5",
    "lat": 35.8549,
    "lng": 128.6374,
    "region": "대구광역시"
  },
  {
    "name": "소선여자중학교",
    "address": "대구광역시 수성구 만촌동 862-17",
    "lat": 35.852436684565674,
    "lng": 128.64977180957825,
    "region": "대구광역시"
  },
  {
    "name": "오성중.고등학교",
    "address": "대구광역시 수성구 만촌동 1070",
    "lat": 35.85434833731592,
    "lng": 128.64532291900136,
    "region": "대구광역시"
  },
  {
    "name": "동중학교",
    "address": "대구광역시 수성구 수성동2가 119-4",
    "lat": 35.85778745708932,
    "lng": 128.6162191629958,
    "region": "대구광역시"
  },
  {
    "name": "중앙중.고등학교",
    "address": "대구광역시 수성구 수성동4가 1145-1",
    "lat": 35.86723665951679,
    "lng": 128.6165571212771,
    "region": "대구광역시"
  },
  {
    "name": "황금초등학교",
    "address": "대구광역시 수성구 황금동 820",
    "lat": 35.84314878759134,
    "lng": 128.61832201491808,
    "region": "대구광역시"
  },
  {
    "name": "황금중학교",
    "address": "대구광역시 수성구 황금동 821",
    "lat": 35.84313139346128,
    "lng": 128.61955225478624,
    "region": "대구광역시"
  },
  {
    "name": "신천초등학교(운동장)",
    "address": "대구광역시 동구 신천동 185-1",
    "lat": 35.87136939598286,
    "lng": 128.62068929902117,
    "region": "대구광역시"
  },
  {
    "name": "대구과학고등학교",
    "address": "대구광역시 수성구 황금동 613",
    "lat": 35.8452,
    "lng": 128.6259,
    "region": "대구광역시"
  },
  {
    "name": "삼육초등학교",
    "address": "대구광역시 수성구 중동 410-1",
    "lat": 35.839765566150334,
    "lng": 128.6104515195168,
    "region": "대구광역시"
  },
  {
    "name": "신천둔치공원",
    "address": "대구광역시 남구 봉덕동 1617-1",
    "lat": 35.84032560191086,
    "lng": 128.60647228176867,
    "region": "대구광역시"
  },
  {
    "name": "봉삼공영주차장",
    "address": "대구광역시 남구 봉덕동 687-8",
    "lat": 35.8427058692706,
    "lng": 128.59710848984273,
    "region": "대구광역시"
  },
  {
    "name": "성명공원",
    "address": "대구광역시 남구 대명동 3038-1",
    "lat": 35.847733725587325,
    "lng": 128.57131399356834,
    "region": "대구광역시"
  },
  {
    "name": "중앙공원",
    "address": "대구광역시 남구 대명동 1046",
    "lat": 35.83780717451316,
    "lng": 128.56782138347648,
    "region": "대구광역시"
  },
  {
    "name": "관문공원",
    "address": "대구광역시 남구 대명동 1180-1",
    "lat": 35.83636118074179,
    "lng": 128.56095761060737,
    "region": "대구광역시"
  },
  {
    "name": "앵두마을공원",
    "address": "대구광역시 남구 대명동 1224-8",
    "lat": 35.84411255360196,
    "lng": 128.5721940333288,
    "region": "대구광역시"
  },
  {
    "name": "명덕공원",
    "address": "대구광역시 남구 대명동 152",
    "lat": 35.84306572155668,
    "lng": 128.58793304442628,
    "region": "대구광역시"
  },
  {
    "name": "백합공원 ",
    "address": "대구광역시 남구 대명동 1540",
    "lat": 35.83283572212544,
    "lng": 128.56389710789915,
    "region": "대구광역시"
  },
  {
    "name": "대명공원",
    "address": "대구광역시 남구 대명동 1827",
    "lat": 35.85517443534223,
    "lng": 128.58664780855202,
    "region": "대구광역시"
  },
  {
    "name": "영선공원",
    "address": "대구광역시 남구 대명동 2003-1",
    "lat": 35.85390667915113,
    "lng": 128.59189928301993,
    "region": "대구광역시"
  },
  {
    "name": "명동공원",
    "address": "대구광역시 남구 대명동 2254",
    "lat": 35.85306681633811,
    "lng": 128.57765172533917,
    "region": "대구광역시"
  },
  {
    "name": "대명2공원",
    "address": "대구광역시 남구 대명동 328",
    "lat": 35.84489914771495,
    "lng": 128.5835776534387,
    "region": "대구광역시"
  },
  {
    "name": "대덕공원",
    "address": "대구광역시 남구 대명동 444-1",
    "lat": 35.83849002595834,
    "lng": 128.5817935216027,
    "region": "대구광역시"
  },
  {
    "name": "안지랑공원 ",
    "address": "대구광역시 남구 대명동 895",
    "lat": 35.83821896599798,
    "lng": 128.57419346695275,
    "region": "대구광역시"
  },
  {
    "name": "목련공원",
    "address": "대구광역시 남구 봉덕동 1005-4",
    "lat": 35.84362798668775,
    "lng": 128.59137774234628,
    "region": "대구광역시"
  },
  {
    "name": "봉덕공원",
    "address": "대구광역시 남구 봉덕동 592-9",
    "lat": 35.84603052420457,
    "lng": 128.5933135369288,
    "region": "대구광역시"
  },
  {
    "name": "남구 구민체육광장",
    "address": "대구광역시 남구 봉덕동 1272-1",
    "lat": 35.83244837241255,
    "lng": 128.60010452549133,
    "region": "대구광역시"
  },
  {
    "name": "동신초등학교(운동장) ",
    "address": "대구광역시 동구 신암동 487",
    "lat": 35.877741103048606,
    "lng": 128.61532256696765,
    "region": "대구광역시"
  },
  {
    "name": "효신초등학교(운동장) ",
    "address": "대구광역시 동구 신천동 490",
    "lat": 35.872507984052476,
    "lng": 128.63228795191864,
    "region": "대구광역시"
  },
  {
    "name": "지묘초등학교(운동장) ",
    "address": "대구광역시 동구 지묘동 546",
    "lat": 35.942829061948636,
    "lng": 128.63827313130884,
    "region": "대구광역시"
  },
  {
    "name": "불로초등학교(운동장) ",
    "address": "대구광역시 동구 불로동 1017",
    "lat": 35.89719351097459,
    "lng": 128.6327031185684,
    "region": "대구광역시"
  },
  {
    "name": "입석초등학교(운동장) ",
    "address": "대구광역시 동구 입석동 943-12",
    "lat": 35.890552089809724,
    "lng": 128.64351344149225,
    "region": "대구광역시"
  },
  {
    "name": "신매공원",
    "address": "대구광역시 수성구 신매동 590",
    "lat": 35.832923157423785,
    "lng": 128.70916015033924,
    "region": "대구광역시"
  },
  {
    "name": "수성근린공원",
    "address": "대구광역시 수성구 수성동4가 1090-15",
    "lat": 35.860643615780845,
    "lng": 128.61486946104998,
    "region": "대구광역시"
  },
  {
    "name": "해안초등학교(운동장)",
    "address": "대구광역시 동구 부동 643-1",
    "lat": 35.895886372667924,
    "lng": 128.68285439634118,
    "region": "대구광역시"
  },
  {
    "name": "삼덕초등학교 운동장",
    "address": "대구광역시 중구 삼덕동3가 316",
    "lat": 35.8636,
    "lng": 128.6078,
    "region": "대구광역시"
  },
  {
    "name": "경북여자고등학교 운동장",
    "address": "대구광역시 중구 남산동 714-2",
    "lat": 35.85846639108029,
    "lng": 128.59288527551195,
    "region": "대구광역시"
  },
  {
    "name": "종로초등학교 운동장",
    "address": "대구광역시 중구 서문로1가 1-5",
    "lat": 35.872050590715254,
    "lng": 128.5899769022425,
    "region": "대구광역시"
  },
  {
    "name": "명덕초등학교 운동장",
    "address": "대구광역시 중구 남산동 2113",
    "lat": 35.85795829058778,
    "lng": 128.58950142688286,
    "region": "대구광역시"
  },
  {
    "name": "범물공원",
    "address": "대구광역시 수성구 범물동 1328-2",
    "lat": 35.81857211281149,
    "lng": 128.6432910586316,
    "region": "대구광역시"
  },
  {
    "name": "경북대학교 부설초등학교 운동장",
    "address": "대구광역시 중구 봉산동 162",
    "lat": 35.86384375724845,
    "lng": 128.5981449483774,
    "region": "대구광역시"
  },
  {
    "name": "경북공업고등학교 운동장",
    "address": "대구광역시 중구 남산동 2380-5",
    "lat": 35.858028767151616,
    "lng": 128.58381884598597,
    "region": "대구광역시"
  },
  {
    "name": "국채보상기념공원",
    "address": "대구광역시 중구 동인동2가 78",
    "lat": 35.86886901629768,
    "lng": 128.60264182090782,
    "region": "대구광역시"
  },
  {
    "name": "산격중학교 운동장",
    "address": "대구광역시 북구 산격동 500-136",
    "lat": 35.902338835997526,
    "lng": 128.60907558038676,
    "region": "대구광역시"
  },
  {
    "name": "북대구초등학교 운동장",
    "address": "대구광역시 북구 산격동 283",
    "lat": 35.903791237810964,
    "lng": 128.60991308581282,
    "region": "대구광역시"
  },
  {
    "name": "경진초등학교 운동장",
    "address": "대구광역시 북구 복현동 447",
    "lat": 35.891722559364524,
    "lng": 128.61808446804005,
    "region": "대구광역시"
  },
  {
    "name": "태전초등학교 운동장",
    "address": "대구광역시 북구 태전동 957",
    "lat": 35.929806678008966,
    "lng": 128.54595887723676,
    "region": "대구광역시"
  },
  {
    "name": "강북고등학교 운동장",
    "address": "대구광역시 북구 태전동 324",
    "lat": 35.929478926675465,
    "lng": 128.5410017581472,
    "region": "대구광역시"
  },
  {
    "name": "대구과학대학 운동장",
    "address": "대구광역시 북구 태전동 산9-1",
    "lat": 35.92974123078804,
    "lng": 128.54253847795894,
    "region": "대구광역시"
  },
  {
    "name": "신암초등학교 운동장",
    "address": "대구광역시 북구 대현동 1-2",
    "lat": 35.8834361605668,
    "lng": 128.61255061423986,
    "region": "대구광역시"
  },
  {
    "name": "대산초등학교 운동장",
    "address": "대구광역시 북구 산격동 789-4",
    "lat": 35.89663949297073,
    "lng": 128.59388721655986,
    "region": "대구광역시"
  },
  {
    "name": "칠곡초등학교 운동장",
    "address": "대구광역시 북구 읍내동 794",
    "lat": 35.9450629185499,
    "lng": 128.5515243827938,
    "region": "대구광역시"
  },
  {
    "name": "칠곡중학교 운동장",
    "address": "대구광역시 북구 읍내동 538",
    "lat": 35.94785987758706,
    "lng": 128.55116432478573,
    "region": "대구광역시"
  },
  {
    "name": "교동초등학교 운동장",
    "address": "대구광역시 북구 읍내동 1305",
    "lat": 35.944599414159256,
    "lng": 128.54946275404782,
    "region": "대구광역시"
  },
  {
    "name": "영진전문대학 운동장",
    "address": "대구광역시 북구 복현동 218",
    "lat": 35.89595390511687,
    "lng": 128.622042332892,
    "region": "대구광역시"
  },
  {
    "name": "영진고등학교 운동장",
    "address": "대구광역시 북구 복현동 332-1",
    "lat": 35.89410588935577,
    "lng": 128.62238126253231,
    "region": "대구광역시"
  },
  {
    "name": "대구북중학교 운동장",
    "address": "대구광역시 북구 복현동 219-1",
    "lat": 35.897569553446075,
    "lng": 128.62051738507867,
    "region": "대구광역시"
  },
  {
    "name": "복현초등학교 운동장",
    "address": "대구광역시 북구 복현동 225",
    "lat": 35.89779977428838,
    "lng": 128.6216577956368,
    "region": "대구광역시"
  },
  {
    "name": "성화중학교 운동장",
    "address": "대구광역시 북구 복현동 540-1",
    "lat": 35.903164148035096,
    "lng": 128.61925415968403,
    "region": "대구광역시"
  },
  {
    "name": "성화여자고등학교 운동장",
    "address": "대구광역시 북구 복현동 540-1",
    "lat": 35.90236027672407,
    "lng": 128.6192395294977,
    "region": "대구광역시"
  },
  {
    "name": "문성초등학교 운동장",
    "address": "대구광역시 북구 복현동 33",
    "lat": 35.90516443842355,
    "lng": 128.6201842275627,
    "region": "대구광역시"
  },
  {
    "name": "경상고등학교 운동장",
    "address": "대구광역시 북구 복현동 105",
    "lat": 35.90177660721637,
    "lng": 128.6225839900288,
    "region": "대구광역시"
  },
  {
    "name": "경상여자고등학교 운동장",
    "address": "대구광역시 북구 침산동 810-1",
    "lat": 35.89924638934062,
    "lng": 128.58775799380373,
    "region": "대구광역시"
  },
  {
    "name": "구암초등학교 운동장",
    "address": "대구광역시 북구 구암동 694-1",
    "lat": 35.92798303327831,
    "lng": 128.55798028640967,
    "region": "대구광역시"
  },
  {
    "name": "강북초등학교 운동장",
    "address": "대구광역시 북구 구암동 785-1",
    "lat": 35.94054163207153,
    "lng": 128.5666570496846,
    "region": "대구광역시"
  },
  {
    "name": "구암중학교 운동장",
    "address": "대구광역시 북구 구암동 694-2",
    "lat": 35.92733010240426,
    "lng": 128.55713000472494,
    "region": "대구광역시"
  },
  {
    "name": "강북중학교 운동장",
    "address": "대구광역시 북구 구암동 787-1",
    "lat": 35.938714591216545,
    "lng": 128.56493366261245,
    "region": "대구광역시"
  },
  {
    "name": "운암중학교 운동장",
    "address": "대구광역시 북구 구암동 801",
    "lat": 35.932539178725776,
    "lng": 128.56515405333923,
    "region": "대구광역시"
  },
  {
    "name": "구암고등학교 운동장",
    "address": "대구광역시 북구 구암동 672",
    "lat": 35.92576095024056,
    "lng": 128.55317894002397,
    "region": "대구광역시"
  },
  {
    "name": "함지고등학교 운동장",
    "address": "대구광역시 북구 구암동 488-3",
    "lat": 35.92810169944845,
    "lng": 128.56051812762843,
    "region": "대구광역시"
  },
  {
    "name": "학남초등학교 운동장",
    "address": "대구광역시 북구 국우동 1079-1",
    "lat": 35.94591658122483,
    "lng": 128.56633402441656,
    "region": "대구광역시"
  },
  {
    "name": "학정초등학교 운동장",
    "address": "대구광역시 북구 학정동 985",
    "lat": 35.94820408481832,
    "lng": 128.56909192840422,
    "region": "대구광역시"
  },
  {
    "name": "학남중학교 운동장",
    "address": "대구광역시 북구 국우동 1085",
    "lat": 35.94535473165713,
    "lng": 128.57038549267824,
    "region": "대구광역시"
  },
  {
    "name": "대구체육중고등학교 운동장",
    "address": "대구광역시 북구 동호동 463-2",
    "lat": 35.95811942869762,
    "lng": 128.55816499646315,
    "region": "대구광역시"
  },
  {
    "name": "대구일중학교 운동장",
    "address": "대구광역시 북구 침산동 400-4",
    "lat": 35.88614671421434,
    "lng": 128.5849868732026,
    "region": "대구광역시"
  },
  {
    "name": "달산초등학교 운동장",
    "address": "대구광역시 북구 침산동 402",
    "lat": 35.887782226095375,
    "lng": 128.5854080055223,
    "region": "대구광역시"
  },
  {
    "name": "산격초등학교 운동장",
    "address": "대구광역시 북구 산격동 1409",
    "lat": 35.894238481184885,
    "lng": 128.6071662837206,
    "region": "대구광역시"
  },
  {
    "name": "새싹어린이공원",
    "address": "대구광역시 달서구 상인동 1534",
    "lat": 35.81647719008698,
    "lng": 128.5474353767546,
    "region": "대구광역시"
  },
  {
    "name": "송림어린이공원",
    "address": "대구광역시 달서구 상인동 1543",
    "lat": 35.81601902686838,
    "lng": 128.54911202219776,
    "region": "대구광역시"
  },
  {
    "name": "달배어린이공원",
    "address": "대구광역시 달서구 상인동 1404",
    "lat": 35.816822668251106,
    "lng": 128.53726126134973,
    "region": "대구광역시"
  },
  {
    "name": "민들레어린이공원",
    "address": "대구광역시 달서구 상인동 1429-1",
    "lat": 35.81494484950941,
    "lng": 128.53667326441087,
    "region": "대구광역시"
  },
  {
    "name": "해바라기공원",
    "address": "대구광역시 달서구 상인동 1442",
    "lat": 35.81494991356331,
    "lng": 128.5332871224408,
    "region": "대구광역시"
  },
  {
    "name": "감성테마공원",
    "address": "대구광역시 달서구 상인동 1461",
    "lat": 35.81064563580608,
    "lng": 128.5355667697723,
    "region": "대구광역시"
  },
  {
    "name": "월배공원",
    "address": "대구광역시 달서구 상인동 1421-22",
    "lat": 35.81260629489081,
    "lng": 128.53756401900054,
    "region": "대구광역시"
  },
  {
    "name": "매화공원",
    "address": "대구광역시 달서구 상인동 1109-10",
    "lat": 35.810992033395095,
    "lng": 128.5442964890465,
    "region": "대구광역시"
  },
  {
    "name": "유림공원",
    "address": "대구광역시 달서구 상인동 1549",
    "lat": 35.81426378650123,
    "lng": 128.54911215529424,
    "region": "대구광역시"
  },
  {
    "name": "서광공원",
    "address": "대구광역시 달서구 상인동 1557-1",
    "lat": 35.812225385709425,
    "lng": 128.54639112267012,
    "region": "대구광역시"
  },
  {
    "name": "월촌공원",
    "address": "대구광역시 달서구 상인동 1559",
    "lat": 35.812789010188744,
    "lng": 128.54925313374605,
    "region": "대구광역시"
  },
  {
    "name": "비둘기어린이공원",
    "address": "대구광역시 달서구 상인동 1563-1",
    "lat": 35.81017695453627,
    "lng": 128.55259022167684,
    "region": "대구광역시"
  },
  {
    "name": "당산어린이공원",
    "address": "대구광역시 달서구 상인동 1569",
    "lat": 35.810502774223316,
    "lng": 128.5482137070259,
    "region": "대구광역시"
  },
  {
    "name": "채정공원",
    "address": "대구광역시 달서구 상인동 1581",
    "lat": 35.80949434746746,
    "lng": 128.55012651792916,
    "region": "대구광역시"
  },
  {
    "name": "은행어린이공원",
    "address": "대구광역시 달서구 상인동 1589",
    "lat": 35.8069552755174,
    "lng": 128.55148956772462,
    "region": "대구광역시"
  },
  {
    "name": "장미공원",
    "address": "대구광역시 달서구 상인동 1592-3",
    "lat": 35.80785265518982,
    "lng": 128.5549293826456,
    "region": "대구광역시"
  },
  {
    "name": "송경공공공지",
    "address": "대구광역시 달서구 송현동 794-2",
    "lat": 35.82544078946952,
    "lng": 128.54888782508823,
    "region": "대구광역시"
  },
  {
    "name": "대남전원공원",
    "address": "대구광역시 달서구 송현동 1955-1",
    "lat": 35.82296042998388,
    "lng": 128.55026229841667,
    "region": "대구광역시"
  },
  {
    "name": "치영어린이공원",
    "address": "대구광역시 달서구 송현동 1966-5",
    "lat": 35.824452262537726,
    "lng": 128.55277946642576,
    "region": "대구광역시"
  },
  {
    "name": "송지어린이공원",
    "address": "대구광역시 달서구 송현동 1977",
    "lat": 35.82627627521177,
    "lng": 128.55569764437874,
    "region": "대구광역시"
  },
  {
    "name": "솔밭공원",
    "address": "대구광역시 달서구 송현동 1982-1",
    "lat": 35.82921684910909,
    "lng": 128.55356462213857,
    "region": "대구광역시"
  },
  {
    "name": "장관어린이공원",
    "address": "대구광역시 달서구 송현동 1993-2",
    "lat": 35.82896047624612,
    "lng": 128.5569766930534,
    "region": "대구광역시"
  },
  {
    "name": "토끼와거북이공원",
    "address": "대구광역시 달서구 송현동 147",
    "lat": 35.832992049029656,
    "lng": 128.55207000719145,
    "region": "대구광역시"
  },
  {
    "name": "구암어린이공원",
    "address": "대구광역시 달서구 송현동 1918-2",
    "lat": 35.826660645432156,
    "lng": 128.54661985885394,
    "region": "대구광역시"
  },
  {
    "name": "한실들어린이공원",
    "address": "대구광역시 달서구 도원동 1429-3",
    "lat": 35.80825400744837,
    "lng": 128.5336699968248,
    "region": "대구광역시"
  },
  {
    "name": "사계절어린이공원",
    "address": "대구광역시 달서구 도원동 1438-2",
    "lat": 35.8082033631344,
    "lng": 128.53835811977922,
    "region": "대구광역시"
  },
  {
    "name": "가람어린이공원",
    "address": "대구광역시 달서구 도원동 1439-3",
    "lat": 35.80760886993178,
    "lng": 128.54126807109978,
    "region": "대구광역시"
  },
  {
    "name": "아람어린이공원",
    "address": "대구광역시 달서구 도원동 1440-2",
    "lat": 35.80591786623268,
    "lng": 128.52992726534652,
    "region": "대구광역시"
  },
  {
    "name": "별모람어린이공원",
    "address": "대구광역시 달서구 도원동 1441-2",
    "lat": 35.804825408453645,
    "lng": 128.53261572537238,
    "region": "대구광역시"
  },
  {
    "name": "별메어린이공원",
    "address": "대구광역시 달서구 도원동 1442-4",
    "lat": 35.805632763551266,
    "lng": 128.53405797825573,
    "region": "대구광역시"
  },
  {
    "name": "강산어린이공원",
    "address": "대구광역시 달서구 도원동 1443-1",
    "lat": 35.80512582673932,
    "lng": 128.53801215654968,
    "region": "대구광역시"
  },
  {
    "name": "미리샘어린이공원",
    "address": "대구광역시 달서구 도원동 1444-3",
    "lat": 35.805089140319176,
    "lng": 128.5417577838297,
    "region": "대구광역시"
  },
  {
    "name": "도원어린이공원",
    "address": "대구광역시 달서구 도원동 1451",
    "lat": 35.80686349335344,
    "lng": 128.54570233439796,
    "region": "대구광역시"
  },
  {
    "name": "산새어린이공원",
    "address": "대구광역시 달서구 도원동 1457-1",
    "lat": 35.804068322616466,
    "lng": 128.53222198908068,
    "region": "대구광역시"
  },
  {
    "name": "둥지어린이공원",
    "address": "대구광역시 달서구 도원동 1461",
    "lat": 35.80260948539553,
    "lng": 128.53650109958883,
    "region": "대구광역시"
  },
  {
    "name": "월광수변공원",
    "address": "대구광역시 달서구 도원동 898-1",
    "lat": 35.799271679574815,
    "lng": 128.54823052883162,
    "region": "대구광역시"
  },
  {
    "name": "애화어린이공원",
    "address": "대구광역시 달서구 본동 616-3",
    "lat": 35.83387637765626,
    "lng": 128.53434537581148,
    "region": "대구광역시"
  },
  {
    "name": "한마음어린이공원",
    "address": "대구광역시 달서구 본동 616-3",
    "lat": 35.83388657070478,
    "lng": 128.53456036313588,
    "region": "대구광역시"
  },
  {
    "name": "피터팬공원",
    "address": "대구광역시 달서구 본동 790",
    "lat": 35.83586857820249,
    "lng": 128.53967449363859,
    "region": "대구광역시"
  },
  {
    "name": "성당중학교 운동장",
    "address": "대구광역시 달서구 본리동 166-16",
    "lat": 35.84024020977602,
    "lng": 128.5479634977457,
    "region": "대구광역시"
  },
  {
    "name": "경화여자고등학교 운동장",
    "address": "대구광역시 달서구 성당동 670-29",
    "lat": 35.84790012923861,
    "lng": 128.54768872261064,
    "region": "대구광역시"
  },
  {
    "name": "남부초등학교 운동장",
    "address": "대구광역시 달서구 성당동 660",
    "lat": 35.84497578802509,
    "lng": 128.54998535074142,
    "region": "대구광역시"
  },
  {
    "name": "해올고등학교 운동장",
    "address": "대구광역시 달서구 성당동 434-1",
    "lat": 35.841318766744095,
    "lng": 128.5536179572279,
    "region": "대구광역시"
  },
  {
    "name": "성남초등학교 운동장",
    "address": "대구광역시 달서구 두류동 812-1",
    "lat": 35.853136634655485,
    "lng": 128.57237167968304,
    "region": "대구광역시"
  },
  {
    "name": "내당초등학교 운동장",
    "address": "대구광역시 달서구 두류동 1202-1",
    "lat": 35.860460857618676,
    "lng": 128.5725764695465,
    "region": "대구광역시"
  },
  {
    "name": "구남중학교 운동장",
    "address": "대구광역시 달서구 두류동 1207-1",
    "lat": 35.85837721451128,
    "lng": 128.57298756579405,
    "region": "대구광역시"
  },
  {
    "name": "신흥초등학교 운동장",
    "address": "대구광역시 달서구 두류동 472-1",
    "lat": 35.85597273973265,
    "lng": 128.55722192967264,
    "region": "대구광역시"
  },
  {
    "name": "덕인초등학교 운동장",
    "address": "대구광역시 달서구 본리동 407-1",
    "lat": 35.8387180342019,
    "lng": 128.53492531413636,
    "region": "대구광역시"
  },
  {
    "name": "새본리중학교 운동장",
    "address": "대구광역시 달서구 본리동 330-1",
    "lat": 35.83941208778872,
    "lng": 128.54106903215668,
    "region": "대구광역시"
  },
  {
    "name": "제일여자상업고등학교",
    "address": "대구광역시 달서구 본리동 156-1",
    "lat": 35.840236219265115,
    "lng": 128.5467039303044,
    "region": "대구광역시"
  },
  {
    "name": "성당초등학교 운동장",
    "address": "대구광역시 달서구 본리동 166-1",
    "lat": 35.84018776336168,
    "lng": 128.547257062711,
    "region": "대구광역시"
  },
  {
    "name": "본리초등학교 운동장",
    "address": "대구광역시 달서구 감삼동 338",
    "lat": 35.844253624209784,
    "lng": 128.53862131418106,
    "region": "대구광역시"
  },
  {
    "name": "감삼초등학교 운동장",
    "address": "대구광역시 달서구 감삼동 196-1",
    "lat": 35.84894122502073,
    "lng": 128.54522201044142,
    "region": "대구광역시"
  },
  {
    "name": "죽전초등학교 운동장",
    "address": "대구광역시 달서구 죽전동 174-1",
    "lat": 35.857622986098676,
    "lng": 128.539859639298,
    "region": "대구광역시"
  },
  {
    "name": "죽전동 행정복지센터",
    "address": "대구광역시 달서구 죽전동 176",
    "lat": 35.85757034661886,
    "lng": 128.53895067214174,
    "region": "대구광역시"
  },
  {
    "name": "장기초등학교 운동장",
    "address": "대구광역시 달서구 장기동 813-3",
    "lat": 35.844393821296045,
    "lng": 128.52904387683955,
    "region": "대구광역시"
  },
  {
    "name": "장동초등학교 운동장",
    "address": "대구광역시 달서구 장기동 533-4",
    "lat": 35.844742,
    "lng": 128.531952,
    "region": "대구광역시"
  },
  {
    "name": "대구전자공업고등학교 운동장",
    "address": "대구광역시 달서구 장기동 464-10",
    "lat": 35.848012,
    "lng": 128.529962,
    "region": "대구광역시"
  },
  {
    "name": "용전초등학교 운동장",
    "address": "대구광역시 달서구 용산동 913",
    "lat": 35.86115367049804,
    "lng": 128.53118241323128,
    "region": "대구광역시"
  },
  {
    "name": "용산초등학교 운동장",
    "address": "대구광역시 달서구 용산동 880",
    "lat": 35.85547036815242,
    "lng": 128.53218190509918,
    "region": "대구광역시"
  },
  {
    "name": "장성초등학교 운동장",
    "address": "대구광역시 달서구 장기동 48",
    "lat": 35.850857569665216,
    "lng": 128.52318109517554,
    "region": "대구광역시"
  },
  {
    "name": "장산초등학교 운동장",
    "address": "대구광역시 달서구 용산동 957",
    "lat": 35.85482249386116,
    "lng": 128.52648474624303,
    "region": "대구광역시"
  },
  {
    "name": "성서중학교 운동장",
    "address": "대구광역시 달서구 용산동 948",
    "lat": 35.855791702772656,
    "lng": 128.5265681561961,
    "region": "대구광역시"
  },
  {
    "name": "용산중학교 운동장",
    "address": "대구광역시 달서구 용산동 888",
    "lat": 35.854262443916745,
    "lng": 128.53231153137133,
    "region": "대구광역시"
  },
  {
    "name": "성서고등학교 운동장",
    "address": "대구광역시 달서구 용산동 501-1",
    "lat": 35.859832,
    "lng": 128.516135,
    "region": "대구광역시"
  },
  {
    "name": "성산초등학교 운동장",
    "address": "대구광역시 달서구 용산동 419-4",
    "lat": 35.85786188493075,
    "lng": 128.51875299506156,
    "region": "대구광역시"
  },
  {
    "name": "성산중학교 운동장",
    "address": "대구광역시 달서구 용산동 416-4",
    "lat": 35.85673003559525,
    "lng": 128.51867426882168,
    "region": "대구광역시"
  },
  {
    "name": "송일초등학교 운동장",
    "address": "대구광역시 달서구 월성동 500-3",
    "lat": 35.823889302114054,
    "lng": 128.53319037703423,
    "region": "대구광역시"
  },
  {
    "name": "월암초등학교 운동장",
    "address": "대구광역시 달서구 월성동 755",
    "lat": 35.82830855142249,
    "lng": 128.52199931405625,
    "region": "대구광역시"
  },
  {
    "name": "월암중학교 운동장",
    "address": "대구광역시 달서구 월성동 774-1",
    "lat": 35.82688973618357,
    "lng": 128.52406714907107,
    "region": "대구광역시"
  },
  {
    "name": "조암초등학교 운동장",
    "address": "대구광역시 달서구 월성동 572",
    "lat": 35.82383189166902,
    "lng": 128.52869456552054,
    "region": "대구광역시"
  },
  {
    "name": "조암중학교 운동장",
    "address": "대구광역시 달서구 월성동 1150-1",
    "lat": 35.8229573084181,
    "lng": 128.52448973607892,
    "region": "대구광역시"
  },
  {
    "name": "신월초등학교 운동장",
    "address": "대구광역시 달서구 월성동 1351",
    "lat": 35.82028912343398,
    "lng": 128.52291399765133,
    "region": "대구광역시"
  },
  {
    "name": "월서중학교 운동장",
    "address": "대구광역시 달서구 월성동 1317",
    "lat": 35.8194887192889,
    "lng": 128.52675884569135,
    "region": "대구광역시"
  },
  {
    "name": "한샘초등학교 운동장",
    "address": "대구광역시 달서구 대천동 467",
    "lat": 35.81669429362128,
    "lng": 128.51919757499246,
    "region": "대구광역시"
  },
  {
    "name": "학산초등학교 운동장",
    "address": "대구광역시 달서구 월성동 82-1",
    "lat": 35.83075987621031,
    "lng": 128.526421496457,
    "region": "대구광역시"
  },
  {
    "name": "월성초등학교 운동장",
    "address": "대구광역시 달서구 월성동 280",
    "lat": 35.83064551461704,
    "lng": 128.5319539634535,
    "region": "대구광역시"
  },
  {
    "name": "감천초등학교 운동장",
    "address": "대구광역시 달서구 월성동 269",
    "lat": 35.83490834753221,
    "lng": 128.5331588132864,
    "region": "대구광역시"
  },
  {
    "name": "대건고등학교 운동장",
    "address": "대구광역시 달서구 월성동 247",
    "lat": 35.83308017389549,
    "lng": 128.52910603105892,
    "region": "대구광역시"
  },
  {
    "name": "학산중학교 운동장",
    "address": "대구광역시 달서구 월성동 82",
    "lat": 35.83173497503206,
    "lng": 128.52555589531772,
    "region": "대구광역시"
  },
  {
    "name": "월배초등학교 운동장",
    "address": "대구광역시 달서구 진천동 57-1",
    "lat": 35.81667716824407,
    "lng": 128.52839679902118,
    "region": "대구광역시"
  },
  {
    "name": "진천초등학교 운동장",
    "address": "대구광역시 달서구 진천동 687-5",
    "lat": 35.8113178438774,
    "lng": 128.51949439570973,
    "region": "대구광역시"
  },
  {
    "name": "진월초등학교 운동장",
    "address": "대구광역시 달서구 진천동 253-9",
    "lat": 35.810732106943526,
    "lng": 128.52835077834982,
    "region": "대구광역시"
  },
  {
    "name": "대진초등학교 운동장",
    "address": "대구광역시 달서구 대곡동 1025",
    "lat": 35.80667272194512,
    "lng": 128.52176502554644,
    "region": "대구광역시"
  },
  {
    "name": "유천초등학교 운동장",
    "address": "대구광역시 달서구 유천동 327-1",
    "lat": 35.81200018629821,
    "lng": 128.51262949587047,
    "region": "대구광역시"
  },
  {
    "name": "용천초등학교 운동장",
    "address": "대구광역시 달서구 유천동 620",
    "lat": 35.81935098978624,
    "lng": 128.51298549809772,
    "region": "대구광역시"
  },
  {
    "name": "한솔초등학교 운동장",
    "address": "대구광역시 달서구 유천동 609",
    "lat": 35.816379232989725,
    "lng": 128.51570838808996,
    "region": "대구광역시"
  },
  {
    "name": "월배중학교 운동장",
    "address": "대구광역시 달서구 진천동 811",
    "lat": 35.81359810857439,
    "lng": 128.53209851735681,
    "region": "대구광역시"
  },
  {
    "name": "대진중학교 운동장",
    "address": "대구광역시 달서구 대곡동 1036-1",
    "lat": 35.80547926201456,
    "lng": 128.51971928073542,
    "region": "대구광역시"
  },
  {
    "name": "대진고등학교 운동장",
    "address": "대구광역시 달서구 대곡동 1036",
    "lat": 35.805405215056254,
    "lng": 128.51837999503084,
    "region": "대구광역시"
  },
  {
    "name": "월서초등학교 운동장",
    "address": "대구광역시 달서구 상인동 123-1",
    "lat": 35.82138153203848,
    "lng": 128.53228273989754,
    "region": "대구광역시"
  },
  {
    "name": "영남고등학교 운동장",
    "address": "대구광역시 달서구 상인동 70",
    "lat": 35.82067798583578,
    "lng": 128.5383033688612,
    "region": "대구광역시"
  },
  {
    "name": "월촌초등학교 운동장",
    "address": "대구광역시 달서구 상인동 1519",
    "lat": 35.815882916982886,
    "lng": 128.54360169407707,
    "region": "대구광역시"
  },
  {
    "name": "대서초등학교 운동장",
    "address": "대구광역시 달서구 상인동 860-1",
    "lat": 35.82014855449812,
    "lng": 128.55027440156456,
    "region": "대구광역시"
  },
  {
    "name": "상원고등학교 운동장",
    "address": "대구광역시 달서구 상인동 1",
    "lat": 35.82210822983208,
    "lng": 128.53894851847664,
    "region": "대구광역시"
  },
  {
    "name": "상인초등학교 운동장",
    "address": "대구광역시 달서구 상인동 481",
    "lat": 35.81338421724987,
    "lng": 128.54221535507597,
    "region": "대구광역시"
  },
  {
    "name": "상원초등학교 운동장",
    "address": "대구광역시 달서구 상인동 1588",
    "lat": 35.806480559754036,
    "lng": 128.55088534943505,
    "region": "대구광역시"
  },
  {
    "name": "월곡초등학교 운동장",
    "address": "대구광역시 달서구 상인동 1560",
    "lat": 35.81193692291338,
    "lng": 128.54948915488194,
    "region": "대구광역시"
  },
  {
    "name": "상인중학교 운동장",
    "address": "대구광역시 달서구 상인동 1561",
    "lat": 35.81108344180754,
    "lng": 128.55054804263722,
    "region": "대구광역시"
  },
  {
    "name": "상인고등학교 운동장",
    "address": "대구광역시 달서구 상인동 1562",
    "lat": 35.810368108739326,
    "lng": 128.55195551061678,
    "region": "대구광역시"
  },
  {
    "name": "대남초등학교 운동장",
    "address": "대구광역시 달서구 송현동 1961",
    "lat": 35.823970455114676,
    "lng": 128.5516509554662,
    "region": "대구광역시"
  },
  {
    "name": "송���초등학교 운동장",
    "address": "대구광역시 달서구 송현동 1908",
    "lat": 35.82843075343138,
    "lng": 128.5449225404755,
    "region": "대구광역시"
  },
  {
    "name": "노전초등학교 운동장",
    "address": "대구광역시 달서구 도원동 1428-3",
    "lat": 35.80789118481677,
    "lng": 128.53117009873185,
    "region": "대구광역시"
  },
  {
    "name": "대곡중학교 운동장",
    "address": "대구광역시 달서구 도원동 1441",
    "lat": 35.8063270646191,
    "lng": 128.5326416983335,
    "region": "대구광역시"
  },
  {
    "name": "대구교대부설초등학교 운동장",
    "address": "대구광역시 달서구 도원동 1441-1",
    "lat": 35.80553613904451,
    "lng": 128.53274334617203,
    "region": "대구광역시"
  },
  {
    "name": "대곡초등학교 운동장",
    "address": "대구광역시 달서구 도원동 1458",
    "lat": 35.80325900919782,
    "lng": 128.53565523663787,
    "region": "대구광역시"
  },
  {
    "name": "대곡고등학교 운동장",
    "address": "대구광역시 달서구 도원동 1459",
    "lat": 35.80339278763444,
    "lng": 128.53734046895258,
    "region": "대구광역시"
  },
  {
    "name": "도원초등학교 운동장",
    "address": "대구광역시 달서구 도원동 1455",
    "lat": 35.80481561427788,
    "lng": 128.5422360002931,
    "region": "대구광역시"
  },
  {
    "name": "도원중학교 운동장",
    "address": "대구광역시 달서구 도원동 1452",
    "lat": 35.806293203176224,
    "lng": 128.54487686626635,
    "region": "대구광역시"
  },
  {
    "name": "도원고등학교 운동장",
    "address": "대구광역시 달서구 도원동 1453",
    "lat": 35.805617585612715,
    "lng": 128.54545705071016,
    "region": "대구광역시"
  },
  {
    "name": "대구공업대학 운동장",
    "address": "대구광역시 달서구 본동 831",
    "lat": 35.83457148670298,
    "lng": 128.54315473147958,
    "region": "대구광역시"
  },
  {
    "name": "남송초등학교 운동장",
    "address": "대구광역시 달서구 본동 275-1",
    "lat": 35.8345519489151,
    "lng": 128.5453751828638,
    "region": "대구광역시"
  },
  {
    "name": "대구광역시 종합복지회관 주차장",
    "address": "대구광역시 달서구 성당동 72-10",
    "lat": 35.85022946954285,
    "lng": 128.5705053804781,
    "region": "대구광역시"
  },
  {
    "name": "두류1·2동 제1공영주차장",
    "address": "대구광역시 달서구 두류동 1252-4",
    "lat": 35.85572940098921,
    "lng": 128.5696357019618,
    "region": "대구광역시"
  },
  {
    "name": "두류쉼터 주차장",
    "address": "대구광역시 달서구 두류동 832-5",
    "lat": 35.85670346111284,
    "lng": 128.57242283396755,
    "region": "대구광역시"
  },
  {
    "name": "진천동행정복지센터 주차장",
    "address": "대구광역시 달서구 진천동 626-31",
    "lat": 35.811990683117116,
    "lng": 128.52267032732195,
    "region": "대구광역시"
  },
  {
    "name": "송현2동공영주차장",
    "address": "대구광역시 달서구 송현동 496-1",
    "lat": 35.832218118928765,
    "lng": 128.547580907994,
    "region": "대구광역시"
  },
  {
    "name": "성당천체공원",
    "address": "대구광역시 달서구 성당동 497",
    "lat": 35.84180115725372,
    "lng": 128.5518245383884,
    "region": "대구광역시"
  },
  {
    "name": "성당소공원",
    "address": "대구광역시 달서구 성당동 599-5",
    "lat": 35.841355343734016,
    "lng": 128.5453544905643,
    "region": "대구광역시"
  },
  {
    "name": "성당1동놀이터",
    "address": "대구광역시 달서구 성당동 84-4",
    "lat": 35.85142126065431,
    "lng": 128.5695148148701,
    "region": "대구광역시"
  },
  {
    "name": "능금어린이공원",
    "address": "대구광역시 달서구 두류동 1213",
    "lat": 35.859569512699416,
    "lng": 128.5709560048011,
    "region": "대구광역시"
  },
  {
    "name": "두류1동 놀이터",
    "address": "대구광역시 달서구 두류동 804-256",
    "lat": 35.85759564254231,
    "lng": 128.57112642338384,
    "region": "대구광역시"
  },
  {
    "name": "상록어린이공원",
    "address": "대구광역시 달서구 두류동 140-2",
    "lat": 35.85701727697971,
    "lng": 128.55992490454432,
    "region": "대구광역시"
  },
  {
    "name": "희망어린이공원",
    "address": "대구광역시 달서구 두류동 496-11",
    "lat": 35.85474436152865,
    "lng": 128.55193379817376,
    "region": "대구광역시"
  },
  {
    "name": "본리어린이공원",
    "address": "대구광역시 달서구 본리동 88-4",
    "lat": 35.840210942280095,
    "lng": 128.54112159876124,
    "region": "대구광역시"
  },
  {
    "name": "무지개공원",
    "address": "대구광역시 달서구 본리동 1205",
    "lat": 35.84075675413458,
    "lng": 128.52886633128455,
    "region": "대구광역시"
  },
  {
    "name": "구마공원",
    "address": "대구광역시 달서구 본리동 1212-1",
    "lat": 35.83882818588987,
    "lng": 128.52923211016574,
    "region": "대구광역시"
  },
  {
    "name": "감삼삼각지어린이공원",
    "address": "대구광역시 달서구 감삼동 123",
    "lat": 35.84983915538454,
    "lng": 128.54560226327038,
    "region": "대구광역시"
  },
  {
    "name": "감삼어린이공원",
    "address": "대구광역시 달서구 감삼동 165-2",
    "lat": 35.84873321953036,
    "lng": 128.53982582217103,
    "region": "대구광역시"
  },
  {
    "name": "곤충공원",
    "address": "대구광역시 달서구 감삼동 295-8",
    "lat": 35.84528138706619,
    "lng": 128.54277950710642,
    "region": "대구광역시"
  },
  {
    "name": "대림어린이공원",
    "address": "대구광역시 달서구 죽전동 253-1",
    "lat": 35.85223321012975,
    "lng": 128.53903909270153,
    "region": "대구광역시"
  },
  {
    "name": "거인나라어린이공원",
    "address": "대구광역시 달서구 죽전동 261-2",
    "lat": 35.85261716013346,
    "lng": 128.53490740526647,
    "region": "대구광역시"
  },
  {
    "name": "춘추어린이공원",
    "address": "대구광역시 달서구 죽전동 376-4",
    "lat": 35.85489766746603,
    "lng": 128.53594547815632,
    "region": "대구광역시"
  },
  {
    "name": "초록어린이공원",
    "address": "대구광역시 달서구 장기동 813-2",
    "lat": 35.84476180200357,
    "lng": 128.5285276034653,
    "region": "대구광역시"
  },
  {
    "name": "파랑새공원",
    "address": "대구광역시 달서구 장기동 814-2",
    "lat": 35.84639044539318,
    "lng": 128.52741010920312,
    "region": "대구광역시"
  },
  {
    "name": "길우공원",
    "address": "대구광역시 달서구 장기동 825-5",
    "lat": 35.842325479579436,
    "lng": 128.52823692386337,
    "region": "대구광역시"
  },
  {
    "name": "용산미로공원",
    "address": "대구광역시 달서구 용산동 873",
    "lat": 35.85638609206826,
    "lng": 128.53296536298302,
    "region": "대구광역시"
  },
  {
    "name": "선원공원",
    "address": "대구광역시 달서구 용산동 505-2",
    "lat": 35.861110842249325,
    "lng": 128.5177203394726,
    "region": "대구광역시"
  },
  {
    "name": "목련어린이공원",
    "address": "대구광역시 달서구 이곡동 1240",
    "lat": 35.855697334025955,
    "lng": 128.50804175776676,
    "region": "대구광역시"
  },
  {
    "name": "이곡생수공원",
    "address": "대구광역시 달서구 이곡동 1301-2",
    "lat": 35.85432522558442,
    "lng": 128.51466680501358,
    "region": "대구광역시"
  },
  {
    "name": "공룡어린이공원",
    "address": "대구광역시 달서구 용산동 892-2",
    "lat": 35.85375045768602,
    "lng": 128.53373141548337,
    "region": "대구광역시"
  },
  {
    "name": "용산어린이공원",
    "address": "대구광역시 달서구 용산동 911-1",
    "lat": 35.86047452524977,
    "lng": 128.52887358095546,
    "region": "대구광역시"
  },
  {
    "name": "용전공원",
    "address": "대구광역시 달서구 용산동 918-1",
    "lat": 35.860051491534186,
    "lng": 128.52887597321234,
    "region": "대구광역시"
  },
  {
    "name": "큰못공원",
    "address": "대구광역시 달서구 용산동 922-1",
    "lat": 35.85980886980821,
    "lng": 128.52621244489853,
    "region": "대구광역시"
  },
  {
    "name": "장산공원",
    "address": "대구광역시 달서구 용산동 940-7",
    "lat": 35.856352997082126,
    "lng": 128.52495529888793,
    "region": "대구광역시"
  },
  {
    "name": "샘골어린이공원",
    "address": "대구광역시 달서구 용산동 952",
    "lat": 35.85515910316415,
    "lng": 128.53146647513017,
    "region": "대구광역시"
  },
  {
    "name": "보람공원",
    "address": "대구광역시 달서구 용산동 410-1",
    "lat": 35.851978575867086,
    "lng": 128.5181395764115,
    "region": "대구광역시"
  },
  {
    "name": "성지공원",
    "address": "대구광역시 달서구 용산동 412-2",
    "lat": 35.85331697109431,
    "lng": 128.51776589930319,
    "region": "대구광역시"
  },
  {
    "name": "용주공원",
    "address": "대구광역시 달서구 용산동 414-3",
    "lat": 35.85398875236955,
    "lng": 128.518179114859,
    "region": "대구광역시"
  },
  {
    "name": "성산어린이공원",
    "address": "대구광역시 달서구 용산동 416-2",
    "lat": 35.85669631542505,
    "lng": 128.51783476774096,
    "region": "대구광역시"
  },
  {
    "name": "한마음어린이공원",
    "address": "대구광역시 달서구 용산동 419-2",
    "lat": 35.85737284232685,
    "lng": 128.51784835693604,
    "region": "대구광역시"
  },
  {
    "name": "용하공원",
    "address": "대구광역시 달서구 용산동 423",
    "lat": 35.85398685882332,
    "lng": 128.52169327199036,
    "region": "대구광역시"
  },
  {
    "name": "새동네공원",
    "address": "대구광역시 달서구 용산동 459-1",
    "lat": 35.857048660803045,
    "lng": 128.52229748847842,
    "region": "대구광역시"
  },
  {
    "name": "병풍바위공원",
    "address": "대구광역시 달서구 용산동 517",
    "lat": 35.861463719214576,
    "lng": 128.52103451921556,
    "region": "대구광역시"
  },
  {
    "name": "용산본공원",
    "address": "대구광역시 달서구 용산동 564-1",
    "lat": 35.86044612850097,
    "lng": 128.52364508584876,
    "region": "대구광역시"
  },
  {
    "name": "서촌공원",
    "address": "대구광역시 달서구 용산동 582",
    "lat": 35.859223399137555,
    "lng": 128.52256731616416,
    "region": "대구광역시"
  },
  {
    "name": "이곡정자공원",
    "address": "대구광역시 달서구 이곡동 1304-6",
    "lat": 35.85612361127101,
    "lng": 128.51467225542896,
    "region": "대구광역시"
  },
  {
    "name": "미소어린이공원",
    "address": "대구광역시 달서구 이곡동 1306-3",
    "lat": 35.85747542096646,
    "lng": 128.51022219510241,
    "region": "대구광역시"
  },
  {
    "name": "이곡장미공원",
    "address": "대구광역시 달서구 이곡동 1306-6",
    "lat": 35.85793191064648,
    "lng": 128.51470849179918,
    "region": "대구광역시"
  },
  {
    "name": "불미골공원",
    "address": "대구광역시 달서구 이곡동 1327",
    "lat": 35.861111970337205,
    "lng": 128.5093604058292,
    "region": "대구광역시"
  },
  {
    "name": "팔달초등학교 운동장",
    "address": "대구광역시 북구 팔달동 73-4",
    "lat": 35.897936141026264,
    "lng": 128.54481998973137,
    "region": "대구광역시"
  },
  {
    "name": "관문초등학교 운동장",
    "address": "대구광역시 북구 매천동 743",
    "lat": 35.90834988518445,
    "lng": 128.54600150429707,
    "region": "대구광역시"
  },
  {
    "name": "팔달중학교 운동장",
    "address": "대구광역시 북구 팔달동 74-3",
    "lat": 35.8987320818412,
    "lng": 128.54474507158415,
    "region": "대구광역시"
  },
  {
    "name": "서변초등학교 운동장",
    "address": "대구광역시 북구 서변동 1749",
    "lat": 35.92032862994276,
    "lng": 128.5949966177476,
    "region": "대구광역시"
  },
  {
    "name": "서변중학교 운동장",
    "address": "대구광역시 북구 서변동 1730",
    "lat": 35.92594532550594,
    "lng": 128.59566108975307,
    "region": "대구광역시"
  },
  {
    "name": "동변초등학교 운동장",
    "address": "대구광역시 북구 동변동 694",
    "lat": 35.91882732991132,
    "lng": 128.60440687080253,
    "region": "대구광역시"
  },
  {
    "name": "조야초등학교 운동장",
    "address": "대구광역시 북구 조야동 102-1",
    "lat": 35.90928761320839,
    "lng": 128.57754933011591,
    "region": "대구광역시"
  },
  {
    "name": "관음공원운동장",
    "address": "대구광역시 북구 관음동 1372",
    "lat": 35.93582346086653,
    "lng": 128.5453813091606,
    "region": "대구광역시"
  },
  {
    "name": "침산공원 야외공연장",
    "address": "대구광역시 북구 침산동 1332-2",
    "lat": 35.8955196645745,
    "lng": 128.5845614327778,
    "region": "대구광역시"
  },
  {
    "name": "침산중학교 운동장",
    "address": "대구광역시 북구 침산동 354-1",
    "lat": 35.889222052385385,
    "lng": 128.5890858654369,
    "region": "대구광역시"
  },
  {
    "name": "침산초등학교 운동장",
    "address": "대구광역시 북구 침산동 465",
    "lat": 35.89095702389305,
    "lng": 128.58595020401918,
    "region": "대구광역시"
  },
  {
    "name": "매천공원",
    "address": "대구광역시 북구 매천동 671",
    "lat": 35.909311751596285,
    "lng": 128.54495183972958,
    "region": "대구광역시"
  },
  {
    "name": "새터공원",
    "address": "대구광역시 북구 금호동 879",
    "lat": 35.89529651776471,
    "lng": 128.523278579825,
    "region": "대구광역시"
  },
  {
    "name": "내곡근린공원",
    "address": "대구광역시 북구 사수동 788",
    "lat": 35.903099648533164,
    "lng": 128.51331476970853,
    "region": "대구광역시"
  },
  {
    "name": "금호(근린)공원",
    "address": "대구광역시 북구 금호동 815",
    "lat": 35.89579649875213,
    "lng": 128.52033852836277,
    "region": "대구광역시"
  },
  {
    "name": "용강어린이공원",
    "address": "대구광역시 달서구 이곡동 1342-1",
    "lat": 35.861816663804596,
    "lng": 128.5139319094965,
    "region": "대구광역시"
  },
  {
    "name": "꿈터어린이공원",
    "address": "대구광역시 달서구 이곡동 1349-7",
    "lat": 35.85982360428886,
    "lng": 128.5132682626314,
    "region": "대구광역시"
  },
  {
    "name": "이곡어린이공원",
    "address": "대구광역시 달서구 이곡동 1304-2",
    "lat": 35.856766277729385,
    "lng": 128.51261840356582,
    "region": "대구광역시"
  },
  {
    "name": "선원공원",
    "address": "대구광역시 달서구 이곡동 1343-3",
    "lat": 35.862061241522305,
    "lng": 128.5154153075364,
    "region": "대구광역시"
  },
  {
    "name": "칠성초등학교 운동장",
    "address": "대구광역시 북구 침산동 211",
    "lat": 35.88617907219916,
    "lng": 128.5939568328669,
    "region": "대구광역시"
  },
  {
    "name": "매천중학교 운동장",
    "address": "대구광역시 북구 태전동 1128",
    "lat": 35.91051696054316,
    "lng": 128.5474600626343,
    "region": "대구광역시"
  },
  {
    "name": "매천고등학교 운동장",
    "address": "대구광역시 북구 태전동 1127",
    "lat": 35.911521880294934,
    "lng": 128.54745908387216,
    "region": "대구광역시"
  },
  {
    "name": "태암초등학교 운동장",
    "address": "대구광역시 북구 태전동 1076-8",
    "lat": 35.923088483195585,
    "lng": 128.55034632284395,
    "region": "대구광역시"
  },
  {
    "name": "경명여고 운동장",
    "address": "대구광역시 북구 칠성동2가 411",
    "lat": 35.88010915794997,
    "lng": 128.5989824111334,
    "region": "대구광역시"
  },
  {
    "name": "칠성고등학교 운동장",
    "address": "대구광역시 북구 칠성동2가 168-13",
    "lat": 35.88065149510357,
    "lng": 128.59113230192858,
    "region": "대구광역시"
  },
  {
    "name": "관음초등학교 운동장",
    "address": "대구광역시 북구 관음동 1340-1",
    "lat": 35.94009390920125,
    "lng": 128.54650191982836,
    "region": "대구광역시"
  },
  {
    "name": "관음중학교 운동장",
    "address": "대구광역시 북구 관음동 1340",
    "lat": 35.94088094918828,
    "lng": 128.54655047528948,
    "region": "대구광역시"
  },
  {
    "name": "북구구민운동장",
    "address": "대구광역시 북구 국우동 1104",
    "lat": 35.944949911699624,
    "lng": 128.57399697058088,
    "region": "대구광역시"
  },
  {
    "name": "함지초등학교 운동장",
    "address": "대구광역시 북구 동천동 949",
    "lat": 35.934582696871594,
    "lng": 128.55794779713224,
    "region": "대구광역시"
  },
  {
    "name": "북부초등학교 운동장",
    "address": "대구광역시 북구 동천동 880",
    "lat": 35.93323657664926,
    "lng": 128.55910516188843,
    "region": "대구광역시"
  },
  {
    "name": "사수초등학교 운동장",
    "address": "대구광역시 북구 사수동 814",
    "lat": 35.900739137173595,
    "lng": 128.51580247143596,
    "region": "대구광역시"
  },
  {
    "name": "대구초등학교 운동장",
    "address": "대구광역시 중구 봉산동 57",
    "lat": 35.8636682672171,
    "lng": 128.59573654079043,
    "region": "대구광역시"
  },
  {
    "name": "계성중학교 운동장",
    "address": "대구광역시 중구 대신동 277-1",
    "lat": 35.86736518667649,
    "lng": 128.58083478880187,
    "region": "대구광역시"
  },
  {
    "name": "맑음공원",
    "address": "대구광역시 수성구 두산동 149-11",
    "lat": 35.8335115,
    "lng": 128.6182,
    "region": "대구광역시"
  },
  {
    "name": "동산초등학교",
    "address": "대구광역시 수성구 범어동 678-3",
    "lat": 35.84904588759649,
    "lng": 128.62767487764387,
    "region": "대구광역시"
  },
  {
    "name": "대구여자고등학교",
    "address": "대구광역시 수성구 범어동 238-41",
    "lat": 35.8571,
    "lng": 128.6304,
    "region": "대구광역시"
  },
  {
    "name": "동도중학교",
    "address": "대구광역시 수성구 범어동 336",
    "lat": 35.848956749494555,
    "lng": 128.63964557647733,
    "region": "대구광역시"
  },
  {
    "name": "정화중.여자고등학교",
    "address": "대구광역시 수성구 범어동 산105-1",
    "lat": 35.8494,
    "lng": 128.6411,
    "region": "대구광역시"
  },
  {
    "name": "동문초등학교",
    "address": "대구광역시 수성구 만촌동 262",
    "lat": 35.87455628167323,
    "lng": 128.65191042434193,
    "region": "대구광역시"
  },
  {
    "name": "동부중학교",
    "address": "대구광역시 수성구 만촌동 645-1",
    "lat": 35.872093057524566,
    "lng": 128.64440739165764,
    "region": "대구광역시"
  },
  {
    "name": "포산중학교운동장",
    "address": "대구광역시 달성군 유가읍 봉리 598",
    "lat": 35.695987598983514,
    "lng": 128.45853238981113,
    "region": "대구광역시"
  },
  {
    "name": "죽곡초등학교운동장",
    "address": "대구광역시 달성군 다사읍 죽곡리 189",
    "lat": 35.85673199494974,
    "lng": 128.46316835937924,
    "region": "대구광역시"
  },
  {
    "name": "달서고등학교운동장",
    "address": "대구광역시 달성군 하빈면 감문리 815",
    "lat": 35.886387293233604,
    "lng": 128.422244932359,
    "region": "대구광역시"
  },
  {
    "name": "다사체육공원축구장",
    "address": "대구광역시 달성군 다사읍 이천리 25",
    "lat": 35.890907910990045,
    "lng": 128.4779266831876,
    "region": "대구광역시"
  },
  {
    "name": "왕선초등학교운동장",
    "address": "대구광역시 달성군 다사읍 매곡리 1542",
    "lat": 35.863102895171025,
    "lng": 128.4655805338967,
    "region": "대구광역시"
  },
  {
    "name": "용계초등학교운동장",
    "address": "대구광역시 달성군 가창면 용계리 7",
    "lat": 35.803560068965496,
    "lng": 128.6214038893189,
    "region": "대구광역시"
  },
  {
    "name": "현풍테니스장",
    "address": "대구광역시 달성군 현풍읍 성하리 725-48",
    "lat": 35.69662601796091,
    "lng": 128.43653959555874,
    "region": "대구광역시"
  },
  {
    "name": "가창초등학교운동장",
    "address": "대구광역시 달성군 가창면 냉천리 815-1",
    "lat": 35.77056051051676,
    "lng": 128.64793643758802,
    "region": "대구광역시"
  },
  {
    "name": "동곡초등학교운동장",
    "address": "대구광역시 달성군 하빈면 동곡리 142",
    "lat": 35.87927800479295,
    "lng": 128.4180797832878,
    "region": "대구광역시"
  },
  {
    "name": "매곡초등학교운동장",
    "address": "대구광역시 달성군 다사읍 매곡리 1536",
    "lat": 35.862109210878415,
    "lng": 128.46891113189156,
    "region": "대구광역시"
  },
  {
    "name": "북동초등학교운동장",
    "address": "대구광역시 달성군 논공읍 남리 1119",
    "lat": 35.72971250790414,
    "lng": 128.43961698827104,
    "region": "대구광역시"
  },
  {
    "name": "화동초등학교운동장",
    "address": "대구광역시 달성군 화원읍 본리리 104-1",
    "lat": 35.79983779812246,
    "lng": 128.50965794655326,
    "region": "대구광역시"
  },
  {
    "name": "달성중학교운동장",
    "address": "대구광역시 달성군 화원읍 명곡리 261",
    "lat": 35.800019061550394,
    "lng": 128.4937577699014,
    "region": "대구광역시"
  },
  {
    "name": "구지초등학교운동장",
    "address": "대구광역시 달성군 구지면 창리 385",
    "lat": 35.660390199420846,
    "lng": 128.41053097361956,
    "region": "대구광역시"
  },
  {
    "name": "신평리시장 공영주차장",
    "address": "대구광역시 서구 평리동 1206-1",
    "lat": 35.86798439966401,
    "lng": 128.56095547470252,
    "region": "대구광역시"
  },
  {
    "name": "비산공원",
    "address": "대구광역시 서구 비산동 1036",
    "lat": 35.88774480558481,
    "lng": 128.56857278832976,
    "region": "대구광역시"
  },
  {
    "name": "이현공원",
    "address": "대구광역시 서구 이현동 산28-12",
    "lat": 35.87334641354285,
    "lng": 128.54354202747365,
    "region": "대구광역시"
  },
  {
    "name": "도림초등학교운동장",
    "address": "대구광역시 달성군 다사읍 서재리 32",
    "lat": 35.87794786133067,
    "lng": 128.50014907585296,
    "region": "대구광역시"
  },
  {
    "name": "비봉초등학교",
    "address": "대구광역시 서구 비산동 705-1",
    "lat": 35.88299670534353,
    "lng": 128.56861094224146,
    "region": "대구광역시"
  },
  {
    "name": "금포초등학교운동장",
    "address": "대구광역시 달성군 논공읍 금포리 1496",
    "lat": 35.774355289817265,
    "lng": 128.425636685705,
    "region": "대구광역시"
  },
  {
    "name": "천내초등학교운동장",
    "address": "대구광역시 달성군 화원읍 구라리 1557",
    "lat": 35.80954656655131,
    "lng": 128.50203004257915,
    "region": "대구광역시"
  },
  {
    "name": "화원중학교운동장",
    "address": "대구광역시 달성군 화원읍 본리리 104-2",
    "lat": 35.79863745035614,
    "lng": 128.5095917915619,
    "region": "대구광역시"
  },
  {
    "name": "서대구중학교",
    "address": "대구광역시 서구 평리동 509",
    "lat": 35.8799105327804,
    "lng": 128.556671373781,
    "region": "대구광역시"
  },
  {
    "name": "경운공원",
    "address": "대구광역시 서구 내당동 252-4",
    "lat": 35.86193343682441,
    "lng": 128.5551699691529,
    "region": "대구광역시"
  },
  {
    "name": "남산초등학교 운동장",
    "address": "대구광역시 중구 남산동 122",
    "lat": 35.86280310576512,
    "lng": 128.58353692068914,
    "region": "대구광역시"
  },
  {
    "name": "계성초등학교 운동장",
    "address": "대구광역시 중구 대신동 280-2",
    "lat": 35.86566644641498,
    "lng": 128.58086337681473,
    "region": "대구광역시"
  },
  {
    "name": "경상감영공원",
    "address": "대구광역시 중구 포정동 21",
    "lat": 35.87224490378961,
    "lng": 128.59211863914416,
    "region": "대구광역시"
  },
  {
    "name": "군민운동장",
    "address": "대구광역시 달성군 논공읍 북리 1",
    "lat": 35.72974335602328,
    "lng": 128.44976813232205,
    "region": "대구광역시"
  },
  {
    "name": "명곡초등학교운동장",
    "address": "대구광역시 달성군 화원읍 명곡리 132",
    "lat": 35.796336951503115,
    "lng": 128.49603666029782,
    "region": "대구광역시"
  },
  {
    "name": "비슬초등학교운동장",
    "address": "대구광역시 달성군 유가읍 봉리 597",
    "lat": 35.69606487284153,
    "lng": 128.45734247420006,
    "region": "대구광역시"
  },
  {
    "name": "희망어린이공원",
    "address": "대구광역시 수성구 상동 17",
    "lat": 35.83951089821656,
    "lng": 128.6154930427142,
    "region": "대구광역시"
  },
  {
    "name": "관계지공원",
    "address": "대구광역시 수성구 범물동 1367",
    "lat": 35.8144459,
    "lng": 128.639973,
    "region": "대구광역시"
  },
  {
    "name": "날뫼공원",
    "address": "대구광역시 서구 평리동 656-1",
    "lat": 35.88027075654416,
    "lng": 128.56567556225536,
    "region": "대구광역시"
  },
  {
    "name": "세천초등학교운동장",
    "address": "대구광역시 달성군 다사읍 세천리 1586",
    "lat": 35.874342858973876,
    "lng": 128.48188402250878,
    "region": "대구광역시"
  },
  {
    "name": "수목어린이공원",
    "address": "대구광역시 수성구 황금동 721",
    "lat": 35.8492304,
    "lng": 128.617976,
    "region": "대구광역시"
  },
  {
    "name": "명곡인라인스케이트장",
    "address": "대구광역시 달성군 화원읍 명곡리 57",
    "lat": 35.79787875320305,
    "lng": 128.50384322487815,
    "region": "대구광역시"
  },
  {
    "name": "서재초등학교운동장",
    "address": "대구광역시 달성군 다사읍 서재리 262",
    "lat": 35.872121647028955,
    "lng": 128.49858035626735,
    "region": "대구광역시"
  },
  {
    "name": "하빈초등학교운동장",
    "address": "대구광역시 달성군 하빈면 현내리 855-3",
    "lat": 35.901673456832626,
    "lng": 128.44260909236337,
    "region": "대구광역시"
  },
  {
    "name": "논공중학교운동장",
    "address": "대구광역시 달성군 논공읍 북리 1-23",
    "lat": 35.723868116642585,
    "lng": 128.45673037135282,
    "region": "대구광역시"
  },
  {
    "name": "남동초등학교운동장",
    "address": "대구광역시 달성군 논공읍 남리 717-5",
    "lat": 35.7247,
    "lng": 128.4561,
    "region": "대구광역시"
  },
  {
    "name": "대실초등학교운동장",
    "address": "대구광역시 달성군 다사읍 죽곡리 820",
    "lat": 35.853030788569086,
    "lng": 128.46793989140716,
    "region": "대구광역시"
  },
  {
    "name": "서평초등학교",
    "address": "대구광역시 서구 평리동 574-6",
    "lat": 35.87830843268385,
    "lng": 128.54833897829062,
    "region": "대구광역시"
  },
  {
    "name": "화성공원",
    "address": "대구광역시 수성구 지산동 1256",
    "lat": 35.82554253013979,
    "lng": 128.62943754117032,
    "region": "대구광역시"
  },
  {
    "name": "두성공원",
    "address": "대구광역시 수성구 신매동 595-2",
    "lat": 35.83366582976214,
    "lng": 128.70519997710147,
    "region": "대구광역시"
  },
  {
    "name": "상리공원",
    "address": "대구광역시 서구 중리동 1182-1",
    "lat": 35.86168291694851,
    "lng": 128.53046089410802,
    "region": "대구광역시"
  },
  {
    "name": "황금공원",
    "address": "대구광역시 수성구 황금동 802",
    "lat": 35.8457875,
    "lng": 128.619356,
    "region": "대구광역시"
  },
  {
    "name": "청소년공원",
    "address": "대구광역시 수성구 상동 54",
    "lat": 35.83662312123405,
    "lng": 128.61371034450238,
    "region": "대구광역시"
  },
  {
    "name": "대구소프트웨어고등학교운동장",
    "address": "대구광역시 달성군 구지면 창리 1395-1",
    "lat": 35.662522489127674,
    "lng": 128.41412631113755,
    "region": "대구광역시"
  },
  {
    "name": "끝동공원",
    "address": "대구광역시 수성구 두산동 155",
    "lat": 35.8321797,
    "lng": 128.618062,
    "region": "대구광역시"
  },
  {
    "name": "면민운동장",
    "address": "대구광역시 달성군 하빈면 현내리 933",
    "lat": 35.90161855655019,
    "lng": 128.44648567364405,
    "region": "대구광역시"
  },
  {
    "name": "화남초등학교운동장",
    "address": "대구광역시 달성군 화원읍 명곡리 113",
    "lat": 35.799809841887324,
    "lng": 128.49843016196397,
    "region": "대구광역시"
  },
  {
    "name": "화원초등학교운동장",
    "address": "대구광역시 달성군 화원읍 천내리 417",
    "lat": 35.80298680903291,
    "lng": 128.49933872619187,
    "region": "대구광역시"
  },
  {
    "name": "북동중학교운동장",
    "address": "대구광역시 달성군 논공읍 남리 318",
    "lat": 35.73185131009231,
    "lng": 128.43639982902363,
    "region": "대구광역시"
  },
  {
    "name": "천내중학교운동장",
    "address": "대구광역시 달성군 화원읍 구라리 1560-12",
    "lat": 35.8095228058639,
    "lng": 128.5031698177201,
    "region": "대구광역시"
  },
  {
    "name": "가창중학교운동장",
    "address": "대구광역시 달성군 가창면 냉천리 772-2",
    "lat": 35.77370580695356,
    "lng": 128.64403868461903,
    "region": "대구광역시"
  },
  {
    "name": "백합공원",
    "address": "대구광역시 수성구 상동 59-5",
    "lat": 35.8366257,
    "lng": 128.613117,
    "region": "대구광역시"
  },
  {
    "name": "다사초등학교운동장",
    "address": "대구광역시 달성군 다사읍 매곡리 457",
    "lat": 35.869460654858365,
    "lng": 128.45915749072964,
    "region": "대구광역시"
  },
  {
    "name": "유가초등학교운동장",
    "address": "대구광역시 달성군 유가읍 봉리 623",
    "lat": 35.69200909007071,
    "lng": 128.46609007769723,
    "region": "대구광역시"
  },
  {
    "name": "대원고등학교운동장",
    "address": "대구광역시 달성군 화원읍 본리리 1-1",
    "lat": 35.80590871441541,
    "lng": 128.50735085222934,
    "region": "대구광역시"
  },
  {
    "name": "보성어린이공원",
    "address": "대구광역시 수성구 범물동 1279-3",
    "lat": 35.82099940352101,
    "lng": 128.64327728748353,
    "region": "대구광역시"
  },
  {
    "name": "동서공원",
    "address": "대구광역시 수성구 신매동 594-2",
    "lat": 35.8343269643364,
    "lng": 128.70555454361306,
    "region": "대구광역시"
  },
  {
    "name": "왕선중학교운동장",
    "address": "대구광역시 달성군 다사읍 매곡리 1541",
    "lat": 35.86314593965134,
    "lng": 128.46703141308828,
    "region": "대구광역시"
  },
  {
    "name": "아랫마을공원",
    "address": "대구광역시 수성구 두산동 141",
    "lat": 35.834361166286406,
    "lng": 128.61990731701187,
    "region": "대구광역시"
  },
  {
    "name": "제일중학교 운동장",
    "address": "대구광역시 중구 봉산동 230-1",
    "lat": 35.8615,
    "lng": 128.597,
    "region": "대구광역시"
  },
  {
    "name": "아양초등학교(운동장) ",
    "address": "대구광역시 동구 신암동 1463",
    "lat": 35.88681763443875,
    "lng": 128.63743279753015,
    "region": "대구광역시"
  },
  {
    "name": "효목초등학교(운동장) ",
    "address": "대구광역시 동구 효목동 633",
    "lat": 35.876579396380485,
    "lng": 128.64229120342407,
    "region": "대구광역시"
  },
  {
    "name": "동부초등학교(운동장) ",
    "address": "대구광역시 동구 신암동 672-1",
    "lat": 35.88816333234853,
    "lng": 128.62035105413128,
    "region": "대구광역시"
  },
  {
    "name": "공산초등학교(운동장)",
    "address": "대구광역시 동구 백안동 649",
    "lat": 35.95665589899807,
    "lng": 128.69004155011336,
    "region": "대구광역시"
  },
  {
    "name": "서촌초등학교(운동장) ",
    "address": "대구광역시 동구 중대동 1082-1",
    "lat": 35.980392594724194,
    "lng": 128.63177193019624,
    "region": "대구광역시"
  },
  {
    "name": "송정초등학교(운동장) ",
    "address": "대구광역시 동구 괴전동 169",
    "lat": 35.870404877640894,
    "lng": 128.73356655990315,
    "region": "대구광역시"
  },
  {
    "name": "숙천초등학교(운동장) ",
    "address": "대구광역시 동구 숙천동 390",
    "lat": 35.87697158241599,
    "lng": 128.75320242986564,
    "region": "대구광역시"
  },
  {
    "name": "덕성초등학교(운동장)",
    "address": "대구광역시 동구 신암동 279-1",
    "lat": 35.88170326642347,
    "lng": 128.6284460511681,
    "region": "대구광역시"
  },
  {
    "name": "방촌초등학교(운동장) ",
    "address": "대구광역시 동구 방촌동 1072-6",
    "lat": 35.880495211825234,
    "lng": 128.66276809655872,
    "region": "대구광역시"
  },
  {
    "name": "효동초등학교(운동장)",
    "address": "대구광역시 동구 효목동 212-10",
    "lat": 35.88413222440982,
    "lng": 128.6448831066137,
    "region": "대구광역시"
  },
  {
    "name": "율하초등학교(운동장)",
    "address": "대구광역시 동구 율하동 950",
    "lat": 35.86788899841415,
    "lng": 128.7013262381128,
    "region": "대구광역시"
  },
  {
    "name": "용호초등학교(운동장)",
    "address": "대구광역시 동구 방촌동 1113-319",
    "lat": 35.87723174006922,
    "lng": 128.67235686800663,
    "region": "대구광역시"
  },
  {
    "name": "동호초등학교(운동장)",
    "address": "대구광역시 동구 동호동 361",
    "lat": 35.86542495139487,
    "lng": 128.7204534934182,
    "region": "대구광역시"
  },
  {
    "name": "반야월초등학교(운동장) ",
    "address": "대구광역시 동구 서호동 25-1",
    "lat": 35.86920512695949,
    "lng": 128.7112617974868,
    "region": "대구광역시"
  },
  {
    "name": "안일초등학교(운동장) ",
    "address": "대구광역시 동구 율하동 254-1",
    "lat": 35.87114638042696,
    "lng": 128.69492150196453,
    "region": "대구광역시"
  },
  {
    "name": "동촌중학교(운동장)",
    "address": "대구광역시 동구 방촌동 1051-2",
    "lat": 35.88263812839274,
    "lng": 128.6592839308112,
    "region": "대구광역시"
  },
  {
    "name": "강동고등학교(운동장)",
    "address": "대구광역시 동구 신서동 560",
    "lat": 35.86590024859927,
    "lng": 128.72954029472453,
    "region": "대구광역시"
  },
  {
    "name": "안심근린공원",
    "address": "대구광역시 동구 신기동 580",
    "lat": 35.869185228423966,
    "lng": 128.70276702924323,
    "region": "대구광역시"
  },
  {
    "name": "신암공원",
    "address": "대구광역시 동구 신암동 647",
    "lat": 35.888678801809164,
    "lng": 128.62345766183972,
    "region": "대구광역시"
  },
  {
    "name": "샛터근린공원",
    "address": "대구광역시 동구 율하동 1460",
    "lat": 35.864690361906355,
    "lng": 128.70303974933532,
    "region": "대구광역시"
  },
  {
    "name": "각산비나리공원",
    "address": "대구광역시 동구 각산동 1064",
    "lat": 35.87942100042429,
    "lng": 128.71501277312908,
    "region": "대구광역시"
  },
  {
    "name": "율하체육공원",
    "address": "대구광역시 동구 율하동 1626",
    "lat": 35.860052239655055,
    "lng": 128.6945134764681,
    "region": "대구광역시"
  },
  {
    "name": "덕화중학교",
    "address": "대구광역시 수성구 상동 328-1",
    "lat": 35.83327413136937,
    "lng": 128.61513197427513,
    "region": "대구광역시"
  },
  {
    "name": "들안길초등학교",
    "address": "대구광역시 수성구 두산동 28-2",
    "lat": 35.83856821328038,
    "lng": 128.61855536702046,
    "region": "대구광역시"
  },
  {
    "name": "지산초등학교",
    "address": "대구광역시 수성구 지산동 1149",
    "lat": 35.8266,
    "lng": 128.6303,
    "region": "대구광역시"
  },
  {
    "name": "남양학교",
    "address": "대구광역시 수성구 지산동 1022",
    "lat": 35.83326833266367,
    "lng": 128.62910807132747,
    "region": "대구광역시"
  },
  {
    "name": "범일초등학교",
    "address": "대구광역시 수성구 범물동 1364",
    "lat": 35.81644493493506,
    "lng": 128.63969957557117,
    "region": "대구광역시"
  },
  {
    "name": "무궁화공원",
    "address": "대구광역시 남구 대명동 1668-10",
    "lat": 35.84270288219733,
    "lng": 128.57833187908028,
    "region": "대구광역시"
  },
  {
    "name": "개나리공원 ",
    "address": "대구광역시 남구 봉덕동 540-49",
    "lat": 35.84382484456208,
    "lng": 128.60139464006843,
    "region": "대구광역시"
  },
  {
    "name": "동대구초등학교(운동장) ",
    "address": "대구광역시 동구 신암동 208-1",
    "lat": 35.87920454305328,
    "lng": 128.62103708713732,
    "region": "대구광역시"
  },
  {
    "name": "신기중학교(운동장)",
    "address": "대구광역시 동구 신기동 578",
    "lat": 35.867765978082595,
    "lng": 128.7024723138051,
    "region": "대구광역시"
  },
  {
    "name": "단산유적공원",
    "address": "대구광역시 동구 봉무동 1567",
    "lat": 35.91749435818986,
    "lng": 128.64049692261258,
    "region": "대구광역시"
  },
  {
    "name": "수성중학교",
    "address": "대구광역시 수성구 파동 2",
    "lat": 35.825375841230326,
    "lng": 128.60747158532857,
    "region": "대구광역시"
  },
  {
    "name": "복명초등학교",
    "address": "대구광역시 수성구 범물동 1293",
    "lat": 35.81726506818669,
    "lng": 128.64706546070948,
    "region": "대구광역시"
  },
  {
    "name": "범물초등학교",
    "address": "대구광역시 수성구 범물동 1279-1",
    "lat": 35.82151339554194,
    "lng": 128.64502251148252,
    "region": "대구광역시"
  },
  {
    "name": "신매초등학교",
    "address": "대구광역시 수성구 신매동 583",
    "lat": 35.836,
    "lng": 128.7091,
    "region": "대구광역시"
  },
  {
    "name": "욱수초등학교",
    "address": "대구광역시 수성구 신매동 602",
    "lat": 35.8309,
    "lng": 128.7075,
    "region": "대구광역시"
  },
  {
    "name": "시지고등학교",
    "address": "대구광역시 수성구 신매동 602-1",
    "lat": 35.8298,
    "lng": 128.7071,
    "region": "대구광역시"
  },
  {
    "name": "덕원중.고등학교",
    "address": "대구광역시 수성구 욱수동 81",
    "lat": 35.825973169652634,
    "lng": 128.70701372634397,
    "region": "대구광역시"
  },
  {
    "name": "매동초등학교",
    "address": "대구광역시 수성구 매호동 1010",
    "lat": 35.8447,
    "lng": 128.709,
    "region": "대구광역시"
  },
  {
    "name": "매호중학교",
    "address": "대구광역시 수성구 매호동 1332",
    "lat": 35.8436,
    "lng": 128.7017,
    "region": "대구광역시"
  },
  {
    "name": "범어재어린이공원",
    "address": "대구광역시 수성구 범어동 966-2",
    "lat": 35.865489023269404,
    "lng": 128.62010413444173,
    "region": "대구광역시"
  },
  {
    "name": "광명공원",
    "address": "대구광역시 수성구 만촌동 1023-11",
    "lat": 35.859972155418,
    "lng": 128.6416760087016,
    "region": "대구광역시"
  },
  {
    "name": "범물중학교",
    "address": "대구광역시 수성구 범물동 1366",
    "lat": 35.81551057312559,
    "lng": 128.63975107669856,
    "region": "대구광역시"
  },
  {
    "name": "시지중학교",
    "address": "대구광역시 수성구 신매동 583-1",
    "lat": 35.835,
    "lng": 128.709,
    "region": "대구광역시"
  },
  {
    "name": "사월초등학교",
    "address": "대구광역시 수성구 신매동 57-1",
    "lat": 35.83402216660182,
    "lng": 128.71574699878735,
    "region": "대구광역시"
  },
  {
    "name": "고산초등학교",
    "address": "대구광역시 수성구 시지동 161-1",
    "lat": 35.8435,
    "lng": 128.6933,
    "region": "대구광역시"
  },
  {
    "name": "노변초등학교",
    "address": "대구광역시 수성구 시지동 497",
    "lat": 35.8372,
    "lng": 128.6973,
    "region": "대구광역시"
  },
  {
    "name": "청림초등학교",
    "address": "대구광역시 수성구 노변동 367-2",
    "lat": 35.8349,
    "lng": 128.7035,
    "region": "대구광역시"
  },
  {
    "name": "노변중학교",
    "address": "대구광역시 수성구 노변동 735",
    "lat": 35.8379,
    "lng": 128.6946,
    "region": "대구광역시"
  },
  {
    "name": "대구농업마이스터고등학교",
    "address": "대구광역시 수성구 노변동 387",
    "lat": 35.83403376396896,
    "lng": 128.7014490365986,
    "region": "대구광역시"
  },
  {
    "name": "새론초등학교(운동장) ",
    "address": "대구광역시 동구 각산동 1059",
    "lat": 35.88450840371612,
    "lng": 128.71712998674218,
    "region": "대구광역시"
  },
  {
    "name": "시지초등학교",
    "address": "대구광역시 수성구 매호동 1332-1",
    "lat": 35.8433,
    "lng": 128.7032,
    "region": "대구광역시"
  },
  {
    "name": "매호초등학교",
    "address": "대구광역시 수성구 매호동 611-1",
    "lat": 35.8413,
    "lng": 128.7125,
    "region": "대구광역시"
  },
  {
    "name": "동원공원",
    "address": "대구광역시 수성구 만촌동 1017-2",
    "lat": 35.862082886364554,
    "lng": 128.64319413900407,
    "region": "대구광역시"
  },
  {
    "name": "청구공원",
    "address": "대구광역시 수성구 만촌동 1006-2",
    "lat": 35.863324082952374,
    "lng": 128.64607751369508,
    "region": "대구광역시"
  },
  {
    "name": "무열공원",
    "address": "대구광역시 수성구 만촌동 991-8",
    "lat": 35.8654651557241,
    "lng": 128.64789068698917,
    "region": "대구광역시"
  },
  {
    "name": "국화공원",
    "address": "대구광역시 수성구 만촌동 852",
    "lat": 35.856495876132875,
    "lng": 128.64888939019204,
    "region": "대구광역시"
  },
  {
    "name": "만촌공원",
    "address": "대구광역시 수성구 만촌동 870-13",
    "lat": 35.85072862223276,
    "lng": 128.65300565958054,
    "region": "대구광역시"
  },
  {
    "name": "봉선화공원",
    "address": "대구광역시 수성구 만촌동 874-2",
    "lat": 35.85061240103224,
    "lng": 128.65031106630428,
    "region": "대구광역시"
  },
  {
    "name": "새마을어린이공원",
    "address": "대구광역시 수성구 수성동3가 130-2",
    "lat": 35.85718746969677,
    "lng": 128.61989915370972,
    "region": "대구광역시"
  },
  {
    "name": "수성어린이공원",
    "address": "대구광역시 수성구 수성동3가 216",
    "lat": 35.85282920131929,
    "lng": 128.61880869890473,
    "region": "대구광역시"
  },
  {
    "name": "신명고등학교 운동장",
    "address": "대구광역시 중구 동산동 206",
    "lat": 35.86876189429675,
    "lng": 128.58443137510716,
    "region": "대구광역시"
  },
  {
    "name": "동덕초등학교 운동장",
    "address": "대구광역시 중구 삼덕동2가 227",
    "lat": 35.86521082489819,
    "lng": 128.60472332448427,
    "region": "대구광역시"
  },
  {
    "name": "에덴어린이공원",
    "address": "대구광역시 수성구 지산동 1272-1",
    "lat": 35.8216128,
    "lng": 128.632475,
    "region": "대구광역시"
  },
  {
    "name": "천마공원",
    "address": "대구광역시 수성구 신매동 579",
    "lat": 35.83681853796808,
    "lng": 128.70637357245906,
    "region": "대구광역시"
  },
  {
    "name": "두리공원",
    "address": "대구광역시 수성구 신매동 598",
    "lat": 35.831902281690326,
    "lng": 128.70372870900317,
    "region": "대구광역시"
  },
  {
    "name": "동신공원",
    "address": "대구광역시 수성구 황금동 750",
    "lat": 35.8475601,
    "lng": 128.618883,
    "region": "대구광역시"
  },
  {
    "name": "고산중학교",
    "address": "대구광역시 수성구 시지동 62",
    "lat": 35.8453,
    "lng": 128.6981,
    "region": "대구광역시"
  },
  {
    "name": "꿈나무공원",
    "address": "대구광역시 수성구 두산동 31-6",
    "lat": 35.83826597304393,
    "lng": 128.6183729767802,
    "region": "대구광역시"
  },
  {
    "name": "중앙공원",
    "address": "대구광역시 수성구 범물동 1348",
    "lat": 35.8179054,
    "lng": 128.638717,
    "region": "대구광역시"
  },
  {
    "name": "나래어린이공원",
    "address": "대구광역시 수성구 매호동 1333",
    "lat": 35.84370405130277,
    "lng": 128.70009162297208,
    "region": "대구광역시"
  },
  {
    "name": "서구구민운동장",
    "address": "대구광역시 서구 이현동 산28-12",
    "lat": 35.873363801003684,
    "lng": 128.54353263974488,
    "region": "대구광역시"
  },
  {
    "name": "평리공원",
    "address": "대구광역시 서구 평리동 1230-1",
    "lat": 35.872271005570006,
    "lng": 128.55816651615763,
    "region": "대구광역시"
  },
  {
    "name": "논공축구장",
    "address": "대구광역시 달성군 논공읍 남리 775-1",
    "lat": 35.72311274607728,
    "lng": 128.45620123107125,
    "region": "대구광역시"
  },
  {
    "name": "고매초등학교 운동장",
    "address": "대구광역시 군위군 효령면 고곡리 929",
    "lat": 36.09702876435516,
    "lng": 128.58252071487894,
    "region": "대구광역시"
  },
  {
    "name": "군위생활체육공원",
    "address": "대구광역시 군위군 군위읍 서부리 475-1",
    "lat": 36.24088157578465,
    "lng": 128.56193103898926,
    "region": "대구광역시"
  },
  {
    "name": "구)대율초등학교(폐교) 운동장",
    "address": "대구광역시 군위군 부계면 대율리 644-1",
    "lat": 36.062596886685554,
    "lng": 128.65460030202428,
    "region": "대구광역시"
  },
  {
    "name": "우보초등학교 운동장",
    "address": "대구광역시 군위군 우보면 이화리 1195-2",
    "lat": 36.19485009451228,
    "lng": 128.66147484201855,
    "region": "대구광역시"
  },
  {
    "name": "송원초등학교 운동장",
    "address": "대구광역시 군위군 소보면 송원리 675",
    "lat": 36.25369006144302,
    "lng": 128.47636135330345,
    "region": "대구광역시"
  },
  {
    "name": "소보면복지회관",
    "address": "대구광역시 군위군 소보면 송원리 682",
    "lat": 36.25659440872475,
    "lng": 128.47743124658527,
    "region": "대구광역시"
  },
  {
    "name": "대구 의흥초등학교 석산분교장 운동장",
    "address": "대구광역시 군위군 삼국유사면 석산리 547-1",
    "lat": 36.17496785173728,
    "lng": 128.85513711599384,
    "region": "대구광역시"
  },
  {
    "name": "효령초등학교 운동장",
    "address": "대구광역시 군위군 효령면 중구리 197",
    "lat": 36.156720148365864,
    "lng": 128.58661562204387,
    "region": "대구광역시"
  },
  {
    "name": "성서공업지역 주변 완충녹지",
    "address": "대구광역시 달서구 갈산동 976",
    "lat": 35.849142014899705,
    "lng": 128.50803224171932,
    "region": "대구광역시"
  },
  {
    "name": "배실웨딩공원",
    "address": "대구광역시 달서구 이곡동 260",
    "lat": 35.86223624468838,
    "lng": 128.50517831652692,
    "region": "대구광역시"
  },
  {
    "name": "배꽃공원",
    "address": "대구광역시 달서구 이곡동 1184-5",
    "lat": 35.859690432891625,
    "lng": 128.50188887437074,
    "region": "대구광역시"
  },
  {
    "name": "와룡(위)공원",
    "address": "대구광역시 달서구 이곡동 1189",
    "lat": 35.85811953233534,
    "lng": 128.50063693909883,
    "region": "대구광역시"
  },
  {
    "name": "와룡(아랫)공원",
    "address": "대구광역시 달서구 이곡동 1191-2",
    "lat": 35.85631134424843,
    "lng": 128.50059969294068,
    "region": "대구광역시"
  },
  {
    "name": "샛별어린이공원",
    "address": "대구광역시 달서구 이곡동 1189-3",
    "lat": 35.85755299484517,
    "lng": 128.50433245774633,
    "region": "대구광역시"
  },
  {
    "name": "햇님어린이공원",
    "address": "대구광역시 달서구 이곡동 1192-1",
    "lat": 35.85687294847518,
    "lng": 128.50471881118753,
    "region": "대구광역시"
  },
  {
    "name": "사령봉어린이공원",
    "address": "대구광역시 달서구 이곡동 1216",
    "lat": 35.8526784231938,
    "lng": 128.50314560123155,
    "region": "대구광역시"
  },
  {
    "name": "늘푸른공원",
    "address": "대구광역시 달서구 이곡동 1314-2",
    "lat": 35.85996376825251,
    "lng": 128.50460536761986,
    "region": "대구광역시"
  },
  {
    "name": "계골산공원",
    "address": "대구광역시 달서구 신당동 1683",
    "lat": 35.8608329752379,
    "lng": 128.49927753210082,
    "region": "대구광역시"
  },
  {
    "name": "돌산공원",
    "address": "대구광역시 달서구 신당동 1716",
    "lat": 35.85722442557324,
    "lng": 128.4936019778253,
    "region": "대구광역시"
  },
  {
    "name": "신당어린이공원",
    "address": "대구광역시 달서구 신당동 1759-1",
    "lat": 35.858241792347265,
    "lng": 128.4990522265436,
    "region": "대구광역시"
  },
  {
    "name": "오정공원",
    "address": "대구광역시 달서구 신당동 1778",
    "lat": 35.85629250408899,
    "lng": 128.49639374244097,
    "region": "대구광역시"
  },
  {
    "name": "점터공원",
    "address": "대구광역시 달서구 신당동 1801",
    "lat": 35.85467008179467,
    "lng": 128.49389433860793,
    "region": "대구광역시"
  },
  {
    "name": "갈뫼공원",
    "address": "대구광역시 달서구 신당동 1834-5",
    "lat": 35.85218036534918,
    "lng": 128.49417881517624,
    "region": "대구광역시"
  },
  {
    "name": "앞돌어린이공원",
    "address": "대구광역시 달서구 신당동 1844-1",
    "lat": 35.85326787511541,
    "lng": 128.4970888495447,
    "region": "대구광역시"
  },
  {
    "name": "청록어린이공원",
    "address": "대구광역시 달서구 신당동 1846-2",
    "lat": 35.8539418070022,
    "lng": 128.49711298942583,
    "region": "대구광역시"
  },
  {
    "name": "은하수공원",
    "address": "대구광역시 달서구 호산동 357",
    "lat": 35.851180313260464,
    "lng": 128.487078785236,
    "region": "대구광역시"
  },
  {
    "name": "미리내공원",
    "address": "대구광역시 달서구 호산동 368-1",
    "lat": 35.85163519702195,
    "lng": 128.4836053848268,
    "region": "대구광역시"
  },
  {
    "name": "강창근린공원",
    "address": "대구광역시 달서구 호산동 349",
    "lat": 35.85237436304,
    "lng": 128.4792280197145,
    "region": "대구광역시"
  },
  {
    "name": "호림공원",
    "address": "대구광역시 달서구 호산동 714",
    "lat": 35.84271248483055,
    "lng": 128.48891079425826,
    "region": "대구광역시"
  },
  {
    "name": "호산근린공원",
    "address": "대구광역시 달서구 호산동 357-60",
    "lat": 35.84896109769704,
    "lng": 128.4839808940889,
    "region": "대구광역시"
  },
  {
    "name": "광수어린이공원",
    "address": "대구광역시 달서구 월성동 364-3",
    "lat": 35.827245649138824,
    "lng": 128.53446930287464,
    "region": "대구광역시"
  },
  {
    "name": "송일어린이공원",
    "address": "대구광역시 달서구 월성동 500-1",
    "lat": 35.82419663642393,
    "lng": 128.5325470502994,
    "region": "대구광역시"
  },
  {
    "name": "조암공원",
    "address": "대구광역시 달서구 월성동 739",
    "lat": 35.827685249969775,
    "lng": 128.52487789531577,
    "region": "대구광역시"
  },
  {
    "name": "선돌공원",
    "address": "대구광역시 달서구 월암동 431",
    "lat": 35.8232728533529,
    "lng": 128.51665751615525,
    "region": "대구광역시"
  },
  {
    "name": "마을마당공원",
    "address": "대구광역시 달서구 월성동 611-2",
    "lat": 35.823857394185765,
    "lng": 128.52698270243062,
    "region": "대구광역시"
  },
  {
    "name": "한샘청동공원",
    "address": "대구광역시 달서구 대천동 1038",
    "lat": 35.819898948451524,
    "lng": 128.51798877790813,
    "region": "대구광역시"
  },
  {
    "name": "월명공원",
    "address": "대구광역시 달서구 월성동 87",
    "lat": 35.828029264534116,
    "lng": 128.52899696058682,
    "region": "대구광역시"
  },
  {
    "name": "감천리어린이공원",
    "address": "대구광역시 달서구 월성동 86",
    "lat": 35.82930298054844,
    "lng": 128.52897372225098,
    "region": "대구광역시"
  },
  {
    "name": "연왕어린이공원",
    "address": "대구광역시 달서구 월성동 270-2",
    "lat": 35.834941025683925,
    "lng": 128.5324281413508,
    "region": "대구광역시"
  },
  {
    "name": "사랑어린이공원",
    "address": "대구광역시 달서구 월성동 277-2",
    "lat": 35.82977434636698,
    "lng": 128.5311974378082,
    "region": "대구광역시"
  },
  {
    "name": "효성어린이공원",
    "address": "대구광역시 달서구 월성동 273-1",
    "lat": 35.83367078692563,
    "lng": 128.53008797863737,
    "region": "대구광역시"
  },
  {
    "name": "평화어린이공원",
    "address": "대구광역시 달서구 월성동 277-1",
    "lat": 35.83018472797303,
    "lng": 128.52887509872974,
    "region": "대구광역시"
  },
  {
    "name": "옹달샘어린이공원",
    "address": "대구광역시 달서구 월성동 273-3",
    "lat": 35.83177514045091,
    "lng": 128.52912783622756,
    "region": "대구광역시"
  },
  {
    "name": "학산어린이공원",
    "address": "대구광역시 달서구 월성동 84-3",
    "lat": 35.83159903514049,
    "lng": 128.5267157104888,
    "region": "대구광역시"
  },
  {
    "name": "창공어린이공원",
    "address": "대구광역시 달서구 월성동 270-3",
    "lat": 35.83318843733055,
    "lng": 128.531577823846,
    "region": "대구광역시"
  },
  {
    "name": "미성어린이공원",
    "address": "대구광역시 달서구 월성동 270-4",
    "lat": 35.83282327734171,
    "lng": 128.53358030319234,
    "region": "대구광역시"
  },
  {
    "name": "오복어린이공원",
    "address": "대구광역시 달서구 진천동 223-31",
    "lat": 35.81422134504867,
    "lng": 128.52927087660737,
    "region": "대구광역시"
  },
  {
    "name": "진천어린이공원",
    "address": "대구광역시 달서구 진천동 623-12",
    "lat": 35.81277527934617,
    "lng": 128.52294557116457,
    "region": "대구광역시"
  },
  {
    "name": "무궁화어린이공원",
    "address": "대구광역시 달서구 진천동 812",
    "lat": 35.81282492154308,
    "lng": 128.53286491748727,
    "region": "대구광역시"
  },
  {
    "name": "진달래어린이공원",
    "address": "대구광역시 달서구 진천동 832-3",
    "lat": 35.81055587263293,
    "lng": 128.53193989033963,
    "region": "대구광역시"
  },
  {
    "name": "장미어린이공원",
    "address": "대구광역시 달서구 진천동 780-1",
    "lat": 35.81098136747771,
    "lng": 128.51811801161242,
    "region": "대구광역시"
  },
  {
    "name": "태양어린이공원",
    "address": "대구광역시 달서구 상인동 1501-1",
    "lat": 35.81781892820234,
    "lng": 128.5415336958191,
    "region": "대구광역시"
  },
  {
    "name": "보배어린이공원",
    "address": "대구광역시 달서구 상인동 1515-1",
    "lat": 35.816284868630376,
    "lng": 128.54232612222359,
    "region": "대구광역시"
  },
  {
    "name": "영광어린이공원",
    "address": "대구광역시 달서구 상인동 1517-1",
    "lat": 35.81834905361494,
    "lng": 128.54338424130688,
    "region": "대구광역시"
  },
  {
    "name": "한빛어린이공원",
    "address": "대구광역시 달서구 상인동 1522-1",
    "lat": 35.81520300793362,
    "lng": 128.54659575555758,
    "region": "대구광역시"
  },
  {
    "name": "동심공원",
    "address": "대구광역시 달서구 상인동 1523-1",
    "lat": 35.81426701297183,
    "lng": 128.54434890393313,
    "region": "대구광역시"
  },
  {
    "name": "월곡역사공원",
    "address": "대구광역시 달서구 상인동 1530",
    "lat": 35.8180898463897,
    "lng": 128.54520693095242,
    "region": "대구광역시"
  },
  {
    "name": "의흥초등학교 운동장",
    "address": "대구광역시 군위군 의흥면 읍내리 283",
    "lat": 36.17524642871917,
    "lng": 128.71880637048565,
    "region": "대구광역시"
  },
  {
    "name": "군위초등학교 운동장",
    "address": "대구광역시 군위군 군위읍 동부리 323-2",
    "lat": 36.23887886252727,
    "lng": 128.5687843271256,
    "region": "대구광역시"
  },
  {
    "name": "부계초등학교 운동장",
    "address": "대구광역시 군위군 부계면 창평리 851-1",
    "lat": 36.101609750826306,
    "lng": 128.6628750061426,
    "region": "대구광역시"
  },
  {
    "name": "군위국민체육센터",
    "address": "대구광역시 군위군 군위읍 동부리 155",
    "lat": 36.23714062302239,
    "lng": 128.57434771348966,
    "region": "대구광역시"
  },
  {
    "name": "구)산성초등학교 (폐교)",
    "address": "대구광역시 군위군 산성면 화본리 868-2",
    "lat": 36.123914789442544,
    "lng": 128.69528532028238,
    "region": "대구광역시"
  },
  {
    "name": "군위고등학교 운동장",
    "address": "대구광역시 군위군 군위읍 정리 292-1",
    "lat": 36.24541756650132,
    "lng": 128.57035531516223,
    "region": "대구광역시"
  },
  {
    "name": "경북대학교 부설중·고등학교 운동장",
    "address": "대구광역시 중구 대봉동 60-18",
    "lat": 35.86273181979754,
    "lng": 128.60229147009787,
    "region": "대구광역시"
  },
  {
    "name": "성서초등학교 운동장",
    "address": "대구광역시 달서구 이곡동 690",
    "lat": 35.85186112461458,
    "lng": 128.5137365986502,
    "region": "대구광역시"
  },
  {
    "name": "용산근린공원",
    "address": "대구광역시 달서구 용산동 949",
    "lat": 35.85573781513317,
    "lng": 128.52894152009554,
    "region": "대구광역시"
  },
  {
    "name": "이곡초등학교 운동장",
    "address": "대구광역시 달서구 이곡동 1304-4",
    "lat": 35.856416192366865,
    "lng": 128.51342214539778,
    "region": "대구광역시"
  },
  {
    "name": "성당원화공원",
    "address": "대구광역시 달서구 성당동 701-5",
    "lat": 35.845934891533545,
    "lng": 128.54619551718764,
    "region": "대구광역시"
  },
  {
    "name": "꽃사슴어린이공원",
    "address": "대구광역시 동구 숙천동 380-5",
    "lat": 35.883524081755965,
    "lng": 128.75215342016304,
    "region": "대구광역시"
  },
  {
    "name": "분홍공원",
    "address": "대구광역시 동구 봉무동 1536",
    "lat": 35.921655769533956,
    "lng": 128.64467740058933,
    "region": "대구광역시"
  },
  {
    "name": "안심체육공원",
    "address": "대구광역시 동구 용계동 828-2",
    "lat": 35.86747734288075,
    "lng": 128.68119502373034,
    "region": "대구광역시"
  },
  {
    "name": "군위군보건소",
    "address": "대구광역시 군위군 군위읍 동부리 679",
    "lat": 36.22952734465192,
    "lng": 128.56974720954918,
    "region": "대구광역시"
  },
  {
    "name": "화랑공원",
    "address": "대구광역시 수성구 만촌동 1417",
    "lat": 35.87162345817331,
    "lng": 128.6396643156198,
    "region": "대구광역시"
  },
  {
    "name": "동원중학교",
    "address": "대구광역시 수성구 만촌동 254",
    "lat": 35.87522278796006,
    "lng": 128.65074455738102,
    "region": "대구광역시"
  },
  {
    "name": "동원초등학교",
    "address": "대구광역시 수성구 만촌동 934",
    "lat": 35.86532314387861,
    "lng": 128.63951236012358,
    "region": "대구광역시"
  },
  {
    "name": "만촌초등학교",
    "address": "대구광역시 수성구 만촌동 980",
    "lat": 35.86718783938265,
    "lng": 128.6476802923758,
    "region": "대구광역시"
  },
  {
    "name": "혜화여자고등학교",
    "address": "대구광역시 수성구 만촌동 1256-26",
    "lat": 35.84943939833052,
    "lng": 128.6480104924343,
    "region": "대구광역시"
  },
  {
    "name": "영남공업고등학교",
    "address": "대구광역시 수성구 만촌동 1160-3",
    "lat": 35.84814073259769,
    "lng": 128.64818394195055,
    "region": "대구광역시"
  },
  {
    "name": "수성대학교",
    "address": "대구광역시 수성구 만촌동 산395",
    "lat": 35.8511,
    "lng": 128.6461,
    "region": "대구광역시"
  },
  {
    "name": "동성초등학교",
    "address": "대구광역시 수성구 수성동1가 282",
    "lat": 35.8524,
    "lng": 128.6126,
    "region": "대구광역시"
  },
  {
    "name": "신명여자중학교.남산고등학교",
    "address": "대구광역시 수성구 수성동1가 96-16",
    "lat": 35.857642532970104,
    "lng": 128.60924541961165,
    "region": "대구광역시"
  },
  {
    "name": "동일초등학교",
    "address": "대구광역시 수성구 수성동2가 17-1",
    "lat": 35.857697604194044,
    "lng": 128.6170426011088,
    "region": "대구광역시"
  },
  {
    "name": "성동초등학교",
    "address": "대구광역시 수성구 황금동 373",
    "lat": 35.841258607994305,
    "lng": 128.63259851938014,
    "region": "대구광역시"
  },
  {
    "name": "매호공원",
    "address": "대구광역시 수성구 매호동 1321",
    "lat": 35.845465387751155,
    "lng": 128.7035457276424,
    "region": "대구광역시"
  },
  {
    "name": "대구가톨릭대학교 유스티노캠퍼스 운동장",
    "address": "대구광역시 중구 남산동 219",
    "lat": 35.86221060373497,
    "lng": 128.58728347166084,
    "region": "대구광역시"
  },
  {
    "name": "2.28기념 중앙공원",
    "address": "대구광역시 중구 공평동 15",
    "lat": 35.869614600367136,
    "lng": 128.59775341518218,
    "region": "대구광역시"
  },
  {
    "name": "강동초등학교(운동장)",
    "address": "대구광역시 동구 신서동 544",
    "lat": 35.86822874454837,
    "lng": 128.73029553124178,
    "region": "대구광역시"
  },
  {
    "name": "동부고등학교(운동장)",
    "address": "대구광역시 동구 각산동 199",
    "lat": 35.87416684754799,
    "lng": 128.7189801123664,
    "region": "대구광역시"
  },
  {
    "name": "위남공원",
    "address": "대구광역시 동구 봉무동 1525",
    "lat": 35.9263496293702,
    "lng": 128.63747362788095,
    "region": "대구광역시"
  },
  {
    "name": "경북고등학교",
    "address": "대구광역시 수성구 황금동 9",
    "lat": 35.8437,
    "lng": 128.6396,
    "region": "대구광역시"
  },
  {
    "name": "중앙시장 공영주차장",
    "address": "대구광역시 남구 대명동 982-7",
    "lat": 35.836980895585285,
    "lng": 128.5683819651606,
    "region": "대구광역시"
  },
  {
    "name": "성당시장공영주차장",
    "address": "대구광역시 남구 대명동 3024-6",
    "lat": 35.849722363277536,
    "lng": 128.57370364334142,
    "region": "대구광역시"
  },
  {
    "name": "고산골공영주차장",
    "address": "대구광역시 남구 봉덕동 1257-1",
    "lat": 35.830481155931984,
    "lng": 128.603114334975,
    "region": "대구광역시"
  },
  {
    "name": "관문시장공영주차장",
    "address": "대구광역시 남구 대명동 1158-9",
    "lat": 35.836031984520126,
    "lng": 128.55894883048305,
    "region": "대구광역시"
  },
  {
    "name": "앞산맛둘레길 제1주차장",
    "address": "대구광역시 남구 대명동 산200-8",
    "lat": 35.831168897948494,
    "lng": 128.57453832461343,
    "region": "대구광역시"
  },
  {
    "name": "수성초등학교",
    "address": "대구광역시 수성구 상동 89-2",
    "lat": 35.8364807751671,
    "lng": 128.6101752520156,
    "region": "대구광역시"
  },
  {
    "name": "파동초등학교",
    "address": "대구광역시 수성구 파동 8",
    "lat": 35.82424496438515,
    "lng": 128.6079651117873,
    "region": "대구광역시"
  },
  {
    "name": "지봉초등학교",
    "address": "대구광역시 수성구 지산동 1296",
    "lat": 35.824975686621606,
    "lng": 128.64088118076353,
    "region": "대구광역시"
  },
  {
    "name": "두산초등학교",
    "address": "대구광역시 수성구 지산동 1043",
    "lat": 35.832636266380064,
    "lng": 128.6250454187396,
    "region": "대구광역시"
  },
  {
    "name": "능인중.고등학교",
    "address": "대구광역시 수성구 지산동 800",
    "lat": 35.83120974965759,
    "lng": 128.632031679372,
    "region": "대구광역시"
  },
  {
    "name": "용지초등학교",
    "address": "대구광역시 수성구 지산동 1272",
    "lat": 35.82266170981651,
    "lng": 128.6326271296096,
    "region": "대구광역시"
  },
  {
    "name": "지산중학교",
    "address": "대구광역시 수성구 지산동 1256-1",
    "lat": 35.825138068471475,
    "lng": 128.62879335880308,
    "region": "대구광역시"
  },
  {
    "name": "수성고등학교",
    "address": "대구광역시 수성구 지산동 1184-3",
    "lat": 35.82169318319844,
    "lng": 128.62576782703428,
    "region": "대구광역시"
  },
  {
    "name": "수창초등학교 운동장",
    "address": "대구광역시 중구 수창동 73",
    "lat": 35.874498324339854,
    "lng": 128.5842096805575,
    "region": "대구광역시"
  },
  {
    "name": "남산어린이공원",
    "address": "대구광역시 중구 남산동 2507",
    "lat": 35.8582,
    "lng": 128.5813,
    "region": "대구광역시"
  },
  {
    "name": "범일중학교",
    "address": "대구광역시 수성구 범물동 1279-2",
    "lat": 35.82056805358468,
    "lng": 128.6443930864883,
    "region": "대구광역시"
  },
  {
    "name": "지봉공원",
    "address": "대구광역시 수성구 지산동 1287",
    "lat": 35.8231729,
    "lng": 128.639677,
    "region": "대구광역시"
  },
  {
    "name": "거성어린이공원",
    "address": "대구광역시 수성구 지산동 1211-2",
    "lat": 35.81968359778066,
    "lng": 128.63564372062712,
    "region": "대구광역시"
  },
  {
    "name": "들안길공원",
    "address": "대구광역시 수성구 상동 343",
    "lat": 35.8339103,
    "lng": 128.613338,
    "region": "대구광역시"
  },
  {
    "name": "마산공원",
    "address": "대구광역시 수성구 범물동 1288-2",
    "lat": 35.81914005936039,
    "lng": 128.6489785668077,
    "region": "대구광역시"
  },
  {
    "name": "들마을공원",
    "address": "대구광역시 서구 평리동 1057-3",
    "lat": 35.87396375630686,
    "lng": 128.5638102799948,
    "region": "대구광역시"
  },
  {
    "name": "대평중학교",
    "address": "대구광역시 서구 평리동 730-1",
    "lat": 35.88000186766135,
    "lng": 128.56218438776312,
    "region": "대구광역시"
  },
  {
    "name": "일신공원",
    "address": "대구광역시 서구 중리동 721-2",
    "lat": 35.85641375773075,
    "lng": 128.54443337104954,
    "region": "대구광역시"
  },
  {
    "name": "서부초등학교",
    "address": "대구광역시 서구 비산동 405-1",
    "lat": 35.87366372603998,
    "lng": 128.57402285979973,
    "region": "대구광역시"
  },
  {
    "name": "중리공원",
    "address": "대구광역시 서구 중리동 120-5",
    "lat": 35.86313316125568,
    "lng": 128.54947859200965,
    "region": "대구광역시"
  },
  {
    "name": "개미산공원",
    "address": "대구광역시 서구 평리동 694-7",
    "lat": 35.87726158569962,
    "lng": 128.55697250240598,
    "region": "대구광역시"
  },
  {
    "name": "평리1동 공영주차장",
    "address": "대구광역시 서구 평리동 791-5",
    "lat": 35.876080544319464,
    "lng": 128.56613829732044,
    "region": "대구광역시"
  },
  {
    "name": "서대구초등학교",
    "address": "대구광역시 서구 비산동 1484",
    "lat": 35.889303736330035,
    "lng": 128.55734602071635,
    "region": "대구광역시"
  },
  {
    "name": "대성초등학교",
    "address": "대구광역시 서구 비산동 169-1",
    "lat": 35.87076658071297,
    "lng": 128.57733892329455,
    "region": "대구광역시"
  },
  {
    "name": "신평공원",
    "address": "대구광역시 서구 평리동 1198-5",
    "lat": 35.8663432850342,
    "lng": 128.56249519231756,
    "region": "대구광역시"
  },
  {
    "name": "동아리공원",
    "address": "대구광역시 서구 비산동 1025-6",
    "lat": 35.88574088270784,
    "lng": 128.5694936665889,
    "region": "대구광역시"
  },
  {
    "name": "화원유원지",
    "address": "대구광역시 달성군 화원읍 성산리 310",
    "lat": 35.81355724450982,
    "lng": 128.48129888860962,
    "region": "대구광역시"
  },
  {
    "name": "대구스타디움",
    "address": "대구광역시 수성구 대흥동 504",
    "lat": 35.8287915712668,
    "lng": 128.68506073951755,
    "region": "대구광역시"
  },
  {
    "name": "대구대덕초등학교 운동장",
    "address": "대구광역시 남구 대명동 1571-1",
    "lat": 35.830301306702296,
    "lng": 128.56216291177816,
    "region": "대구광역시"
  },
  {
    "name": "대구남덕초등학교 운동장",
    "address": "대구광역시 남구 대명동 531-1",
    "lat": 35.83322895558704,
    "lng": 128.57430448443213,
    "region": "대구광역시"
  },
  {
    "name": "봉덕시장공영주차장",
    "address": "대구광역시 남구 봉덕동 976-5",
    "lat": 35.845105812954145,
    "lng": 128.60253587480324,
    "region": "대구광역시"
  },
  {
    "name": "대구남명초등학교 운동장",
    "address": "대구광역시 남구 대명동 483",
    "lat": 35.83476018533758,
    "lng": 128.58197852737348,
    "region": "대구광역시"
  },
  {
    "name": "대구대봉초등학교 운동장",
    "address": "대구광역시 남구 이천동 253-2",
    "lat": 35.85093722286778,
    "lng": 128.60492810182103,
    "region": "대구광역시"
  },
  {
    "name": "대구성명초등학교 운동장",
    "address": "대구광역시 남구 대명동 3050",
    "lat": 35.84571053555836,
    "lng": 128.57103846852078,
    "region": "대구광역시"
  },
  {
    "name": "대구대명중학교 운동장",
    "address": "대구광역시 남구 대명동 519",
    "lat": 35.83283252448724,
    "lng": 128.5776051217614,
    "region": "대구광역시"
  },
  {
    "name": "대구영선초등학교 운동장",
    "address": "대구광역시 남구 이천동 447",
    "lat": 35.85305750545008,
    "lng": 128.59573334502042,
    "region": "대구광역시"
  },
  {
    "name": "대구남도초등학교 운동장",
    "address": "대구광역시 남구 대명동 1709",
    "lat": 35.84465208570443,
    "lng": 128.5813558596523,
    "region": "대구광역시"
  },
  {
    "name": "대구봉덕초등학교 운동장",
    "address": "대구광역시 남구 봉덕동 1319-1",
    "lat": 35.83937084069465,
    "lng": 128.59790556457838,
    "region": "대구광역시"
  },
  {
    "name": "대구대명초등학교 운동장",
    "address": "대구광역시 남구 대명동 960",
    "lat": 35.838785651587244,
    "lng": 128.56879234313988,
    "region": "대구광역시"
  },
  {
    "name": "비산초등학교",
    "address": "대구광역시 서구 평리동 662-1",
    "lat": 35.87852544317053,
    "lng": 128.56389496339344,
    "region": "대구광역시"
  },
  {
    "name": "계명대학교 대명캠퍼스 운동장",
    "address": "대구광역시 남구 대명동 2139-12",
    "lat": 35.85378073231996,
    "lng": 128.58158467122541,
    "region": "대구광역시"
  },
  {
    "name": "청산어린이공원",
    "address": "대구광역시 수성구 지산동 1247",
    "lat": 35.82352438452505,
    "lng": 128.62742811441453,
    "region": "대구광역시"
  },
  {
    "name": "내삼공원",
    "address": "대구광역시 서구 내당동 458-4",
    "lat": 35.85605423193087,
    "lng": 128.54892717830384,
    "region": "대구광역시"
  },
  {
    "name": "다사중학교운동장",
    "address": "대구광역시 달성군 다사읍 매곡리 729",
    "lat": 35.86273692435343,
    "lng": 128.45652494326188,
    "region": "대구광역시"
  },
  {
    "name": "서재중학교운동장",
    "address": "대구광역시 달성군 다사읍 서재리 302",
    "lat": 35.87332239481673,
    "lng": 128.4998186307524,
    "region": "대구광역시"
  },
  {
    "name": "도원공원(서한이다음)",
    "address": "대구광역시 달서구 도원동 573",
    "lat": 35.80784846435708,
    "lng": 128.54751815725268,
    "region": "대구광역시"
  },
  {
    "name": "다사문양마을공영주차장",
    "address": "대구광역시 달성군 다사읍 문양리 420",
    "lat": 35.863699034574395,
    "lng": 128.43783405924518,
    "region": "대구광역시"
  },
  {
    "name": "나래어린이공원",
    "address": "대구광역시 달서구 도원동 1428-1",
    "lat": 35.80894416046775,
    "lng": 128.5301477374576,
    "region": "대구광역시"
  },
  {
    "name": "제일고등학교",
    "address": "대구광역시 서구 비산동 228",
    "lat": 35.871358,
    "lng": 128.57351,
    "region": "대구광역시"
  },
  {
    "name": "원덕어린이공원",
    "address": "대구광역시 달서구 도원동 670",
    "lat": 35.80568373157541,
    "lng": 128.54723948570603,
    "region": "대구광역시"
  },
  {
    "name": "평리4동 공영주차장",
    "address": "대구광역시 서구 평리동 1207-2",
    "lat": 35.868361,
    "lng": 128.561251,
    "region": "대구광역시"
  },
  {
    "name": "달서어린이공원",
    "address": "대구광역시 달서구 두류동 636-3",
    "lat": 35.85207431194364,
    "lng": 128.5522933862067,
    "region": "대구광역시"
  },
  {
    "name": "선원초등학교 운동장",
    "address": "대구광역시 달서구 용산동 504",
    "lat": 35.860872550434436,
    "lng": 128.51536103744093,
    "region": "대구광역시"
  },
  {
    "name": "도원근린공원",
    "address": "대구광역시 달서구 도원동 1454",
    "lat": 35.805720715199925,
    "lng": 128.54350060046664,
    "region": "대구광역시"
  },
  {
    "name": "영남이공대학교 운동장",
    "address": "대구광역시 남구 대명동 317-1",
    "lat": 35.84855080564887,
    "lng": 128.58463512519697,
    "region": "대구광역시"
  },
  {
    "name": "성지중학교 학교운동장",
    "address": "대구광역시 달서구 이곡동 1300-2",
    "lat": 35.85312202517361,
    "lng": 128.51450453522622,
    "region": "대구광역시"
  },
  {
    "name": "성곡초등학교 운동장",
    "address": "대구광역시 달서구 이곡동 1306-5",
    "lat": 35.857721836546936,
    "lng": 128.51383152823297,
    "region": "대구광역시"
  },
  {
    "name": "이곡중학교 운동장",
    "address": "대구광역시 달서구 이곡동 1333",
    "lat": 35.86184457432367,
    "lng": 128.51213401271463,
    "region": "대구광역시"
  },
  {
    "name": "경일중학교",
    "address": "대구광역시 서구 원대동1가 440",
    "lat": 35.8812600509382,
    "lng": 128.576033358053,
    "region": "대구광역시"
  },
  {
    "name": "삼익공원",
    "address": "대구광역시 서구 내당동 308-1",
    "lat": 35.86006073361411,
    "lng": 128.5502938005172,
    "region": "대구광역시"
  },
  {
    "name": "상록수어린이공원",
    "address": "대구광역시 수성구 중동 127",
    "lat": 35.8441366,
    "lng": 128.615471,
    "region": "대구광역시"
  },
  {
    "name": "보람공원",
    "address": "대구광역시 수성구 두산동 43",
    "lat": 35.837303860173975,
    "lng": 128.6209390734555,
    "region": "대구광역시"
  },
  {
    "name": "달무리공원",
    "address": "대구광역시 수성구 시지동 487",
    "lat": 35.84098761968095,
    "lng": 128.6930621101911,
    "region": "대구광역시"
  },
  {
    "name": "황제공원",
    "address": "대구광역시 서구 내당동 11-14",
    "lat": 35.86406825675757,
    "lng": 128.565819125,
    "region": "대구광역시"
  },
  {
    "name": "동대구로동네체육공원",
    "address": "대구광역시 동구 신천동 742",
    "lat": 35.87256832092355,
    "lng": 128.62578392028837,
    "region": "대구광역시"
  },
  {
    "name": "호돌이공원",
    "address": "대구광역시 수성구 수성동4가 1009-2",
    "lat": 35.861067758432874,
    "lng": 128.62010002764845,
    "region": "대구광역시"
  },
  {
    "name": "말뫼공원",
    "address": "대구광역시 수성구 두산동 741-7",
    "lat": 35.8253177,
    "lng": 128.626399,
    "region": "대구광역시"
  },
  {
    "name": "무학공원",
    "address": "대구광역시 수성구 지산동 1293",
    "lat": 35.82504672874667,
    "lng": 128.63966435194044,
    "region": "대구광역시"
  },
  {
    "name": "수성구구민운동장",
    "address": "대구광역시 수성구 범어동 355",
    "lat": 35.84917783577351,
    "lng": 128.629943917934,
    "region": "대구광역시"
  },
  {
    "name": "세각단공원",
    "address": "대구광역시 수성구 지산동 1265",
    "lat": 35.826910384811434,
    "lng": 128.6331877519636,
    "region": "대구광역시"
  },
  {
    "name": "고산공원",
    "address": "대구광역시 수성구 시지동 137-5",
    "lat": 35.84487673892062,
    "lng": 128.69485346611435,
    "region": "대구광역시"
  },
  {
    "name": "서도초등학교",
    "address": "대구광역시 서구 평리동 1111-1",
    "lat": 35.86681078012988,
    "lng": 128.56586622704984,
    "region": "대구광역시"
  },
  {
    "name": "누리어린이공원",
    "address": "대구광역시 수성구 매호동 1330-2",
    "lat": 35.84184603715643,
    "lng": 128.70593731470336,
    "region": "대구광역시"
  },
  {
    "name": "덕화공원",
    "address": "대구광역시 수성구 상동 400-1",
    "lat": 35.831908,
    "lng": 128.615478,
    "region": "대구광역시"
  },
  {
    "name": "샛터공원",
    "address": "대구광역시 수성구 두산동 41",
    "lat": 35.8377652,
    "lng": 128.620853,
    "region": "대구광역시"
  },
  {
    "name": "신기공원",
    "address": "대구광역시 수성구 신매동 586",
    "lat": 35.834592269735474,
    "lng": 128.70824035661613,
    "region": "대구광역시"
  },
  {
    "name": "노변공원",
    "address": "대구광역시 수성구 시지동 501",
    "lat": 35.839221913668666,
    "lng": 128.699030899186,
    "region": "대구광역시"
  },
  {
    "name": "지산어린이공원",
    "address": "대구광역시 수성구 지산동 1013",
    "lat": 35.8350172,
    "lng": 128.627493,
    "region": "대구광역시"
  },
  {
    "name": "사월공원",
    "address": "대구광역시 수성구 사월동 646",
    "lat": 35.838222684091626,
    "lng": 128.7218379978827,
    "region": "대구광역시"
  },
  {
    "name": "중동어린이공원",
    "address": "대구광역시 수성구 중동 171",
    "lat": 35.8415854,
    "lng": 128.615541,
    "region": "대구광역시"
  },
  {
    "name": "수동공원",
    "address": "대구광역시 수성구 지산동 1280",
    "lat": 35.8249305,
    "lng": 128.637002,
    "region": "대구광역시"
  },
  {
    "name": "용지어린이공원",
    "address": "대구광역시 수성구 범물동 1283-2",
    "lat": 35.82078409134686,
    "lng": 128.64622235298188,
    "region": "대구광역시"
  },
  {
    "name": "청솔공원",
    "address": "대구광역시 수성구 신매동 580-2",
    "lat": 35.83668434851571,
    "lng": 128.7060609489755,
    "region": "대구광역시"
  },
  {
    "name": "삼각어린이공원",
    "address": "대구광역시 수성구 매호동 1329",
    "lat": 35.8433,
    "lng": 128.7076,
    "region": "대구광역시"
  },
  {
    "name": "도동측백나무숲주차장",
    "address": "대구광역시 동구 도동 471",
    "lat": 35.918870628467516,
    "lng": 128.66211768324573,
    "region": "대구광역시"
  },
  {
    "name": "대경공원",
    "address": "대구광역시 수성구 황금동 882-2",
    "lat": 35.8413794,
    "lng": 128.618127,
    "region": "대구광역시"
  },
  {
    "name": "무궁화공원",
    "address": "대구광역시 수성구 중동 12",
    "lat": 35.8508202,
    "lng": 128.615684,
    "region": "대구광역시"
  },
  {
    "name": "배수지어린이공원",
    "address": "대구광역시 수성구 범물동 1302",
    "lat": 35.816038375751496,
    "lng": 128.64829301834138,
    "region": "대구광역시"
  },
  {
    "name": "미진공원",
    "address": "대구광역시 수성구 시지동 498-1",
    "lat": 35.83773129061908,
    "lng": 128.69650266429474,
    "region": "대구광역시"
  },
  {
    "name": "대구어린이세상",
    "address": "대구광역시 수성구 황금동 626",
    "lat": 35.84601289033412,
    "lng": 128.6279397547186,
    "region": "대구광역시"
  },
  {
    "name": "평사공원",
    "address": "대구광역시 서구 평리동 1347",
    "lat": 35.8676,
    "lng": 128.5578,
    "region": "대구광역시"
  },
  {
    "name": "평리2동 소공원",
    "address": "대구광역시 서구 평리동 1177-4",
    "lat": 35.8681169626238,
    "lng": 128.56578290462514,
    "region": "대구광역시"
  },
  {
    "name": "대구과학기술고등학교",
    "address": "대구광역시 서구 내당동 456-1",
    "lat": 35.8566,
    "lng": 128.5484,
    "region": "대구광역시"
  },
  {
    "name": "기쁜소식대구교회",
    "address": "대구광역시 서구 상리동 287-2",
    "lat": 35.87698465583471,
    "lng": 128.52786988020037,
    "region": "대구광역시"
  },
  {
    "name": "대구북부시외버스터미널",
    "address": "대구광역시 서구 비산동 1856-3",
    "lat": 35.8845,
    "lng": 128.5552,
    "region": "대구광역시"
  },
  {
    "name": "중리중학교",
    "address": "대구광역시 서구 중리동 105-1",
    "lat": 35.8638,
    "lng": 128.5509,
    "region": "대구광역시"
  },
  {
    "name": "대구백화점 프라자 야외 주차장",
    "address": "대구광역시 중구 대봉동 121-316",
    "lat": 35.8576,
    "lng": 128.606,
    "region": "대구광역시"
  },
  {
    "name": "서남중학교",
    "address": "대구광역시 서구 중리동 713",
    "lat": 35.857970061045236,
    "lng": 128.54263007641407,
    "region": "대구광역시"
  },
  {
    "name": "꼼지락공원",
    "address": "대구광역시 서구 중리동 26-2",
    "lat": 35.86530865286783,
    "lng": 128.54809775948607,
    "region": "대구광역시"
  },
  {
    "name": "달성고등학교",
    "address": "대구광역시 서구 내당동 467-1",
    "lat": 35.8579,
    "lng": 128.5546,
    "region": "대구광역시"
  },
  {
    "name": "대구서부고등학교",
    "address": "대구광역시 서구 평리동 1070-48",
    "lat": 35.8744,
    "lng": 128.5599,
    "region": "대구광역시"
  },
  {
    "name": "당산목공원",
    "address": "대구광역시 서구 평리동 707-42",
    "lat": 35.877399761273544,
    "lng": 128.5625347495081,
    "region": "대구광역시"
  },
  {
    "name": "화원고등학교운동장",
    "address": "대구광역시 달성군 화원읍 설화리 553-13",
    "lat": 35.79733035917838,
    "lng": 128.48902514839236,
    "region": "대구광역시"
  },
  {
    "name": "장기공영주차장",
    "address": "대구광역시 달서구 장기동 817-1",
    "lat": 35.843293,
    "lng": 128.529602,
    "region": "대구광역시"
  },
  {
    "name": "신천둔치",
    "address": "대구광역시 중구 동인동3가 379",
    "lat": 35.87311602937365,
    "lng": 128.61188471317314,
    "region": "대구광역시"
  },
  {
    "name": "한강공원",
    "address": "대구광역시 북구 사수동 809",
    "lat": 35.89946161622657,
    "lng": 128.51286985042427,
    "region": "대구광역시"
  },
  {
    "name": "서동초등학교 운동장",
    "address": "대구광역시 달성군 다사읍 서재리 928",
    "lat": 35.87198690476433,
    "lng": 128.48891759280707,
    "region": "대구광역시"
  },
  {
    "name": "예슬어린이공원",
    "address": "대구광역시 달성군 화원읍 본리리 95",
    "lat": 35.801437411571584,
    "lng": 128.50840222366512,
    "region": "대구광역시"
  },
  {
    "name": "제일공원",
    "address": "대구광역시 서구 원대동3가 1458",
    "lat": 35.88345136975566,
    "lng": 128.5770391087518,
    "region": "대구광역시"
  },
  {
    "name": "무궁화고속관광 주차장",
    "address": "대구광역시 서구 내당동 12-37",
    "lat": 35.862717616294965,
    "lng": 128.56453031301518,
    "region": "대구광역시"
  },
  {
    "name": "계성고등학교",
    "address": "대구광역시 서구 상리동 687",
    "lat": 35.871090358593875,
    "lng": 128.52823734283464,
    "region": "대구광역시"
  },
  {
    "name": "대한적십자사 대구경북혈액원 주차장",
    "address": "대구광역시 중구 달성동 147-2",
    "lat": 35.8788,
    "lng": 128.5789,
    "region": "대구광역시"
  },
  {
    "name": "두류초등학교",
    "address": "대구광역시 서구 내당동 211-1",
    "lat": 35.8613,
    "lng": 128.5601,
    "region": "대구광역시"
  },
  {
    "name": "덕영주차장",
    "address": "대구광역시 중구 대신동 1250",
    "lat": 35.8644,
    "lng": 128.5742,
    "region": "대구광역시"
  },
  {
    "name": "신아중학교(운동장)",
    "address": "대구광역시 동구 신암동 28",
    "lat": 35.888522,
    "lng": 128.634912,
    "region": "대구광역시"
  },
  {
    "name": "청구고등학교(운동장)",
    "address": "대구광역시 동구 신천동 850-6",
    "lat": 35.868401,
    "lng": 128.620247,
    "region": "대구광역시"
  },
  {
    "name": "공산중학교(운동장)",
    "address": "대구광역시 동구 백안동 560-5",
    "lat": 35.955099132966424,
    "lng": 128.6896741390232,
    "region": "대구광역시"
  },
  {
    "name": "달구벌고등학교(운동장)",
    "address": "대구광역시 동구 덕곡동 75-5",
    "lat": 35.99409271471869,
    "lng": 128.61075818538689,
    "region": "대구광역시"
  },
  {
    "name": "대구관광고등학교(운동장)",
    "address": "대구광역시 동구 신암동 80",
    "lat": 35.89039732884588,
    "lng": 128.63183498382597,
    "region": "대구광역시"
  },
  {
    "name": "대구선명학교(운동장)",
    "address": "대구광역시 동구 덕곡동 34",
    "lat": 35.996684,
    "lng": 128.612695,
    "region": "대구광역시"
  },
  {
    "name": "대구일마이스터고등학교(운동장)",
    "address": "대구광역시 동구 효목동 212",
    "lat": 35.882505,
    "lng": 128.646484,
    "region": "대구광역시"
  },
  {
    "name": "동촌초등학교(운동장)",
    "address": "대구광역시 동구 방촌동 1047",
    "lat": 35.88207267363207,
    "lng": 128.65912890772378,
    "region": "대구광역시"
  },
  {
    "name": "봉무초등학교(운동장)",
    "address": "대구광역시 동구 봉무동 1527",
    "lat": 35.92549977634474,
    "lng": 128.63728779375376,
    "region": "대구광역시"
  },
  {
    "name": "불로중학교(운동장)",
    "address": "대구광역시 동구 불로동 1010",
    "lat": 35.89800505217806,
    "lng": 128.6336751642755,
    "region": "대구광역시"
  },
  {
    "name": "새론중학교(운동장)",
    "address": "대구광역시 동구 신서동 1137",
    "lat": 35.879089298225715,
    "lng": 128.72483570995746,
    "region": "대구광역시"
  },
  {
    "name": "신성초등학교(운동장)",
    "address": "대구광역시 동구 신암동 134-87",
    "lat": 35.89066718124993,
    "lng": 128.62993995362703,
    "region": "대구광역시"
  },
  {
    "name": "영신고등학교(운동장)",
    "address": "대구광역시 동구 봉무동 524",
    "lat": 35.91930457071278,
    "lng": 128.64642512995005,
    "region": "대구광역시"
  },
  {
    "name": "대구일과학고등학교(운동장)",
    "address": "대구광역시 동구 각산동 1046",
    "lat": 35.886691352494374,
    "lng": 128.72254763520567,
    "region": "대구광역시"
  },
  {
    "name": "입석중학교(운동장)",
    "address": "대구광역시 동구 입석동 951",
    "lat": 35.891184,
    "lng": 128.644383,
    "region": "대구광역시"
  },
  {
    "name": "해서초등학교(운동장)",
    "address": "대구광역시 동구 봉무동 1571",
    "lat": 35.918062,
    "lng": 128.643059,
    "region": "대구광역시"
  },
  {
    "name": "대구선동촌공원",
    "address": "대구광역시 동구 입석동 893-9",
    "lat": 35.890399586211835,
    "lng": 128.6496935419591,
    "region": "대구광역시"
  },
  {
    "name": "동촌유원지",
    "address": "대구광역시 동구 효목동 970",
    "lat": 35.883581671678044,
    "lng": 128.64860157945031,
    "region": "대구광역시"
  },
  {
    "name": "동호근린공원",
    "address": "대구광역시 동구 동호동 360",
    "lat": 35.86569443884926,
    "lng": 128.71909344137214,
    "region": "대구광역시"
  },
  {
    "name": "신서근린공원",
    "address": "대구광역시 동구 신서동 539",
    "lat": 35.866604993675544,
    "lng": 128.72817510319874,
    "region": "대구광역시"
  },
  {
    "name": "율하근린공원",
    "address": "대구광역시 동구 율하동 1105",
    "lat": 35.8673,
    "lng": 128.6902,
    "region": "대구광역시"
  },
  {
    "name": "반계근린공원",
    "address": "대구광역시 동구 율하동 1416",
    "lat": 35.86246981137899,
    "lng": 128.6956125497822,
    "region": "대구광역시"
  },
  {
    "name": "대구선아양공원",
    "address": "대구광역시 동구 신암동 371-1",
    "lat": 35.88273166406017,
    "lng": 128.63414035315094,
    "region": "대구광역시"
  },
  {
    "name": "송호지근린공원",
    "address": "대구광역시 동구 상매동 502",
    "lat": 35.889450513411184,
    "lng": 128.70515291058504,
    "region": "대구광역시"
  },
  {
    "name": "새론근린공원",
    "address": "대구광역시 동구 각산동 1060",
    "lat": 35.885859,
    "lng": 128.717274,
    "region": "대구광역시"
  },
  {
    "name": "동내여울근린공원",
    "address": "대구광역시 동구 동내동 1115-4",
    "lat": 35.880453218707174,
    "lng": 128.7380182743077,
    "region": "대구광역시"
  },
  {
    "name": "돌고래어린이공원",
    "address": "대구광역시 동구 각산동 1043-1",
    "lat": 35.88861416626478,
    "lng": 128.71647816722185,
    "region": "대구광역시"
  },
  {
    "name": "거북이어린이공원",
    "address": "대구광역시 동구 각산동 1164",
    "lat": 35.877480174117,
    "lng": 128.72094869613687,
    "region": "대구광역시"
  },
  {
    "name": "경운중학교",
    "address": "대구광역시 서구 내당동 352-4",
    "lat": 35.8595,
    "lng": 128.5545,
    "region": "대구광역시"
  },
  {
    "name": "대구광역시청 주차장",
    "address": "대구광역시 중구 동인동2가 2-1",
    "lat": 35.87085562086328,
    "lng": 128.60135436058067,
    "region": "대구광역시"
  },
  {
    "name": "동내향수근린공원",
    "address": "대구광역시 동구 동내동 1119-3",
    "lat": 35.875883,
    "lng": 128.73768,
    "region": "대구광역시"
  },
  {
    "name": "사복노을근린공원",
    "address": "대구광역시 동구 사복동 837-5",
    "lat": 35.877263,
    "lng": 128.749062,
    "region": "대구광역시"
  },
  {
    "name": "숙천꿈마루근린공원",
    "address": "대구광역시 동구 숙천동 391",
    "lat": 35.876010996853815,
    "lng": 128.7536287307744,
    "region": "대구광역시"
  },
  {
    "name": "햇님어린이공원",
    "address": "대구광역시 동구 율하동 1001",
    "lat": 35.869028,
    "lng": 128.695908,
    "region": "대구광역시"
  },
  {
    "name": "달님어린이공원",
    "address": "대구광역시 동구 율하동 929-4",
    "lat": 35.869026,
    "lng": 128.698849,
    "region": "대구광역시"
  },
  {
    "name": "믿음어린이공원",
    "address": "대구광역시 동구 율하동 1022",
    "lat": 35.866551,
    "lng": 128.701184,
    "region": "대구광역시"
  },
  {
    "name": "아라어린이공원",
    "address": "대구광역시 동구 동호동 388",
    "lat": 35.864791434990174,
    "lng": 128.7248091849015,
    "region": "대구광역시"
  },
  {
    "name": "금강어린이공원",
    "address": "대구광역시 동구 신서동 567",
    "lat": 35.864586,
    "lng": 128.729594,
    "region": "대구광역시"
  },
  {
    "name": "바람꽃어린이공원",
    "address": "대구광역시 동구 율하동 1218",
    "lat": 35.86659582454991,
    "lng": 128.6942004809045,
    "region": "대구광역시"
  },
  {
    "name": "금낭화어린이공원",
    "address": "대구광역시 동구 율하동 1315",
    "lat": 35.86171769697778,
    "lng": 128.68806481361423,
    "region": "대구광역시"
  },
  {
    "name": "��부쟁이어린이공원",
    "address": "대구광역시 동구 율하동 1466",
    "lat": 35.864665249009974,
    "lng": 128.69881510734598,
    "region": "대구광역시"
  },
  {
    "name": "다람쥐어린이공원",
    "address": "대구광역시 동구 각산동 1029-1",
    "lat": 35.8855146502512,
    "lng": 128.71409915229,
    "region": "대구광역시"
  },
  {
    "name": "한마음공원",
    "address": "대구광역시 달서구 유천동 608",
    "lat": 35.81709796070224,
    "lng": 128.51494542374115,
    "region": "대구광역시"
  },
  {
    "name": "성지초등학교 학교운동장",
    "address": "대구광역시 달서구 용산동 412-4",
    "lat": 35.85266423014147,
    "lng": 128.51876109841228,
    "region": "대구광역시"
  },
  {
    "name": "대청초등학교",
    "address": "대구광역시 수성구 만촌동 873",
    "lat": 35.85095254934361,
    "lng": 128.65044414997132,
    "region": "대구광역시"
  },
  {
    "name": "중리초등학교",
    "address": "대구광역시 서구 이현동 48-60",
    "lat": 35.8694,
    "lng": 128.5452,
    "region": "대구광역시"
  },
  {
    "name": "달서초등학교",
    "address": "대구광역시 서구 중리동 65-2",
    "lat": 35.8663,
    "lng": 128.5505,
    "region": "대구광역시"
  },
  {
    "name": "서대구공단완충녹지",
    "address": "대구광역시 서구 중리동 342-46",
    "lat": 35.865778160502416,
    "lng": 128.54634895921285,
    "region": "대구광역시"
  },
  {
    "name": "경운초등학교",
    "address": "대구광역시 서구 내당동 296",
    "lat": 35.8615,
    "lng": 128.5529,
    "region": "대구광역시"
  },
  {
    "name": "평리초등학교",
    "address": "대구광역시 서구 평리동 1070-37",
    "lat": 35.8727,
    "lng": 128.5599,
    "region": "대구광역시"
  },
  {
    "name": "경덕여자고등학교",
    "address": "대구광역시 서구 중리동 100-1",
    "lat": 35.8643,
    "lng": 128.5494,
    "region": "대구광역시"
  },
  {
    "name": "인지초등학교",
    "address": "대구광역시 서구 비산동 1025-10",
    "lat": 35.8868,
    "lng": 128.5666,
    "region": "대구광역시"
  },
  {
    "name": "감삼못공원",
    "address": "대구광역시 서구 내당동 463-7",
    "lat": 35.85830048348378,
    "lng": 128.5524151489213,
    "region": "대구광역시"
  }
]