[
  {
    "name": "대전화정초등학교 운동장",
    "address": "대전광역시 대덕구 오정동 93-1",
    "lat": 36.356911318730226,
    "lng": 127.41222226867623,
    "region": "대전광역시"
  },
  {
    "name": "대전중리초등학교  운동장",
    "address": "대전광역시 대덕구 법동 284-4",
    "lat": 36.36749268082329,
    "lng": 127.42722240011919,
    "region": "대전광역시"
  },
  {
    "name": "진잠초등학교 운동장",
    "address": "대전광역시 유성구 원내동 62",
    "lat": 36.29932232016055,
    "lng": 127.3149577019149,
    "region": "대전광역시"
  },
  {
    "name": "봉명초등학교 운동장",
    "address": "대전광역시 유성구 봉명동 1023",
    "lat": 36.34946618233118,
    "lng": 127.3435837586923,
    "region": "대전광역시"
  },
  {
    "name": "덕송초등학교 운동장",
    "address": "대전광역시 유성구 덕명동 498",
    "lat": 36.361028216217,
    "lng": 127.30192492373193,
    "region": "대전광역시"
  },
  {
    "name": "전민초등학교 운동장",
    "address": "대전광역시 유성구 전민동 468",
    "lat": 36.39844572223531,
    "lng": 127.40714331694495,
    "region": "대전광역시"
  },
  {
    "name": "월평초등학교운동장",
    "address": "대전광역시 서구 월평동 314",
    "lat": 36.35550541601638,
    "lng": 127.3577793139614,
    "region": "대전광역시"
  },
  {
    "name": "학하초등학교 운동장",
    "address": "대전광역시 유성구 학하동 580-1",
    "lat": 36.33440505206067,
    "lng": 127.31224170432378,
    "region": "대전광역시"
  },
  {
    "name": "신탄진초등학교  운동장",
    "address": "대전광역시 대덕구 석봉동 308-7",
    "lat": 36.44907401892214,
    "lng": 127.42230833071467,
    "region": "대전광역시"
  },
  {
    "name": "유천초등학교운동장",
    "address": "대전광역시 서구 도마동 149-1",
    "lat": 36.314476839175825,
    "lng": 127.37581696429467,
    "region": "대전광역시"
  },
  {
    "name": "기성중학교운동장",
    "address": "대전광역시 서구 흑석동 295",
    "lat": 36.25048597446611,
    "lng": 127.34118504656634,
    "region": "대전광역시"
  },
  {
    "name": "대전중원초등학교  운동장",
    "address": "대전광역시 대덕구 중리동 371-5",
    "lat": 36.36541840008397,
    "lng": 127.42764061473305,
    "region": "대전광역시"
  },
  {
    "name": "가장초등학교운동장",
    "address": "대전광역시 서구 가장동 25-1",
    "lat": 36.330541569399685,
    "lng": 127.38854002090511,
    "region": "대전광역시"
  },
  {
    "name": "노은초등학교 운동장",
    "address": "대전광역시 유성구 노은동 540",
    "lat": 36.36898536622618,
    "lng": 127.321386010471,
    "region": "대전광역시"
  },
  {
    "name": "대전회덕초등학교  운동장",
    "address": "대전광역시 대덕구 읍내동 317",
    "lat": 36.37446115318212,
    "lng": 127.42141578947526,
    "region": "대전광역시"
  },
  {
    "name": "유성초등학교 운동장",
    "address": "대전광역시 유성구 장대동 155",
    "lat": 36.36215484472587,
    "lng": 127.3333291573663,
    "region": "대전광역시"
  },
  {
    "name": "외삼초등학교 운동장",
    "address": "대전광역시 유성구 반석동 244",
    "lat": 36.39300354039569,
    "lng": 127.31058955192566,
    "region": "대전광역시"
  },
  {
    "name": "가수원중학교운동장",
    "address": "대전광역시 서구 가수원동 806-18",
    "lat": 36.297967548271515,
    "lng": 127.35459837774167,
    "region": "대전광역시"
  },
  {
    "name": "장대초등학교 운동장",
    "address": "대전광역시 유성구 장대동 348",
    "lat": 36.36153199629948,
    "lng": 127.3393672392681,
    "region": "대전광역시"
  },
  {
    "name": "용산초등학교 운동장",
    "address": "대전광역시 유성구 용산동 662",
    "lat": 36.419973396062524,
    "lng": 127.39477257391977,
    "region": "대전광역시"
  },
  {
    "name": "만년초등학교운동장",
    "address": "대전광역시 서구 만년동 280",
    "lat": 36.36671956417664,
    "lng": 127.37729241429474,
    "region": "대전광역시"
  },
  {
    "name": "도마동제3공영주차장",
    "address": "대전광역시 서구 도마동 134-26",
    "lat": 36.3154217609567,
    "lng": 127.3823891174634,
    "region": "대전광역시"
  },
  {
    "name": "정림동제2공영주차장",
    "address": "대전광역시 서구 정림동 127-1",
    "lat": 36.30550928692081,
    "lng": 127.36837842687157,
    "region": "대전광역시"
  },
  {
    "name": "대전대화초등학교  운동장",
    "address": "대전광역시 대덕구 대화동 244-5",
    "lat": 36.36288608197898,
    "lng": 127.41129499847817,
    "region": "대전광역시"
  },
  {
    "name": "변동중학교운동장",
    "address": "대전광역시 서구 변동 54-1",
    "lat": 36.324061910176106,
    "lng": 127.37589512664064,
    "region": "대전광역시"
  },
  {
    "name": "충남중학교 운동장",
    "address": "대전광역시 동구 신흥동 168",
    "lat": 36.324880749117966,
    "lng": 127.44425460762871,
    "region": "대전광역시"
  },
  {
    "name": "가오초등학교 운동장",
    "address": "대전광역시 동구 가오동 498",
    "lat": 36.31066590030148,
    "lng": 127.45844166937503,
    "region": "대전광역시"
  },
  {
    "name": "자양초등학교 운동장",
    "address": "대전광역시 동구 자양동 221-2",
    "lat": 36.33306257921037,
    "lng": 127.44305177487799,
    "region": "대전광역시"
  },
  {
    "name": "한밭여자중학교 운동장",
    "address": "대전광역시 동구 대동 28",
    "lat": 36.329350619676426,
    "lng": 127.44896820790738,
    "region": "대전광역시"
  },
  {
    "name": "동아마이스터고등학교 운동장",
    "address": "대전광역시 동구 자양동 2",
    "lat": 36.343630624621504,
    "lng": 127.45373162777534,
    "region": "대전광역시"
  },
  {
    "name": "세천초등학교 운동장",
    "address": "대전광역시 동구 세천동 70",
    "lat": 36.341346578017514,
    "lng": 127.49361687495683,
    "region": "대전광역시"
  },
  {
    "name": "가양중학교 운동장",
    "address": "대전광역시 동구 가양동 36-2",
    "lat": 36.350417284379354,
    "lng": 127.44827889200236,
    "region": "대전광역시"
  },
  {
    "name": "대동초등학교 운동장",
    "address": "대전광역시 동구 대동 198-10",
    "lat": 36.32505284261575,
    "lng": 127.44682532062679,
    "region": "대전광역시"
  },
  {
    "name": "가양초등학교 운동장",
    "address": "대전광역시 동구 가양동 336-1",
    "lat": 36.341509529028855,
    "lng": 127.44096100330354,
    "region": "대전광역시"
  },
  {
    "name": "명석고등학교 운동장",
    "address": "대전광역시 동구 가양동 116",
    "lat": 36.35247626308657,
    "lng": 127.454615850355,
    "region": "대전광역시"
  },
  {
    "name": "용전초등학교 운동장",
    "address": "대전광역시 동구 용전동 40-2",
    "lat": 36.356211447667555,
    "lng": 127.4300719536475,
    "region": "대전광역시"
  },
  {
    "name": "대전성남초등학교 운동장",
    "address": "대전광역시 동구 성남동 193-5",
    "lat": 36.34327327875609,
    "lng": 127.42964815950455,
    "region": "대전광역시"
  },
  {
    "name": "현암초등학교 운동장",
    "address": "대전광역시 동구 삼성동 353-1",
    "lat": 36.34175066145269,
    "lng": 127.42062804530431,
    "region": "대전광역시"
  },
  {
    "name": "두리중학교 운동장",
    "address": "대전광역시 유성구 송강동 162",
    "lat": 36.42885756821465,
    "lng": 127.38198302232972,
    "region": "대전광역시"
  },
  {
    "name": "천동초등학교 운동장",
    "address": "대전광역시 동구 천동 214-1",
    "lat": 36.31661207250697,
    "lng": 127.44536250829695,
    "region": "대전광역시"
  },
  {
    "name": "판암초등학교 운동장",
    "address": "대전광역시 동구 판암동 334-1",
    "lat": 36.31555165528565,
    "lng": 127.46073888870103,
    "region": "대전광역시"
  },
  {
    "name": "대전동산초등학교 운동장",
    "address": "대전광역시 대덕구 오정동 230",
    "lat": 36.350305149367166,
    "lng": 127.42183407032893,
    "region": "대전광역시"
  },
  {
    "name": "와동초등학교 운동장",
    "address": "대전광역시 대덕구 신대동 372-1",
    "lat": 36.39731861973562,
    "lng": 127.42220867298325,
    "region": "대전광역시"
  },
  {
    "name": "산내초등학교 운동장",
    "address": "대전광역시 동구 낭월동 632",
    "lat": 36.2792114437127,
    "lng": 127.4698494841021,
    "region": "대전광역시"
  },
  {
    "name": "가오중학교 운동장",
    "address": "대전광역시 동구 가오동 171-6",
    "lat": 36.30844071510496,
    "lng": 127.457439174503,
    "region": "대전광역시"
  },
  {
    "name": "동대전중학교 운동장",
    "address": "대전광역시 동구 가양동 10",
    "lat": 36.34539836277619,
    "lng": 127.45492458343504,
    "region": "대전광역시"
  },
  {
    "name": "지족초등학교 운동장",
    "address": "대전광역시 유성구 지족동 850",
    "lat": 36.380600202990216,
    "lng": 127.3172657953813,
    "region": "대전광역시"
  },
  {
    "name": "문지초등학교 운동장",
    "address": "대전광역시 유성구 문지동 285-9",
    "lat": 36.395819835396004,
    "lng": 127.39951424921621,
    "region": "대전광역시"
  },
  {
    "name": "수정초등학교 운동장",
    "address": "대전광역시 유성구 노은동 552-2",
    "lat": 36.36589020349862,
    "lng": 127.31346730957252,
    "region": "대전광역시"
  },
  {
    "name": "도마중학교운동장",
    "address": "대전광역시 서구 도마동 111-3",
    "lat": 36.3185073607382,
    "lng": 127.37226914895531,
    "region": "대전광역시"
  },
  {
    "name": "금성초등학교 운동장",
    "address": "대전광역시 유성구 신성동 210-12",
    "lat": 36.38897921452144,
    "lng": 127.35000387396282,
    "region": "대전광역시"
  },
  {
    "name": "변동초등학교운동장",
    "address": "대전광역시 서구 변동 36-3",
    "lat": 36.32456785603397,
    "lng": 127.38534031219753,
    "region": "대전광역시"
  },
  {
    "name": "신흥초등학교 운동장",
    "address": "대전광역시 동구 신흥동 150-3",
    "lat": 36.32542300426799,
    "lng": 127.43998732522597,
    "region": "대전광역시"
  },
  {
    "name": "동신중학교 운동장",
    "address": "대전광역시 동구 판암동 241",
    "lat": 36.32054935407604,
    "lng": 127.45907298989798,
    "region": "대전광역시"
  },
  {
    "name": "계룡디지텍고등학교 운동장",
    "address": "대전광역시 동구 삼성동 104-1",
    "lat": 36.33663579058983,
    "lng": 127.43412544906715,
    "region": "대전광역시"
  },
  {
    "name": "대전송촌중학교  운동장",
    "address": "대전광역시 대덕구 송촌동 495-10",
    "lat": 36.36400404540332,
    "lng": 127.44327095515524,
    "region": "대전광역시"
  },
  {
    "name": "구즉초등학교 운동장",
    "address": "대전광역시 유성구 봉산동 796-16",
    "lat": 36.44062336975581,
    "lng": 127.3826883869238,
    "region": "대전광역시"
  },
  {
    "name": "용운초등학교 운동장",
    "address": "대전광역시 동구 용운동 303",
    "lat": 36.3265788993448,
    "lng": 127.46394124737428,
    "region": "대전광역시"
  },
  {
    "name": "삼성초등학교 운동장",
    "address": "대전광역시 동구 삼성동 113-1",
    "lat": 36.33700776796788,
    "lng": 127.42912394225188,
    "region": "대전광역시"
  },
  {
    "name": "탄방초등학교운동장",
    "address": "대전광역시 서구 탄방동 814",
    "lat": 36.34528780121922,
    "lng": 127.39089746237708,
    "region": "대전광역시"
  },
  {
    "name": "한밭중학교 운동장",
    "address": "대전광역시 동구 삼성동 282-1",
    "lat": 36.33533710039332,
    "lng": 127.42632090613648,
    "region": "대전광역시"
  },
  {
    "name": "보문고등학교 운동장",
    "address": "대전광역시 동구 삼성동 283-58",
    "lat": 36.336505159347055,
    "lng": 127.42406074017129,
    "region": "대전광역시"
  },
  {
    "name": "가수원초등학교운동장",
    "address": "대전광역시 서구 가수원동 471",
    "lat": 36.30251647462362,
    "lng": 127.35339842092017,
    "region": "대전광역시"
  },
  {
    "name": "건양대학교 대전메디컬 캠퍼스 주차장",
    "address": "대전광역시 서구 관저동 1901",
    "lat": 36.30400353705548,
    "lng": 127.3442100515401,
    "region": "대전광역시"
  },
  {
    "name": "대전과학기술대학교운동장",
    "address": "대전광역시 서구 복수동 333",
    "lat": 36.30333816783091,
    "lng": 127.37755038768339,
    "region": "대전광역시"
  },
  {
    "name": "배재대학교운동장",
    "address": "대전광역시 서구 도마동 439-6",
    "lat": 36.32064544098117,
    "lng": 127.36722381802554,
    "region": "대전광역시"
  },
  {
    "name": "대전법동초등학교 운동장",
    "address": "대전광역시 대덕구 법동 191-3",
    "lat": 36.368945,
    "lng": 127.43257,
    "region": "대전광역시"
  },
  {
    "name": "대전비래초등학교 운동장",
    "address": "대전광역시 대덕구 비래동 245-1",
    "lat": 36.3612231035989,
    "lng": 127.45145896944493,
    "region": "대전광역시"
  },
  {
    "name": "새일초등학교 운동장",
    "address": "대전광역시 대덕구 덕암동 110-1",
    "lat": 36.432266,
    "lng": 127.419152,
    "region": "대전광역시"
  },
  {
    "name": "대전삼천중학교운동장",
    "address": "대전광역시 서구 둔산동 911",
    "lat": 36.358331464348026,
    "lng": 127.39436545178818,
    "region": "대전광역시"
  },
  {
    "name": "신탄진용정초등학교 운동장",
    "address": "대전광역시 대덕구 신탄진동 686-8",
    "lat": 36.45351972782086,
    "lng": 127.43560413354575,
    "region": "대전광역시"
  },
  {
    "name": "대전금동초등학교운동장",
    "address": "대전광역시 서구 관저동 1141",
    "lat": 36.29825255520915,
    "lng": 127.32591659170103,
    "region": "대전광역시"
  },
  {
    "name": "대전도안초등학교운동장",
    "address": "대전광역시 서구 도안동 1363",
    "lat": 36.321210278816096,
    "lng": 127.34467994441334,
    "region": "대전광역시"
  },
  {
    "name": "대전신계초등학교운동장",
    "address": "대전광역시 서구 복수동 452",
    "lat": 36.301412186925724,
    "lng": 127.37807545784754,
    "region": "대전광역시"
  },
  {
    "name": "계산초등학교 운동장",
    "address": "대전광역시 유성구 계산동 720",
    "lat": 36.34383205031808,
    "lng": 127.29908287525176,
    "region": "대전광역시"
  },
  {
    "name": "남선초등학교 운동장",
    "address": "대전광역시 유성구 송정동 150-1",
    "lat": 36.28735524053729,
    "lng": 127.26462005575473,
    "region": "대전광역시"
  },
  {
    "name": "대정초등학교 운동장",
    "address": "대전광역시 유성구 대정동 310",
    "lat": 36.31512819757992,
    "lng": 127.32335731420068,
    "region": "대전광역시"
  },
  {
    "name": "새미래초등학교 운동장",
    "address": "대전광역시 유성구 지족동 1044",
    "lat": 36.37928689133298,
    "lng": 127.30312468178585,
    "region": "대전광역시"
  },
  {
    "name": "어은초등학교 운동장",
    "address": "대전광역시 유성구 어은동 98",
    "lat": 36.364778440856576,
    "lng": 127.35362216547297,
    "region": "대전광역시"
  },
  {
    "name": "반석초등학교 운동장",
    "address": "대전광역시 유성구 반석동 648",
    "lat": 36.389932246243035,
    "lng": 127.31291441484966,
    "region": "대전광역시"
  },
  {
    "name": "관평초등학교 운동장",
    "address": "대전광역시 유성구 관평동 900",
    "lat": 36.42385136471902,
    "lng": 127.38733185838656,
    "region": "대전광역시"
  },
  {
    "name": "원신흥초등학교 운동장",
    "address": "대전광역시 유성구 원신흥동 496",
    "lat": 36.34098768554641,
    "lng": 127.34254823700749,
    "region": "대전광역시"
  },
  {
    "name": "하기초등학교 운동장",
    "address": "대전광역시 유성구 하기동 514",
    "lat": 36.388642117009745,
    "lng": 127.32162785776556,
    "region": "대전광역시"
  },
  {
    "name": "흥도초등학교 운동장",
    "address": "대전광역시 유성구 원신흥동 555",
    "lat": 36.33415015241579,
    "lng": 127.33878298616386,
    "region": "대전광역시"
  },
  {
    "name": "상지초등학교 운동장",
    "address": "대전광역시 유성구 지족동 915",
    "lat": 36.375364435987656,
    "lng": 127.32191438868415,
    "region": "대전광역시"
  },
  {
    "name": "송림초등학교 운동장",
    "address": "대전광역시 유성구 하기동 548",
    "lat": 36.38866950169189,
    "lng": 127.33254754977253,
    "region": "대전광역시"
  },
  {
    "name": "대덕초등학교 운동장",
    "address": "대전광역시 유성구 도룡동 396",
    "lat": 36.385096934572935,
    "lng": 127.3813053327172,
    "region": "대전광역시"
  },
  {
    "name": "송강초등학교 운동장",
    "address": "대전광역시 유성구 송강동 196",
    "lat": 36.433940492340085,
    "lng": 127.38409289983544,
    "region": "대전광역시"
  },
  {
    "name": "대전갑천초등학교운동장",
    "address": "대전광역시 서구 월평동 308",
    "lat": 36.3603120104971,
    "lng": 127.36757344681767,
    "region": "대전광역시"
  },
  {
    "name": "대전원앙초등학교운동장",
    "address": "대전광역시 서구 관저동 49",
    "lat": 36.31119991066935,
    "lng": 127.3362945739706,
    "region": "대전광역시"
  },
  {
    "name": "대전둔원중학교운동장",
    "address": "대전광역시 서구 갈마동 1416",
    "lat": 36.34231292104549,
    "lng": 127.37693034911688,
    "region": "대전광역시"
  },
  {
    "name": "대전목상초등학교 운동장",
    "address": "대전광역시 대덕구 목상동 870",
    "lat": 36.44516,
    "lng": 127.412649,
    "region": "대전광역시"
  },
  {
    "name": "대전내동초등학교운동장",
    "address": "대전광역시 서구 내동 13-1",
    "lat": 36.330703713630996,
    "lng": 127.37881461699465,
    "region": "대전광역시"
  },
  {
    "name": "목원대학교운동장",
    "address": "대전광역시 서구 도안동 800",
    "lat": 36.324639,
    "lng": 127.339251,
    "region": "대전광역시"
  },
  {
    "name": "대전동광초등학교 운동장",
    "address": "대전광역시 동구 자양동 94-3",
    "lat": 36.33691277620177,
    "lng": 127.44977181587845,
    "region": "대전광역시"
  },
  {
    "name": "우송고등학교 운동장",
    "address": "대전광역시 동구 자양동 226-2",
    "lat": 36.334863494775206,
    "lng": 127.44365930557252,
    "region": "대전광역시"
  },
  {
    "name": "대전보건대학교 운동장",
    "address": "대전광역시 동구 가양동 77-3",
    "lat": 36.34965819038062,
    "lng": 127.45475852812874,
    "region": "대전광역시"
  },
  {
    "name": "우송대학교 운���장",
    "address": "대전광역시 동구 자양동 155-3",
    "lat": 36.33763015357739,
    "lng": 127.44632086055613,
    "region": "대전광역시"
  },
  {
    "name": "대전대성여자고등학교 운동장",
    "address": "대전광역시 동구 가양동 309-3",
    "lat": 36.33779417702687,
    "lng": 127.44031259292598,
    "region": "대전광역시"
  },
  {
    "name": "대전용운중학교 운동장",
    "address": "대전광역시 동구 용운동 300",
    "lat": 36.32595084617753,
    "lng": 127.46526590766109,
    "region": "대전광역시"
  },
  {
    "name": "대전대학교 운동장",
    "address": "대전광역시 동구 용운동 96-3",
    "lat": 36.333671796080864,
    "lng": 127.4618471655847,
    "region": "대전광역시"
  },
  {
    "name": "대전흥룡초등학교 운동장",
    "address": "대전광역시 동구 가양동 399-1",
    "lat": 36.344970948173625,
    "lng": 127.44760430209328,
    "region": "대전광역시"
  },
  {
    "name": "대전가오고등학교 운동장",
    "address": "대전광역시 동구 가오동 427",
    "lat": 36.31052216721981,
    "lng": 127.45474433655545,
    "region": "대전광역시"
  },
  {
    "name": "동대전초등학교 운동장",
    "address": "대전광역시 동구 가양동 34-6",
    "lat": 36.35166611510427,
    "lng": 127.44893377318118,
    "region": "대전광역시"
  },
  {
    "name": "대전동신과학고등학교 운동장",
    "address": "대전광역시 동구 비룡동 555-1",
    "lat": 36.332736800247986,
    "lng": 127.47480407284958,
    "region": "대전광역시"
  },
  {
    "name": "한국폴리텍Ⅳ대학 운동장",
    "address": "대전광역시 동구 가양동 91-2",
    "lat": 36.3507453817517,
    "lng": 127.45401869620127,
    "region": "대전광역시"
  },
  {
    "name": "대전은어송초등학교 운동장",
    "address": "대전광역시 동구 대성동 129",
    "lat": 36.30227527329799,
    "lng": 127.45674765831741,
    "region": "대전광역시"
  },
  {
    "name": "대전은어송중학교 운동장",
    "address": "대전광역시 동구 대성동 134",
    "lat": 36.30048685481343,
    "lng": 127.46053477200114,
    "region": "대전광역시"
  },
  {
    "name": "산흥초등학교 운동장",
    "address": "대전광역시 동구 상소동 662-1",
    "lat": 36.22876077937815,
    "lng": 127.44838433135592,
    "region": "대전광역시"
  },
  {
    "name": "한밭초등학교",
    "address": "대전광역시 서구 둔산동 1386",
    "lat": 36.35397510659952,
    "lng": 127.39445880926009,
    "region": "대전광역시"
  },
  {
    "name": "대전새미래중학교 운동장",
    "address": "대전광역시 유성구 지족동 1045",
    "lat": 36.379337109476886,
    "lng": 127.30580975706714,
    "region": "대전광역시"
  },
  {
    "name": "대덕초등학교 도룡분교 운동장",
    "address": "대전광역시 유성구 도룡동 4",
    "lat": 36.37844902499827,
    "lng": 127.39126171204191,
    "region": "대전광역시"
  },
  {
    "name": "유성중학교 운동장",
    "address": "대전광역시 유성구 상대동 457",
    "lat": 36.34602396926294,
    "lng": 127.33530537888042,
    "region": "대전광역시"
  },
  {
    "name": "정림초등학교",
    "address": "대전광역시 서구 정림동 638",
    "lat": 36.303156433652894,
    "lng": 127.3668542167066,
    "region": "대전광역시"
  },
  {
    "name": "대전관평중학교 운동장",
    "address": "대전광역시 유성구 관평동 900",
    "lat": 36.424230628248246,
    "lng": 127.38722562789916,
    "region": "대전광역시"
  },
  {
    "name": "동화초등학교 운동장",
    "address": "대전광역시 유성구 관평동 1282",
    "lat": 36.42168254814931,
    "lng": 127.38867860621451,
    "region": "대전광역시"
  },
  {
    "name": "봉명중학교 운동장",
    "address": "대전광역시 유성구 봉명동 1022",
    "lat": 36.34957110482883,
    "lng": 127.34488275117542,
    "region": "대전광역시"
  },
  {
    "name": "원신흥중학교 운동장",
    "address": "대전광역시 유성구 원신흥동 526",
    "lat": 36.33275136586079,
    "lng": 127.345313525118,
    "region": "대전광역시"
  },
  {
    "name": "봉암초등학교 운동장",
    "address": "대전광역시 유성구 궁동 80",
    "lat": 36.36362224600124,
    "lng": 127.3479537315654,
    "region": "대전광역시"
  },
  {
    "name": "용산고등학교 운동장",
    "address": "대전광역시 유성구 용산동 658",
    "lat": 36.42070913781521,
    "lng": 127.39661319543178,
    "region": "대전광역시"
  },
  {
    "name": "전민고등학교 운동장",
    "address": "대전광역시 유성구 전민동 460-2",
    "lat": 36.397892140756646,
    "lng": 127.39963394021927,
    "region": "대전광역시"
  },
  {
    "name": "전자디자인고등학교 운동장",
    "address": "대전광역시 유성구 화암동 174",
    "lat": 36.41281888562025,
    "lng": 127.3776040628673,
    "region": "대전광역시"
  },
  {
    "name": "한밭대학교 종합운동장",
    "address": "대전광역시 유성구 덕명동 16-1",
    "lat": 36.35360579848788,
    "lng": 127.30140315484604,
    "region": "대전광역시"
  },
  {
    "name": "지족고등학교 운동장",
    "address": "대전광역시 유성구 지족동 857",
    "lat": 36.37764640596441,
    "lng": 127.31589658325875,
    "region": "대전광역시"
  },
  {
    "name": "대덕중학교 운동장",
    "address": "대전광역시 유성구 가정동 38",
    "lat": 36.378627318371166,
    "lng": 127.37768100361943,
    "region": "대전광역시"
  },
  {
    "name": "대전교촌초등학교 운동장",
    "address": "대전광역시 유성구 교촌동 618",
    "lat": 36.30586993746051,
    "lng": 127.31635731155696,
    "region": "대전광역시"
  },
  {
    "name": "느리울초등학교",
    "address": "대전광역시 서구 관저동 1396",
    "lat": 36.29850353235573,
    "lng": 127.34446617922188,
    "region": "대전광역시"
  },
  {
    "name": "갑천중학교",
    "address": "대전광역시 서구 월평동 306",
    "lat": 36.36144531514849,
    "lng": 127.36910663139109,
    "region": "대전광역시"
  },
  {
    "name": "만년중학교",
    "address": "대전광역시 서구 만년동 246",
    "lat": 36.3665881104285,
    "lng": 127.3759355300539,
    "region": "대전광역시"
  },
  {
    "name": "대전지족중학교 운동장",
    "address": "대전광역시 유성구 지족동 879",
    "lat": 36.37803403851565,
    "lng": 127.32003592264951,
    "region": "대전광역시"
  },
  {
    "name": "괴정고등학교",
    "address": "대전광역시 서구 괴정동 120",
    "lat": 36.339596704348736,
    "lng": 127.37960402269043,
    "region": "대전광역시"
  },
  {
    "name": "대전덕명중학교 운동장",
    "address": "대전광역시 유성구 덕명동 606",
    "lat": 36.34617539683646,
    "lng": 127.30242828637267,
    "region": "대전광역시"
  },
  {
    "name": "진잠중학교 운동장",
    "address": "대전광역시 유성구 원내동 404",
    "lat": 36.296648996073685,
    "lng": 127.31774886321159,
    "region": "대전광역시"
  },
  {
    "name": "갈마중학교",
    "address": "대전광역시 서구 갈마동 370-1",
    "lat": 36.34767487694156,
    "lng": 127.36492807154133,
    "region": "대전광역시"
  },
  {
    "name": "대전어은중학교 운동장",
    "address": "대전광역시 유성구 어은동 96",
    "lat": 36.36550629302789,
    "lng": 127.3524390952356,
    "region": "대전광역시"
  },
  {
    "name": "문정중학교",
    "address": "대전광역시 서구 둔산동 1806",
    "lat": 36.355160700799395,
    "lng": 127.40107489285758,
    "region": "대전광역시"
  },
  {
    "name": "대전노은중학교 운동장",
    "address": "대전광역시 유성구 노은동 524",
    "lat": 36.369882161832905,
    "lng": 127.32369307589337,
    "region": "대전광역시"
  },
  {
    "name": "봉우중학교",
    "address": "대전광역시 서구 관저동 1150",
    "lat": 36.29815675466112,
    "lng": 127.33290071823124,
    "region": "대전광역시"
  },
  {
    "name": "대전외삼중학교 운동장",
    "address": "대전광역시 유성구 반석동 614",
    "lat": 36.3940292676527,
    "lng": 127.31070923923484,
    "region": "대전광역시"
  },
  {
    "name": "성룡초등학교",
    "address": "대전광역시 서구 월평동 304",
    "lat": 36.361396640881246,
    "lng": 127.37361663326257,
    "region": "대전광역시"
  },
  {
    "name": "구봉초등학교운동장",
    "address": "대전광역시 서구 관저동 1133",
    "lat": 36.29949975017651,
    "lng": 127.3299293835194,
    "region": "대전광역시"
  },
  {
    "name": "도안중학교운동장",
    "address": "대전광역시 서구 도안동 1367",
    "lat": 36.317528806490785,
    "lng": 127.34561774366118,
    "region": "대전광역시"
  },
  {
    "name": "관저동공영주차장",
    "address": "대전광역시 서구 관저동 1510",
    "lat": 36.2993142688213,
    "lng": 127.33790521800944,
    "region": "대전광역시"
  },
  {
    "name": "괴정동제2공영주차장",
    "address": "대전광역시 서구 괴정동 88-2",
    "lat": 36.33531554702191,
    "lng": 127.38339495132114,
    "region": "대전광역시"
  },
  {
    "name": "선유초등학교운동장",
    "address": "대전광역시 서구 관저동 1592",
    "lat": 36.29434166685596,
    "lng": 127.34100538627136,
    "region": "대전광역시"
  },
  {
    "name": "탄방중학교운동장",
    "address": "대전광역시 서구 둔산동 1512",
    "lat": 36.35088248688848,
    "lng": 127.39438648123961,
    "region": "대전광역시"
  },
  {
    "name": "동명초등학교 운동장",
    "address": "대전광역시 동구 추동 327",
    "lat": 36.37377601740987,
    "lng": 127.47411990339614,
    "region": "대전광역시"
  },
  {
    "name": "대전여자고등학교 운동장",
    "address": "대전광역시 동구 대동 16-2",
    "lat": 36.32942784816122,
    "lng": 127.44678121836948,
    "region": "대전광역시"
  },
  {
    "name": "가오65,66,67호 근린공원",
    "address": "대전광역시 동구 가오동 558",
    "lat": 36.30628391119735,
    "lng": 127.45885246427781,
    "region": "대전광역시"
  },
  {
    "name": "대전 서대전초등학교 운동장",
    "address": "대전광역시 중구 용두동 27-13",
    "lat": 36.32640613398365,
    "lng": 127.41057865859622,
    "region": "대전광역시"
  },
  {
    "name": "대전 유평초등학교 운동장",
    "address": "대전광역시 중구 태평동 343-3",
    "lat": 36.33008797321627,
    "lng": 127.39770965888357,
    "region": "대전광역시"
  },
  {
    "name": "대전 문화초등학교 운동장",
    "address": "대전광역시 중구 문화동 674-1",
    "lat": 36.31107264440773,
    "lng": 127.39816011196727,
    "region": "대전광역시"
  },
  {
    "name": "대전 오류초등학교 운동장",
    "address": "대전광역시 중구 오류동 175-2",
    "lat": 36.32487795306576,
    "lng": 127.4046580932483,
    "region": "대전광역시"
  },
  {
    "name": "대전 중촌초등학교 운동장",
    "address": "대전광역시 중구 중촌동 83",
    "lat": 36.341132833656765,
    "lng": 127.41136541997766,
    "region": "대전광역시"
  },
  {
    "name": "대전 문화여자중학교 운동장",
    "address": "대전광역시 중구 문화동 204-4",
    "lat": 36.31323550392028,
    "lng": 127.40981389700393,
    "region": "대전광역시"
  },
  {
    "name": "대전 문창초등학교 운동장",
    "address": "대전광역시 중구 부사동 94-15",
    "lat": 36.31763093624874,
    "lng": 127.43348265579014,
    "region": "대전광역시"
  },
  {
    "name": "대전 대전중학교 운동장",
    "address": "대전광역시 중구 대흥동 361-2",
    "lat": 36.32098140740522,
    "lng": 127.42538641369143,
    "region": "대전광역시"
  },
  {
    "name": "대전 대문초등학교 운동장",
    "address": "대전광역시 중구 문화동 583-1",
    "lat": 36.30689083474616,
    "lng": 127.40065429055976,
    "region": "대전광역시"
  },
  {
    "name": "버드내 조폐공원",
    "address": "대전광역시 중구 태평동 421-5",
    "lat": 36.320875325568785,
    "lng": 127.38733484489698,
    "region": "대전광역시"
  },
  {
    "name": "대전 산성초등학교 운동장",
    "address": "대전광역시 중구 사정동 416-1",
    "lat": 36.29906534693385,
    "lng": 127.38541816945215,
    "region": "대전광역시"
  },
  {
    "name": "대전 목동초등학교 운동장",
    "address": "대전광역시 중구 목동 26-1",
    "lat": 36.33448827983118,
    "lng": 127.4085109910257,
    "region": "대전광역시"
  },
  {
    "name": "대전 옥계초등학교 운동장",
    "address": "대전광역시 중구 옥계동 65",
    "lat": 36.301365426573646,
    "lng": 127.44841065350013,
    "region": "대전광역시"
  },
  {
    "name": "서대전시민공원",
    "address": "대전광역시 중구 문화동 1-39",
    "lat": 36.320946694562934,
    "lng": 127.41160641928283,
    "region": "대전광역시"
  },
  {
    "name": "대전 보운초등학교 운동장",
    "address": "대전광역시 중구 부사동 135-1",
    "lat": 36.31446128664741,
    "lng": 127.4321410119369,
    "region": "대전광역시"
  },
  {
    "name": "대전 원평초등학교 운동장",
    "address": "대전광역시 중구 유천동 10-10",
    "lat": 36.3214422218877,
    "lng": 127.3995369672775,
    "region": "대전광역시"
  },
  {
    "name": "대전장동초등학교 운동장",
    "address": "대전광역시 대덕구 장동 376",
    "lat": 36.41463243039782,
    "lng": 127.43602573871611,
    "region": "대전광역시"
  },
  {
    "name": "한국도로공사 대전지사 공터",
    "address": "대전광역시 대덕구 송촌동 579-1",
    "lat": 36.362770435613285,
    "lng": 127.44870185852267,
    "region": "대전광역시"
  },
  {
    "name": "대전송촌초등학교 운동장",
    "address": "대전광역시 대덕구 송촌동 495-9",
    "lat": 36.364450840818364,
    "lng": 127.44404554367087,
    "region": "대전광역시"
  },
  {
    "name": "대전회덕중학교 운동장",
    "address": "대전광역시 대덕구 와동 55",
    "lat": 36.4006636062442,
    "lng": 127.42523789405894,
    "region": "대전광역시"
  },
  {
    "name": "대전중리중학교 운동장",
    "address": "대전광역시 대덕구 중리동 371-4",
    "lat": 36.36614848839806,
    "lng": 127.4273809790641,
    "region": "대전광역시"
  },
  {
    "name": "대전양지초등학교 운동장",
    "address": "대전광역시 대덕구 법동 196-2",
    "lat": 36.36599082039792,
    "lng": 127.43366271257067,
    "region": "대전광역시"
  },
  {
    "name": "대전이문고등학교 운동장",
    "address": "대전광역시 대덕구 석봉동 311-1",
    "lat": 36.447576900097275,
    "lng": 127.4226871132866,
    "region": "대전광역시"
  },
  {
    "name": "대전법동중학교 운동장",
    "address": "대전광역시 대덕구 법동 196-1",
    "lat": 36.367103128913726,
    "lng": 127.43343472480386,
    "region": "대전광역시"
  },
  {
    "name": "대전석봉초등학교 운동장 운동장",
    "address": "대전광역시 대덕구 신탄진동 163-2",
    "lat": 36.44670307893105,
    "lng": 127.43497699498943,
    "region": "대전광역시"
  },
  {
    "name": "한남대학교 종합운동장",
    "address": "대전광역시 대덕구 오정동 133",
    "lat": 36.35338066577173,
    "lng": 127.4201980233139,
    "region": "대전광역시"
  },
  {
    "name": "대전동화중학교 운동장",
    "address": "대전광역시 유성구 관평동 1281",
    "lat": 36.42298963126898,
    "lng": 127.38918637492252,
    "region": "대전광역시"
  },
  {
    "name": "삼육중학교",
    "address": "대전광역시 서구 도마동 163-11",
    "lat": 36.31175676594022,
    "lng": 127.37337058575267,
    "region": "대전광역시"
  },
  {
    "name": "대전상대초등학교 운동장",
    "address": "대전광역시 유성구 상대동 138-14",
    "lat": 36.34781196162119,
    "lng": 127.33581735973215,
    "region": "대전광역시"
  },
  {
    "name": "둔원초등학교",
    "address": "대전광역시 서구 갈마동 1417",
    "lat": 36.342826474951224,
    "lng": 127.37557784184413,
    "region": "대전광역시"
  },
  {
    "name": "충남대학교 운동장",
    "address": "대전광역시 유성구 궁동 220",
    "lat": 36.37320650385382,
    "lng": 127.34247565269469,
    "region": "대전광역시"
  },
  {
    "name": "내동중학교",
    "address": "대전광역시 서구 변동 254-440",
    "lat": 36.332106321562414,
    "lng": 127.36964424207312,
    "region": "대전광역시"
  },
  {
    "name": "버드내중학교",
    "address": "대전광역시 서구 도마동 135-1",
    "lat": 36.316342415804996,
    "lng": 127.38359735054706,
    "region": "대전광역시"
  },
  {
    "name": "대전대양초등학교 운동장",
    "address": "대전광역시 대덕구 송촌동 491",
    "lat": 36.36113535356397,
    "lng": 127.43961721658947,
    "region": "대전광역시"
  },
  {
    "name": "대전매봉초등학교 운동장",
    "address": "대전광역시 대덕구 송촌동 442",
    "lat": 36.369709972189234,
    "lng": 127.43743389845415,
    "region": "대전광역시"
  },
  {
    "name": "대전매봉중학교 운동장",
    "address": "대전광역시 대덕구 송촌동 441",
    "lat": 36.36980931991415,
    "lng": 127.43598282337253,
    "region": "대전광역시"
  },
  {
    "name": "갈마초등학교",
    "address": "대전광역시 서구 갈마동 114-26",
    "lat": 36.35622619652984,
    "lng": 127.36923941770607,
    "region": "대전광역시"
  },
  {
    "name": "문정초등학교",
    "address": "대전광역시 서구 둔산동 1813",
    "lat": 36.35087214398192,
    "lng": 127.39610575054107,
    "region": "대전광역시"
  },
  {
    "name": "대전장대중학교 운동장",
    "address": "대전광역시 유성구 장대동 361",
    "lat": 36.35996892659977,
    "lng": 127.33900106481703,
    "region": "대전광역시"
  },
  {
    "name": "한밭고등학교",
    "address": "대전광역시 서구 갈마동 370-1",
    "lat": 36.34704271163111,
    "lng": 127.36502404106115,
    "region": "대전광역시"
  },
  {
    "name": "전민중학교 운동장",
    "address": "대전광역시 유성구 전민동 466-1",
    "lat": 36.40080209869041,
    "lng": 127.40591328965924,
    "region": "대전광역시"
  },
  {
    "name": "죽동초등학교 운동장",
    "address": "대전광역시 유성구 죽동 689",
    "lat": 36.37034885500038,
    "lng": 127.33508806866996,
    "region": "대전광역시"
  },
  {
    "name": "송촌고등학교 운동장",
    "address": "대전광역시 대덕구 송촌동 507",
    "lat": 36.36305986531532,
    "lng": 127.44657754898209,
    "region": "대전광역시"
  },
  {
    "name": "덕암축구센터축구장(B구장)",
    "address": "대전광역시 대덕구 덕암동 347",
    "lat": 36.43911444525379,
    "lng": 127.41612106561927,
    "region": "대전광역시"
  },
  {
    "name": "도솔초등학교",
    "address": "대전광역시 서구 도안동 1563",
    "lat": 36.3106937093299,
    "lng": 127.34779119232377,
    "region": "대전광역시"
  },
  {
    "name": "대전대청중학교 운동장",
    "address": "대전광역시 대덕구 신탄진동 149-5",
    "lat": 36.449611462836074,
    "lng": 127.43736147881081,
    "region": "대전광역시"
  },
  {
    "name": "신탄진고등학교 운동장",
    "address": "대전광역시 대덕구 신탄진동 149-5",
    "lat": 36.4494,
    "lng": 127.4367,
    "region": "대전광역시"
  },
  {
    "name": "둔천초등학교",
    "address": "대전광역시 서구 만년동 8",
    "lat": 36.36811133555472,
    "lng": 127.37437704231331,
    "region": "대전광역시"
  },
  {
    "name": "길치문화공원",
    "address": "대전광역시 대덕구 비래동 산28-6",
    "lat": 36.35738339079279,
    "lng": 127.4594897031811,
    "region": "대전광역시"
  },
  {
    "name": "대전용전중학교 운동장",
    "address": "대전광역시 대덕구 중리동 234-7",
    "lat": 36.357249465921356,
    "lng": 127.42519497871338,
    "region": "대전광역시"
  },
  {
    "name": "도안고등학교 운동장",
    "address": "대전광역시 유성구 원신흥동 561",
    "lat": 36.336785618159325,
    "lng": 127.33777116250681,
    "region": "대전광역시"
  },
  {
    "name": "대전문지중학교 운동장",
    "address": "대전광역시 유성구 전민동 460-3",
    "lat": 36.39723974985925,
    "lng": 127.40009135263959,
    "region": "대전광역시"
  },
  {
    "name": "관저중학교",
    "address": "대전광역시 서구 관저동 993",
    "lat": 36.305140167255075,
    "lng": 127.3399487660745,
    "region": "대전광역시"
  },
  {
    "name": "둔산초등학교",
    "address": "대전광역시 서구 둔산동 1205",
    "lat": 36.34949547711695,
    "lng": 127.38133858604301,
    "region": "대전광역시"
  },
  {
    "name": "수미초등학교",
    "address": "대전광역시 서구 괴곡동 361-2",
    "lat": 36.29483698644179,
    "lng": 127.36137173624566,
    "region": "대전광역시"
  },
  {
    "name": "신탄중앙중학교 운동장",
    "address": "대전광역시 대덕구 덕암동 19-1",
    "lat": 36.44188717681519,
    "lng": 127.42307335138517,
    "region": "대전광역시"
  },
  {
    "name": "삼천초등학교",
    "address": "대전광역시 서구 둔산동 1807",
    "lat": 36.353775014219224,
    "lng": 127.40080012600329,
    "region": "대전광역시"
  },
  {
    "name": "서원초등학교",
    "address": "대전광역시 서구 둔산동 910",
    "lat": 36.35916844448018,
    "lng": 127.39437129998984,
    "region": "대전광역시"
  },
  {
    "name": "동대전고등학교 운동장",
    "address": "대전광역시 대덕구 중리동 234-3",
    "lat": 36.35725594616171,
    "lng": 127.42427498101786,
    "region": "대전광역시"
  },
  {
    "name": "대전도시과학고등학교 운동장",
    "address": "대전광역시 유성구 원내동 403",
    "lat": 36.29649089175903,
    "lng": 127.31946215195289,
    "region": "대전광역시"
  },
  {
    "name": "보라매근린공원",
    "address": "대전광역시 서구 탄방동 589",
    "lat": 36.348239934354055,
    "lng": 127.38484685012635,
    "region": "대전광역시"
  },
  {
    "name": "호수초등학교",
    "address": "대전광역시 서구 도안동 2359",
    "lat": 36.32073182700976,
    "lng": 127.34983059158806,
    "region": "대전광역시"
  },
  {
    "name": "충남고등학교",
    "address": "대전광역시 서구 둔산동 1513",
    "lat": 36.34944861457521,
    "lng": 127.39440044157605,
    "region": "대전광역시"
  },
  {
    "name": "월평중학교",
    "address": "대전광역시 서구 월평동 663",
    "lat": 36.35726532470382,
    "lng": 127.36761880163465,
    "region": "대전광역시"
  },
  {
    "name": "남선중학교",
    "address": "대전광역시 서구 월평동 220",
    "lat": 36.362645088583584,
    "lng": 127.37203164250492,
    "region": "대전광역시"
  },
  {
    "name": "둔산여자고등학교",
    "address": "대전광역시 서구 갈마동 823",
    "lat": 36.35370089963899,
    "lng": 127.37362968843024,
    "region": "대전광역시"
  },
  {
    "name": "서일여자고등학교",
    "address": "대전광역시 서구 관저동 1980",
    "lat": 36.29416635559738,
    "lng": 127.32400799952127,
    "region": "대전광역시"
  },
  {
    "name": "만년고등학교",
    "address": "대전광역시 서구 만년동 9",
    "lat": 36.36727470544636,
    "lng": 127.3733436972981,
    "region": "대전광역시"
  },
  {
    "name": "구봉중학교",
    "address": "대전광역시 서구 관저동 1132",
    "lat": 36.30043904734532,
    "lng": 127.32948158355869,
    "region": "대전광역시"
  },
  {
    "name": "샘머리물순환테마공원",
    "address": "대전광역시 서구 둔산동 1379",
    "lat": 36.35680088229813,
    "lng": 127.3848069782795,
    "region": "대전광역시"
  },
  {
    "name": "봉산초등학교",
    "address": "대전광역시 서구 갈마동 389",
    "lat": 36.345756921907345,
    "lng": 127.36595582772098,
    "region": "대전광역시"
  },
  {
    "name": "샘머리초등학교",
    "address": "대전광역시 서구 둔산동 907-1",
    "lat": 36.362934525993595,
    "lng": 127.39342134397799,
    "region": "대전광역시"
  },
  {
    "name": "대전송강중학교 운동장",
    "address": "대전광역시 유성구 송강동 8-1",
    "lat": 36.4375,
    "lng": 127.3817,
    "region": "대전광역시"
  },
  {
    "name": "관저고등학교",
    "address": "대전광역시 서구 관저동 983",
    "lat": 36.310509436250925,
    "lng": 127.33804772778102,
    "region": "대전광역시"
  },
  {
    "name": "정림중학교",
    "address": "대전광역시 서구 괴곡동 361-2",
    "lat": 36.29425348413542,
    "lng": 127.36098211565901,
    "region": "대전광역시"
  },
  {
    "name": "대전하기중학교 운동장",
    "address": "대전광역시 유성구 하기동 520",
    "lat": 36.385807872999834,
    "lng": 127.32291697904034,
    "region": "대전광역시"
  },
  {
    "name": "둔원고등학교",
    "address": "대전광역시 서구 갈마동 1243",
    "lat": 36.34251171504398,
    "lng": 127.3737822200719,
    "region": "대전광역시"
  },
  {
    "name": "복수고등학교",
    "address": "대전광역시 서구 복수동 376-2",
    "lat": 36.303628893447524,
    "lng": 127.37287981630274,
    "region": "대전광역시"
  },
  {
    "name": "대전제일고등학교",
    "address": "대전광역시 서구 도마동 155-20",
    "lat": 36.313443207036016,
    "lng": 127.37244951347853,
    "region": "대전광역시"
  },
  {
    "name": "서대전여자고등학교",
    "address": "대전광역시 서구 도마동 420",
    "lat": 36.32632389011258,
    "lng": 127.36889322353008,
    "region": "대전광역시"
  },
  {
    "name": "동방고등학교",
    "address": "대전광역시 서구 관저동 7-1",
    "lat": 36.30090187588148,
    "lng": 127.34622229481822,
    "region": "대전광역시"
  },
  {
    "name": "대덕소프트웨어마이스터고등학교 운동장",
    "address": "대전광역시 유성구 장동 23-9",
    "lat": 36.39138885036492,
    "lng": 127.36272199347621,
    "region": "대전광역시"
  },
  {
    "name": "노은고등학교 운동장",
    "address": "대전광역시 유성구 노은동 541",
    "lat": 36.36896831122439,
    "lng": 127.31994131735604,
    "region": "대전광역시"
  },
  {
    "name": "반석고등학교 운동장",
    "address": "대전광역시 유성구 지족동 993",
    "lat": 36.386415489084705,
    "lng": 127.31347244364105,
    "region": "대전광역시"
  },
  {
    "name": "유성고등학교 운동장",
    "address": "대전광역시 유성구 구암동 613-9",
    "lat": 36.35016773360051,
    "lng": 127.3353276979331,
    "region": "대전광역시"
  },
  {
    "name": "유성생명과학고등학교 운동장",
    "address": "대전광역시 유성구 상대동 553",
    "lat": 36.34762355250817,
    "lng": 127.32948303222659,
    "region": "대전광역시"
  },
  {
    "name": "한밭대학교 인조잔디 운동장",
    "address": "대전광역시 유성구 덕명동 16-1",
    "lat": 36.34720569747373,
    "lng": 127.30255110299748,
    "region": "대전광역시"
  },
  {
    "name": "대전배울초등학교 운동장",
    "address": "대전광역시 유성구 관평동 663",
    "lat": 36.42170302686385,
    "lng": 127.38466379453376,
    "region": "대전광역시"
  },
  {
    "name": "동방여자중학교",
    "address": "대전광역시 서구 복수동 276",
    "lat": 36.30665094526229,
    "lng": 127.37447600457985,
    "region": "대전광역시"
  },
  {
    "name": "대전예술고등학교 운동장",
    "address": "대전광역시 유성구 상대동 234-1",
    "lat": 36.34629060668423,
    "lng": 127.33288675546645,
    "region": "대전광역시"
  },
  {
    "name": "한국침례신학대학교 운동장",
    "address": "대전광역시 유성구 하기동 363-4",
    "lat": 36.38630576169449,
    "lng": 127.32729703187943,
    "region": "대전광역시"
  },
  {
    "name": "중일고등학교 운동장",
    "address": "대전광역시 유성구 관평동 671",
    "lat": 36.420306885006205,
    "lng": 127.38943576812744,
    "region": "대전광역시"
  },
  {
    "name": "대전대룡초등학교 운동장",
    "address": "대전광역시 동구 용운동 158-1",
    "lat": 36.33000408832579,
    "lng": 127.45550554286226,
    "region": "대전광역시"
  },
  {
    "name": "대전대암초등학교 운동장",
    "address": "대전광역시 동구 판암동 235",
    "lat": 36.32328954290586,
    "lng": 127.45756479588783,
    "region": "대전광역시"
  },
  {
    "name": "양지근린공원",
    "address": "대전광역시 중구 선화동 349-27",
    "lat": 36.32588742371234,
    "lng": 127.41574287414552,
    "region": "대전광역시"
  },
  {
    "name": "대전 태평초등학교 운동장",
    "address": "대전광역시 중구 태평동 385-10",
    "lat": 36.32323553397681,
    "lng": 127.39550698719647,
    "region": "대전광역시"
  },
  {
    "name": "대전 선화초등학교 운동장",
    "address": "대전광역시 중구 선화동 84",
    "lat": 36.332625442216454,
    "lng": 127.42351002595366,
    "region": "대전광역시"
  },
  {
    "name": "대전 대흥초등학교 운동장",
    "address": "대전광역시 중구 대흥동 365-5",
    "lat": 36.31922127379014,
    "lng": 127.4259655662233,
    "region": "대전광역시"
  }
]