[
  {
    "name": "도계중학교 운동장",
    "address": "강원특별자치도 삼척시 도계읍 도계리 285-1",
    "lat": 37.23276037084104,
    "lng": 129.04813849935556,
    "region": "강원특별자치도"
  },
  {
    "name": "정라초등학교 운동장",
    "address": "강원특별자치도 삼척시 정상동 344",
    "lat": 37.44547175203904,
    "lng": 129.17643713957645,
    "region": "강원특별자치도"
  },
  {
    "name": "속초여자고등학교 운동장",
    "address": "강원특별자치도 속초시 교동 802-1",
    "lat": 38.19929616742852,
    "lng": 128.5690845599902,
    "region": "강원특별자치도"
  },
  {
    "name": "근덕초등학교 운동장",
    "address": "강원특별자치도 삼척시 근덕면 교가리 676-1",
    "lat": 37.38042413749816,
    "lng": 129.22451198097895,
    "region": "강원특별자치도"
  },
  {
    "name": "대포초등학교 운동장",
    "address": "강원특별자치도 속초시 대포동 350",
    "lat": 38.1738318918052,
    "lng": 128.60373395920158,
    "region": "강원특별자치도"
  },
  {
    "name": "속초고등학교 운동장",
    "address": "강원특별자치도 속초시 장사동 460",
    "lat": 38.22482734495425,
    "lng": 128.58349481514912,
    "region": "강원특별자치도"
  },
  {
    "name": "조양초등학교운동장",
    "address": "강원특별자치도 속초시 조양동 1396",
    "lat": 38.1883290158277,
    "lng": 128.59850623475893,
    "region": "강원특별자치도"
  },
  {
    "name": "삼척초등학교 운동장",
    "address": "강원특별자치도 삼척시 교동 585",
    "lat": 37.449419726895876,
    "lng": 129.16703116893908,
    "region": "강원특별자치도"
  },
  {
    "name": "속초해랑중학교 운동장",
    "address": "강원특별자치도 속초시 금호동 625-37",
    "lat": 38.20686849212873,
    "lng": 128.5850174702265,
    "region": "강원특별자치도"
  },
  {
    "name": "설악중학교 운동장",
    "address": "강원특별자치도 속초시 교동 780-5",
    "lat": 38.20586494719546,
    "lng": 128.57853377117343,
    "region": "강원특별자치도"
  },
  {
    "name": "설악고등학교 운동장",
    "address": "강원특별자치도 속초시 조양동 589-7",
    "lat": 38.185741655790565,
    "lng": 128.57416382426646,
    "region": "강원특별자치도"
  },
  {
    "name": "강원도립대학",
    "address": "강원특별자치도 강릉시 주문진읍 교항리 8-2",
    "lat": 37.87662433570669,
    "lng": 128.8295392577568,
    "region": "강원특별자치도"
  },
  {
    "name": "강릉중학교 운동장",
    "address": "강원특별자치도 강릉시 입암동 497",
    "lat": 37.75359728813465,
    "lng": 128.90974575733483,
    "region": "강원특별자치도"
  },
  {
    "name": "평원중학교",
    "address": "강원특별자치도 원주시 단계동 913",
    "lat": 37.339028487781135,
    "lng": 127.93617490933904,
    "region": "강원특별자치도"
  },
  {
    "name": "부론초등학교",
    "address": "강원특별자치도 원주시 부론면 법천리 1535",
    "lat": 37.20811791090781,
    "lng": 127.74867874668405,
    "region": "강원특별자치도"
  },
  {
    "name": "문막중고등학교",
    "address": "강원특별자치도 원주시 문막읍 문막리 237",
    "lat": 37.3051810744318,
    "lng": 127.81529500792637,
    "region": "강원특별자치도"
  },
  {
    "name": "서원주초등학교",
    "address": "강원특별자치도 원주시 명륜동 844",
    "lat": 37.32686306115332,
    "lng": 127.93997950484716,
    "region": "강원특별자치도"
  },
  {
    "name": "단구중학교",
    "address": "강원특별자치도 원주시 단구동 1675",
    "lat": 37.32053473536367,
    "lng": 127.95639155739413,
    "region": "강원특별자치도"
  },
  {
    "name": "우산초등학교",
    "address": "강원특별자치도 원주시 우산동 262-2",
    "lat": 37.36941302717836,
    "lng": 127.93314664360135,
    "region": "강원특별자치도"
  },
  {
    "name": "일산공원",
    "address": "강원특별자치도 원주시 일산동 367",
    "lat": 37.34768639449265,
    "lng": 127.93993502855304,
    "region": "강원특별자치도"
  },
  {
    "name": "문막초등학교",
    "address": "강원특별자치도 원주시 문막읍 건등리 1704",
    "lat": 37.312343550645565,
    "lng": 127.82099724883717,
    "region": "강원특별자치도"
  },
  {
    "name": "단구공원(열린광장)",
    "address": "강원특별자치도 원주시 단구동 1707",
    "lat": 37.327170919768385,
    "lng": 127.95427641039103,
    "region": "강원특별자치도"
  },
  {
    "name": "대성중고등학교",
    "address": "강원특별자치도 원주시 무실동 산123-1",
    "lat": 37.32811369644082,
    "lng": 127.92106953711638,
    "region": "강원특별자치도"
  },
  {
    "name": "삼육중고등학교",
    "address": "강원특별자치도 원주시 무실동 664",
    "lat": 37.32555610317978,
    "lng": 127.92322587368628,
    "region": "강원특별자치도"
  },
  {
    "name": "솔샘초등학교",
    "address": "강원특별자치도 원주시 무실동 1863-1",
    "lat": 37.33006695334634,
    "lng": 127.92901154304973,
    "region": "강원특별자치도"
  },
  {
    "name": "원주젊음의광장",
    "address": "강원특별자치도 원주시 명륜동 345",
    "lat": 37.33603099655754,
    "lng": 127.94705169307767,
    "region": "강원특별자치도"
  },
  {
    "name": "일산초등학교",
    "address": "강원특별자치도 원주시 일산동 278",
    "lat": 37.34675790749354,
    "lng": 127.94225006899923,
    "region": "강원특별자치도"
  },
  {
    "name": "원주여자중학교",
    "address": "강원특별자치도 원주시 명륜동 204",
    "lat": 37.339195068856824,
    "lng": 127.94488776348317,
    "region": "강원특별자치도"
  },
  {
    "name": "원주중학교",
    "address": "강원특별자치도 원주시 단구동 460",
    "lat": 37.33684855916717,
    "lng": 127.95814915870653,
    "region": "강원특별자치도"
  },
  {
    "name": "진광중고등학교",
    "address": "강원특별자치도 원주시 우산동 307-1",
    "lat": 37.37299197999232,
    "lng": 127.93695960868133,
    "region": "강원특별자치도"
  },
  {
    "name": "육민관중고등학교",
    "address": "강원특별자치도 원주시 흥업면 흥업리 751",
    "lat": 37.308433247821185,
    "lng": 127.91937306613757,
    "region": "강원특별자치도"
  },
  {
    "name": "서화초등학교",
    "address": "강원특별자치도 인제군 서화면 천도리 435-2",
    "lat": 38.22964475595625,
    "lng": 128.20826080333615,
    "region": "강원특별자치도"
  },
  {
    "name": "원통초등학교",
    "address": "강원특별자치도 인제군 북면 원통리 737",
    "lat": 38.11994231109261,
    "lng": 128.20053950092395,
    "region": "강원특별자치도"
  },
  {
    "name": "용대초등학교",
    "address": "강원특별자치도 인제군 북면 용대리 1025-1",
    "lat": 38.19513941421993,
    "lng": 128.32967857027938,
    "region": "강원특별자치도"
  },
  {
    "name": "월학초등학교",
    "address": "강원특별자치도 인제군 북면 월학리 162",
    "lat": 38.170911272173086,
    "lng": 128.20884826505937,
    "region": "강원특별자치도"
  },
  {
    "name": "인제초등학교",
    "address": "강원특별자치도 인제군 인제읍 합강리 316",
    "lat": 38.07539087003436,
    "lng": 128.17905576726196,
    "region": "강원특별자치도"
  },
  {
    "name": "귀둔초등학교",
    "address": "강원특별자치도 인제군 인제읍 귀둔리 676-2",
    "lat": 38.01703291970414,
    "lng": 128.36109117928865,
    "region": "강원특별자치도"
  },
  {
    "name": "기린초등학교",
    "address": "강원특별자치도 인제군 기린면 현리 433-1",
    "lat": 37.958911173018734,
    "lng": 128.31929257028793,
    "region": "강원특별자치도"
  },
  {
    "name": "상남중학교",
    "address": "강원특별자치도 인제군 상남면 상남리 153",
    "lat": 37.8723620739933,
    "lng": 128.25646472004905,
    "region": "강원특별자치도"
  },
  {
    "name": "기린중고등학교",
    "address": "강원특별자치도 인제군 기린면 현리 765-2",
    "lat": 37.94649756037521,
    "lng": 128.31261777056017,
    "region": "강원특별자치도"
  },
  {
    "name": "상남초등학교",
    "address": "강원특별자치도 인제군 상남면 상남리 103",
    "lat": 37.873144729381536,
    "lng": 128.26068905028535,
    "region": "강원특별자치도"
  },
  {
    "name": "인제중학교",
    "address": "강원특별자치도 인제군 인제읍 상동리 26-2",
    "lat": 38.072118943727325,
    "lng": 128.17535301749894,
    "region": "강원특별자치도"
  },
  {
    "name": "서화중학교",
    "address": "강원특별자치도 인제군 서화면 천도리 619",
    "lat": 38.221513955726195,
    "lng": 128.2095668056664,
    "region": "강원특별자치도"
  },
  {
    "name": "인제고등학교",
    "address": "강원특별자치도 인제군 인제읍 합강리 344",
    "lat": 38.07322819186584,
    "lng": 128.17846335119222,
    "region": "강원특별자치도"
  },
  {
    "name": "홍천종합체육관 주차장",
    "address": "강원특별자치도 홍천군 홍천읍 태학리 143-10",
    "lat": 37.70823148852235,
    "lng": 127.90723621845245,
    "region": "강원특별자치도"
  },
  {
    "name": "교동초등학교",
    "address": "강원특별자치도 강릉시 교동 310-1",
    "lat": 37.7670051495753,
    "lng": 128.893021192654,
    "region": "강원특별자치도"
  },
  {
    "name": "연곡초등학교",
    "address": "강원특별자치도 강릉시 연��면 동덕리 959",
    "lat": 37.8568130246344,
    "lng": 128.829235701456,
    "region": "강원특별자치도"
  },
  {
    "name": "옥천초등학교",
    "address": "강원특별자치도 강릉시 옥천동 37-1",
    "lat": 37.75607118157746,
    "lng": 128.90323698520743,
    "region": "강원특별자치도"
  },
  {
    "name": "3호 어린이공원",
    "address": "강원특별자치도 강릉시 포남동 1071",
    "lat": 37.77407518052733,
    "lng": 128.91126483678903,
    "region": "강원특별자치도"
  },
  {
    "name": "13호 어린이공원",
    "address": "강원특별자치도 강릉시 내곡동 620",
    "lat": 37.7400764324272,
    "lng": 128.87800647438,
    "region": "강원특별자치도"
  },
  {
    "name": "경포대초등학교",
    "address": "강원특별자치도 강릉시 안현동 106-6",
    "lat": 37.8049247704795,
    "lng": 128.900538780774,
    "region": "강원특별자치도"
  },
  {
    "name": "한계초등학교",
    "address": "강원특별자치도 인제군 북면 한계리 1044",
    "lat": 38.14075708815005,
    "lng": 128.25715548034503,
    "region": "강원특별자치도"
  },
  {
    "name": "하남초등학교",
    "address": "강원특별자치도 인제군 상남면 하남리 1230",
    "lat": 37.91098530109782,
    "lng": 128.28541469680425,
    "region": "강원특별자치도"
  },
  {
    "name": "거성초등학교 운동장",
    "address": "강원특별자치도 고성군 거진읍 거진리 180",
    "lat": 38.45221938218686,
    "lng": 128.45757507202129,
    "region": "강원특별자치도"
  },
  {
    "name": "공현진초등학교 운동장",
    "address": "강원특별자치도 고성군 죽왕면 공현진리 334",
    "lat": 38.35371762050836,
    "lng": 128.50758054864556,
    "region": "강원특별자치도"
  },
  {
    "name": "거진중학교 운동장",
    "address": "강원특별자치도 고성군 거진읍 봉평리 31-1",
    "lat": 38.446750378929,
    "lng": 128.44848300786694,
    "region": "강원특별자치도"
  },
  {
    "name": "유현초등학교 운동장",
    "address": "강원특별자치도 횡성군 서원면 유현리 362-1",
    "lat": 37.52632207384446,
    "lng": 127.87529283631171,
    "region": "강원특별자치도"
  },
  {
    "name": "창호초등학교운동장",
    "address": "강원특별자치도 동해시 묵호진동 85-7",
    "lat": 37.55834926819728,
    "lng": 129.10846748647333,
    "region": "강원특별자치도"
  },
  {
    "name": "북평제2공원",
    "address": "강원특별자치도 동해시 구호동 239",
    "lat": 37.47233345658353,
    "lng": 129.14101749658366,
    "region": "강원특별자치도"
  },
  {
    "name": "묵호초등학교운동장",
    "address": "강원특별자치도 동해시 발한동 318",
    "lat": 37.55227971607965,
    "lng": 129.10309374332599,
    "region": "강원특별자치도"
  },
  {
    "name": "광희고등학교운동장",
    "address": "강원특별자치도 동해시 동회동 446",
    "lat": 37.489710368834224,
    "lng": 129.1040700674074,
    "region": "강원특별자치도"
  },
  {
    "name": "대화초등학교 운동장",
    "address": "강원특별자치도 평창군 대화면 대화리 971-3",
    "lat": 37.49715410354018,
    "lng": 128.45717229970873,
    "region": "강원특별자치도"
  },
  {
    "name": "정선종합경기장",
    "address": "강원특별자치도 정선군 정선읍 애산리 768",
    "lat": 37.37750243621874,
    "lng": 128.67593050003086,
    "region": "강원특별자치도"
  },
  {
    "name": "방림초등학교 운동장",
    "address": "강원특별자치도 평창군 방림면 방림리 1344",
    "lat": 37.42781625827464,
    "lng": 128.3916426677123,
    "region": "강원특별자치도"
  },
  {
    "name": "중앙초등학교운동장",
    "address": "강원특별자치도 동해시 천곡동 793",
    "lat": 37.52519266674273,
    "lng": 129.10912096726264,
    "region": "강원특별자치도"
  },
  {
    "name": "동해웰빙레포츠타운 운동장",
    "address": "강원특별자치도 동해시 천곡동 363-1",
    "lat": 37.51605821151315,
    "lng": 129.10226283516948,
    "region": "강원특별자치도"
  },
  {
    "name": "천곡초등학교운동장",
    "address": "강원특별자치도 동해시 천곡동 320-1",
    "lat": 37.51734201193861,
    "lng": 129.10805745635548,
    "region": "강원특별자치도"
  },
  {
    "name": "동해초등학교운동장",
    "address": "강원특별자치도 동해시 용정동 475-3",
    "lat": 37.51146651668745,
    "lng": 129.12031059521527,
    "region": "강원특별자치도"
  },
  {
    "name": "(구)한중대학교운동장",
    "address": "강원특별자치도 동해시 지흥동 504-6",
    "lat": 37.504404369896406,
    "lng": 129.08984094858332,
    "region": "강원특별자치도"
  },
  {
    "name": "하랑중학교운동장",
    "address": "강원특별자치도 동해시 발한동 377",
    "lat": 37.55902303904072,
    "lng": 129.10269560887482,
    "region": "강원특별자치도"
  },
  {
    "name": "대진중고등학교 운동장",
    "address": "강원특별자치도 고성군 현내면 초도리 75",
    "lat": 38.484369971505934,
    "lng": 128.4330111514376,
    "region": "강원특별자치도"
  },
  {
    "name": "남호초등학교운동장",
    "address": "강원특별자치도 동해시 평릉동 443",
    "lat": 37.53395208200888,
    "lng": 129.1127832200518,
    "region": "강원특별자치도"
  },
  {
    "name": "북평초등학교운동장",
    "address": "강원특별자치도 동해시 북평동 25-6",
    "lat": 37.48199299851476,
    "lng": 129.1243287921013,
    "region": "강원특별자치도"
  },
  {
    "name": "부평초등학교",
    "address": "강원특별자치도 인제군 남면 신남리 458",
    "lat": 37.97063042201102,
    "lng": 128.0836401825609,
    "region": "강원특별자치도"
  },
  {
    "name": "신남중고등학교",
    "address": "강원특별자치도 인제군 남면 신남리 404",
    "lat": 37.970417423536055,
    "lng": 128.07978720014287,
    "region": "강원특별자치도"
  },
  {
    "name": "미탄초등학교 운동장",
    "address": "강원특별자치도 평창군 미탄면 창리 776-1",
    "lat": 37.341880153614646,
    "lng": 128.50032718759667,
    "region": "강원특별자치도"
  },
  {
    "name": "성북초등학교 운동장",
    "address": "강원특별자치도 횡성군 횡성읍 읍상리 82",
    "lat": 37.48985597660489,
    "lng": 127.99229381675968,
    "region": "강원특별자치도"
  },
  {
    "name": "창림초등학교 운동장",
    "address": "강원특별자치도 횡성군 횡성읍 추동리 3-4",
    "lat": 37.49525825774522,
    "lng": 128.03639846295914,
    "region": "강원특별자치도"
  },
  {
    "name": "횡성고등학교 운동장",
    "address": "강원특별자치도 횡성군 횡성읍 읍하리 200",
    "lat": 37.48488052233127,
    "lng": 127.97906383919876,
    "region": "강원특별자치도"
  },
  {
    "name": "횡성여자고등학교 운동장",
    "address": "강원특별자치도 횡성군 횡성읍 입석리 194-2",
    "lat": 37.475536392252216,
    "lng": 127.981547266731,
    "region": "강원특별자치도"
  },
  {
    "name": "우천초등학교 운동장",
    "address": "강원특별자치도 횡성군 우천면 우항리 628",
    "lat": 37.4610710208556,
    "lng": 128.06242977843948,
    "region": "강원특별자치도"
  },
  {
    "name": "정선공설운동장",
    "address": "강원특별자치도 정선군 정선읍 봉양리 115-1",
    "lat": 37.377604744576466,
    "lng": 128.66552352905305,
    "region": "강원특별자치도"
  },
  {
    "name": "봉평고등학교 운동장",
    "address": "강원특별자치도 평창군 봉평면 창동리 332",
    "lat": 37.61751727110286,
    "lng": 128.38114876272365,
    "region": "강원특별자치도"
  },
  {
    "name": "화천 생활체육공원",
    "address": "강원특별자치도 화천군 하남면 용암리 1142-2",
    "lat": 38.09484496281364,
    "lng": 127.70111113787208,
    "region": "강원특별자치도"
  },
  {
    "name": "남춘천초등학교 운동장",
    "address": "강원특별자치도 춘천시 온의동 550",
    "lat": 37.860821392708786,
    "lng": 127.72214187073008,
    "region": "강원특별자치도"
  },
  {
    "name": "오동초등학교 운동장",
    "address": "강원특별자치도 춘천시 신북읍 발산리 473-2",
    "lat": 37.95124493883469,
    "lng": 127.75783375336931,
    "region": "강원특별자치도"
  },
  {
    "name": "산양초등학교 운동장",
    "address": "강원특별자치도 화천군 상서면 산양리 707",
    "lat": 38.21274103505789,
    "lng": 127.66233502745175,
    "region": "강원특별자치도"
  },
  {
    "name": "풍산초등학교 운동장",
    "address": "강원특별자치도 화천군 화천읍 풍산리 764-5",
    "lat": 38.14697691941,
    "lng": 127.74165344438602,
    "region": "강원특별자치도"
  },
  {
    "name": "신포중학교 운동장",
    "address": "강원특별자치도 춘천시 사북면 신포리 322",
    "lat": 38.02544296746622,
    "lng": 127.64272485279305,
    "region": "강원특별자치도"
  },
  {
    "name": "춘천중학교 운동장",
    "address": "강원특별자치도 춘천시 중앙로3가 69",
    "lat": 37.874753318451205,
    "lng": 127.71926286000578,
    "region": "강원특별자치도"
  },
  {
    "name": "근화초등학교 운동장",
    "address": "강원특별자치도 춘천시 근화동 802-14",
    "lat": 37.88941413401104,
    "lng": 127.72319644689563,
    "region": "강원특별자치도"
  },
  {
    "name": "후평초등학교 운동장",
    "address": "강원특별자치도 춘천시 후평동 511-36",
    "lat": 37.882628959399426,
    "lng": 127.74439328137721,
    "region": "강원특별자치도"
  },
  {
    "name": "동부초등학교 운동장",
    "address": "강원특별자치도 춘천시 후평동 894",
    "lat": 37.87063881739247,
    "lng": 127.7548062453017,
    "region": "강원특별자치도"
  },
  {
    "name": "남산초등학교 운동장",
    "address": "강원특별자치도 춘천시 남산면 방곡리 126-2",
    "lat": 37.79293565275694,
    "lng": 127.64566303419929,
    "region": "강원특별자치도"
  },
  {
    "name": "부안초등학교 운동장",
    "address": "강원특별자치도 춘천시 후평동 474-3",
    "lat": 37.8767791329601,
    "lng": 127.74979227561866,
    "region": "강원특별자치도"
  },
  {
    "name": "호반초등학교 운동장",
    "address": "강원특별자치도 춘천시 후평동 15",
    "lat": 37.874566271705774,
    "lng": 127.76067734673285,
    "region": "강원특별자치도"
  },
  {
    "name": "남춘천중학교 운동장",
    "address": "강원특별자치도 춘천시 온의동 200-1",
    "lat": 37.859952077661305,
    "lng": 127.7214317507349,
    "region": "강원특별자치도"
  },
  {
    "name": "신남초등학교 운동장",
    "address": "강원특별자치도 춘천시 칠전동 149",
    "lat": 37.84262583500486,
    "lng": 127.71201132277331,
    "region": "강원특별자치도"
  },
  {
    "name": "신동초등학교 운동장",
    "address": "강원특별자치도 춘천시 우두동 1084",
    "lat": 37.911875939786746,
    "lng": 127.73304441048624,
    "region": "강원특별자치도"
  },
  {
    "name": "죽왕초등학교 운동장",
    "address": "강원특별자치도 고성군 죽왕면 오호리 225",
    "lat": 38.330166607154574,
    "lng": 128.52296988341425,
    "region": "강원특별자치도"
  },
  {
    "name": "화천초등학교 운동장",
    "address": "강원특별자치도 화천군 화천읍 아리 211-2",
    "lat": 38.10529298680397,
    "lng": 127.70888291611966,
    "region": "강원특별자치도"
  },
  {
    "name": "태백종합경기장",
    "address": "강원특별자치도 태백시 문곡동 10-3",
    "lat": 37.136998104697774,
    "lng": 129.00235519024233,
    "region": "강원특별자치도"
  },
  {
    "name": "천전초등학교 운동장",
    "address": "강원특별자치도 춘천시 신북읍 율문리 295",
    "lat": 37.92714849123274,
    "lng": 127.74556326097887,
    "region": "강원특별자치도"
  },
  {
    "name": "광판중학교 운동장",
    "address": "강원특별자치도 춘천시 남산면 광판리 583",
    "lat": 37.72340696198577,
    "lng": 127.69877676271024,
    "region": "강원특별자치도"
  },
  {
    "name": "지촌초등학교 운동장",
    "address": "강원특별자치도 춘천시 사북면 지촌리 347",
    "lat": 38.03791191668091,
    "lng": 127.64488266296685,
    "region": "강원특별자치도"
  },
  {
    "name": "양구테니스파크테니스장",
    "address": "강원특별자치도 양구군 양구읍 하리 439",
    "lat": 38.11623009953534,
    "lng": 127.98810953963228,
    "region": "강원특별자치도"
  },
  {
    "name": "송정초등학교운동장",
    "address": "강원특별자치도 동해시 송정동 1058",
    "lat": 37.49422239310097,
    "lng": 129.122945342416,
    "region": "강원특별자치도"
  },
  {
    "name": "망상초등학교운동장",
    "address": "강원특별자치도 동해시 망상동 353-1",
    "lat": 37.59047414333563,
    "lng": 129.0909151928435,
    "region": "강원특별자치도"
  },
  {
    "name": "양구레포츠공원인조잔디구장",
    "address": "강원특별자치도 양구군 양구읍 상리 394",
    "lat": 38.10596887156901,
    "lng": 127.98245633457181,
    "region": "강원특별자치도"
  },
  {
    "name": "양구종합운동장",
    "address": "강원특별자치도 양구군 양구읍 하리 97-1",
    "lat": 38.10957147734613,
    "lng": 127.9851710537124,
    "region": "강원특별자치도"
  },
  {
    "name": "갈말풋살경기장",
    "address": "강원특별자치도 철원군 갈말읍 군탄리 816-8",
    "lat": 38.16063722639024,
    "lng": 127.30350014859341,
    "region": "강원특별자치도"
  },
  {
    "name": "구곡초등학교",
    "address": "강원특별자치도 원주시 단구동 982-1",
    "lat": 37.32482490358921,
    "lng": 127.95322425159142,
    "region": "강원특별자치도"
  },
  {
    "name": "무실초등학교",
    "address": "강원특별자치도 원주시 무실동 1652",
    "lat": 37.33483736575631,
    "lng": 127.9216461810631,
    "region": "강원특별자치도"
  },
  {
    "name": "원천초등학교 운동장",
    "address": "강원특별자치도 화천군 하남면 원천리 440",
    "lat": 38.05918557630489,
    "lng": 127.66647003010024,
    "region": "강원특별자치도"
  },
  {
    "name": "장평초등학교 운동장",
    "address": "강원특별자치도 평창군 용평면 장평리 404-1",
    "lat": 37.59182122412679,
    "lng": 128.41131798527653,
    "region": "강원특별자치도"
  },
  {
    "name": "성남초등학교 운동장",
    "address": "강원특별자치도 횡성군 횡성읍 곡교리 244-1",
    "lat": 37.46470663074063,
    "lng": 127.97300949724135,
    "region": "강원특별자치도"
  },
  {
    "name": "횡성초등학교 운동장",
    "address": "강원특별자치도 횡성군 횡성읍 읍하리 176-1",
    "lat": 37.48701000781886,
    "lng": 127.98004610497516,
    "region": "강원특별자치도"
  },
  {
    "name": "정금초등학교 운동장",
    "address": "강원특별자치도 횡성군 우천면 정금리 507-4",
    "lat": 37.504891113097806,
    "lng": 128.10446316791302,
    "region": "강원특별자치도"
  },
  {
    "name": "우천중학교 운동장",
    "address": "강원특별자치도 횡성군 우천면 문암리 24",
    "lat": 37.468300130739394,
    "lng": 128.04889769014568,
    "region": "강원특별자치도"
  },
  {
    "name": "안흥고등학교 운동장",
    "address": "강원특별자치도 횡성군 안흥면 안흥리 272-2",
    "lat": 37.412431421596395,
    "lng": 128.15320526012889,
    "region": "강원특별자치도"
  },
  {
    "name": "둔내초등학교 운동장",
    "address": "강원특별자치도 횡성군 둔내면 자포곡리 388-2",
    "lat": 37.51334307209722,
    "lng": 128.21646365558337,
    "region": "강원특별자치도"
  },
  {
    "name": "둔내고등학교 운동장",
    "address": "강원특별자치도 횡성군 둔내면 둔방내리 96-3",
    "lat": 37.51170320151239,
    "lng": 128.21293874787386,
    "region": "강원특별자치도"
  },
  {
    "name": "현천고등학교 운동장",
    "address": "강원특별자치도 횡성군 둔내면 현천리 1103",
    "lat": 37.48551630285392,
    "lng": 128.17112715053545,
    "region": "강원특별자치도"
  },
  {
    "name": "갑천초등학교 운동장",
    "address": "강원특별자치도 횡성군 갑천면 매일리 705-1",
    "lat": 37.557382574744544,
    "lng": 128.10798404552364,
    "region": "강원특별자치도"
  },
  {
    "name": "갑천고등학교 운동장",
    "address": "강원특별자치도 횡성군 갑천면 매일리 600",
    "lat": 37.560135225529976,
    "lng": 128.11442644202168,
    "region": "강원특별자치도"
  },
  {
    "name": "실내초등학교 운동장",
    "address": "강원특별자치도 화천군 사내면 명월리 270",
    "lat": 38.12049601124462,
    "lng": 127.53180474042892,
    "region": "강원특별자치도"
  },
  {
    "name": "상천초등학교 운동장",
    "address": "강원특별자치도 춘천시 신북읍 천전리 170",
    "lat": 37.933576037172315,
    "lng": 127.78510830649066,
    "region": "강원특별자치도"
  },
  {
    "name": "유촌초등학교 운동장",
    "address": "강원특별자치도 화천군 간동면 유촌리 604",
    "lat": 38.05533670886366,
    "lng": 127.79131513408633,
    "region": "강원특별자치도"
  },
  {
    "name": "오음초등학교 운동장",
    "address": "강원특별자치도 화천군 간동면 오음리 248",
    "lat": 38.05412415347616,
    "lng": 127.82193497945171,
    "region": "강원특별자치도"
  },
  {
    "name": "당림초등학교 운동장",
    "address": "강원특별자치도 춘천시 서면 당림리 414-1",
    "lat": 37.83763327413576,
    "lng": 127.60805545380495,
    "region": "강원특별자치도"
  },
  {
    "name": "강림초등학교 운동장",
    "address": "강원특별자치도 횡성군 강림면 강림리 1562",
    "lat": 37.35830614617904,
    "lng": 128.12036986195935,
    "region": "강원특별자치도"
  },
  {
    "name": "수백초등학교 운동장",
    "address": "강원특별자치도 횡성군 공근면 수백리 341-3",
    "lat": 37.53372429361075,
    "lng": 128.00707549595765,
    "region": "강원특별자치도"
  },
  {
    "name": "강림중학교 운동장",
    "address": "강원특별자치도 횡성군 강림면 강림리 872",
    "lat": 37.363718500878996,
    "lng": 128.12673770321993,
    "region": "강원특별자치도"
  },
  {
    "name": "인제남초등학교",
    "address": "강원특별자치도 인제군 인제읍 남북리 210",
    "lat": 38.06381897827245,
    "lng": 128.1699475089278,
    "region": "강원특별자치도"
  },
  {
    "name": "서원초등학교 운동장",
    "address": "강원특별자치도 횡성군 서원면 창촌리 577-1",
    "lat": 37.48689176830592,
    "lng": 127.85129708863194,
    "region": "강원특별자치도"
  },
  {
    "name": "공근중학교 운동장",
    "address": "강원특별자치도 횡성군 공근면 학담리 23-5",
    "lat": 37.54001714753688,
    "lng": 127.96243015326729,
    "region": "강원특별자치도"
  },
  {
    "name": "북평중학교운동장",
    "address": "강원특별자치도 동해시 용정동 470",
    "lat": 37.49803555108992,
    "lng": 129.11633044481914,
    "region": "강원특별자치도"
  },
  {
    "name": "북평산단제1공원",
    "address": "강원특별자치도 동해시 구호동 234",
    "lat": 37.48443642207818,
    "lng": 129.1484659910168,
    "region": "강원특별자치도"
  },
  {
    "name": "삼화초등학교운동장",
    "address": "강원특별자치도 동해시 이로동 32-12",
    "lat": 37.48515581204961,
    "lng": 129.0683859586731,
    "region": "강원특별자치도"
  },
  {
    "name": "임당초등학교 운동장",
    "address": "강원특별자치도 양구군 동면 임당리 580",
    "lat": 38.201020876968414,
    "lng": 128.04297069338438,
    "region": "강원특별자치도"
  },
  {
    "name": "용하초등학교 운동장",
    "address": "강원특별자치도 양구군 국토정중앙면 용하리 406",
    "lat": 38.10979685809847,
    "lng": 128.035569190979,
    "region": "강원특별자치도"
  },
  {
    "name": "청운초등학교운동장",
    "address": "강원특별자치도 동해시 쇄운동 75",
    "lat": 37.48475567883883,
    "lng": 129.1039413213747,
    "region": "강원특별자치도"
  },
  {
    "name": "묵호고등학교운동장",
    "address": "강원특별자치도 동해시 부곡동 217",
    "lat": 37.53801588453615,
    "lng": 129.0960797257046,
    "region": "강원특별자치도"
  },
  {
    "name": "동해중학교운동장",
    "address": "강원특별자치도 동해시 발한동 537-3",
    "lat": 37.54358628676303,
    "lng": 129.09762203693558,
    "region": "강원특별자치도"
  },
  {
    "name": "아야진초등학교 운동장",
    "address": "강원특별자치도 고성군 토성면 아야진리 200",
    "lat": 38.27315877414786,
    "lng": 128.5496219576076,
    "region": "강원특별자치도"
  },
  {
    "name": "청일초등학교 운동장",
    "address": "강원특별자치도 횡성군 청일면 유동리 1005-1",
    "lat": 37.581299277450704,
    "lng": 128.14614520570055,
    "region": "강원특별자치도"
  },
  {
    "name": "청일중학교 운동장",
    "address": "강원특별자치도 횡성군 청일면 유동리 1001",
    "lat": 37.58203554935051,
    "lng": 128.14707398414618,
    "region": "강원특별자치도"
  },
  {
    "name": "와수족구장",
    "address": "강원특별자치도 철원군 서면 와수리 1959-15",
    "lat": 38.24487515636819,
    "lng": 127.42572543637094,
    "region": "강원특별자치도"
  },
  {
    "name": "관설초등학교",
    "address": "강원특별자치도 원주시 관설동 1277",
    "lat": 37.3086087328072,
    "lng": 127.9760965704918,
    "region": "강원특별자치도"
  },
  {
    "name": "북평여자고등학교��동장",
    "address": "강원특별자치도 동해시 천곡동 320",
    "lat": 37.51789668922589,
    "lng": 129.1095323336945,
    "region": "강원특별자치도"
  },
  {
    "name": "북평고등학교운동장",
    "address": "강원특별자치도 동해시 동회동 169",
    "lat": 37.49075428977057,
    "lng": 129.10732515636926,
    "region": "강원특별자치도"
  },
  {
    "name": "대진초등학교 운동장",
    "address": "강원특별자치도 고성군 현내면 대진리 148",
    "lat": 38.49660732828902,
    "lng": 128.42367057170668,
    "region": "강원특별자치도"
  },
  {
    "name": "공근초등학교 운동장",
    "address": "강원특별자치도 횡성군 공근면 학담리 113",
    "lat": 37.533334256490704,
    "lng": 127.96087811926016,
    "region": "강원특별자치도"
  },
  {
    "name": "남산초등학교 운동장",
    "address": "강원특별자치도 홍천군 홍천읍 연봉리 158-1",
    "lat": 37.683034927237905,
    "lng": 127.87795454263686,
    "region": "강원특별자치도"
  },
  {
    "name": "주봉초등학교 운동장",
    "address": "강원특별자치도 홍천군 홍천읍 결운리 281",
    "lat": 37.70869926710014,
    "lng": 127.91400395251144,
    "region": "강원특별자치도"
  },
  {
    "name": "홍천초등학교 운동장",
    "address": "강원특별자치도 홍천군 홍천읍 희망리 313",
    "lat": 37.692529782624206,
    "lng": 127.88443426609382,
    "region": "강원특별자치도"
  },
  {
    "name": "화촌중학교 운동장",
    "address": "강원특별자치도 홍천군 화촌면 내삼포리 349",
    "lat": 37.7551168961125,
    "lng": 127.96282768249512,
    "region": "강원특별자치도"
  },
  {
    "name": "두촌중학교 운동장",
    "address": "강원특별자치도 홍천군 두촌면 자은리 568",
    "lat": 37.87164363115811,
    "lng": 128.026017844677,
    "region": "강원특별자치도"
  },
  {
    "name": "내촌초등학교 운동장",
    "address": "강원특별자치도 홍천군 내촌면 도관리 443-1",
    "lat": 37.81571055923723,
    "lng": 128.08604680850027,
    "region": "강원특별자치도"
  },
  {
    "name": "삼생초등학교 운동장",
    "address": "강원특별자치도 홍천군 서석면 생곡리 683-1",
    "lat": 37.70035219853715,
    "lng": 128.2259067843743,
    "region": "강원특별자치도"
  },
  {
    "name": "속초초등학교 운동장",
    "address": "강원특별자치도 홍천군 영귀미면 속초리 707",
    "lat": 37.67877239813593,
    "lng": 127.93920010328291,
    "region": "강원특별자치도"
  },
  {
    "name": "매산초등학교 운동장",
    "address": "강원특별자치도 홍천군 남면 유치리 1520",
    "lat": 37.59085484297975,
    "lng": 127.84594436304808,
    "region": "강원특별자치도"
  },
  {
    "name": "한서초등학교 운동장",
    "address": "강원특별자치도 홍천군 서면 모곡리 492-1",
    "lat": 37.69307892252973,
    "lng": 127.60231196880342,
    "region": "강원특별자치도"
  },
  {
    "name": "화계초등학교 운동장",
    "address": "강원특별자치도 홍천군 북방면 능평리 74-2",
    "lat": 37.71086852885969,
    "lng": 127.84858921591096,
    "region": "강원특별자치도"
  },
  {
    "name": "강릉초등학교 운동장",
    "address": "강원특별자치도 강릉시 홍제동 38",
    "lat": 37.75394214262838,
    "lng": 128.88871984016572,
    "region": "강원특별자치도"
  },
  {
    "name": "진주초등학교 운동장",
    "address": "강원특별자치도 삼척시 남양동 178",
    "lat": 37.433727105058786,
    "lng": 129.1647909879693,
    "region": "강원특별자치도"
  },
  {
    "name": "하장초등학교 운동장",
    "address": "강원특별자치도 삼척시 하장면 광동리 76-1",
    "lat": 37.34822031362226,
    "lng": 128.9445751905765,
    "region": "강원특별자치도"
  },
  {
    "name": "경포초등학교",
    "address": "강원특별자치도 강릉시 교동 1797",
    "lat": 37.76979758522261,
    "lng": 128.87967659489505,
    "region": "강원특별자치도"
  },
  {
    "name": "옥계초등학교",
    "address": "강원특별자치도 강릉시 옥계면 현내리 344-1",
    "lat": 37.61050834984292,
    "lng": 129.03510240250688,
    "region": "강원특별자치도"
  },
  {
    "name": "미로중학교 운동장",
    "address": "강원특별자치도 삼척시 미로면 하거노리 449",
    "lat": 37.41093619471705,
    "lng": 129.10456359386956,
    "region": "강원특별자치도"
  },
  {
    "name": "호산초등학교 운동장",
    "address": "강원특별자치도 삼척시 원덕읍 호산리 347",
    "lat": 37.17796493125509,
    "lng": 129.33464562889424,
    "region": "강원특별자치도"
  },
  {
    "name": "봄내중학교 운동장",
    "address": "강원특별자치도 춘천시 효자동 214-4",
    "lat": 37.86489091499973,
    "lng": 127.74092305360156,
    "region": "강원특별자치도"
  },
  {
    "name": "삼육고등학교운동장",
    "address": "강원특별자치도 동해시 천곡동 566-3",
    "lat": 37.52195043971513,
    "lng": 129.1006095294187,
    "region": "강원특별자치도"
  },
  {
    "name": "동호초등학교운동장",
    "address": "강원특별자치도 동해시 발한동 572-2",
    "lat": 37.543411897426715,
    "lng": 129.10086214542557,
    "region": "강원특별자치도"
  },
  {
    "name": "묵호중학교운동장",
    "address": "강원특별자치도 동해시 발한동 173",
    "lat": 37.54407755209037,
    "lng": 129.1058725118654,
    "region": "강원특별자치도"
  },
  {
    "name": "예람중학교운동장",
    "address": "강원특별자치도 동해시 단봉동 1-1",
    "lat": 37.48040941304279,
    "lng": 129.1235670447395,
    "region": "강원특별자치도"
  },
  {
    "name": "북삼초등학교운동장",
    "address": "강원특별자치도 동해시 지흥동 124-1",
    "lat": 37.495478207737776,
    "lng": 129.10143963327772,
    "region": "강원특별자치도"
  },
  {
    "name": "동해상업고등학교운동장",
    "address": "강원특별자치도 동해시 발한동 620-3",
    "lat": 37.54413497250179,
    "lng": 129.0946125984209,
    "region": "강원특별자치도"
  },
  {
    "name": "어론초���학교",
    "address": "강원특별자치도 인제군 남면 어론리 686-1",
    "lat": 37.93270292690714,
    "lng": 128.06196120728075,
    "region": "강원특별자치도"
  },
  {
    "name": "원통중고등학교",
    "address": "강원특별자치도 인제군 북면 원통리 398-1",
    "lat": 38.12821396228144,
    "lng": 128.21375431147038,
    "region": "강원특별자치도"
  },
  {
    "name": "해안중학교 운동장",
    "address": "강원특별자치도 양구군 해안면 현리 143",
    "lat": 38.28377504657236,
    "lng": 128.1363970843407,
    "region": "강원특별자치도"
  },
  {
    "name": "안흥초등학교 운동장",
    "address": "강원특별자치도 횡성군 안흥면 안흥리 89-1",
    "lat": 37.420611039011554,
    "lng": 128.16381088786187,
    "region": "강원특별자치도"
  },
  {
    "name": "서원중학교 운동장",
    "address": "강원특별자치도 횡성군 서원면 창촌리 728",
    "lat": 37.48679476811393,
    "lng": 127.84659887413382,
    "region": "강원특별자치도"
  },
  {
    "name": "다목초등학교 운동장",
    "address": "강원특별자치도 화천군 상서면 다목리 508",
    "lat": 38.175678227152204,
    "lng": 127.53525370791655,
    "region": "강원특별자치도"
  },
  {
    "name": "사내 중,고등학교 운동장",
    "address": "강원특별자치도 화천군 사내면 사창리 351",
    "lat": 38.06409996514502,
    "lng": 127.51999497413635,
    "region": "강원특별자치도"
  },
  {
    "name": "소초초등학교",
    "address": "강원특별자치도 원주시 소초면 평장리 792",
    "lat": 37.41774039414995,
    "lng": 128.0036921436395,
    "region": "강원특별자치도"
  },
  {
    "name": "우석초등학교 운동장",
    "address": "강원특별자치도 춘천시 석사동 754",
    "lat": 37.864222574767,
    "lng": 127.74982174658544,
    "region": "강원특별자치도"
  },
  {
    "name": "오지리생활체육공원",
    "address": "강원특별자치도 철원군 동송읍 오지리 1031-3",
    "lat": 38.1854532533474,
    "lng": 127.23105070095586,
    "region": "강원특별자치도"
  },
  {
    "name": "철원공설운동장 ",
    "address": "강원특별자치도 철원군 갈말읍 군탄리 산99",
    "lat": 38.15937955818337,
    "lng": 127.29992320888127,
    "region": "강원특별자치도"
  },
  {
    "name": "원주초등학교",
    "address": "강원특별자치도 원주시 봉산동 1120",
    "lat": 37.34727843012514,
    "lng": 127.9587502697857,
    "region": "강원특별자치도"
  },
  {
    "name": "춘성중학교 운동장",
    "address": "강원특별자치도 춘천시 신북읍 율문리 306",
    "lat": 37.92695594512616,
    "lng": 127.74915759233365,
    "region": "강원특별자치도"
  },
  {
    "name": "소양중학교 운동장",
    "address": "강원특별자치도 춘천시 사농동 82",
    "lat": 37.90598455755448,
    "lng": 127.72584436687808,
    "region": "강원특별자치도"
  },
  {
    "name": "간성초등학교 운동장",
    "address": "강원특별자치도 고성군 간성읍 신안리 188-34",
    "lat": 38.377612548026754,
    "lng": 128.46967399120342,
    "region": "강원특별자치도"
  },
  {
    "name": "상승초등학교 운동장",
    "address": "강원특별자치도 화천군 상서면 파포리 291",
    "lat": 38.15738203105772,
    "lng": 127.64977832394622,
    "region": "강원특별자치도"
  },
  {
    "name": "추곡초등학교 운동장",
    "address": "강원특별자치도 춘천시 북산면 추곡리 562",
    "lat": 38.02439948236349,
    "lng": 127.88251571645529,
    "region": "강원특별자치도"
  },
  {
    "name": "춘천초등학교 운동장",
    "address": "강원특별자치도 춘천시 중앙로3가 40",
    "lat": 37.874614570171396,
    "lng": 127.72114413179675,
    "region": "강원특별자치도"
  },
  {
    "name": "소양초등학교 운동장",
    "address": "강원특별자치도 춘천시 우두동 282-1",
    "lat": 37.90442876718128,
    "lng": 127.73962197364786,
    "region": "강원특별자치도"
  },
  {
    "name": "김화생활체육공원 풋살장",
    "address": "강원특별자치도 철원군 김화읍 청양리 1",
    "lat": 38.24983660303248,
    "lng": 127.41292533856776,
    "region": "강원특별자치도"
  },
  {
    "name": "와수테니스장",
    "address": "강원특별자치도 철원군 서면 와수리 1959-15",
    "lat": 38.244861112804976,
    "lng": 127.42568073291466,
    "region": "강원특별자치도"
  },
  {
    "name": "구래초등학교 운동장",
    "address": "강원특별자치도 영월군 상동읍 구래리 102-171",
    "lat": 37.142575221656,
    "lng": 128.83910011904823,
    "region": "강원특별자치도"
  },
  {
    "name": "주천초등학교 운동장",
    "address": "강원특별자치도 영월군 주천면 주천리 1382",
    "lat": 37.27242873308295,
    "lng": 128.2677863457473,
    "region": "강원특별자치도"
  },
  {
    "name": "동내초등학교 운동장",
    "address": "강원특별자치도 춘천시 동내면 신촌리 491",
    "lat": 37.851038077415915,
    "lng": 127.76592643067129,
    "region": "강원특별자치도"
  },
  {
    "name": "창촌중학교 운동장",
    "address": "강원특별자치도 춘천시 남산면 강촌리 331",
    "lat": 37.807232690106886,
    "lng": 127.63567618395254,
    "region": "강원특별자치도"
  },
  {
    "name": "남산초등학교서천분교 운동장",
    "address": "강원특별자치도 춘천시 남산면 백양리 431-2",
    "lat": 37.835647772629784,
    "lng": 127.55520962754649,
    "region": "강원특별자치도"
  },
  {
    "name": "봉의초등학교 운동장",
    "address": "강원특별자치도 춘천시 약사동 1",
    "lat": 37.87565982454475,
    "lng": 127.72956198967431,
    "region": "강원특별자치도"
  },
  {
    "name": "성원초등학교 운동장",
    "address": "강원특별자치도 춘천시 퇴계동 1035",
    "lat": 37.848340504335965,
    "lng": 127.74434026454763,
    "region": "강원특별자치도"
  },
  {
    "name": "광덕초등학교 운동장",
    "address": "강원특별자치도 화천군 사내면 광덕리 329-2",
    "lat": 38.06708604366719,
    "lng": 127.49463533902173,
    "region": "강원특별자치도"
  },
  {
    "name": "만천초등학교 운동장",
    "address": "강원특별자치도 춘천시 동면 만천리 978",
    "lat": 37.884057180361374,
    "lng": 127.75787761249083,
    "region": "강원특별자치도"
  },
  {
    "name": "금병초등학교 운동장",
    "address": "강원특별자치도 춘천시 신동면 증리 360-1",
    "lat": 37.81522755571598,
    "lng": 127.71452780121228,
    "region": "강원특별자치도"
  },
  {
    "name": "���내초등학교 운동장",
    "address": "강원특별자치도 춘천시 석��동 815",
    "lat": 37.856057259263146,
    "lng": 127.74204931187238,
    "region": "강원특별자치도"
  },
  {
    "name": "강원외국어고등학교운동장",
    "address": "강원특별자치도 양구군 양구읍 하리 500",
    "lat": 38.119846087684884,
    "lng": 127.9903793334961,
    "region": "강원특별자치도"
  },
  {
    "name": "미래고등학교",
    "address": "강원특별자치도 원주시 행구동 125-2",
    "lat": 37.339267736765215,
    "lng": 128.0071064159065,
    "region": "강원특별자치도"
  },
  {
    "name": "비봉초등학교운동장",
    "address": "강원특별자치도 양구군 양구읍 하리 43",
    "lat": 38.110115520540745,
    "lng": 127.98782070711643,
    "region": "강원특별자치도"
  },
  {
    "name": "국토정중앙면풋살경기장",
    "address": "강원특별자치도 양구군 국토정중앙면 용하리 407-2",
    "lat": 38.10969977773915,
    "lng": 128.03619414567947,
    "region": "강원특별자치도"
  },
  {
    "name": "청봉초등학교 운동장",
    "address": "강원특별자치도 속초시 조양동 1540-2",
    "lat": 38.18780679632142,
    "lng": 128.58686632992143,
    "region": "강원특별자치도"
  },
  {
    "name": "속초공설운동장 인조잔디구장",
    "address": "강원특별자치도 속초시 중앙동 506",
    "lat": 38.209115831670054,
    "lng": 128.58587515796475,
    "region": "강원특별자치도"
  },
  {
    "name": "속초종합운동장",
    "address": "강원특별자치도 속초시 노학동 1000-332",
    "lat": 38.19274646378249,
    "lng": 128.53470966003266,
    "region": "강원특별자치도"
  },
  {
    "name": "진부고등학교 운동장",
    "address": "강원특별자치도 평창군 진부면 하진부리 258-2",
    "lat": 37.63539561706049,
    "lng": 128.55275638271982,
    "region": "강원특별자치도"
  },
  {
    "name": "횡계초등학교 운동장",
    "address": "강원특별자치도 평창군 대관령면 횡계리 304-3",
    "lat": 37.67587517583796,
    "lng": 128.7112387618724,
    "region": "강원특별자치도"
  },
  {
    "name": "창촌초등학교 운동장",
    "address": "강원특별자치도 홍천군 내면 창촌리 1624-5",
    "lat": 37.76776535400848,
    "lng": 128.38808600377786,
    "region": "강원특별자치도"
  },
  {
    "name": "단구초등학교",
    "address": "강원특별자치도 원주시 단구동 106",
    "lat": 37.322232899051045,
    "lng": 127.96412245994546,
    "region": "강원특별자치도"
  },
  {
    "name": "단계초등학교",
    "address": "강원특별자치도 원주시 단계동 82",
    "lat": 37.3586604006162,
    "lng": 127.93641350715043,
    "region": "강원특별자치도"
  },
  {
    "name": "태장중학교",
    "address": "강원특별자치도 원주시 태장동 720-1",
    "lat": 37.35777136655507,
    "lng": 127.95957148075104,
    "region": "강원특별자치도"
  },
  {
    "name": "태장초등학교",
    "address": "강원특별자치도 원주시 태장동 1002",
    "lat": 37.37632161715628,
    "lng": 127.95128881931306,
    "region": "강원특별자치도"
  },
  {
    "name": "오저초등학교 운동장",
    "address": "강원특별자치도 삼척시 가곡면 오저리 93-2",
    "lat": 37.14658860096954,
    "lng": 129.20668387412923,
    "region": "강원특별자치도"
  },
  {
    "name": "삼척고등학교 운동장",
    "address": "강원특별자치도 삼척시 당저동 57",
    "lat": 37.4457920269435,
    "lng": 129.1651933193851,
    "region": "강원특별자치도"
  },
  {
    "name": "세연중학교",
    "address": "강원특별자치도 태백시 황지동 274-13",
    "lat": 37.1778774076712,
    "lng": 128.9894912219294,
    "region": "강원특별자치도"
  },
  {
    "name": "철암초등학교",
    "address": "강원특별자치도 태백시 철암동 341-21",
    "lat": 37.12278954013558,
    "lng": 129.04190244362042,
    "region": "강원특별자치도"
  },
  {
    "name": "장성초등학교",
    "address": "강원특별자치도 태백시 장성동 153-1",
    "lat": 37.10275521671728,
    "lng": 129.00649728544974,
    "region": "강원특별자치도"
  },
  {
    "name": "흥업초등학교",
    "address": "강원특별자치도 원주시 흥업면 흥업리 865-3",
    "lat": 37.30716868623355,
    "lng": 127.90941953659056,
    "region": "강원특별자치도"
  },
  {
    "name": "지정중학교",
    "address": "강원특별자치도 원주시 지정면 간현리 795-1",
    "lat": 37.36579386827784,
    "lng": 127.83861409722913,
    "region": "강원특별자치도"
  },
  {
    "name": "영월공설운동장",
    "address": "강원특별자치도 영월군 영월읍 하송리 318",
    "lat": 37.18146673610999,
    "lng": 128.45882083444596,
    "region": "강원특별자치도"
  },
  {
    "name": "국궁장",
    "address": "강원특별자치도 철원군 동송읍 이평리 866-2",
    "lat": 38.20158829917917,
    "lng": 127.20899084393722,
    "region": "강원특별자치도"
  },
  {
    "name": "남원주중학교",
    "address": "강원특별자치도 원주시 단구동 1565-1",
    "lat": 37.32235431279903,
    "lng": 127.94507010148666,
    "region": "강원특별자치도"
  },
  {
    "name": "서곡초등학교",
    "address": "강원특별자치도 원주시 판부면 서곡리 1110",
    "lat": 37.29790052979764,
    "lng": 127.93875357538013,
    "region": "강원특별자치도"
  },
  {
    "name": "만대초등학교",
    "address": "강원특별자치도 원주시 무실동 1716-2",
    "lat": 37.33911839824057,
    "lng": 127.92076672188483,
    "region": "강원특별자치도"
  },
  {
    "name": "동화초등학교",
    "address": "강원특별자치도 원주시 문막읍 동화리 1534-2",
    "lat": 37.327725133100515,
    "lng": 127.82918735692289,
    "region": "강원특별자치도"
  },
  {
    "name": "옥동중학교 운동장",
    "address": "강원특별자치도 영월군 김삿갓면 옥동리 402",
    "lat": 37.12819310872064,
    "lng": 128.5704049568065,
    "region": "강원특별자치도"
  },
  {
    "name": "마차초등학교 운동장",
    "address": "강원특별자치도 영월군 북면 마차리 1141",
    "lat": 37.25719373165753,
    "lng": 128.45434516668337,
    "region": "강원특별자치도"
  },
  {
    "name": "연당중학교 운동장",
    "address": "강원특별자치도 영월군 남면 연당리 992",
    "lat": 37.188684506761376,
    "lng": 128.40784273761568,
    "region": "강원특별자치도"
  },
  {
    "name": "무릉초등학교 운동장",
    "address": "강원특별자치도 영월군 무릉도원면 무릉리 893-1",
    "lat": 37.289645140653114,
    "lng": 128.2681406985526,
    "region": "강원특별자치도"
  },
  {
    "name": "동산중학교 운동장",
    "address": "강원특별자치도 춘천시 동산면 조양리 703-1",
    "lat": 37.750320306913586,
    "lng": 127.7904477300287,
    "region": "강원특별자치도"
  },
  {
    "name": "조양초등학교 운동장",
    "address": "강원특별자치도 춘천시 동산면 조양리 371-1",
    "lat": 37.75105075802911,
    "lng": 127.79558909735925,
    "region": "강원특별자치도"
  },
  {
    "name": "광판초등학교 운동장",
    "address": "강원특별자치도 춘천시 남산면 광판리 628",
    "lat": 37.73063971475527,
    "lng": 127.69927218273777,
    "region": "강원특별자치도"
  },
  {
    "name": "교동초등학교",
    "address": "강원특별자치도 원주시 명륜동 235",
    "lat": 37.338250249798065,
    "lng": 127.94726893083552,
    "region": "강원특별자치도"
  },
  {
    "name": "가산초등학교 운동장",
    "address": "강원특별자치도 춘천시 동면 지내리 136-2",
    "lat": 37.90865868286784,
    "lng": 127.78234295971862,
    "region": "강원특별자치도"
  },
  {
    "name": "금산초등학교 운동장",
    "address": "강원특별자치도 춘천시 서면 금산리 472-1",
    "lat": 37.90333284771655,
    "lng": 127.69967883825302,
    "region": "강원특별자치도"
  },
  {
    "name": "성림초등학교 운동장",
    "address": "강원특별자치도 춘천시 석사동 868",
    "lat": 37.852108976826635,
    "lng": 127.74016305744682,
    "region": "강원특별자치도"
  },
  {
    "name": "남부초등학교 운동장",
    "address": "강원특별자치도 춘천시 퇴계동 915",
    "lat": 37.85849575231452,
    "lng": 127.72647241666616,
    "region": "강원특별자치도"
  },
  {
    "name": "신천초등학교 운동장",
    "address": "강원특별자치도 영월군 한반도면 신천리 470-1",
    "lat": 37.23588136563166,
    "lng": 128.32867041910615,
    "region": "강원특별자치도"
  },
  {
    "name": "녹전초등학교 운동장",
    "address": "강원특별자치도 영월군 산솔면 녹전리 756-2",
    "lat": 37.14762863342802,
    "lng": 128.68157697876143,
    "region": "강원특별자치도"
  },
  {
    "name": "오호초등학교 운동장",
    "address": "강원특별자치도 고성군 죽왕면 삼포리 152-3",
    "lat": 38.31315830756499,
    "lng": 128.5316923387068,
    "region": "강원특별자치도"
  },
  {
    "name": "신동초등학교 운동장",
    "address": "강원특별자치도 삼척시 신기면 신기리 356-4",
    "lat": 37.3508420916184,
    "lng": 129.08199763311117,
    "region": "강원특별자치도"
  },
  {
    "name": "평창종합운동장",
    "address": "강원특별자치도 평창군 평창읍 종부리 596-3",
    "lat": 37.3603082,
    "lng": 128.391394,
    "region": "강원특별자치도"
  },
  {
    "name": "방산초등학교 운동장",
    "address": "강원특별자치도 양구군 방산면 현리 50-4",
    "lat": 38.20976698157843,
    "lng": 127.94437733988406,
    "region": "강원특별자치도"
  },
  {
    "name": "삼육초등학교 운동장",
    "address": "강원특별자치도 춘천시 동면 장학리 568-1",
    "lat": 37.91100013863669,
    "lng": 127.75332033634184,
    "region": "강원특별자치도"
  },
  {
    "name": "강원고등학교 운동장",
    "address": "강원특별자치도 춘천시 동면 장학리 산36",
    "lat": 37.895734606076005,
    "lng": 127.75660872459969,
    "region": "강원특별자치도"
  },
  {
    "name": "가정중학교",
    "address": "강원특별자치도 춘천시 남면 가정리 838-1",
    "lat": 37.73714434227068,
    "lng": 127.57721722125927,
    "region": "강원특별자치도"
  },
  {
    "name": "장학초등학교 운동장",
    "address": "강원특별자치도 춘천시 동면 장학리 990",
    "lat": 37.89513136943705,
    "lng": 127.7529153227806,
    "region": "강원특별자치도"
  },
  {
    "name": "교동초등학교",
    "address": "강원특별자치도 춘천시 교동 113-4",
    "lat": 37.88054587432178,
    "lng": 127.73717055666516,
    "region": "강원특별자치도"
  },
  {
    "name": "춘천교대부설초등학교 운동장",
    "address": "강원특별자치도 춘천시 효자동 420",
    "lat": 37.86899323909248,
    "lng": 127.73136420502445,
    "region": "강원특별자치도"
  },
  {
    "name": "남춘천여자중학교",
    "address": "강원특별자치도 춘천시 온의동 321",
    "lat": 37.85941549623822,
    "lng": 127.72062465595293,
    "region": "강원특별자치도"
  },
  {
    "name": "춘천시청 광장",
    "address": "강원특별자치도 춘천시 옥천동 111-1",
    "lat": 37.88094224178726,
    "lng": 127.72928774357234,
    "region": "강원특별자치도"
  },
  {
    "name": "만종초등학교",
    "address": "강원특별자치도 원주시 호저면 만종리 610",
    "lat": 37.35544221259892,
    "lng": 127.90157810340428,
    "region": "강원특별자치도"
  },
  {
    "name": "호저초등학교",
    "address": "강원특별자치도 원주시 호저면 주산리 511",
    "lat": 37.411320875642105,
    "lng": 127.92622932614283,
    "region": "강원특별자치도"
  },
  {
    "name": "귀래초등학교",
    "address": "강원특별자치도 원주시 귀래면 운남리 951",
    "lat": 37.16897031862216,
    "lng": 127.88385326902689,
    "region": "강원특별자치도"
  },
  {
    "name": "신림초등학교",
    "address": "강원특별자치도 원주시 신림면 신림리 512-2",
    "lat": 37.231250528928236,
    "lng": 128.07839882721547,
    "region": "강원특별자치도"
  },
  {
    "name": "명륜초등학교",
    "address": "강원특별자치도 원주시 개운동 389",
    "lat": 37.34217337088772,
    "lng": 127.95848872291546,
    "region": "강원특별자치도"
  },
  {
    "name": "원주고등학교",
    "address": "강원특별자치도 원주시 개운동 127-1",
    "lat": 37.33966952904801,
    "lng": 127.95495989639684,
    "region": "강원특별자치도"
  },
  {
    "name": "치악초등학교",
    "address": "강원특별자치도 원주시 명륜동 709",
    "lat": 37.33207027596079,
    "lng": 127.93947272970524,
    "region": "강원특별자치도"
  },
  {
    "name": "단관근린공원",
    "address": "강원특별자치도 원주시 관설동 1751-3",
    "lat": 37.31903658034265,
    "lng": 127.95900056714689,
    "region": "강원특별자치도"
  },
  {
    "name": "남원주초등학교",
    "address": "강원특별자치도 원주시 단구동 1588-2",
    "lat": 37.32243678337719,
    "lng": 127.95091875305542,
    "region": "강원특별자치도"
  },
  {
    "name": "학성중학교",
    "address": "강원특별자치도 원주시 일산동 250",
    "lat": 37.35011376246393,
    "lng": 127.9407878323141,
    "region": "강원특별자치도"
  },
  {
    "name": "중앙초등학교",
    "address": "강원특별자치도 원주시 학성동 1260",
    "lat": 37.35275864251103,
    "lng": 127.93945814069748,
    "region": "강원특별자치도"
  },
  {
    "name": "북원여자고등학교",
    "address": "강원특별자치도 원주시 단계동 481",
    "lat": 37.354664158253996,
    "lng": 127.93194150369261,
    "region": "강원특별자치도"
  },
  {
    "name": "북원초등학교",
    "address": "강원특별자치도 원주시 단계동 796",
    "lat": 37.34331883478156,
    "lng": 127.93767273362988,
    "region": "강원특별자치도"
  },
  {
    "name": "치악중학교",
    "address": "강원특별자치도 원주시 단계동 481-8",
    "lat": 37.353664567986414,
    "lng": 127.93081438832822,
    "region": "강원특별자치도"
  },
  {
    "name": "평원초등학교",
    "address": "강원특별자치도 원주시 단계동 814",
    "lat": 37.350184781148165,
    "lng": 127.93107169471021,
    "region": "강원특별자치도"
  },
  {
    "name": "학성초등학교",
    "address": "강원특별자치도 원주시 태장동 2815",
    "lat": 37.360517314518205,
    "lng": 127.95889019966123,
    "region": "강원특별자치도"
  },
  {
    "name": "중앙근린공원(원주문화원옆)",
    "address": "강원특별자치도 원주시 무실동 1914",
    "lat": 37.337508367541645,
    "lng": 127.93671369552612,
    "region": "강원특별자치도"
  },
  {
    "name": "무삼공원",
    "address": "강원특별자치도 원주시 무실동 1826",
    "lat": 37.3332639715257,
    "lng": 127.93244442070664,
    "region": "강원특별자치도"
  },
  {
    "name": "박건호공원",
    "address": "강원특별자치도 원주시 무실동 1761-1",
    "lat": 37.33762300325343,
    "lng": 127.9211484677819,
    "region": "강원특별자치도"
  },
  {
    "name": "단관초등학교",
    "address": "강원특별자치도 원주시 관설동 1723",
    "lat": 37.317375099873246,
    "lng": 127.96396332172596,
    "region": "강원특별자치도"
  },
  {
    "name": "반곡중학교",
    "address": "강원특별자치도 원주시 반곡동 1450-12",
    "lat": 37.335972031814386,
    "lng": 127.97333585119364,
    "region": "강원특별자치도"
  },
  {
    "name": "버들중학교",
    "address": "강원특별자치도 원주시 반곡동 1963-5",
    "lat": 37.331152863924345,
    "lng": 127.98986940217317,
    "region": "강원특별자치도"
  },
  {
    "name": "봉대초등학교",
    "address": "강원특별자치도 원주시 반곡동 896",
    "lat": 37.33367146534377,
    "lng": 127.98801601459127,
    "region": "강원특별자치도"
  },
  {
    "name": "원주여자고등학교",
    "address": "강원특별자치도 원주시 반곡동 1816-1",
    "lat": 37.33673753164372,
    "lng": 127.9772634440754,
    "region": "강원특별자치도"
  },
  {
    "name": "원주종합운동장",
    "address": "강원특별자치도 원주시 명륜동 342",
    "lat": 37.33715958260277,
    "lng": 127.94399830395524,
    "region": "강원특별자치도"
  },
  {
    "name": "샘마루공원",
    "address": "강원특별자치도 원주시 지정면 가곡리 1526",
    "lat": 37.37847862277828,
    "lng": 127.87467956542969,
    "region": "강원특별자치도"
  },
  {
    "name": "치악고등학교",
    "address": "강원특별자치도 원주시 관설동 1798-1",
    "lat": 37.315342265490486,
    "lng": 127.95871933732221,
    "region": "강원특별자치도"
  },
  {
    "name": "반곡초등학교",
    "address": "강원특별자치도 원주시 반곡동 1450-1",
    "lat": 37.33746639166938,
    "lng": 127.97354661157105,
    "region": "강원특별자치도"
  },
  {
    "name": "북원중학교",
    "address": "강원특별자치도 원주시 태장동 1359",
    "lat": 37.38623376085753,
    "lng": 127.95289801369138,
    "region": "강원특별자치도"
  },
  {
    "name": "근덕초등학교 노곡분교 ",
    "address": "강원특별자치도 삼척시 노곡면 하월산리 162-3",
    "lat": 37.34804028182434,
    "lng": 129.16349281947433,
    "region": "강원특별자치도"
  },
  {
    "name": "동춘천초등학교",
    "address": "강원특별자치도 춘천시 효자동 44-3",
    "lat": 37.87730679259288,
    "lng": 127.74241047392293,
    "region": "강원특별자치도"
  },
  {
    "name": "사대부설고등학교 운동장",
    "address": "강원특별자치도 춘천시 후평동 480-64",
    "lat": 37.87242279477366,
    "lng": 127.74855136870968,
    "region": "강원특별자치도"
  },
  {
    "name": "효제초등학교",
    "address": "강원특별자치도 춘천시 효자동 161-2",
    "lat": 37.87072220470279,
    "lng": 127.7380335914646,
    "region": "강원특별자치도"
  },
  {
    "name": "우석중학교 운동장",
    "address": "강원특별자치도 춘천시 석사동 723",
    "lat": 37.865825051058906,
    "lng": 127.75520324706511,
    "region": "강원특별자치도"
  },
  {
    "name": "기계공업고등학교 운동장",
    "address": "강원특별자치도 춘천시 후평동 257-4",
    "lat": 37.89128958856642,
    "lng": 127.74819731711972,
    "region": "강원특별자치도"
  },
  {
    "name": "중앙초등학교 운동장",
    "address": "강원특별자치도 춘천시 낙원동 82-1",
    "lat": 37.87892269503312,
    "lng": 127.72404069025495,
    "region": "강원특별자치도"
  },
  {
    "name": "큰골근린공원",
    "address": "강원특별자치도 춘천시 동내면 거두리 1115",
    "lat": 37.85558380753598,
    "lng": 127.7588482163185,
    "region": "강원특별자치도"
  },
  {
    "name": "8호 어린이공원",
    "address": "강원특별자치도 강릉시 포남동 1159",
    "lat": 37.7670153485495,
    "lng": 128.907222700796,
    "region": "강원특별자치도"
  },
  {
    "name": "약사천수변공원",
    "address": "강원특별자치도 춘천시 효자동 679-21",
    "lat": 37.87245878854236,
    "lng": 127.72629708051501,
    "region": "강원특별자치도"
  },
  {
    "name": "석사초등학교",
    "address": "강원특별자치도 춘천시 석사동 326-1",
    "lat": 37.857530498948904,
    "lng": 127.74941287923048,
    "region": "강원특별자치도"
  },
  {
    "name": "강동초등학교",
    "address": "강원특별자치도 강릉시 강동면 모전리 384",
    "lat": 37.72451337393249,
    "lng": 128.9634515795258,
    "region": "강원특별자치도"
  },
  {
    "name": "동명초등학교",
    "address": "강원특별자치도 강릉시 송정동 168-1",
    "lat": 37.7751925978103,
    "lng": 128.928850368428,
    "region": "강원특별자치도"
  },
  {
    "name": "구정초등학교",
    "address": "강원특별자치도 강릉시 구정면 학산리 317",
    "lat": 37.7175835666904,
    "lng": 128.891387595211,
    "region": "강원특별자치도"
  },
  {
    "name": "성산초등학교",
    "address": "강원특별자치도 강릉시 성산면 구산리 154",
    "lat": 37.7189451143586,
    "lng": 128.833173174842,
    "region": "강원특별자치도"
  },
  {
    "name": "왕산초등학교",
    "address": "강원특별자치도 강릉시 왕산면 도마리 595",
    "lat": 37.6734165886603,
    "lng": 128.836145008418,
    "region": "강원특별자치도"
  },
  {
    "name": "42호 어린이공원",
    "address": "강원특별자치도 강릉시 노암동 722-4",
    "lat": 37.7482009001257,
    "lng": 128.89615679191,
    "region": "강원특별자치도"
  },
  {
    "name": "너울숲공원",
    "address": "강원특별자치도 춘천시 동면 장학리 1000",
    "lat": 37.894013961221255,
    "lng": 127.75298224134603,
    "region": "강원특별자치도"
  },
  {
    "name": "사천초등학교",
    "address": "강원특별자치도 강릉시 사천면 미노리 406",
    "lat": 37.8219235118247,
    "lng": 128.850647022792,
    "region": "강원특별자치도"
  },
  {
    "name": "구)기상청주차장",
    "address": "강원특별자치도 강릉시 용강동 63-2",
    "lat": 37.751803587019,
    "lng": 128.890913710748,
    "region": "강원특별자치도"
  },
  {
    "name": "동내대룡공원",
    "address": "강원특별자치도 춘천시 동내면 거두리 993",
    "lat": 37.85184447384779,
    "lng": 127.75471657124446,
    "region": "강원특별자치도"
  },
  {
    "name": "춘천고등학교 운동장",
    "address": "강원특별자치도 춘천시 소양로3가 149-1",
    "lat": 37.8804172148986,
    "lng": 127.72265195846559,
    "region": "강원특별자치도"
  },
  {
    "name": "봉의고등학교 운동장",
    "address": "강원특별자치도 춘천시 후평동 891-15",
    "lat": 37.87255830064272,
    "lng": 127.75442004203346,
    "region": "강원특별자치도"
  },
  {
    "name": "생명과학고등학교 운동장",
    "address": "강원특별자치도 춘천시 사농동 122",
    "lat": 37.9088648900248,
    "lng": 127.72433638572693,
    "region": "강원특별자치도"
  },
  {
    "name": "강현초등학교",
    "address": "강원특별자치도 양양군 강현면 정암리 510-1",
    "lat": 38.149161562792436,
    "lng": 128.60413339075512,
    "region": "강원특별자치도"
  },
  {
    "name": "여량중고등학교",
    "address": "강원특별자치도 정선군 여량면 여량리 87",
    "lat": 37.469242480082606,
    "lng": 128.72678518295334,
    "region": "강원특별자치도"
  },
  {
    "name": "예미초등학교",
    "address": "강원특별자치도 정선군 신동읍 예미리 616-5",
    "lat": 37.22100804874227,
    "lng": 128.64555180072813,
    "region": "강원특별자치도"
  },
  {
    "name": "문곡중학교",
    "address": "강원특별자치도 정선군 남면 문곡리 313",
    "lat": 37.26577743372471,
    "lng": 128.73979121446655,
    "region": "강원특별자치도"
  },
  {
    "name": "화동초등학교",
    "address": "강원특별자치도 정선군 화암면 화암리 380",
    "lat": 37.33869619497842,
    "lng": 128.78748357296047,
    "region": "강원특별자치도"
  },
  {
    "name": "남선초등학교",
    "address": "강원특별자치도 정선군 남면 문곡리 100-1",
    "lat": 37.26860999013641,
    "lng": 128.74122083187152,
    "region": "강원특별자치도"
  },
  {
    "name": "북평초등학교",
    "address": "강원특별자치도 정선군 북평면 북평리 63",
    "lat": 37.454607568651014,
    "lng": 128.67396712303196,
    "region": "강원특별자치도"
  },
  {
    "name": "초당초등학교",
    "address": "강원특별자치도 강릉시 초당동 산16",
    "lat": 37.781573609927875,
    "lng": 128.9139175415048,
    "region": "강원특별자치도"
  },
  {
    "name": "사북초등학교",
    "address": "강원특별자치도 정선군 사북읍 사북리 268-1",
    "lat": 37.228487477040886,
    "lng": 128.8364553451545,
    "region": "강원특별자치도"
  },
  {
    "name": "정선정보공업고등학교",
    "address": "강원특별자치도 정선군 정선읍 북실리 762-4",
    "lat": 37.380205035149814,
    "lng": 128.64892333745988,
    "region": "강원특별자치도"
  },
  {
    "name": "고한초등학교",
    "address": "강원특별자치도 정선군 고한읍 고한리 74",
    "lat": 37.20288946642045,
    "lng": 128.85310649871897,
    "region": "강원특별자치도"
  },
  {
    "name": "임계초등학교",
    "address": "강원특별자치도 정선군 임계면 송계리 746-2",
    "lat": 37.496069257399604,
    "lng": 128.84820878505778,
    "region": "강원특별자치도"
  },
  {
    "name": "함백중고등학교",
    "address": "강원특별자치도 정선군 신동읍 조동리 185",
    "lat": 37.21566392524531,
    "lng": 128.67448747158085,
    "region": "강원특별자치도"
  },
  {
    "name": "양양중학교",
    "address": "강원특별자치도 양양군 양양읍 서문리 224",
    "lat": 38.07251409216976,
    "lng": 128.61352897103623,
    "region": "강원특별자치도"
  },
  {
    "name": "양양초등학교",
    "address": "강원특별자치도 양양군 양양읍 구교리 28",
    "lat": 38.07701896466674,
    "lng": 128.62216569730214,
    "region": "강원특별자치도"
  },
  {
    "name": "양양고등학교",
    "address": "강원특별자치도 양양군 양양읍 서문리 115",
    "lat": 38.0720689614278,
    "lng": 128.61665881703766,
    "region": "강원특별자치도"
  }
]