[
  {
    "name": "광주양동초등학교  운동장",
    "address": "광주광역시 서구 양동 295",
    "lat": 35.15391588843393,
    "lng": 126.89863979816435,
    "region": "광주광역시"
  },
  {
    "name": "전남여자고등학교 운동장",
    "address": "광주광역시 동구 장동 39-12",
    "lat": 35.151362263454914,
    "lng": 126.92072076588185,
    "region": "광주광역시"
  },
  {
    "name": "용산초등학교  운동장",
    "address": "광주광역시 동구 용산동 175-1",
    "lat": 35.11834649030813,
    "lng": 126.93148612976077,
    "region": "광주광역시"
  },
  {
    "name": "살레시오여고 운동장",
    "address": "광주광역시 동구 지산동 480",
    "lat": 35.146565540812794,
    "lng": 126.92999755239185,
    "region": "광주광역시"
  },
  {
    "name": "서석초등학교  운동장",
    "address": "광주광역시 동구 서석동 14-1",
    "lat": 35.14705590692721,
    "lng": 126.92508101463321,
    "region": "광주광역시"
  },
  {
    "name": "학운초등학교  운동장",
    "address": "광주광역시 동구 운림동 482",
    "lat": 35.13291304618904,
    "lng": 126.94649040699007,
    "region": "광주광역시"
  },
  {
    "name": "율곡초등학교 운동장",
    "address": "광주광역시 동구 산수동 573-1",
    "lat": 35.15989377663975,
    "lng": 126.9360136985779,
    "region": "광주광역시"
  },
  {
    "name": "신용빛고을근린공원",
    "address": "광주광역시 북구 신용동 680",
    "lat": 35.20863483274003,
    "lng": 126.86123211771539,
    "region": "광주광역시"
  },
  {
    "name": "봉선초등학교 운동장",
    "address": "광주광역시 남구 봉선동 310-12",
    "lat": 35.131210824102766,
    "lng": 126.91136419773103,
    "region": "광주광역시"
  },
  {
    "name": "봉선중학교 운동장",
    "address": "광주광역시 남구 봉선동 258-16",
    "lat": 35.12972793153124,
    "lng": 126.91239953041077,
    "region": "광주광역시"
  },
  {
    "name": "동아여자중학교 운동장",
    "address": "광주광역시 남구 봉선동 11",
    "lat": 35.125709069164856,
    "lng": 126.92134737968445,
    "region": "광주광역시"
  },
  {
    "name": "광주월산초등학교 운동장",
    "address": "광주광역시 남구 월산동 261",
    "lat": 35.14774017657226,
    "lng": 126.89800143241885,
    "region": "광주광역시"
  },
  {
    "name": "광주농성초등학교 운동장",
    "address": "광주광역시 남구 월산동 914-1",
    "lat": 35.14878411533048,
    "lng": 126.89059317111966,
    "region": "광주광역시"
  },
  {
    "name": "광주서광중학교 운동장",
    "address": "광주광역시 남구 백운동 614-1",
    "lat": 35.13592547565584,
    "lng": 126.90494505465,
    "region": "광주광역시"
  },
  {
    "name": "주월중학교 운동장",
    "address": "광주광역시 남구 주월동 1112",
    "lat": 35.127902795911616,
    "lng": 126.90358579158782,
    "region": "광주광역시"
  },
  {
    "name": "광주봉주초등학교 운동장",
    "address": "광주광역시 남구 주월동 57-1",
    "lat": 35.13619893611095,
    "lng": 126.890469789505,
    "region": "광주광역시"
  },
  {
    "name": "광주효덕초등학교 운동장",
    "address": "광주광역시 남구 진월동 505-4",
    "lat": 35.11268589084023,
    "lng": 126.89744353294373,
    "region": "광주광역시"
  },
  {
    "name": "광��진월초등학교 운동장",
    "address": "광주광역시 남구 진월동 357",
    "lat": 35.120882662330665,
    "lng": 126.89420878887178,
    "region": "광주광역시"
  },
  {
    "name": "광주대촌중앙초등학교 운동장",
    "address": "광주광역시 남구 지석동 223",
    "lat": 35.08233135165165,
    "lng": 126.83308124542235,
    "region": "광주광역시"
  },
  {
    "name": "광주무학초등학교 운동장",
    "address": "광주광역시 남구 월성동 306",
    "lat": 35.06632439548337,
    "lng": 126.80498778820035,
    "region": "광주광역시"
  },
  {
    "name": "광주무진중학교 운동장",
    "address": "광주광역시 남구 월산동 226",
    "lat": 35.14528379725662,
    "lng": 126.89977169036867,
    "region": "광주광역시"
  },
  {
    "name": "두암제2근린공원",
    "address": "광주광역시 동구 산수동 687",
    "lat": 35.1614245669336,
    "lng": 126.93794068110171,
    "region": "광주광역시"
  },
  {
    "name": "미산초등학교 운동장",
    "address": "광주광역시 광산구 월계동 756-8",
    "lat": 35.21954331393878,
    "lng": 126.83349430561064,
    "region": "광주광역시"
  },
  {
    "name": "하남초등학교 운동장",
    "address": "광주광역시 광산구 하남동 543",
    "lat": 35.17923666762144,
    "lng": 126.7990547418594,
    "region": "광주광역시"
  },
  {
    "name": "은빛초등학교 운동장",
    "address": "광주광역시 광산구 수완동 1494",
    "lat": 35.187547303431735,
    "lng": 126.82830423116683,
    "region": "광주광역시"
  },
  {
    "name": "광주매곡초등학교 운동장",
    "address": "광주광역시 북구 매곡동 206-1",
    "lat": 35.19411586404644,
    "lng": 126.89421794303922,
    "region": "광주광역시"
  },
  {
    "name": "광주문정초등학교 운동장",
    "address": "광주광역시 북구 문흥동 962-1",
    "lat": 35.18878582450056,
    "lng": 126.92133128643036,
    "region": "광주광역시"
  },
  {
    "name": "광주삼각초등학교 운동장",
    "address": "광주광역시 북구 삼각동 793-1",
    "lat": 35.19997330793325,
    "lng": 126.9006621837616,
    "region": "광주광역시"
  },
  {
    "name": "수완초등학교  운동장",
    "address": "광주광역시 광산구 수완동 929",
    "lat": 35.19747905343326,
    "lng": 126.8241441249847,
    "region": "광주광역시"
  },
  {
    "name": "은빛공원",
    "address": "광주광역시 광산구 수완동 1493",
    "lat": 35.18792653401194,
    "lng": 126.82606458663938,
    "region": "광주광역시"
  },
  {
    "name": "광주연제초등학교 운동장",
    "address": "광주광역시 북구 양산동 688",
    "lat": 35.19594038021131,
    "lng": 126.87412977218625,
    "region": "광주광역시"
  },
  {
    "name": "광주태봉초등학교 운동장",
    "address": "광주광역시 북구 용봉동 721",
    "lat": 35.175860434622116,
    "lng": 126.89258873462678,
    "region": "광주광역시"
  },
  {
    "name": "월곡중학교 운동장",
    "address": "광주광역시 광산구 월곡동 589",
    "lat": 35.16624836461232,
    "lng": 126.81319534778594,
    "region": "광주광역시"
  },
  {
    "name": "광주무등초등학교 운동장",
    "address": "광주광역시 북구 우산동 615",
    "lat": 35.178333429415524,
    "lng": 126.92273676395419,
    "region": "광주광역시"
  },
  {
    "name": "하남공원",
    "address": "광주광역시 광산구 하남동 499-3",
    "lat": 35.19203246977363,
    "lng": 126.79374831565836,
    "region": "광주광역시"
  },
  {
    "name": "운남공원",
    "address": "광주광역시 광산구 운남동 799-1",
    "lat": 35.1704315247397,
    "lng": 126.81616305713865,
    "region": "광주광역시"
  },
  {
    "name": "무양공원",
    "address": "광주광역시 광산구 월계동 848-1",
    "lat": 35.21051388262015,
    "lng": 126.8406910475495,
    "region": "광주광역시"
  },
  {
    "name": "송정중학교 운동장",
    "address": "광주광역시 광산구 송정동 785",
    "lat": 35.14087528774569,
    "lng": 126.79604530334473,
    "region": "광주광역시"
  },
  {
    "name": "광주서일초등학교 운동장",
    "address": "광주광역시 북구 일곡동 817-1",
    "lat": 35.211672048824575,
    "lng": 126.89844131469725,
    "region": "광주광역시"
  },
  {
    "name": "광주일동초등학교 운동장",
    "address": "광주광역시 북구 일곡동 890-1",
    "lat": 35.205680435169114,
    "lng": 126.8935650587082,
    "region": "광주광역시"
  },
  {
    "name": "하남중앙초등학교 운동장",
    "address": "광주광역시 광산구 월곡동 540",
    "lat": 35.168006861976366,
    "lng": 126.8053042888641,
    "region": "광주광역시"
  },
  {
    "name": "솔무공원",
    "address": "광주광역시 광산구 장덕동 1112",
    "lat": 35.199014605360695,
    "lng": 126.81609800724772,
    "region": "광주광역시"
  },
  {
    "name": "송정중앙초등학교 운동장",
    "address": "광주광역시 광산구 소촌동 432",
    "lat": 35.14745506491936,
    "lng": 126.79481953382488,
    "region": "광주광역시"
  },
  {
    "name": "풍영초등학교 운동장",
    "address": "광주광역시 광산구 신가동 1021-2",
    "lat": 35.18285828894069,
    "lng": 126.8405055999756,
    "region": "광주광역시"
  },
  {
    "name": "동곡초등학교 운동장",
    "address": "광주광역시 광산구 하산동 141",
    "lat": 35.09817077205658,
    "lng": 126.77286894152563,
    "region": "광주광역시"
  },
  {
    "name": "광주자동화설비공업고등학교 운동장",
    "address": "광주광역시 광산구 우산동 1084",
    "lat": 35.14951333436669,
    "lng": 126.81328909110073,
    "region": "광주광역시"
  },
  {
    "name": "광주학강초등학교 운동장",
    "address": "광주광역시 남구 양림동 10",
    "lat": 35.138067754261506,
    "lng": 126.91902458667757,
    "region": "광주광역시"
  },
  {
    "name": "방림초등학교 운동장",
    "address": "광주광역시 남구 방림동 66-10",
    "lat": 35.13334737035304,
    "lng": 126.92114353179932,
    "region": "광주광역시"
  },
  {
    "name": "염주초등학교  운동장",
    "address": "광주광역시 서구 화정동 850",
    "lat": 35.140708593149014,
    "lng": 126.87898457050323,
    "region": "광주광역시"
  },
  {
    "name": "화정남초등학교  운동장",
    "address": "광주광역시 서구 화정동 929-1",
    "lat": 35.13784841163022,
    "lng": 126.87210202217098,
    "region": "광주광역시"
  },
  {
    "name": "송학초등학교  운동장",
    "address": "광주광역시 서구 세하동 532",
    "lat": 35.11364690404612,
    "lng": 126.83016300201412,
    "region": "광주광역시"
  },
  {
    "name": "마재초등학교  운동장",
    "address": "광주광역시 서구 금호동 788",
    "lat": 35.130368474239,
    "lng": 126.86299324035643,
    "region": "광주광역시"
  },
  {
    "name": "성진초등학교  운동장",
    "address": "광주광역시 서구 화정동 904-1",
    "lat": 35.143007,
    "lng": 126.866228,
    "region": "광주광역시"
  },
  {
    "name": "대자중학교  운동장",
    "address": "광주광역시 서구 동천동 649",
    "lat": 35.16857255503933,
    "lng": 126.86755299568173,
    "region": "광주광역시"
  },
  {
    "name": "광주대동고등학교  운동장",
    "address": "광주광역시 서구 매월동 521-4",
    "lat": 35.11910998292622,
    "lng": 126.84923887252806,
    "region": "광주광역시"
  },
  {
    "name": "상무고등학교  운동장",
    "address": "광주광역시 서구 쌍촌동 1302",
    "lat": 35.15450360931196,
    "lng": 126.85989797115323,
    "region": "광주광역시"
  },
  {
    "name": "극락초등학교  운동장",
    "address": "광주광역시 서구 유촌동 25-1",
    "lat": 35.16567732944726,
    "lng": 126.85730961633764,
    "region": "광주광역시"
  },
  {
    "name": "금호초등학교  운동장",
    "address": "광주광역시 서구 쌍촌동 1249",
    "lat": 35.1426077268863,
    "lng": 126.85941586762586,
    "region": "광주광역시"
  },
  {
    "name": "광주서초등학교  운동장",
    "address": "광주광역시 서구 화정동 71-3",
    "lat": 35.15546851497932,
    "lng": 126.8775629997253,
    "region": "광주광역시"
  },
  {
    "name": "광주신촌마을대피소",
    "address": "광주광역시 북구 청풍동 852-3",
    "lat": 35.175656062297044,
    "lng": 126.96113534979128,
    "region": "광주광역시"
  },
  {
    "name": "풍암초등학교  운동장",
    "address": "광주광역시 서구 풍암동 1050",
    "lat": 35.123335390269204,
    "lng": 126.87578737735745,
    "region": "광주광역시"
  },
  {
    "name": "광주여자고등학교  운동장",
    "address": "광주광역시 서구 화정동 325-7",
    "lat": 35.14783228935432,
    "lng": 126.87314271926878,
    "region": "광주광역시"
  },
  {
    "name": "서광초등학교  운동장",
    "address": "광주광역시 서구 쌍촌동 362-7",
    "lat": 35.1540913279465,
    "lng": 126.86461865901947,
    "region": "광주광역시"
  },
  {
    "name": "화정중학교  운동장",
    "address": "광주광역시 서구 화정동 647-7",
    "lat": 35.14491533396469,
    "lng": 126.8818116188049,
    "region": "광주광역시"
  },
  {
    "name": "전남중학교  운동장",
    "address": "광주광역시 서구 치평��� 1171",
    "lat": 35.150450880544724,
    "lng": 126.84381008148192,
    "region": "광주광역시"
  },
  {
    "name": "광주효동초등학교 운동장",
    "address": "광주광역시 북구 중흥동 367-10",
    "lat": 35.16932242117328,
    "lng": 126.91295206546783,
    "region": "광주광역시"
  },
  {
    "name": "광주문우초등학교 운동장",
    "address": "광주광역시 북구 오치동 1046-1",
    "lat": 35.18545821538627,
    "lng": 126.9161814451218,
    "region": "광주광역시"
  },
  {
    "name": "신암초등학교  운동장",
    "address": "광주광역시 서구 풍암동 1094",
    "lat": 35.122455,
    "lng": 126.881037,
    "region": "광주광역시"
  },
  {
    "name": "송정초등학교 운동장",
    "address": "광주광역시 광산구 도산동 865-3",
    "lat": 35.13140706690343,
    "lng": 126.79667319907257,
    "region": "광주광역시"
  },
  {
    "name": "산정공원",
    "address": "광주광역시 광산구 월곡동 539",
    "lat": 35.16847116060524,
    "lng": 126.80615738174592,
    "region": "광주광역시"
  },
  {
    "name": "신창가족공원",
    "address": "광주광역시 광산구 신창동 1120",
    "lat": 35.19841799957162,
    "lng": 126.83897815588266,
    "region": "광주광역시"
  },
  {
    "name": "광주삼정초등학교 운동장",
    "address": "광주광역시 북구 두암동 967-2",
    "lat": 35.16594423218924,
    "lng": 126.93630877593257,
    "region": "광주광역시"
  },
  {
    "name": "문흥중앙초등학교 운동장",
    "address": "광주광역시 북구 문흥동 1010-5",
    "lat": 35.183717633022226,
    "lng": 126.92073047161102,
    "region": "광주광역시"
  },
  {
    "name": "광주문산초등학교 운동장",
    "address": "광주광역시 북구 문흥동 990-1",
    "lat": 35.18682610282076,
    "lng": 126.92506492137908,
    "region": "광주광역시"
  },
  {
    "name": "광주용봉초등학교 운동장",
    "address": "광주광역시 북구 신안동 235-1",
    "lat": 35.16891898528223,
    "lng": 126.90074801445007,
    "region": "광주광역시"
  },
  {
    "name": "광주오정초등학교 운동장",
    "address": "광주광역시 북구 오치동 1038-1",
    "lat": 35.18555466974196,
    "lng": 126.91197574138643,
    "region": "광주광역시"
  },
  {
    "name": "광주용두초등학교 운동장",
    "address": "광주광역시 북구 신용동 642-1",
    "lat": 35.21455154781543,
    "lng": 126.870841383934,
    "region": "광주광역시"
  },
  {
    "name": "지한초등학교 운동장",
    "address": "광주광역시 동구 내남동 299-5",
    "lat": 35.09369587662098,
    "lng": 126.94017112255095,
    "region": "광주광역시"
  },
  {
    "name": "광주용주초등학교 운동장",
    "address": "광주광역시 북구 용봉동 1428-1",
    "lat": 35.18120534135922,
    "lng": 126.89922988414764,
    "region": "광주광역시"
  },
  {
    "name": "광주동운초등학교 운동장",
    "address": "광주광역시 북구 운암동 484-1",
    "lat": 35.17470722161357,
    "lng": 126.88461184501647,
    "region": "광주광역시"
  },
  {
    "name": "월전공원",
    "address": "광주광역시 광산구 장록동 751-1",
    "lat": 35.132352355919366,
    "lng": 126.76795760017836,
    "region": "광주광역시"
  },
  {
    "name": "광주각화초등학교  운동장",
    "address": "광주광역시 북구 각화동 215",
    "lat": 35.18173586666002,
    "lng": 126.9360136985779,
    "region": "광주광역시"
  },
  {
    "name": "광주동림초등학교 운동장",
    "address": "광주광역시 북구 동림동 1157-1",
    "lat": 35.18692693976527,
    "lng": 126.86757445335387,
    "region": "광주광역시"
  },
  {
    "name": "광주풍향초등학교 운동장",
    "address": "광주광역시 북구 두암동 800",
    "lat": 35.16741923865866,
    "lng": 126.92820847034453,
    "region": "광주광역시"
  },
  {
    "name": "광주본촌초등학교 운동장",
    "address": "광주광역시 북구 본촌동 2999",
    "lat": 35.21490216476583,
    "lng": 126.88184916973117,
    "region": "광주광역시"
  },
  {
    "name": "비아초등학교 운동장",
    "address": "광주광역시 광산구 비아동 68-2",
    "lat": 35.22268547107341,
    "lng": 126.82563543319701,
    "region": "광주광역시"
  },
  {
    "name": "광주두암초등학교 운동장",
    "address": "광주광역시 북구 두암동 400",
    "lat": 35.169028614798506,
    "lng": 126.93395376205444,
    "region": "광주광역시"
  },
  {
    "name": "광주문화초등학교 운동장",
    "address": "광주광역시 북구 두암동 828-1",
    "lat": 35.17331282053879,
    "lng": 126.93211913108827,
    "region": "광주광역시"
  },
  {
    "name": "광주문흥초등학교 운동장",
    "address": "광주광역시 북구 문흥동 787-3",
    "lat": 35.18044243113734,
    "lng": 126.91446483135222,
    "region": "광주광역시"
  },
  {
    "name": "광주양산초등학교 운동장",
    "address": "광주광역시 북구 양산동 283-1",
    "lat": 35.20680690981584,
    "lng": 126.87138855457306,
    "region": "광주광역시"
  },
  {
    "name": "광주서산초등학교 운동장",
    "address": "광주광역시 북구 오치동 945-1",
    "lat": 35.18861626569259,
    "lng": 126.90436728220055,
    "region": "광주광역시"
  },
  {
    "name": "광주대자초등학교 운동장",
    "address": "광주광역시 북구 운암동 782-6",
    "lat": 35.17327335600941,
    "lng": 126.87284767627712,
    "region": "광주광역시"
  },
  {
    "name": "광주운암초등학교 운동장",
    "address": "광주광역시 북구 운암동 1020",
    "lat": 35.18008289625142,
    "lng": 126.87114179134369,
    "region": "광주광역시"
  },
  {
    "name": "광주일신초등학교 운동장",
    "address": "광주광역시 북구 일곡동 814-5",
    "lat": 35.21079546873238,
    "lng": 126.89528167247772,
    "region": "광주광역시"
  },
  {
    "name": "광주서림초등학교 운동장",
    "address": "광주광역시 북구 임동 32-1",
    "lat": 35.16232571594703,
    "lng": 126.89913626727045,
    "region": "광주광역시"
  },
  {
    "name": "광주청풍수련장 운동장",
    "address": "광주광역시 북구 청풍동 498",
    "lat": 35.17196224575514,
    "lng": 126.96495473384856,
    "region": "광주광역시"
  },
  {
    "name": "치평초등학교  운동장",
    "address": "광주광역시 서구 치평동 1171-7",
    "lat": 35.14833671464536,
    "lng": 126.84386909008023,
    "region": "광주광역시"
  },
  {
    "name": "상무중학교  운동장",
    "address": "광주광역시 서구 쌍촌동 471",
    "lat": 35.14536275345929,
    "lng": 126.85782194137572,
    "region": "광주광역시"
  },
  {
    "name": "효광중학교  운동장",
    "address": "광주광역시 서구 쌍촌동 1212",
    "lat": 35.14676735927647,
    "lng": 126.8633229821526,
    "region": "광주광역시"
  },
  {
    "name": "광주중흥초등학교 운동장",
    "address": "광주광역시 북구 중흥동 652-1",
    "lat": 35.16020767299609,
    "lng": 126.91306204319216,
    "region": "광주광역시"
  },
  {
    "name": "광주교육대학교 ��설초등학교 운동장",
    "address": "광주광역시 북구 풍향동 1-1",
    "lat": 35.16423985975892,
    "lng": 126.9254243373871,
    "region": "광주광역시"
  },
  {
    "name": "목련초등학교 운동장",
    "address": "광주광역시 광산구 운남동 794-5",
    "lat": 35.17227358154242,
    "lng": 126.81521773338318,
    "region": "광주광역시"
  },
  {
    "name": "광주우산초등학교 운동장",
    "address": "광주광역시 북구 우산동 168-6",
    "lat": 35.17545703117147,
    "lng": 126.92025303840637,
    "region": "광주광역시"
  },
  {
    "name": "진만초등학교 운동장",
    "address": "광주광역시 광산구 신가동 1005",
    "lat": 35.18292843981856,
    "lng": 126.83420240879056,
    "region": "광주광역시"
  },
  {
    "name": "충장중학교  운동장",
    "address": "광주광역시 동구 산수동 552-6",
    "lat": 35.15640709405756,
    "lng": 126.9291204214096,
    "region": "광주광역시"
  },
  {
    "name": "중앙초등학교  운동장",
    "address": "광주광역시 동구 궁동 6-2",
    "lat": 35.15121511506362,
    "lng": 126.91820105986777,
    "region": "광주광역시"
  },
  {
    "name": "남초등학교  운동장",
    "address": "광주광역시 동구 소태동 566-2",
    "lat": 35.125700294139214,
    "lng": 126.93307399749754,
    "region": "광주광역시"
  },
  {
    "name": "장원초등학교  운동장",
    "address": "광주광역시 동구 산수동 102",
    "lat": 35.157073741779115,
    "lng": 126.93739771842958,
    "region": "광주광역시"
  },
  {
    "name": "동산초등학교  운동장",
    "address": "광주광역시 동구 지산동 231-2",
    "lat": 35.14847707590941,
    "lng": 126.93479597568512,
    "region": "광주광역시"
  },
  {
    "name": "산수초등학교  운동장",
    "address": "광주광역시 동구 산수동 552-18",
    "lat": 35.155974838507134,
    "lng": 126.92824544978987,
    "region": "광주광역시"
  },
  {
    "name": "무등중학교  운동장",
    "address": "광주광역시 동구 소태동 625",
    "lat": 35.12453759488039,
    "lng": 126.93354070186615,
    "region": "광주광역시"
  },
  {
    "name": "송정동초등학교 운동장",
    "address": "광주광역시 광산구 신촌동 1035",
    "lat": 35.14543293668625,
    "lng": 126.80510044097896,
    "region": "광주광역시"
  },
  {
    "name": "보문고등학교 운동장",
    "address": "광주광역시 광산구 운수동 308",
    "lat": 35.154249741370045,
    "lng": 126.77734618060818,
    "region": "광주광역시"
  },
  {
    "name": "본량초등학교 운동장",
    "address": "광주광역시 광산구 남산동 637",
    "lat": 35.18067481259549,
    "lng": 126.72299265861504,
    "region": "광주광역시"
  },
  {
    "name": "광주불로초등학교 운동장",
    "address": "광주광역시 남구 봉선동 102-2",
    "lat": 35.12030786209643,
    "lng": 126.91422343254088,
    "region": "광주광역시"
  },
  {
    "name": "광주백운초등학교운동장",
    "address": "광주광역시 남구 백운동 217",
    "lat": 35.13768171083521,
    "lng": 126.900914311409,
    "region": "광주광역시"
  },
  {
    "name": "광주삼육초등학교 운동장",
    "address": "광주광역시 ���구 주월동 468-2",
    "lat": 35.129455918720275,
    "lng": 126.8940854072571,
    "region": "광주광역시"
  },
  {
    "name": "임곡초등학교 운동장",
    "address": "광주광역시 광산구 임곡동 455-1",
    "lat": 35.2202442605407,
    "lng": 126.74651535195177,
    "region": "광주광역시"
  },
  {
    "name": "평동중학교 운동장",
    "address": "광주광역시 광산구 용동 185",
    "lat": 35.12849509200219,
    "lng": 126.75411164760587,
    "region": "광주광역시"
  },
  {
    "name": "천곡중학교 운동장",
    "address": "광주광역시 광산구 월계동 776-10",
    "lat": 35.211452904688805,
    "lng": 126.83533966541289,
    "region": "광주광역시"
  },
  {
    "name": "광주송원중학교 운동장",
    "address": "광주광역시 남구 송하동 365-1",
    "lat": 35.11327390939881,
    "lng": 126.87277793884276,
    "region": "광주광역시"
  },
  {
    "name": "광주대촌중학교 운동장",
    "address": "광주광역시 남구 지석동 268-2",
    "lat": 35.08496521798643,
    "lng": 126.83221220970154,
    "region": "광주광역시"
  },
  {
    "name": "송정서초등학교 운동장",
    "address": "광주광역시 광산구 도산동 1008-3",
    "lat": 35.12964018556245,
    "lng": 126.78770899772641,
    "region": "광주광역시"
  },
  {
    "name": "응암공원",
    "address": "광주광역시 광산구 월계동 286",
    "lat": 35.21718552060968,
    "lng": 126.83286935091016,
    "region": "광주광역시"
  },
  {
    "name": "장덕공원",
    "address": "광주광역시 광산구 장덕동 1596",
    "lat": 35.1881376793431,
    "lng": 126.813105803371,
    "region": "광주광역시"
  },
  {
    "name": "광천초등학교  운동장",
    "address": "광주광역시 서구 농성동 438",
    "lat": 35.15907803788044,
    "lng": 126.89022302627565,
    "region": "광주광역시"
  },
  {
    "name": "화개초등학교  운동장",
    "address": "광주광역시 서구 금호동 820",
    "lat": 35.124669222044716,
    "lng": 126.85683488845825,
    "region": "광주광역시"
  },
  {
    "name": "치평중학교  운동장",
    "address": "광주광역시 서구 쌍촌동 472",
    "lat": 35.145441709585356,
    "lng": 126.85908257961273,
    "region": "광주광역시"
  },
  {
    "name": "운천초등학교  운동장",
    "address": "광주광역시 서구 치평동 1168-6",
    "lat": 35.15221410552994,
    "lng": 126.84662640094753,
    "region": "광주광역시"
  },
  {
    "name": "운리초등학교  운동장",
    "address": "광주광역시 서구 풍암동 950",
    "lat": 35.123088,
    "lng": 126.865829,
    "region": "광주광역시"
  },
  {
    "name": "유덕초등학교  운동장",
    "address": "광주광역시 서구 유촌동 873-1",
    "lat": 35.16463016261999,
    "lng": 126.86278939247127,
    "region": "광주광역시"
  },
  {
    "name": "광주중학교  운동장",
    "address": "광주광역시 서구 금호동 821",
    "lat": 35.12545898056365,
    "lng": 126.85559034347534,
    "region": "광주광역시"
  },
  {
    "name": "문성중학교 운동장",
    "address": "광주광역시 남구 봉선동 599-1",
    "lat": 35.119575095611616,
    "lng": 126.9059729576111,
    "region": "광주광역시"
  },
  {
    "name": "첨단초등학교 운동장",
    "address": "광주광역시 광산구 월계동 758-1",
    "lat": 35.21939431043985,
    "lng": 126.83763563632964,
    "region": "광주광역시"
  },
  {
    "name": "화정초등학교  운동장",
    "address": "광주광역시 서구 화정동 328-3",
    "lat": 35.14833,
    "lng": 126.872027,
    "region": "광주광역시"
  },
  {
    "name": "만호초등학교  운동장",
    "address": "광주광역시 서구 금호동 244-16",
    "lat": 35.13245239681681,
    "lng": 126.85479104518888,
    "region": "광주광역시"
  },
  {
    "name": "빛고을초등학교  운동장",
    "address": "광주광역시 서구 동천동 507",
    "lat": 35.168875,
    "lng": 126.859779,
    "region": "광주광역시"
  },
  {
    "name": "대성초등학교 운동장",
    "address": "광주광역시 남구 서동 111",
    "lat": 35.14402048759654,
    "lng": 126.90521121025085,
    "region": "광주광역시"
  },
  {
    "name": "진제초등학교 운동장",
    "address": "광주광역시 남구 진월동 235-1",
    "lat": 35.115994598806466,
    "lng": 126.90322217959788,
    "region": "광주광역시"
  },
  {
    "name": "진남초등학교 운동장",
    "address": "광주광역시 남구 노대동 732",
    "lat": 35.108651190769166,
    "lng": 126.90230459924746,
    "region": "광주광역시"
  },
  {
    "name": "빛여울초등학교 운동장",
    "address": "광주광역시 남구 임암동 714",
    "lat": 35.10283518964864,
    "lng": 126.86901538626164,
    "region": "광주광역시"
  },
  {
    "name": "선운중학교 운동장",
    "address": "광주광역시 광산구 선암동 580",
    "lat": 35.14743751955425,
    "lng": 126.77440524101254,
    "region": "광주광역시"
  },
  {
    "name": "광주건국초등학교 운동장",
    "address": "광주광역시 북구 신용동 742",
    "lat": 35.210234452506484,
    "lng": 126.86562716960904,
    "region": "광주광역시"
  },
  {
    "name": "계수초등학교  운동장",
    "address": "광주광역시 서구 치평동 1166-6",
    "lat": 35.15547290088805,
    "lng": 126.84496879577635,
    "region": "광주광역시"
  },
  {
    "name": "상무초등학교  운동장",
    "address": "광주광역시 서구 금호동 446",
    "lat": 35.140631,
    "lng": 126.855587,
    "region": "광주광역시"
  },
  {
    "name": "주월초등학교  운동장",
    "address": "광주광역시 서구 화정동 1325",
    "lat": 35.144424046980554,
    "lng": 126.88402175903319,
    "region": "광주광역시"
  },
  {
    "name": "광주일곡초등학교 운동장",
    "address": "광주광역시 북구 일곡동 820-1",
    "lat": 35.206868273744654,
    "lng": 126.89837157726285,
    "region": "광주광역시"
  },
  {
    "name": "효광초등학교  운동장",
    "address": "광주광역시 서구 광천동 650-290",
    "lat": 35.16615188734739,
    "lng": 126.87974631786348,
    "region": "광주광역시"
  },
  {
    "name": "유안초등학교 운동장",
    "address": "광주광역시 남구 봉선동 124",
    "lat": 35.12497196371544,
    "lng": 126.91434144973753,
    "region": "광주광역시"
  },
  {
    "name": "광주양지초등학교 운동장",
    "address": "광주광역시 북구 양산동 928",
    "lat": 35.20821826844637,
    "lng": 126.88087284564968,
    "region": "광주광역시"
  },
  {
    "name": "광주문흥중학교 운동장",
    "address": "광주광역시 북구 문흥동 1008-1",
    "lat": 35.185748887601214,
    "lng": 126.91770830207642,
    "region": "광주광역시"
  },
  {
    "name": "광주신용초등학교 운동장",
    "address": "광주광역시 북구 신용동 661",
    "lat": 35.210177474079195,
    "lng": 126.85718625783919,
    "region": "광주광역시"
  },
  {
    "name": "광주동강대학교 운동장",
    "address": "광주광역시 북구 두암동 887-2",
    "lat": 35.17008405671375,
    "lng": 126.92495868260755,
    "region": "광주광역시"
  },
  {
    "name": "광주공업고등학교 운동장",
    "address": "광주광역시 북구 매곡동 10",
    "lat": 35.189320684399924,
    "lng": 126.8975508213043,
    "region": "광주광역시"
  },
  {
    "name": "유촌초등학교 운동장",
    "address": "광주광역시 서구 쌍촌동 1320-2",
    "lat": 35.159152594988434,
    "lng": 126.85750544071193,
    "region": "광주광역시"
  },
  {
    "name": "광주하백초등학교 운동장",
    "address": "광주광역시 북구 매곡동 339",
    "lat": 35.18886473847761,
    "lng": 126.88949346542357,
    "region": "광주광역시"
  },
  {
    "name": "용산생활체육공원",
    "address": "광주광역시 동구 용산동 151",
    "lat": 35.117386,
    "lng": 126.932479,
    "region": "광주광역시"
  },
  {
    "name": "빛고을농촌테마공원",
    "address": "광주광역시 남구 양과동 1290",
    "lat": 35.08413116951499,
    "lng": 126.86681270599364,
    "region": "광주광역시"
  },
  {
    "name": "풍암중학교 운동장",
    "address": "광주광역시 서구 풍암동 1098",
    "lat": 35.12209550675862,
    "lng": 126.8779993057842,
    "region": "광주광역시"
  },
  {
    "name": "상일여자고등학교 운동장",
    "address": "광주광역시 서구 쌍촌동 1353",
    "lat": 35.15823341801885,
    "lng": 126.8644809722852,
    "region": "광주광역시"
  },
  {
    "name": "상무시민공원",
    "address": "광주광역시 서구 치평동 1162",
    "lat": 35.15356098775619,
    "lng": 126.84158205991274,
    "region": "광주광역시"
  },
  {
    "name": "운림중학교",
    "address": "광주광역시 동구 운림동 650",
    "lat": 35.132672695782375,
    "lng": 126.94219426399631,
    "region": "광주광역시"
  },
  {
    "name": "안청공원",
    "address": "광주광역시 광산구 안청동 736-1",
    "lat": 35.21189557523366,
    "lng": 126.80279374122618,
    "region": "광주광역시"
  },
  {
    "name": "운리중학교 운동장",
    "address": "광주광역시 서구 풍암동 897",
    "lat": 35.12141394670408,
    "lng": 126.86297893526624,
    "region": "광주광역시"
  },
  {
    "name": "광림초등학교 운동장",
    "address": "광주광역시 서구 동천동 659",
    "lat": 35.169379428257336,
    "lng": 126.8703907728195,
    "region": "광주광역시"
  },
  {
    "name": "광주한울초등학교 운동장",
    "address": "광주광역시 북구 동림동 235",
    "lat": 35.175904282702646,
    "lng": 126.8663191795349,
    "region": "광주광역시"
  },
  {
    "name": "광주오치초등학교 운동장",
    "address": "광주광역시 북구 오치동 1002",
    "lat": 35.18513377716786,
    "lng": 126.8991816043854,
    "region": "광주광역시"
  },
  {
    "name": "금호중학교 운동장",
    "address": "광주광역시 서구 금호동 740-1",
    "lat": 35.13898898685932,
    "lng": 126.86131417751312,
    "region": "광주광역시"
  },
  {
    "name": "문화근린공원",
    "address": "광주광역시 북구 문흥동 1009-1",
    "lat": 35.184237088806135,
    "lng": 126.91552189347526,
    "region": "광주광역시"
  },
  {
    "name": "첨단체육공원",
    "address": "광주광역시 북구 오룡동 1113",
    "lat": 35.220557718196254,
    "lng": 126.85561995477124,
    "region": "광주광역시"
  },
  {
    "name": "광주문���중학교 운동장",
    "address": "광주광역시 북구 문흥동 972-3",
    "lat": 35.188978725198055,
    "lng": 126.92360043525697,
    "region": "광주광역시"
  },
  {
    "name": "광주금파공업고등학교 운동장",
    "address": "광주광역시 북구 운암동 133",
    "lat": 35.1760618153172,
    "lng": 126.88715472757718,
    "region": "광주광역시"
  },
  {
    "name": "광주소프트웨어마이스터고등학교 운동장",
    "address": "광주광역시 광산구 송정동 710-3",
    "lat": 35.142978954961855,
    "lng": 126.80029605433953,
    "region": "광주광역시"
  },
  {
    "name": "삼도초등학교 운동장",
    "address": "광주광역시 광산구 도덕동 327",
    "lat": 35.163805700443206,
    "lng": 126.700649857521,
    "region": "광주광역시"
  },
  {
    "name": "도산초등학교 운동장",
    "address": "광주광역시 광산구 도산동 659-1",
    "lat": 35.1259152819952,
    "lng": 126.79213464260098,
    "region": "광주광역시"
  },
  {
    "name": "광주동명중학교 운동장",
    "address": "광주광역시 서구 쌍촌동 1320-1",
    "lat": 35.15924469485101,
    "lng": 126.85643792152402,
    "region": "광주광역시"
  },
  {
    "name": "금당초등학교 운동장",
    "address": "광주광역시 서구 풍암동 1141",
    "lat": 35.126656766369074,
    "lng": 126.88343167304993,
    "region": "광주광역시"
  },
  {
    "name": "광주신광중학교 운동장",
    "address": "광주광역시 북구 두암동 576-5",
    "lat": 35.1787631265127,
    "lng": 126.93148612976077,
    "region": "광주광역시"
  }
]