[
  {
    "name": "고성초등학교 운동장",
    "address": "경상남도 고성군 고성읍 서외리 90",
    "lat": "34.97612898438882",
    "lng": "128.31904381513868",
    "region": "경상남도"
  },
  {
    "name": "고성중학교 운동장",
    "address": "경상남도 고성군 고성읍 교사리 337-1",
    "lat": "34.97916138505296",
    "lng": "128.3054366422868",
    "region": "경상남도"
  },
  {
    "name": "철성중학교 운동장",
    "address": "경상남도 고성군 고성읍 기월리 143-1",
    "lat": "34.98455807328688",
    "lng": "128.3194504121789",
    "region": "경상남도"
  },
  {
    "name": "하동초등학교 운동장",
    "address": "경상남도 하동군 하동읍 광평리 299",
    "lat": "35.066580358407144",
    "lng": "127.74814707136728",
    "region": "경상남도"
  },
  {
    "name": "적량초등학교 운동장",
    "address": "경상남도 하동군 적량면 관리 136-2",
    "lat": "35.08552952275477",
    "lng": "127.77373275939694",
    "region": "경상남도"
  },
  {
    "name": "횡천초등학교 운동장",
    "address": "경상남도 하동군 횡천면 횡천리 752",
    "lat": "35.11032088250436",
    "lng": "127.8078745137188",
    "region": "경상남도"
  },
  {
    "name": "동해초등학교 운동장",
    "address": "경상남도 고성군 동해면 양촌리 832",
    "lat": "35.04578691746404",
    "lng": "128.44433510561967",
    "region": "경상남도"
  },
  {
    "name": "산청중학교 운동장",
    "address": "경상남도 산청군 오부면 오전리 840",
    "lat": "35.49926892322059",
    "lng": "127.88688286702154",
    "region": "경상남도"
  },
  {
    "name": "산청중학교 운동장",
    "address": "경상남도 산청군 생초면 어서리 351",
    "lat": "35.49483997056435",
    "lng": "127.83619308822215",
    "region": "경상남도"
  },
  {
    "name": "성명초등학교 실외운동장",
    "address": "경상남도 남해군 서면 서상리 655-1",
    "lat": "34.80844483307951",
    "lng": "127.83843862544646",
    "region": "경상남도"
  },
  {
    "name": "대산중학교 운동장",
    "address": "경상남도 함안군 대산면 평림리 955",
    "lat": "35.347775601902704",
    "lng": "128.43855069185832",
    "region": "경상남도"
  },
  {
    "name": "경남항공고등학교 운동장",
    "address": "경상남도 고성군 고성읍 교사리 338-5",
    "lat": "34.97805459555892",
    "lng": "128.30593028804256",
    "region": "경상남도"
  },
  {
    "name": "북천초등학교 운동장",
    "address": "경상남도 하동군 북천면 직전리 677-1",
    "lat": "35.1133742094813",
    "lng": "127.88911628990003",
    "region": "경상남도"
  },
  {
    "name": "하일초등학교 장춘분교(폐교부지) 운동장",
    "address": "경상남도 고성군 하일면 춘암리 401-2",
    "lat": "34.912398718463216",
    "lng": "128.178900661462",
    "region": "경상남도"
  },
  {
    "name": "고성고등학교 운동장",
    "address": "경상남도 고성군 회화면 배둔리 1182",
    "lat": "35.0554733442522",
    "lng": "128.36317603320734",
    "region": "경상남도"
  },
  {
    "name": "상주초등학교 실외운동장",
    "address": "경상남도 남해군 상주면 상주리 1174",
    "lat": "34.72418101239441",
    "lng": "127.98650622367859",
    "region": "경상남도"
  },
  {
    "name": "종합운동장 주차장",
    "address": "경상남도 양산시 북부동 533",
    "lat": "35.34612574251046",
    "lng": "129.0338015556349",
    "region": "경상남도"
  },
  {
    "name": "궁항초등학교 운동장",
    "address": "경상남도 하동군 금성면 궁항리 1038",
    "lat": "34.971092320271104",
    "lng": "127.79623211576342",
    "region": "경상남도"
  },
  {
    "name": "생비량초등학교 운동장",
    "address": "경상남도 산청군 신등면 단계리 663",
    "lat": "35.378713975553175",
    "lng": "128.01008780423294",
    "region": "경상남도"
  },
  {
    "name": "고현초등학교 실외운동장",
    "address": "경상남도 남해군 고현면 대사리 618",
    "lat": "34.89672875219065",
    "lng": "127.87767311440442",
    "region": "경상남도"
  },
  {
    "name": "설천초등학교 실외운동장",
    "address": "경상남도 남해군 설천면 남양리 71",
    "lat": "34.92599974529152",
    "lng": "127.91486410803739",
    "region": "경상남도"
  },
  {
    "name": "남면공설운동장",
    "address": "경상남도 남해군 남면 당항리 1329-2",
    "lat": "34.7718619263466",
    "lng": "127.89112063220111",
    "region": "경상남도"
  },
  {
    "name": "청암중학교 운동장",
    "address": "경상남도 하동군 청암면 평촌리 918",
    "lat": "35.16069983345401",
    "lng": "127.79814082861769",
    "region": "경상남도"
  },
  {
    "name": "방산초등학교 운동장",
    "address": "경상남도 고성군 거류면 용산리 195-158",
    "lat": "34.97134815976057",
    "lng": "128.36395149022937",
    "region": "경상남도"
  },
  {
    "name": "생비량초등학교 운동장",
    "address": "경상남도 산청군 생비량면 도리 595-1",
    "lat": "35.34629467684524",
    "lng": "128.04672688845832",
    "region": "경상남도"
  },
  {
    "name": "이동초등학교 실외운동장",
    "address": "경상남도 남해군 이동면 석평리 52-2",
    "lat": "34.80399401642839",
    "lng": "127.95244704883272",
    "region": "경상남도"
  },
  {
    "name": "진교중학교 운동장",
    "address": "경상남도 하동군 진교면 진교리 560-1",
    "lat": "35.0370498713271",
    "lng": "127.89912736163983",
    "region": "경상남도"
  },
  {
    "name": "삼산초등학교 운동장",
    "address": "경상남도 고성군 삼산면 미룡리 276",
    "lat": "34.93786190424886",
    "lng": "128.27328232044144",
    "region": "경상남도"
  },
  {
    "name": "하일초등학교 운동장",
    "address": "경상남도 고성군 하일면 학림리 722-5",
    "lat": "34.945778206175554",
    "lng": "128.19025426019684",
    "region": "경상남도"
  },
  {
    "name": "고성곤충생태학교 운동장(구.영천중학교 영현분교)",
    "address": "경상남도 고성군 영현면 봉림리 44-9",
    "lat": "35.05301507078972",
    "lng": "128.2045269012451",
    "region": "경상남도"
  },
  {
    "name": "회화중학교 운동장",
    "address": "경상남도 고성군 회화면 배둔리 1112-1",
    "lat": "35.056288395201086",
    "lng": "128.36208447382776",
    "region": "경상남도"
  },
  {
    "name": "산청중학교 운동장",
    "address": "경상남도 산청군 금서면 화계리 671",
    "lat": "35.46073102965709",
    "lng": "127.7926108160891",
    "region": "경상남도"
  },
  {
    "name": "남해스포츠파크",
    "address": "경상남도 남해군 서면 서상리 1182-1",
    "lat": "34.80608174160718",
    "lng": "127.83492028165338",
    "region": "경상남도"
  },
  {
    "name": "고성여자중학교 운동장",
    "address": "경상남도 고성군 고성읍 송학리 309-1",
    "lat": "34.97966317993973",
    "lng": "128.3256994925311",
    "region": "경상남도"
  },
  {
    "name": "악양초등학교 운동장",
    "address": "경상남도 하동군 악양면 정서리 285-2",
    "lat": "35.16161740144341",
    "lng": "127.70862837875895",
    "region": "경상남도"
  },
  {
    "name": "대흥초등학교 운동장",
    "address": "경상남도 고성군 대가면 유흥리 679",
    "lat": "35.01554933609622",
    "lng": "128.29704374545156",
    "region": "경상남도"
  },
  {
    "name": "영현초등학교 운동장",
    "address": "경상남도 고성군 영현면 침점리 350",
    "lat": "35.053888305700106",
    "lng": "128.2048473039164",
    "region": "경상남도"
  },
  {
    "name": "산청중학교 운동장",
    "address": "경상남도 산청군 차황면 장위리 22-2",
    "lat": "35.46488467116623",
    "lng": "127.92732995497327",
    "region": "경상남도"
  },
  {
    "name": "삼장초등학교 운동장",
    "address": "경상남도 산청군 삼장면 석남리 188",
    "lat": "35.334909878607775",
    "lng": "127.83916155021568",
    "region": "경상남도"
  },
  {
    "name": "신안초등학교 운동장",
    "address": "경상남도 산청군 신안면 하정리 721",
    "lat": "35.30138045465091",
    "lng": "127.97239185012961",
    "region": "경상남도"
  },
  {
    "name": "지곡초등학교 운동장",
    "address": "경상남도 함양군 지곡면 개평리 287-1",
    "lat": "35.56624944330714",
    "lng": "127.77141108597971",
    "region": "경상남도"
  },
  {
    "name": "병곡초등학교 운동장",
    "address": "경상남도 함양군 병곡면 송평리 80",
    "lat": "35.52882383882288",
    "lng": "127.68885550284905",
    "region": "경상남도"
  },
  {
    "name": "화개초등학교 운동장",
    "address": "경상남도 하동군 화개면 삼신리 594-2",
    "lat": "35.19926665104187",
    "lng": "127.62882907814921",
    "region": "경상남도"
  },
  {
    "name": "상주한려해상체육공원",
    "address": "경상남도 남해군 상주면 상주리 1722",
    "lat": "34.72453373444844",
    "lng": "127.97986507415769",
    "region": "경상남도"
  },
  {
    "name": "옥종고등학교 운동장",
    "address": "경상남도 하동군 옥종면 양구리 41-1",
    "lat": "35.177754337788734",
    "lng": "127.88439653512951",
    "region": "경상남도"
  },
  {
    "name": "고성중앙고등학교 운동장",
    "address": "경상남도 고성군 고성읍 수남리 524",
    "lat": "34.96762767730899",
    "lng": "128.31915724874827",
    "region": "경상남도"
  },
  {
    "name": "경남고성음악고등학교 운동장",
    "address": "경상남도 고성군 하일면 학림리 701-2",
    "lat": "34.943901628335205",
    "lng": "128.1934097896819",
    "region": "경상남도"
  },
  {
    "name": "하이체육공원",
    "address": "경상남도 고성군 하이면 덕호리 513-2",
    "lat": "34.9303667322813",
    "lng": "128.12159878502837",
    "region": "경상남도"
  },
  {
    "name": "구만초등학교 운동장",
    "address": "경상남도 고성군 구만면 효락리 621-2",
    "lat": "35.08792065089569",
    "lng": "128.33562721835136",
    "region": "경상남도"
  },
  {
    "name": "마암초등학교 운동장",
    "address": "경상남도 고성군 마암면 도전리 492",
    "lat": "35.056006431458144",
    "lng": "128.33643332363448",
    "region": "경상남도"
  },
  {
    "name": "거류체육공원",
    "address": "경상남도 고성군 거류면 신용리 888",
    "lat": "34.98331828300792",
    "lng": "128.40697652975354",
    "region": "경상남도"
  },
  {
    "name": "신반중학교 운동장",
    "address": "경상남도 의령군 부림면 신반리 148-6",
    "lat": "35.46242642841858",
    "lng": "128.3195453882218",
    "region": "경상남도"
  },
  {
    "name": "안의초등학교 운동장",
    "address": "경상남도 함양군 안의면 당본리 203",
    "lat": "35.62910497920283",
    "lng": "127.80983224105252",
    "region": "경상남도"
  },
  {
    "name": "서하초등학교 운동장",
    "address": "경상남도 함양군 서하면 송계리 869",
    "lat": "35.64846642630471",
    "lng": "127.69837155231046",
    "region": "경상남도"
  },
  {
    "name": "삼계 삼풍대공원",
    "address": "경상남도 창원시 마산회원구 내서읍 삼계리 12",
    "lat": "35.2335708549896",
    "lng": "128.50124707823056",
    "region": "경상남도"
  },
  {
    "name": "초전공원",
    "address": "경상남도 사천시 사남면 방지리 652",
    "lat": "35.060891542767806",
    "lng": "128.06199390123032",
    "region": "경상남도"
  },
  {
    "name": "군민생활체육공원",
    "address": "경상남도 합천군 합천읍 합천리 1364-102",
    "lat": "35.56051266349712",
    "lng": "128.15642594349467",
    "region": "경상남도"
  },
  {
    "name": "합천중학교 운동장",
    "address": "경상남도 합천군 합천읍 합천리 293",
    "lat": "35.56484030439325",
    "lng": "128.16736309391496",
    "region": "경상남도"
  },
  {
    "name": "야로중학교 운동장",
    "address": "경상남도 합천군 야로면 구정리 303",
    "lat": "35.70575220583001",
    "lng": "128.16673468948258",
    "region": "경상남도"
  },
  {
    "name": "쌍책초등학교 운동장",
    "address": "경상남도 합천군 쌍책면 성산리 639-1",
    "lat": "35.57497367107064",
    "lng": "128.28301319525377",
    "region": "경상남도"
  },
  {
    "name": "덕곡초등학교 운동장",
    "address": "경상남도 합천군 덕곡면 장리 761",
    "lat": "35.628862988422554",
    "lng": "128.32117655124702",
    "region": "경상남도"
  },
  {
    "name": "대병초등학교 운동장",
    "address": "경상남도 합천군 대병면 회양리 880",
    "lat": "35.51939609629772",
    "lng": "128.01073155872288",
    "region": "경상남도"
  },
  {
    "name": "초계중학교 운동장",
    "address": "경상남도 합천군 초계면 아막리 99",
    "lat": "35.5595782591464",
    "lng": "128.26992585079424",
    "region": "경상남도"
  },
  {
    "name": "명덕초등학교 운동장",
    "address": "경상남도 창녕군 창녕읍 교리 254",
    "lat": "35.5434622458943",
    "lng": "128.49686622619646",
    "region": "경상남도"
  },
  {
    "name": "남지초등학교 운동장",
    "address": "경상남도 창녕군 남지읍 남지리 723",
    "lat": "35.38867386395021",
    "lng": "128.47146034240737",
    "region": "경상남도"
  },
  {
    "name": "성산초등학교 운동장",
    "address": "경상남도 창녕군 성산면 정녕리 28",
    "lat": "35.623413345626766",
    "lng": "128.47796201705944",
    "region": "경상남도"
  },
  {
    "name": "이방초등학교 운동장",
    "address": "경상남도 창녕군 이방면 안리 828",
    "lat": "35.57741391248914",
    "lng": "128.38735163211834",
    "region": "경상남도"
  },
  {
    "name": "도천초등학교 운동장",
    "address": "경상남도 창녕군 도천면 도천리 276",
    "lat": "35.434169587480184",
    "lng": "128.51729661226287",
    "region": "경상남도"
  },
  {
    "name": "남정초등학교 운동장",
    "address": "경상남도 합천군 합천읍 합천리 840-2",
    "lat": "35.56323849087527",
    "lng": "128.15674134388044",
    "region": "경상남도"
  },
  {
    "name": "봉산초등학교 운동장",
    "address": "경상남도 합천군 봉산면 김봉리 348-1",
    "lat": "35.62617494089787",
    "lng": "128.04078405775869",
    "region": "경상남도"
  },
  {
    "name": "경상남도교육청가야산독서당정글북 주차장",
    "address": "경상남도 합천군 가야면 매안리 392",
    "lat": "35.732349354883894",
    "lng": "128.10793205708373",
    "region": "경상남도"
  },
  {
    "name": "초계초등학교 운동장",
    "address": "경상남도 합천군 초계면 초계리 87-2",
    "lat": "35.559794743695456",
    "lng": "128.2641142933708",
    "region": "경상남도"
  },
  {
    "name": "삼가중학교 운동장",
    "address": "경상남도 합천군 삼가면 일부리 398",
    "lat": "35.412075746084334",
    "lng": "128.12649371087096",
    "region": "경상남도"
  },
  {
    "name": "서상초등학교 운동장",
    "address": "경상남도 함양군 서상면 대남리 1769",
    "lat": "35.683595073867",
    "lng": "127.68666938506774",
    "region": "경상남도"
  },
  {
    "name": "합성 하늘동산공원",
    "address": "경상남도 창원시 마산회원구 합성동 358-1",
    "lat": "35.24618604183771",
    "lng": "128.58886639186107",
    "region": "경상남도"
  },
  {
    "name": "현동초등학교운동장",
    "address": "경상남도 창원시 마산합포구 현동 490",
    "lat": "35.14641119995428",
    "lng": "128.55688658537858",
    "region": "경상남도"
  },
  {
    "name": "진전중학교운동장",
    "address": "경상남도 창원시 마산합포구 진전면 오서리 892",
    "lat": "35.10412792274368",
    "lng": "128.40940082539475",
    "region": "경상남도"
  },
  {
    "name": "마산삼진고등학교운동장",
    "address": "경상남도 창원시 마산합포구 진동면 진동리 533-5",
    "lat": "35.11865803126353",
    "lng": "128.48865866661086",
    "region": "경상남도"
  },
  {
    "name": "봉곡운동장",
    "address": "경상남도 창원시 의창구 봉곡동 57",
    "lat": "35.246177339039704",
    "lng": "128.65659193504314",
    "region": "경상남도"
  },
  {
    "name": "호계초등학교 운동장",
    "address": "경상남도 창원시 마산회원구 내서읍 호계리 71-1",
    "lat": "35.265159909551485",
    "lng": "128.52263356942325",
    "region": "경상남도"
  },
  {
    "name": "무학여자고등학교 운동장",
    "address": "경상남도 창원시 마산회원구 회원동 145-1",
    "lat": "35.22266814583608",
    "lng": "128.57495198310787",
    "region": "경상남도"
  },
  {
    "name": "석전초등학교 운동장",
    "address": "경상남도 창원시 마산회원구 석전동 243-1",
    "lat": "35.232088886748194",
    "lng": "128.57645027084504",
    "region": "경상남도"
  },
  {
    "name": "내서초등학교 운동장",
    "address": "경상남도 창원시 마산회원구 두척동 550-1",
    "lat": "35.23782699461552",
    "lng": "128.54540528338882",
    "region": "경상남도"
  },
  {
    "name": "진동초등학교운동장",
    "address": "경상남도 창원시 마산합포구 진동면 진동리 113-1",
    "lat": "35.118456902390555",
    "lng": "128.49019004608212",
    "region": "경상남도"
  },
  {
    "name": "동중학교 운동장",
    "address": "경상남도 창원시 마산회원구 회원동 376-1",
    "lat": "35.22075985250063",
    "lng": "128.56795206766597",
    "region": "경상남도"
  },
  {
    "name": "합포여자중학교 운동장",
    "address": "경상남도 창원시 마산회원구 회성동 458-9",
    "lat": "35.2318800927109",
    "lng": "128.56167283007386",
    "region": "경상남도"
  },
  {
    "name": "팔룡초등학교 운동장",
    "address": "경상남도 창원시 마산회원구 합성동 17-4",
    "lat": "35.2418742533321",
    "lng": "128.59404127621647",
    "region": "경상남도"
  },
  {
    "name": "구암고등학교 운동장",
    "address": "경상남도 창원시 마산회원구 구암동 44-5",
    "lat": "35.24692407228023",
    "lng": "128.5964175833369",
    "region": "경상남도"
  },
  {
    "name": "중앙초등학교 운동장",
    "address": "경상남도 창원시 마산회원구 구암동 9-2",
    "lat": "35.24840430803563",
    "lng": "128.60208827991568",
    "region": "경상남도"
  },
  {
    "name": "밀양초등학교 운동장",
    "address": "경상남도 밀양시 삼문동 3-5",
    "lat": "35.48862612430222",
    "lng": "128.75654215313003",
    "region": "경상남도"
  },
  {
    "name": "삼문동공설운동장",
    "address": "경상남도 밀양시 삼문동 15-48",
    "lat": "35.48693816473808",
    "lng": "128.75856727688443",
    "region": "경상남도"
  },
  {
    "name": "마산제일여자고등학교운동장",
    "address": "경상남도 창원시 마산합포구 문화동 4",
    "lat": "35.18843290272088",
    "lng": "128.5568229854109",
    "region": "경상남도"
  },
  {
    "name": "월영초등학교운동장",
    "address": "경상남도 창원시 마산합포구 장군동1가 6",
    "lat": "35.19128859518615",
    "lng": "128.562527014505",
    "region": "경상남도"
  },
  {
    "name": "우산초등학교운동장",
    "address": "경상남도 창원시 마산합포구 진동면 고현리 429-1",
    "lat": "35.10464271160943",
    "lng": "128.47913206684527",
    "region": "경상남도"
  },
  {
    "name": "합포중학교운동장",
    "address": "경상남도 창원시 마산합포구 산호동 117-7",
    "lat": "35.21544106716749",
    "lng": "128.58537068709091",
    "region": "경상남도"
  },
  {
    "name": "안민중학교",
    "address": "경상남도 창원시 성산구 안민동 639-1",
    "lat": "35.183523258325664",
    "lng": "128.69368225336112",
    "region": "경상남도"
  },
  {
    "name": "삼정자 공원",
    "address": "경상남도 창원시 성산구 성주동 144-1",
    "lat": "35.197319",
    "lng": "128.707956",
    "region": "경상남도"
  },
  {
    "name": "문산초등학교 운동장",
    "address": "경상남도 진주시 문산읍 소문리 225",
    "lat": "35.17123761582622",
    "lng": "128.1622831445487",
    "region": "경상남도"
  },
  {
    "name": "내동초등학교 운동장",
    "address": "경상남도 진주시 내동면 독산리 568-4",
    "lat": "35.164543519434204",
    "lng": "128.06807384323642",
    "region": "경상남도"
  },
  {
    "name": "예하초등학교 운동장",
    "address": "경상남도 진주시 정촌면 예하리 1294",
    "lat": "35.12460340848527",
    "lng": "128.0990812182395",
    "region": "경상남도"
  },
  {
    "name": "반성초등학교 운동장",
    "address": "경상남도 진주시 일반성면 개암리 805-3",
    "lat": "35.16932806743093",
    "lng": "128.28575931381775",
    "region": "경상남도"
  },
  {
    "name": "이반성초등학교 운동장",
    "address": "경상남도 진주시 이반성면 하곡리 977",
    "lat": "35.17309760301491",
    "lng": "128.32909431876385",
    "region": "경상남도"
  },
  {
    "name": "해운초등학교운동장",
    "address": "경상남도 창원시 마산합포구 월영동 605-1",
    "lat": "35.17666008417409",
    "lng": "128.55783776690288",
    "region": "경상남도"
  },
  {
    "name": "북성초등학교 운동장",
    "address": "경상남도 창원시 마산회원구 석전동 203-7",
    "lat": "35.231569821626614",
    "lng": "128.5705905859795",
    "region": "경상남도"
  },
  {
    "name": "양덕중학교 운동장",
    "address": "경상남도 창원시 마산회원구 합성동 17-5",
    "lat": "35.24233026946353",
    "lng": "128.59535474322635",
    "region": "경상남도"
  },
  {
    "name": "밀성공원",
    "address": "경상남도 밀양시 교동 1116",
    "lat": "35.5046999457693",
    "lng": "128.74615300671098",
    "region": "경상남도"
  },
  {
    "name": "세종고등학교 운동장",
    "address": "경상남도 밀양시 가곡동 566-1",
    "lat": "35.47412670558604",
    "lng": "128.76399650059847",
    "region": "경상남도"
  },
  {
    "name": "용마초등학교운동장",
    "address": "경상남도 창원시 마산합포구 산호동 237",
    "lat": "35.21548940771082",
    "lng": "128.58452751296113",
    "region": "경상남도"
  },
  {
    "name": "사봉초등학교 운동장",
    "address": "경상남도 진주시 사봉면 사곡리 993-1",
    "lat": "35.1887330906582",
    "lng": "128.26955330011455",
    "region": "경상남도"
  },
  {
    "name": "지수초등학교 운동장",
    "address": "경상남도 진주시 지수면 압사리 1065-1",
    "lat": "35.233075865880636",
    "lng": "128.25279277078616",
    "region": "경상남도"
  },
  {
    "name": "금호초등학교 운동장",
    "address": "경상남도 진주시 금산면 장사리 961",
    "lat": "35.2187493569388",
    "lng": "128.14343469673634",
    "region": "경상남도"
  },
  {
    "name": "금산초등학교 운동장",
    "address": "경상남도 진주시 금산면 중천리 251",
    "lat": "35.215252117952204",
    "lng": "128.14418225510934",
    "region": "경상남도"
  },
  {
    "name": "집현초등학교 운동장",
    "address": "경상남도 진주시 집현면 지내리 125",
    "lat": "35.241528531166004",
    "lng": "128.09261698521877",
    "region": "경상남도"
  },
  {
    "name": "미천초등학교 운동장",
    "address": "경상남도 진주시 미천면 안간리 797-5",
    "lat": "35.31876263231462",
    "lng": "128.08818876743462",
    "region": "경상남도"
  },
  {
    "name": "경상남도 교육연수원(나눔관) 운동장",
    "address": "경상남도 진주시 대평면 대평리 509",
    "lat": "35.23475397231321",
    "lng": "127.95972723206737",
    "region": "경상남도"
  },
  {
    "name": "반지어울림 운동장",
    "address": "경상남도 창원시 성산구 반지동 99",
    "lat": "35.241053",
    "lng": "128.658808",
    "region": "경상남도"
  },
  {
    "name": "반송중학교 ",
    "address": "경상남도 창원시 성산구 반림동 19",
    "lat": "35.235577",
    "lng": "128.675438",
    "region": "경상남도"
  },
  {
    "name": "전안초등학교 운동장",
    "address": "경상남도 창원시 마산회원구 내서읍 신감리 1373",
    "lat": "35.21778613897759",
    "lng": "128.5024684984153",
    "region": "경상남도"
  },
  {
    "name": "장복초등학교운동장",
    "address": "경상남도 창원시 진해구 석동 674",
    "lat": "35.15761780641498",
    "lng": "128.69515865900908",
    "region": "경상남도"
  },
  {
    "name": "웅천초등학교운동장",
    "address": "경상남도 창원시 진해구 남문동 1291",
    "lat": "35.10379036585182",
    "lng": "128.7559912946831",
    "region": "경상남도"
  },
  {
    "name": "웅동중학교운동장",
    "address": "경상남도 창원시 진해구 두동 1166-4",
    "lat": "35.1124741451389",
    "lng": "128.7960680702742",
    "region": "경상남도"
  },
  {
    "name": "창원중앙중학교",
    "address": "경상남도 창원시 성산구 반지동 91",
    "lat": "35.240577",
    "lng": "128.658093",
    "region": "경상남도"
  },
  {
    "name": "안남초등학교",
    "address": "경상남도 창원시 성산구 대방동 368",
    "lat": "35.209554",
    "lng": "128.710161",
    "region": "경상남도"
  },
  {
    "name": "창원축구센터",
    "address": "경상남도 창원시 성산구 사파정동 305",
    "lat": "35.22250652767667",
    "lng": "128.70635345578233",
    "region": "경상남도"
  },
  {
    "name": "남산녹지공원",
    "address": "경상남도 창원시 성산구 가음동 28",
    "lat": "35.202274",
    "lng": "128.699887",
    "region": "경상남도"
  },
  {
    "name": "삼정자초등학교",
    "address": "경상남도 창원시 성산구 성주동 103",
    "lat": "35.20063229262454",
    "lng": "128.70946079492606",
    "region": "경상남도"
  },
  {
    "name": "회원초등학교 운동장",
    "address": "경상남도 창원시 마산회원구 회원동 393-1",
    "lat": "35.219444448049956",
    "lng": "128.56674290985842",
    "region": "경상남도"
  },
  {
    "name": "밀양중학교 운동장",
    "address": "경상남도 밀양시 삼문동 115-1",
    "lat": "35.48330909813466",
    "lng": "128.755503301746",
    "region": "경상남도"
  },
  {
    "name": "마산용마고등학교운동장",
    "address": "경상남도 창원시 마산합포구 산호동 438-1",
    "lat": "35.21181710959115",
    "lng": "128.58211522123062",
    "region": "경상남도"
  },
  {
    "name": "삼랑진초등학교 운동장",
    "address": "경상남도 밀양시 삼랑진읍 송지리 162-2",
    "lat": "35.40094245327697",
    "lng": "128.84129485770546",
    "region": "경상남도"
  },
  {
    "name": "숭진초등학교 운동장",
    "address": "경상남도 밀양시 삼랑진읍 숭진리 600",
    "lat": "35.452920850087985",
    "lng": "128.80096299234677",
    "region": "경상남도"
  },
  {
    "name": "양곡초등학교 운동장",
    "address": "경상남도 창원시 성산구 신촌동 36-3",
    "lat": "35.20193755662212",
    "lng": "128.62680878442376",
    "region": "경상남도"
  },
  {
    "name": "한일여자고등학교 운동장",
    "address": "경상남도 창원시 마산회원구 양덕동 888-9",
    "lat": "35.22937696088648",
    "lng": "128.5791008722608",
    "region": "경상남도"
  },
  {
    "name": "마산서중학교운동장",
    "address": "경상남도 창원시 마산합포구 월영동 534-20",
    "lat": "35.17812930980292",
    "lng": "128.55716304605585",
    "region": "경상남도"
  },
  {
    "name": "성호초등학교운동장",
    "address": "경상남도 창원시 마산합포구 성호동 57-3",
    "lat": "35.208598603476815",
    "lng": "128.57149569193635",
    "region": "경상남도"
  },
  {
    "name": "산호초등학교운동장",
    "address": "경상남도 창원시 마산합포구 산호동 53-1",
    "lat": "35.21940702087408",
    "lng": "128.5792595893612",
    "region": "경상남도"
  },
  {
    "name": "구암초등학교 운동장",
    "address": "경상남도 창원시 마산회원구 구암동 260",
    "lat": "35.25789216060472",
    "lng": "128.5946083433951",
    "region": "경상남도"
  },
  {
    "name": "하북초등학교운동장",
    "address": "경상남도 창원시 마산합포구 진북면 지산리 79-1",
    "lat": "35.11595204229392",
    "lng": "128.46995644907344",
    "region": "경상남도"
  },
  {
    "name": "진전초등학교운동장",
    "address": "경상남도 창원시 마산합포구 진전면 곡안리 77-1",
    "lat": "35.109934486385015",
    "lng": "128.41511729828628",
    "region": "경상남도"
  },
  {
    "name": "가포초등학교운동장",
    "address": "경상남도 창원시 마산합포구 가포동 741",
    "lat": "35.15922715202801",
    "lng": "128.57546836137792",
    "region": "경상남도"
  },
  {
    "name": "교방초등학교운동장",
    "address": "경상남도 창원시 마산합포구 교방동 376-8",
    "lat": "35.21363320760591",
    "lng": "128.56525910282159",
    "region": "경상남도"
  },
  {
    "name": "합성초등학교 운동장",
    "address": "경상남도 창원시 마산회원구 합성동 76-5",
    "lat": "35.242441941818214",
    "lng": "128.58195340372458",
    "region": "경상남도"
  },
  {
    "name": "대중초등학교 운동장",
    "address": "경상남도 김해시 대동면 주동리 400-2",
    "lat": "35.23646066748925",
    "lng": "128.94938859412136",
    "region": "경상남도"
  },
  {
    "name": "금동초등학교 운동장",
    "address": "경상남도 김해시 상동면 대감리 656-2",
    "lat": "35.30902022679117",
    "lng": "128.93002190334383",
    "region": "경상남도"
  },
  {
    "name": "삼문초등학교 운동장",
    "address": "경상남도 김해시 삼문동 60-1",
    "lat": "35.19798354358289",
    "lng": "128.8030751550504",
    "region": "경상남도"
  },
  {
    "name": "김해활천초등학교 운동장",
    "address": "경상남도 김해시 지내동 297-5",
    "lat": "35.231899405737444",
    "lng": "128.91873866714016",
    "region": "경상남도"
  },
  {
    "name": "김해삼성초등학교 운동장",
    "address": "경상남도 김해시 삼정동 635-1",
    "lat": "35.2336489641952",
    "lng": "128.90015432655653",
    "region": "경상남도"
  },
  {
    "name": "김해동광초등학교 운동장",
    "address": "경상남도 김해시 동상동 534",
    "lat": "35.236508235396435",
    "lng": "128.8870641912275",
    "region": "경상남도"
  },
  {
    "name": "한림중학교 운동장",
    "address": "경상남도 김해시 한림면 장방리 346",
    "lat": "35.32115313034213",
    "lng": "128.79954622403872",
    "region": "경상남도"
  },
  {
    "name": "신어중학교 운동장",
    "address": "경상남도 김해시 삼방동 201",
    "lat": "35.24487328194537",
    "lng": "128.91143366258237",
    "region": "경상남도"
  },
  {
    "name": "연지공원",
    "address": "경상남도 김해시 내동 106-1",
    "lat": "35.245930181160034",
    "lng": "128.86877203493145",
    "region": "경상남도"
  },
  {
    "name": "진영공설운동장",
    "address": "경상남도 김해시 진영읍 진영리 1340",
    "lat": "35.308737010348445",
    "lng": "128.71776442588688",
    "region": "경상남도"
  },
  {
    "name": "김해하키경기장",
    "address": "경상남도 김해시 삼방동 730",
    "lat": "35.2561458280071",
    "lng": "128.9083321989386",
    "region": "경상남도"
  },
  {
    "name": "생림중학교 운동장",
    "address": "경상남도 김해시 생림면 생철리 316-5",
    "lat": "35.3533573498987",
    "lng": "128.84970241161412",
    "region": "경상남도"
  },
  {
    "name": "김해부곡초등학교 운동장",
    "address": "경상남도 김해시 부곡동 800-4",
    "lat": "35.20658352073668",
    "lng": "128.79971564010003",
    "region": "경상남도"
  },
  {
    "name": "진례중학교 운동장",
    "address": "경상남도 김해시 진례면 초전리 243",
    "lat": "35.248570994889384",
    "lng": "128.75629595182934",
    "region": "경상남도"
  },
  {
    "name": "자은초등학교운동장",
    "address": "경상남도 창원시 진해구 자은동 396",
    "lat": "35.14919674074783",
    "lng": "128.7115722355612",
    "region": "경상남도"
  },
  {
    "name": "안골포초등학교운동장",
    "address": "경상남도 창원시 진해구 청안동 475",
    "lat": "35.103353796075766",
    "lng": "128.80567258253137",
    "region": "경상남도"
  },
  {
    "name": "신방초등학교운동장",
    "address": "경상남도 창원시 의창구 동읍 신방리 664",
    "lat": "35.28685538183408",
    "lng": "128.67835215413078",
    "region": "경상남도"
  },
  {
    "name": "중동초교운동장",
    "address": "경상남도 창원시 의창구 서상동 657",
    "lat": "35.26002179911356",
    "lng": "128.6233699660536",
    "region": "경상남도"
  },
  {
    "name": "중앙초등학교운동장",
    "address": "경상남도 창원시 진해구 태백동 5",
    "lat": "35.1544021899048",
    "lng": "128.67536398114868",
    "region": "경상남도"
  },
  {
    "name": "장천초��학교운동장",
    "address": "경상남도 창원시 진해구 장천동 119-35",
    "lat": "35.12590266538112",
    "lng": "128.7070795459245",
    "region": "경상남도"
  },
  {
    "name": "화정공원",
    "address": "경상남도 김해시 삼계동 1437",
    "lat": "35.26141057177936",
    "lng": "128.86603249665882",
    "region": "경상남도"
  },
  {
    "name": "진례초등학교 운동장",
    "address": "경상남도 김해시 진례면 초전리 530-2",
    "lat": "35.24735169600877",
    "lng": "128.75565926682023",
    "region": "경상남도"
  },
  {
    "name": "가산초등학교 운동장",
    "address": "경상남도 합천군 가야면 사촌리 166",
    "lat": "35.7497680082687",
    "lng": "128.12771132249375",
    "region": "경상남도"
  },
  {
    "name": "적중초등학교 운동장",
    "address": "경상남도 합천군 적중면 상부리 142-1",
    "lat": "35.545900556702065",
    "lng": "128.2812283596858",
    "region": "경상남도"
  },
  {
    "name": "합천초등학교 운동장",
    "address": "경상남도 합천군 합천읍 합천리 315",
    "lat": "35.56515989226251",
    "lng": "128.16371333207462",
    "region": "경상남도"
  },
  {
    "name": "합천여자중학교 운동장",
    "address": "경상남도 합천군 합천읍 합천리 943-1",
    "lat": "35.562854700766245",
    "lng": "128.1546843008571",
    "region": "경상남도"
  },
  {
    "name": "대안학교 운동장",
    "address": "경상남도 합천군 봉산면 김봉리 351-1",
    "lat": "35.62548834183922",
    "lng": "128.04281459130914",
    "region": "경상남도"
  },
  {
    "name": "해인중학교 운동장",
    "address": "경상남도 합천군 가야면 황산리 180-1",
    "lat": "35.758424248244644",
    "lng": "128.13601797042736",
    "region": "경상남도"
  },
  {
    "name": "영전초등학교 운동장",
    "address": "경상남도 합천군 율곡면 영전리 446",
    "lat": "35.57172628513097",
    "lng": "128.2185392340495",
    "region": "경상남도"
  },
  {
    "name": "대양초등학교 운동장",
    "address": "경상남도 합천군 대양면 덕정리 898-4",
    "lat": "35.517605591510396",
    "lng": "128.17246809742835",
    "region": "경상남도"
  },
  {
    "name": "삼가초등학교 운동장",
    "address": "경상남도 합천군 삼가면 소오리 393-3",
    "lat": "35.411879671490865",
    "lng": "128.11915834165194",
    "region": "경상남도"
  },
  {
    "name": "야로초등학교 운동장",
    "address": "경상남도 합천군 야로면 하빈리 492",
    "lat": "35.71125602338778",
    "lng": "128.17778074909805",
    "region": "경상남도"
  },
  {
    "name": "쌍백초등학교 운동장",
    "address": "경상남도 합천군 쌍백면 평구리 531-3",
    "lat": "35.439803634505914",
    "lng": "128.14715344303946",
    "region": "경상남도"
  },
  {
    "name": "용주초등학교 운동장",
    "address": "경상남도 합천군 용주면 용지리 274",
    "lat": "35.53975189514128",
    "lng": "128.1140983735753",
    "region": "경상남도"
  },
  {
    "name": "동포초등학교 운동장",
    "address": "경상남도 창녕군 남지읍 남지리 598-2",
    "lat": "35.39057185401132",
    "lng": "128.47904562950148",
    "region": "경상남도"
  },
  {
    "name": "고암초등학교 운동장",
    "address": "경상남도 창녕군 고암면 중대리 284",
    "lat": "35.5768903456135",
    "lng": "128.51123213768022",
    "region": "경상남도"
  },
  {
    "name": "대합초등학교 운동장",
    "address": "경상남도 창녕군 대합면 십이리 456",
    "lat": "35.61450427446391",
    "lng": "128.4692662954332",
    "region": "경상남도"
  },
  {
    "name": "장천초등학교 운동장",
    "address": "경상남도 창녕군 이방면 장천리 436",
    "lat": "35.59957074237469",
    "lng": "128.37543994188317",
    "region": "경상남도"
  },
  {
    "name": "옥야고등학교 운동장",
    "address": "경상남도 창녕군 이방면 장천리 49",
    "lat": "35.59958382788095",
    "lng": "128.38037252426156",
    "region": "경상남도"
  },
  {
    "name": "대지초등학교 운동장",
    "address": "경상남도 창녕군 대지면 석리 277",
    "lat": "35.55648166078981",
    "lng": "128.46366316080108",
    "region": "경상남도"
  },
  {
    "name": "계창초등학교 운동장",
    "address": "경상남도 창녕군 계성면 계��리 194",
    "lat": "35.48460629466595",
    "lng": "128.50862234830873",
    "region": "경상남도"
  },
  {
    "name": "부곡중학교 운동장",
    "address": "경상남도 창녕군 부곡면 부곡리 115",
    "lat": "35.43687071649538",
    "lng": "128.60749930143385",
    "region": "경상남도"
  },
  {
    "name": "만옥정공원",
    "address": "경상남도 창녕군 창녕읍 교상리 28-23",
    "lat": "35.54095468461908",
    "lng": "128.50217330768942",
    "region": "경상남도"
  },
  {
    "name": "창녕문화공원",
    "address": "경상남도 창녕군 창녕읍 교리 381",
    "lat": "35.54650015297257",
    "lng": "128.4956377744676",
    "region": "경상남도"
  },
  {
    "name": "상림공원 노외주차장",
    "address": "경상남도 함양군 함양읍 교산리 1076",
    "lat": "35.52383092595283",
    "lng": "127.72130548954013",
    "region": "경상남도"
  },
  {
    "name": "고운광장",
    "address": "경상남도 함양군 함양읍 교산리 1041",
    "lat": "35.524788886259834",
    "lng": "127.72134318299075",
    "region": "경상남도"
  },
  {
    "name": "어린이공원(백연유원지)",
    "address": "경상남도 함양군 함양읍 죽곡리 6",
    "lat": "35.52303424207786",
    "lng": "127.71707830289465",
    "region": "경상남도"
  },
  {
    "name": "합천공설운동장",
    "address": "경상남도 합천군 합천읍 합천리 923-1",
    "lat": "35.562295998996014",
    "lng": "128.1523650190359",
    "region": "경상남도"
  },
  {
    "name": "묘산초등학교 운동장",
    "address": "경상남도 합천군 묘산면 산제리 316-1",
    "lat": "35.659074742495704",
    "lng": "128.11141026207605",
    "region": "경상남도"
  },
  {
    "name": "해인초등학교 운동장",
    "address": "경상남도 합천군 가야면 치인리 산19",
    "lat": "35.79339771333811",
    "lng": "128.0854046344757",
    "region": "경상남도"
  },
  {
    "name": "유어초등학교 운동장",
    "address": "경상남도 창녕군 유어면 부곡리 481",
    "lat": "35.50884118604425",
    "lng": "128.41100603342065",
    "region": "경상남도"
  },
  {
    "name": "장마초등학교 운동장",
    "address": "경상남도 창녕군 장마면 강리 766-1",
    "lat": "35.45923677773144",
    "lng": "128.4768944978715",
    "region": "경상남도"
  },
  {
    "name": "창녕공설운동장",
    "address": "경상남도 창녕군 창녕읍 퇴천리 61",
    "lat": "35.52063934579646",
    "lng": "128.50505232810988",
    "region": "경상남도"
  },
  {
    "name": "함양 공설운동장",
    "address": "경상남도 함양군 함양읍 백연리 447",
    "lat": "35.51906350633016",
    "lng": "127.71627960066267",
    "region": "경상남도"
  },
  {
    "name": "서상고등학교 운동장",
    "address": "경상남도 함양군 서상면 도천리 1047-6",
    "lat": "35.67670158677277",
    "lng": "127.68820929551937",
    "region": "경상남도"
  },
  {
    "name": "예곡초등학교 운동장",
    "address": "경상남도 함안군 칠원읍 예곡리 433",
    "lat": "35.27661363292695",
    "lng": "128.5323620473901",
    "region": "경상남도"
  },
  {
    "name": "책 읽는 공원",
    "address": "경상남도 거창군 거창읍 상림리 773",
    "lat": "35.68886610006343",
    "lng": "127.9029795057645",
    "region": "경상남도"
  },
  {
    "name": "거창초등학교운동장",
    "address": "경상남도 거창군 거창읍 중앙리 311",
    "lat": "35.68769689237412",
    "lng": "127.91088321060924",
    "region": "경상남도"
  },
  {
    "name": "가북초등학교",
    "address": "경상남도 거창군 가북면 우혜리 1891-3",
    "lat": "35.76283317720945",
    "lng": "127.99264387238031",
    "region": "경상남도"
  },
  {
    "name": "진주교대부설초등학교 운동장",
    "address": "경상남도 진주시 신안동 380",
    "lat": "35.18534313234273",
    "lng": "128.06762052586433",
    "region": "경상남도"
  },
  {
    "name": "봉곡초등학교 운동장",
    "address": "경상남도 진주시 봉곡동 465-1",
    "lat": "35.194276881640725",
    "lng": "128.07505866433448",
    "region": "경상남도"
  },
  {
    "name": "진주고등학교 운동장",
    "address": "경상남도 진주시 상봉동 987-1",
    "lat": "35.20030640610946",
    "lng": "128.0809949485297",
    "region": "경상남도"
  },
  {
    "name": "장재초등학교 운동장",
    "address": "경상남도 진주시 초전동 1691",
    "lat": "35.214401020613465",
    "lng": "128.11015884281957",
    "region": "경상남도"
  },
  {
    "name": "고제초등학교",
    "address": "경상남도 거창군 고제면 궁항리 1826-1",
    "lat": "35.83771584937055",
    "lng": "127.87694334983827",
    "region": "경상남도"
  },
  {
    "name": "북상초등학교",
    "address": "경상남도 거창군 북상면 갈계리 1439-1",
    "lat": "35.77948826666103",
    "lng": "127.81723043822645",
    "region": "경상남도"
  },
  {
    "name": "소답초교운동장",
    "address": "경상남도 창원시 의창구 소답동 144-1",
    "lat": "35.265226348575055",
    "lng": "128.62950275318903",
    "region": "경상남도"
  },
  {
    "name": "대원초등학교운동장",
    "address": "경상남도 창원시 성산구 대원동 43",
    "lat": "35.233570329851155",
    "lng": "128.65113347768812",
    "region": "경상남도"
  },
  {
    "name": "진주초등학교 운동장",
    "address": "경상남도 진주시 인사동 1-25",
    "lat": "35.192835592209484",
    "lng": "128.0784269590553",
    "region": "경상남도"
  },
  {
    "name": "위천초등학교",
    "address": "경상남도 거창군 위천면 강천리 100-2",
    "lat": "35.752899047154095",
    "lng": "127.82924830913487",
    "region": "경상남도"
  },
  {
    "name": "웅양초등학교",
    "address": "경상남도 거창군 웅양면 노현리 292",
    "lat": "35.80309492301447",
    "lng": "127.9159991164493",
    "region": "경상남도"
  },
  {
    "name": "한국폴리텍대학교 운동장",
    "address": "경상남도 진주시 하대동 105",
    "lat": "35.190675254471444",
    "lng": "128.1273673746983",
    "region": "경상남도"
  },
  {
    "name": "갈전초등학교 운동장",
    "address": "경상남도 진주시 충무공동 190-1",
    "lat": "35.18288937209548",
    "lng": "128.14898990360643",
    "region": "경상남도"
  },
  {
    "name": "진주여자고등학교 운동장",
    "address": "경상남도 진주시 상봉동 856-1",
    "lat": "35.20117438031757",
    "lng": "128.07583451271057",
    "region": "경상남도"
  },
  {
    "name": "봉원초등학교 운동장",
    "address": "경상남도 진주시 상봉동 777",
    "lat": "35.200752640603966",
    "lng": "128.0699662004162",
    "region": "경상남도"
  },
  {
    "name": "남하초등학교",
    "address": "경상남도 거창군 남하면 무릉리 1290",
    "lat": "35.65864689349411",
    "lng": "127.94663928242251",
    "region": "경상남도"
  },
  {
    "name": "신원초등학교",
    "address": "경상남도 거창군 신원면 과정리 199-4",
    "lat": "35.56639177840426",
    "lng": "127.92520176484105",
    "region": "경상남도"
  },
  {
    "name": "거제제일고등학교 운동장",
    "address": "경상남도 거제시 거제면 서정리 540",
    "lat": "34.85140215302688",
    "lng": "128.58639782634984",
    "region": "경상남도"
  },
  {
    "name": "마리초등학교",
    "address": "경상남도 거창군 마리면 말흘리 274",
    "lat": "35.70221722928304",
    "lng": "127.85361280575322",
    "region": "경상남도"
  },
  {
    "name": "김해여자중학교 운동장",
    "address": "경상남도 김해시 대성동 140",
    "lat": "35.239506323116395",
    "lng": "128.87691414840617",
    "region": "경상남도"
  },
  {
    "name": "송진초등학교 운동장",
    "address": "경상남도 밀양시 삼랑진읍 송지리 413-1",
    "lat": "35.39511305183975",
    "lng": "128.8368464676913",
    "region": "경상남도"
  },
  {
    "name": "대성동고분박물관주변",
    "address": "경상남도 김해시 대성동 434",
    "lat": "35.23746999990715",
    "lng": "128.87397014325964",
    "region": "경상남도"
  },
  {
    "name": "김해생명과학고등학교 운동장",
    "address": "경상남도 김해시 외동 743",
    "lat": "35.23690911833596",
    "lng": "128.85611496521295",
    "region": "경상남도"
  },
  {
    "name": "김해합성초등학교 운동장",
    "address": "경상남도 김해시 서상동 172",
    "lat": "35.2368722098862",
    "lng": "128.880150615959",
    "region": "경상남도"
  },
  {
    "name": "김해시민체육공원",
    "address": "경상남도 김해시 삼계동 9",
    "lat": "35.2581354799308",
    "lng": "128.88101790903372",
    "region": "경상남도"
  },
  {
    "name": "김해운동장",
    "address": "경상남도 김해시 구산동 660",
    "lat": "35.25568893265955",
    "lng": "128.87566764724454",
    "region": "경상남도"
  },
  {
    "name": "어방초등학교 운동장",
    "address": "경상남도 김해시 어방동 767-3",
    "lat": "35.239854585780186",
    "lng": "128.89845762469045",
    "region": "경상남도"
  },
  {
    "name": "김해중학교 운동장",
    "address": "경상남도 김해시 부원동 39",
    "lat": "35.23165920369915",
    "lng": "128.88544428392353",
    "region": "경상남도"
  },
  {
    "name": "청덕초등학교 운동장",
    "address": "경상남도 합천군 청덕면 두곡리 428",
    "lat": "35.55735587018101",
    "lng": "128.3157248351358",
    "region": "경상남도"
  },
  {
    "name": "가회초등학교 운동장",
    "address": "경상남도 합천군 가회면 덕촌리 389",
    "lat": "35.435668356653466",
    "lng": "128.0343706649201",
    "region": "경상남도"
  },
  {
    "name": "영산초등학교 운동장",
    "address": "경상남도 창녕군 영산면 성내리 591-4",
    "lat": "35.45789752368294",
    "lng": "128.52913320064565",
    "region": "경상남도"
  },
  {
    "name": "길곡초등학교 운동장",
    "address": "경상남도 창녕군 길곡면 증산리 704",
    "lat": "35.38461096551373",
    "lng": "128.56819689273854",
    "region": "경상남도"
  },
  {
    "name": "군북초등학교 운동장",
    "address": "경상남도 함안군 군북면 덕대리 17",
    "lat": "35.25777218145666",
    "lng": "128.34666130608122",
    "region": "경상남도"
  },
  {
    "name": "창덕중학교운동장",
    "address": "경상남도 창원시 의창구 동읍 용잠리 282",
    "lat": "35.27742798890795",
    "lng": "128.6893039941791",
    "region": "경상남도"
  },
  {
    "name": "경화초등학교운동장",
    "address": "경상남도 창원시 진해구 경화동 1186",
    "lat": "35.15733070471804",
    "lng": "128.68697672516583",
    "region": "경상남도"
  },
  {
    "name": "내동초등학교 운동장",
    "address": "경상남도 창원시 성산구 중앙동 114",
    "lat": "35.22566536822888",
    "lng": "128.66204738616975",
    "region": "경상남도"
  },
  {
    "name": "용지초등학교 운동장",
    "address": "경상남도 창원시 성산구 중앙동 22",
    "lat": "35.22908498703622",
    "lng": "128.67254458447934",
    "region": "경상남도"
  },
  {
    "name": "소계체육공원",
    "address": "경상남도 창원시 의창구 소계동 791-1",
    "lat": "35.26043661928239",
    "lng": "128.5945335030558",
    "region": "경상남도"
  },
  {
    "name": "경남전자고등학교운동장",
    "address": "경상남도 창원시 마산합포구 상남동 46-1",
    "lat": "35.215020649054836",
    "lng": "128.5735311435891",
    "region": "경상남도"
  },
  {
    "name": "양덕초등학교 운동장",
    "address": "경상남도 창원시 마산회원구 양덕동 42",
    "lat": "35.23345893915017",
    "lng": "128.58819810213168",
    "region": "경상남도"
  },
  {
    "name": "지정초등학교 운동장",
    "address": "경상남도 의령군 지정면 봉곡리 775-1",
    "lat": "35.38289215355633",
    "lng": "128.38758766651162",
    "region": "경상남도"
  },
  {
    "name": "밀성여자중학교 운동장",
    "address": "경상남도 밀양시 내이동 590-4",
    "lat": "35.50166843742446",
    "lng": "128.75046104192776",
    "region": "경상남도"
  },
  {
    "name": "밀양여자중학교 운동장",
    "address": "경상남도 밀양시 삼문동 141-14",
    "lat": "35.48282631341179",
    "lng": "128.75801866441148",
    "region": "경상남도"
  },
  {
    "name": "무학초등학교운동장",
    "address": "경상남도 창원시 마산합포구 자산동 119-9",
    "lat": "35.20317417740908",
    "lng": "128.56765255880316",
    "region": "경상남도"
  },
  {
    "name": "상남초등학교 운동장",
    "address": "경상남도 창원시 성산구 상남동 44-2",
    "lat": "35.221328390517925",
    "lng": "128.68924748382383",
    "region": "경상남도"
  },
  {
    "name": "산내남명초등학교 운동장",
    "address": "경상남도 밀양시 산내면 남명리 1109-1",
    "lat": "35.587787102571475",
    "lng": "128.95380020141704",
    "region": "경상남도"
  },
  {
    "name": "홍제중학교 운동장",
    "address": "경상남도 밀양시 단장면 단장리 808",
    "lat": "35.509184263741126",
    "lng": "128.8515186817909",
    "region": "경상남도"
  },
  {
    "name": "상남초등학교 운동장",
    "address": "경상남도 밀양시 상남면 동산리 713-3",
    "lat": "35.394188120999104",
    "lng": "128.77679819167113",
    "region": "경상남도"
  },
  {
    "name": "한국나노마이스터고등학교 운동장",
    "address": "경상남도 밀양시 무안면 신법리 327-1",
    "lat": "35.47884238961628",
    "lng": "128.65364402532606",
    "region": "경상남도"
  },
  {
    "name": "밀양종합운동장",
    "address": "경상남도 밀양시 교동 1111",
    "lat": "35.50744055977825",
    "lng": "128.74775080240894",
    "region": "경상남도"
  },
  {
    "name": "석동초등학교운동장",
    "address": "경상남도 창원시 진해구 석동 634-1",
    "lat": "35.157282338907514",
    "lng": "128.70664473463847",
    "region": "경상남도"
  },
  {
    "name": "덕산초등학교운동장",
    "address": "경상남도 창원시 진해구 자은동 863-1",
    "lat": "35.14516310332843",
    "lng": "128.70581349972974",
    "region": "경상남도"
  },
  {
    "name": "반송초등학교 운동장",
    "address": "경상남도 창원시 성산구 반림동 7",
    "lat": "35.23706724679221",
    "lng": "128.67050452580466",
    "region": "경상남도"
  },
  {
    "name": "웅남초등학교 운동장",
    "address": "경상남도 창원시 성산구 상남동 44-3",
    "lat": "35.21778083177351",
    "lng": "128.68831570565536",
    "region": "경상남도"
  },
  {
    "name": "양곡중학교 운동장",
    "address": "경상남도 창원시 성산구 신촌동 32",
    "lat": "35.19778817980127",
    "lng": "128.62707555518494",
    "region": "경상남도"
  },
  {
    "name": "외동초등학교 운동장",
    "address": "경상남도 창원시 성산구 상남동 62",
    "lat": "35.21648463225348",
    "lng": "128.68104401205434",
    "region": "경상남도"
  },
  {
    "name": "유목초등학교 운동장",
    "address": "경상남도 창원시 성산구 반지동 34",
    "lat": "35.24408998539777",
    "lng": "128.66302940085757",
    "region": "경상남도"
  },
  {
    "name": "남산중학교 운동장",
    "address": "경상남도 창원시 성산구 가음동 26",
    "lat": "35.20420853205361",
    "lng": "128.69916344759378",
    "region": "경상남도"
  },
  {
    "name": "사포초등학교 운동장",
    "address": "경상남도 밀양시 부북면 전사포리 574-7",
    "lat": "35.47471574579581",
    "lng": "128.73365477178305",
    "region": "경상남도"
  },
  {
    "name": "산내초등학교 운동장",
    "address": "경상남도 밀양시 산내면 송백리 1308",
    "lat": "35.58599919383332",
    "lng": "128.88064026838117",
    "region": "경상남도"
  },
  {
    "name": "밀양동강중학교 운동장",
    "address": "경상남도 밀양시 산내면 송백리 2081-21",
    "lat": "35.58565664431869",
    "lng": "128.8756837331236",
    "region": "경상남도"
  },
  {
    "name": "대방초등학교 운동장",
    "address": "경상남도 창원시 성산구 대방동 359",
    "lat": "35.21122576201404",
    "lng": "128.70667780253163",
    "region": "경상남도"
  },
  {
    "name": "사파초등학교 운동장",
    "address": "경상남도 창원시 성산구 사파동 144",
    "lat": "35.219675674592786",
    "lng": "128.69695081262077",
    "region": "경상남도"
  },
  {
    "name": "제황초등학교운동장",
    "address": "경상남도 창원시 진해구 제황산동 28-2",
    "lat": "35.148520938759084",
    "lng": "128.66968095302116",
    "region": "경상남도"
  },
  {
    "name": "부북초등학교 운동장",
    "address": "경상남도 밀양시 부북면 운전리 323-1",
    "lat": "35.5143400561797",
    "lng": "128.73004752934145",
    "region": "경상남도"
  },
  {
    "name": "무안중학교 운동장",
    "address": "경상남도 밀양시 무안면 신법리 192",
    "lat": "35.47994322038891",
    "lng": "128.65466326475178",
    "region": "경상남도"
  },
  {
    "name": "청도초등학교 운동장",
    "address": "경상남도 밀양시 청도면 두곡리 53",
    "lat": "35.551139457513756",
    "lng": "128.62422552461",
    "region": "경상남도"
  },
  {
    "name": "밀성초등학교 운동장",
    "address": "경상남도 밀양시 내이동 593-1",
    "lat": "35.50244360551601",
    "lng": "128.75198185443924",
    "region": "경상남도"
  },
  {
    "name": "밀성제일고등학교 운동장",
    "address": "경상남도 밀양시 내이동 590-1",
    "lat": "35.502611224639566",
    "lng": "128.75077351606478",
    "region": "경상남도"
  },
  {
    "name": "밀양아리랑아트센터",
    "address": "경상남도 밀양시 교동 487",
    "lat": "35.504789522602834",
    "lng": "128.75910152741417",
    "region": "경상남도"
  },
  {
    "name": "신안초등학교 운동장",
    "address": "경상남도 진주시 신안동 475",
    "lat": "35.182396640727404",
    "lng": "128.06845898063182",
    "region": "경상남도"
  },
  {
    "name": "신진초등학교 운동장",
    "address": "경상남도 진주시 평거동 748-4",
    "lat": "35.17463189443927",
    "lng": "128.06621222186735",
    "region": "경상남도"
  },
  {
    "name": "동산초등학교 운동장",
    "address": "경상남도 창원시 성산구 상남동 46",
    "lat": "35.21407091293038",
    "lng": "128.6903281240263",
    "region": "경상남도"
  },
  {
    "name": "남양초등학교 운동장",
    "address": "경상남도 창원시 성산구 남양동 18",
    "lat": "35.211688565048185",
    "lng": "128.69825020614803",
    "region": "경상남도"
  },
  {
    "name": "산동초등학교 운동장",
    "address": "경상남도 밀양시 단장면 범도리 709-3",
    "lat": "35.52532308127214",
    "lng": "128.91228930055865",
    "region": "경상남도"
  },
  {
    "name": "성주초등학교 운동장",
    "address": "경상남도 창원시 성산구 가음동 25",
    "lat": "35.20521222105452",
    "lng": "128.69767087154804",
    "region": "경상남도"
  },
  {
    "name": "밀성중학교 운동장",
    "address": "경상남도 밀양시 내이동 602-7",
    "lat": "35.501376111755455",
    "lng": "128.75162603667343",
    "region": "경상남도"
  },
  {
    "name": "마산삼진중학교운동장",
    "address": "경상남도 창원시 마산합포구 진동면 진동리 241-1",
    "lat": "35.11421839247865",
    "lng": "128.4888441546134",
    "region": "경상남도"
  },
  {
    "name": "밀양고등학교 운동장",
    "address": "경상남도 밀양시 내이동 1025",
    "lat": "35.49336523482348",
    "lng": "128.7462599798753",
    "region": "경상남도"
  },
  {
    "name": "교동초등학교 운동장",
    "address": "경상남도 창원시 마산회원구 회원동 639-2",
    "lat": "35.22098997538307",
    "lng": "128.56227118638708",
    "region": "경상남도"
  },
  {
    "name": "경남혜림학교 운동장",
    "address": "경상남도 창원시 마산회원구 합성동 599",
    "lat": "35.24338826902354",
    "lng": "128.5803762273991",
    "region": "경상남도"
  },
  {
    "name": "창원예술학교 운동장",
    "address": "경상남도 창원시 마산회원구 구암동 1333",
    "lat": "35.25657622011293",
    "lng": "128.59776092515077",
    "region": "경상남도"
  },
  {
    "name": "봉덕초등학교 운동장",
    "address": "경상남도 창원시 마산회원구 봉암동 435-3",
    "lat": "35.22208284077472",
    "lng": "128.59470102441855",
    "region": "경상남도"
  },
  {
    "name": "밀양공설화장시설 앞 공원",
    "address": "경상남도 밀양시 교동 477-3",
    "lat": "35.49898191879872",
    "lng": "128.75894885329677",
    "region": "경상남도"
  },
  {
    "name": "미리벌초등학교 운동장",
    "address": "경상남도 밀양시 삼문동 586-1",
    "lat": "35.47996512800062",
    "lng": "128.74923625393882",
    "region": "경상남도"
  },
  {
    "name": "밀주초등학교 운동장",
    "address": "경상남도 밀양시 가곡동 728-4",
    "lat": "35.47668916618067",
    "lng": "128.7624961173659",
    "region": "경상남도"
  },
  {
    "name": "창원초교운동장",
    "address": "경상남도 창원시 의창구 서상동 513",
    "lat": "35.265521314648105",
    "lng": "128.6191864456974",
    "region": "경상남도"
  },
  {
    "name": "명서초등학교운동장",
    "address": "경상남도 창원시 의창구 명서동 28-2",
    "lat": "35.25045343147065",
    "lng": "128.64321291446717",
    "region": "경상남도"
  },
  {
    "name": "남산초등학교운동장",
    "address": "경상남도 창원시 진해구 제황산동 28-13",
    "lat": "35.14764656026749",
    "lng": "128.66316540834342",
    "region": "경상남도"
  },
  {
    "name": "풍호초등학교운동장",
    "address": "경상남도 창원시 진해구 풍호동 83-107",
    "lat": "35.13945",
    "lng": "128.7106",
    "region": "경상남도"
  },
  {
    "name": "진해종합운동장",
    "address": "경상남도 창원시 진해구 도만동 1",
    "lat": "35.14857534045638",
    "lng": "128.6549310206695",
    "region": "경상남도"
  },
  {
    "name": "상동초등학교 운동장",
    "address": "경상남도 밀양시 상동면 금산리 887-3",
    "lat": "35.553337550805026",
    "lng": "128.76182988100996",
    "region": "경상남도"
  },
  {
    "name": "밀양동명고등학교 운동장",
    "address": "경상남도 밀양시 하남읍 수산리 466",
    "lat": "35.37318603218474",
    "lng": "128.71290249869952",
    "region": "경상남도"
  },
  {
    "name": "태룡초등학교 운동장",
    "address": "경상남도 밀양시 단장면 태룡리 416-4",
    "lat": "35.5138736891164",
    "lng": "128.876500285083",
    "region": "경상남도"
  },
  {
    "name": "무안초등학교 운동장",
    "address": "경상남도 밀양시 무안면 무안리 927-1",
    "lat": "35.47289458484529",
    "lng": "128.65098595619233",
    "region": "경상남도"
  },
  {
    "name": "남정초등학교 운동장",
    "address": "경상남도 창원시 성산구 가음동 11",
    "lat": "35.21093607448188",
    "lng": "128.6919950717686",
    "region": "경상남도"
  },
  {
    "name": "안민초등학교 운동장",
    "address": "경상남도 창원시 성산구 안민동 190",
    "lat": "35.18728377397998",
    "lng": "128.68806489454383",
    "region": "경상남도"
  },
  {
    "name": "수산초등학교 운동장",
    "address": "경상남도 밀양시 하남읍 수산리 468-5",
    "lat": "35.375766126082205",
    "lng": "128.7118824024455",
    "region": "경상남도"
  },
  {
    "name": "예림초등학교 운동장",
    "address": "경상남도 밀양시 상남면 예림리 936",
    "lat": "35.46754566363653",
    "lng": "128.76191032301242",
    "region": "경상남도"
  },
  {
    "name": "마천중학교 운동장",
    "address": "경상남도 함양군 마천면 덕전리 88-1",
    "lat": "35.38708184338229",
    "lng": "127.65955104612186",
    "region": "경상남도"
  },
  {
    "name": "수동중학교 운동장",
    "address": "경상남도 함양군 수동면 화산리 1010",
    "lat": "35.523600380236296",
    "lng": "127.78929247981387",
    "region": "경상남도"
  },
  {
    "name": "안의중학교 운동장",
    "address": "경상남도 함양군 안의면 석천리 73",
    "lat": "35.62986074808811",
    "lng": "127.81873121463025",
    "region": "경상남도"
  },
  {
    "name": "호암초등학교 운동장",
    "address": "경상남도 함안군 칠원읍 오곡리 97",
    "lat": "35.274435637312116",
    "lng": "128.52050663862488",
    "region": "경상남도"
  },
  {
    "name": "대성초등학교 운동장",
    "address": "경상남도 고성군 고성읍 성내리 2-9",
    "lat": "34.97556625825349",
    "lng": "128.32271535901592",
    "region": "경상남도"
  },
  {
    "name": "철성초등학교 운동장",
    "address": "경상남도 고성군 고성읍 월평리 953",
    "lat": "34.95738420136218",
    "lng": "128.34198229605627",
    "region": "경상남도"
  },
  {
    "name": "상리초등학교 운동장 ",
    "address": "경상남도 고성군 상리면 척번정리 390",
    "lat": "34.998596534536745",
    "lng": "128.1859092575189",
    "region": "경상남도"
  },
  {
    "name": "단성초등학교 운동장",
    "address": "경상남도 산청군 단성면 성내리 596-2",
    "lat": "35.2971191861301",
    "lng": "127.95615717181603",
    "region": "경상남도"
  },
  {
    "name": "고성중학교 삼산분교 운동장(폐교부지)",
    "address": "경상남도 고성군 삼산면 미룡리 285",
    "lat": "34.938483406729304",
    "lng": "128.27412221502047",
    "region": "경상남도"
  },
  {
    "name": "군북고등학교 운동장",
    "address": "경상남도 함안군 군북면 덕대리 267",
    "lat": "35.26014801127989",
    "lng": "128.34328829161637",
    "region": "경상남도"
  },
  {
    "name": "문암초등학교 운동장",
    "address": "경상남도 함안군 산인면 모곡리 510",
    "lat": "35.27252965125497",
    "lng": "128.45766277462735",
    "region": "경상남도"
  },
  {
    "name": "항공우주테마공원",
    "address": "경상남도 사천시 정동면 예수리 420",
    "lat": "35.069258314036055",
    "lng": "128.08559946708974",
    "region": "경상남도"
  },
  {
    "name": "축동초등학교 운동장",
    "address": "경상남도 사천시 축동면 배춘리 714",
    "lat": "35.107896355787425",
    "lng": "128.09105087055266",
    "region": "경상남도"
  },
  {
    "name": "대성초등학교 운동장",
    "address": "경상남도 사천시 좌룡동 300-52",
    "lat": "34.953396412975735",
    "lng": "128.07826191186905",
    "region": "경상남도"
  },
  {
    "name": "낙서초등학교 운동장",
    "address": "경상남도 의령군 낙서면 정곡리 167-2",
    "lat": "35.48147867940319",
    "lng": "128.41452777385723",
    "region": "경상남도"
  },
  {
    "name": "봉수초등학교 운동장",
    "address": "경상남도 의령군 봉수면 서암리 336",
    "lat": "35.47883146860067",
    "lng": "128.24077427387243",
    "region": "경상남도"
  },
  {
    "name": "마천초등학교 운동장",
    "address": "경상남도 함양군 마천면 덕전리 86-4",
    "lat": "35.38612941129914",
    "lng": "127.65959276934635",
    "region": "경상남도"
  },
  {
    "name": "유림초등학교 운동장",
    "address": "경상남도 함양군 유림면 화촌리 472",
    "lat": "35.472434289631146",
    "lng": "127.79321446568399",
    "region": "경상남도"
  },
  {
    "name": "충무중학교",
    "address": "경상남도 통영시 인평동 386-3",
    "lat": "34.84049106662296",
    "lng": "128.3965145781853",
    "region": "경상남도"
  },
  {
    "name": "대방초등학교 운동장",
    "address": "경상남도 사천시 서동 76",
    "lat": "34.93106214984434",
    "lng": "128.06544363498688",
    "region": "경상남도"
  },
  {
    "name": "삼천포제일중학교 운동장",
    "address": "경상남도 사천시 용강동 505-1",
    "lat": "34.94837425490713",
    "lng": "128.08584351097275",
    "region": "경상남도"
  },
  {
    "name": "용산초등학교 운동장",
    "address": "경상남도 사천시 봉남동 479",
    "lat": "34.94297697861969",
    "lng": "128.0987202530498",
    "region": "경상남도"
  },
  {
    "name": "통영고등학교",
    "address": "경상남도 통영시 봉평동 130",
    "lat": "34.83005288595968",
    "lng": "128.41711078850594",
    "region": "경상남도"
  },
  {
    "name": "안의고등학교 운동장",
    "address": "경상남도 함양군 안의면 석천리 90",
    "lat": "35.630726951555715",
    "lng": "127.81944647044772",
    "region": "경상남도"
  },
  {
    "name": "도산중학교",
    "address": "경상남도 통영시 도산면 법송리 1042",
    "lat": "34.90399321427463",
    "lng": "128.36178115941374",
    "region": "경상남도"
  },
  {
    "name": "칠곡초등학교 운동장",
    "address": "경상남도 의령군 칠곡면 외조리 85-2",
    "lat": "35.340750131397876",
    "lng": "128.19544762372973",
    "region": "경상남도"
  },
  {
    "name": "곤명초등학교 운동장",
    "address": "경상남도 사천시 곤명면 정곡리 848-1",
    "lat": "35.130765520442715",
    "lng": "127.97441214323047",
    "region": "경상남도"
  },
  {
    "name": "벽방초등학교",
    "address": "경상남도 통영시 광도면 안정리 1058",
    "lat": "34.94839140000346",
    "lng": "128.41045657004696",
    "region": "경상남도"
  },
  {
    "name": "사량중학교",
    "address": "경상남도 통영시 사량면 금평리 107",
    "lat": "34.84433824467303",
    "lng": "128.22000031764844",
    "region": "경상남도"
  },
  {
    "name": "통영공설운동장",
    "address": "경상남도 통영시 북신동 77-2",
    "lat": "34.851458084265815",
    "lng": "128.43045161096697",
    "region": "경상남도"
  },
  {
    "name": "충무초등학교",
    "address": "경상남도 통영시 정량동 232",
    "lat": "34.84786970512604",
    "lng": "128.43041772758963",
    "region": "경상남도"
  },
  {
    "name": "의령여자중고등학교 운동장",
    "address": "경상남도 의령군 가례면 가례리 265-1",
    "lat": "35.32333655976125",
    "lng": "128.2449853420258",
    "region": "경상남도"
  },
  {
    "name": "함양중학교 운동장",
    "address": "경상남도 함양군 함양읍 교산리 217",
    "lat": "35.52458658379141",
    "lng": "127.72997972856011",
    "region": "경상남도"
  },
  {
    "name": "함양초등학교 운���장",
    "address": "경상남도 함양군 함양읍 운림리 27-1",
    "lat": "35.52048008943567",
    "lng": "127.72649583709818",
    "region": "경상남도"
  },
  {
    "name": "서포초등학교 운동장",
    "address": "경상남도 사천시 서포면 구평리 653",
    "lat": "35.008332129313544",
    "lng": "127.97675836352283",
    "region": "경상남도"
  },
  {
    "name": "위성초등학교 운동장",
    "address": "경상남도 함양군 함양읍 교산리 201",
    "lat": "35.52352761403315",
    "lng": "127.73265614489209",
    "region": "경상남도"
  },
  {
    "name": "남양중학교 운동장",
    "address": "경상남도 사천시 송포동 281",
    "lat": "34.969066419227204",
    "lng": "128.062509674679",
    "region": "경상남도"
  },
  {
    "name": "통영여자고등학교",
    "address": "경상남도 통영시 도천동 121",
    "lat": "34.84005833974131",
    "lng": "128.41082474959293",
    "region": "경상남도"
  },
  {
    "name": "가례초등학교 운동장",
    "address": "경상남도 의령군 가례면 수성리 199-2",
    "lat": "35.33299129284261",
    "lng": "128.24647128582004",
    "region": "경상남도"
  },
  {
    "name": "충렬초등학교",
    "address": "경상남도 통영시 명정동 173",
    "lat": "34.84729435435558",
    "lng": "128.41621821743024",
    "region": "경상남도"
  },
  {
    "name": "통영중학교",
    "address": "경상남도 통영시 봉평동 196",
    "lat": "34.828706935569244",
    "lng": "128.4162430655345",
    "region": "경상남도"
  },
  {
    "name": "용덕면공설운동장",
    "address": "경상남도 의령군 용덕면 가락리 189-5",
    "lat": "35.341251170096015",
    "lng": "128.27132195234304",
    "region": "경상남도"
  },
  {
    "name": "유곡초등학교 운동장",
    "address": "경상남도 의령군 유곡면 칠곡리 330",
    "lat": "35.4336450859035",
    "lng": "128.31398785114294",
    "region": "경상남도"
  },
  {
    "name": "화정초등학교 운동장",
    "address": "경상남도 의령군 화정면 상정리 642-1",
    "lat": "35.276284977258854",
    "lng": "128.2112753391266",
    "region": "경상남도"
  },
  {
    "name": "유영초등학교",
    "address": "경상남도 통영시 북신동 106-2",
    "lat": "34.85140933070034",
    "lng": "128.42653700806375",
    "region": "경상남도"
  },
  {
    "name": "낙서면사무소 방계운동장",
    "address": "경상남도 의령군 낙서면 전화리 228-2",
    "lat": "35.483715198804575",
    "lng": "128.37756693363198",
    "region": "경상남도"
  },
  {
    "name": "부림공설운동장",
    "address": "경상남도 의령군 부림면 감암리 1210",
    "lat": "35.4721999539054",
    "lng": "128.3207148313523",
    "region": "경상남도"
  },
  {
    "name": "의령중학교 운동장",
    "address": "경상남도 의령군 의령읍 동동리 1087",
    "lat": "35.324041227972856",
    "lng": "128.26567053794867",
    "region": "경상남도"
  },
  {
    "name": "함양제일고등학교 운동장",
    "address": "경상남도 함양군 함양읍 교산리 210",
    "lat": "35.524338688651994",
    "lng": "127.73211357490788",
    "region": "경상남도"
  },
  {
    "name": "서상중학교 운동장",
    "address": "경상남도 함양군 서상면 도천리 1047-6",
    "lat": "35.67696649033719",
    "lng": "127.68857024602829",
    "region": "경상남도"
  },
  {
    "name": "백전초등학교 운동장",
    "address": "경상남도 함양군 백전면 평정리 481",
    "lat": "35.5529489004754",
    "lng": "127.63496412949354",
    "region": "경상남도"
  },
  {
    "name": "노산초등학교 운동장",
    "address": "경상남도 사천시 동금동 171-5",
    "lat": "34.93037606319972",
    "lng": "128.08316767215732",
    "region": "경상남도"
  },
  {
    "name": "남망산조각공원",
    "address": "경상남도 통영시 동호동 230-1",
    "lat": "34.84128018514848",
    "lng": "128.42941894745232",
    "region": "경상남도"
  },
  {
    "name": "한산초중학교",
    "address": "경상남도 통영시 한산면 하소리 36-2",
    "lat": "34.76814578414212",
    "lng": "128.50697502295284",
    "region": "경상남도"
  },
  {
    "name": "유곡면민체육운동장",
    "address": "경상남도 의령군 유곡면 칠곡리 547",
    "lat": "35.42327236546525",
    "lng": "128.30357015132913",
    "region": "경상남도"
  },
  {
    "name": "곤양중학교 운동장",
    "address": "경상남도 사천시 곤양면 송전리 134",
    "lat": "35.059581318838966",
    "lng": "127.97316404808393",
    "region": "경상남도"
  },
  {
    "name": "부림초등학교 운동장",
    "address": "경상남도 의령군 부림면 신반리 253-1",
    "lat": "35.464973688745616",
    "lng": "128.3206826448441",
    "region": "경상남도"
  },
  {
    "name": "의령고등학교 운동장",
    "address": "경상남도 의령군 의령읍 동동리 1012",
    "lat": "35.32253121714192",
    "lng": "128.26626598834997",
    "region": "경상남도"
  },
  {
    "name": "위림초등학교 운동장",
    "address": "경상남도 함양군 함양읍 백연리 511",
    "lat": "35.52069938160382",
    "lng": "127.71878018319896",
    "region": "경상남도"
  },
  {
    "name": "용현초등학교 운동장",
    "address": "경상남도 사천시 용현면 송지리 186",
    "lat": "35.012820810099115",
    "lng": "128.0626078664066",
    "region": "경상남도"
  },
  {
    "name": "신수도초등학교(삼천포초등학교 신수도 분교)운동장",
    "address": "경상남도 사천시 신수동 217",
    "lat": "34.90371777455057",
    "lng": "128.07484708019695",
    "region": "경상남도"
  },
  {
    "name": "금반초등학교 운동장",
    "address": "경상남도 함양군 휴천면 금반리 92",
    "lat": "35.47665609444028",
    "lng": "127.73701307684985",
    "region": "경상남도"
  },
  {
    "name": "묵계초등학교 운동장",
    "address": "경상남도 하동군 청암면 묵계리 550",
    "lat": "35.2290130249699",
    "lng": "127.73458848001498",
    "region": "경상남도"
  },
  {
    "name": "금남중학교 운동장",
    "address": "경상남도 하동군 금남면 덕천리 1241",
    "lat": "34.98653756574382",
    "lng": "127.83872200892698",
    "region": "경상남도"
  },
  {
    "name": "영천중학교 운동장",
    "address": "경상남도 고성군 영오면 영산리 250",
    "lat": "35.10893775427759",
    "lng": "128.23589167120682",
    "region": "경상남도"
  },
  {
    "name": "함양여자중학교 운동장",
    "address": "경상남도 함양군 함양읍 교산리 956",
    "lat": "35.52366245898085",
    "lng": "127.72643921264472",
    "region": "경상남도"
  },
  {
    "name": "수동초등학교 운동장",
    "address": "경상남도 함양군 수동면 화산리 1097",
    "lat": "35.52256853368864",
    "lng": "127.79053208884916",
    "region": "경상남도"
  },
  {
    "name": "산청중학교 운동장",
    "address": "경상남도 산청군 시천면 원리 170",
    "lat": "35.27527127892286",
    "lng": "127.83368163710647",
    "region": "경상남도"
  },
  {
    "name": "사천종합운동장",
    "address": "경상남도 사천시 사천읍 정의리 7",
    "lat": "35.08994013939053",
    "lng": "128.09481069920554",
    "region": "경상남도"
  },
  {
    "name": "용덕초등학교 운동장",
    "address": "경상남도 의령군 용덕면 운곡리 234-2",
    "lat": "35.34851260045583",
    "lng": "128.2908940315247",
    "region": "경상남도"
  },
  {
    "name": "의령초등학교 운동장",
    "address": "경상남도 의령군 의령읍 중동리 246",
    "lat": "35.321813405002686",
    "lng": "128.2607996463776",
    "region": "경상남도"
  },
  {
    "name": "정곡중학교 운동장",
    "address": "경상남도 의령군 정곡면 중교리 513",
    "lat": "35.381803116341324",
    "lng": "128.32791388034826",
    "region": "경상남도"
  },
  {
    "name": "정곡공설운동장",
    "address": "경상남도 의령군 정곡면 성황리 793",
    "lat": "35.377276237840036",
    "lng": "128.33231270313266",
    "region": "경상남도"
  },
  {
    "name": "남산초등학교 운동장",
    "address": "경상남도 의령군 의령읍 동동리 1002",
    "lat": "35.320946769660495",
    "lng": "128.26721012592319",
    "region": "경상남도"
  },
  {
    "name": "고전복지회관 주차장",
    "address": "경상남도 하동군 고전면 범아리 217-4",
    "lat": "35.02124414479206",
    "lng": "127.81761582478148",
    "region": "경상남도"
  },
  {
    "name": "별천지배움터 하동행복마을학교",
    "address": "경상남도 하동군 고전면 전도리 417",
    "lat": "35.00070084782308",
    "lng": "127.79781818389893",
    "region": "경상남도"
  },
  {
    "name": "옥종중학교 운동장",
    "address": "경상남도 하동군 옥종면 청룡리 227",
    "lat": "35.17869679099369",
    "lng": "127.87905739507693",
    "region": "경상남도"
  },
  {
    "name": "지족초등학교 실외운동장",
    "address": "경상남도 남해군 삼동면 지족리 255",
    "lat": "34.83026115273153",
    "lng": "128.0006809169859",
    "region": "경상남도"
  },
  {
    "name": "진남초등학교",
    "address": "경상남도 통영시 미수동 269",
    "lat": "34.83236299143513",
    "lng": "128.40927247226975",
    "region": "경상남도"
  },
  {
    "name": "지정공설운동장",
    "address": "경상남도 의령군 지정면 봉곡리 516",
    "lat": "35.380020824926454",
    "lng": "128.3933034539223",
    "region": "경상남도"
  },
  {
    "name": "미조공설운동장",
    "address": "경상남도 남해군 미조면 송정리 651",
    "lat": "34.7277",
    "lng": "128.0273",
    "region": "경상남도"
  },
  {
    "name": "고성동중학교 운동장",
    "address": "경상남도 고성군 거류면 당동리 235",
    "lat": "34.98720436172251",
    "lng": "128.40106304193193",
    "region": "경상남도"
  },
  {
    "name": "남해초등학교 실외운동장",
    "address": "경상남도 남해군 남해읍 북변리 141-3",
    "lat": "34.83894598874945",
    "lng": "127.89249843949008",
    "region": "경상남도"
  },
  {
    "name": "수양초등학교 운동장",
    "address": "경상남도 사천시 사천읍 평화리 184-5",
    "lat": "35.07907840936106",
    "lng": "128.0900314450264",
    "region": "경상남도"
  },
  {
    "name": "삼성초등학교 운동장",
    "address": "경상남도 사천시 사남면 죽천리 6-2",
    "lat": "35.05424388028708",
    "lng": "128.07468175821091",
    "region": "경상남도"
  },
  {
    "name": "궁류봉황대 공설운동장",
    "address": "경상남도 의령군 궁류면 평촌리 7",
    "lat": "35.4388112775197",
    "lng": "128.24267864227295",
    "region": "경상남도"
  },
  {
    "name": "대의초등학교 운동장",
    "address": "경상남도 의령군 대의면 마쌍리 439-1",
    "lat": "35.37093380699422",
    "lng": "128.10880959033963",
    "region": "경상남도"
  },
  {
    "name": "정곡초등학교 운동장",
    "address": "경상남도 의령군 정곡면 중교리 428-1",
    "lat": "35.3792663461475",
    "lng": "128.32476496696478",
    "region": "경상남도"
  },
  {
    "name": "법수초등학교 운동장",
    "address": "경상남도 함안군 법수면 윤외리 200",
    "lat": "35.3174530221193",
    "lng": "128.38001173570564",
    "region": "경상남도"
  },
  {
    "name": "칠원고등학교 운동장",
    "address": "경상남도 함안군 칠서면 무릉리 908",
    "lat": "35.31770712387672",
    "lng": "128.50737930733274",
    "region": "경상남도"
  },
  {
    "name": "영오초등학교 운동장",
    "address": "경상남도 고성군 영오면 영대리 519",
    "lat": "35.105582897047626",
    "lng": "128.2166419376385",
    "region": "경상남도"
  },
  {
    "name": "동해중학교 운동장",
    "address": "경상남도 고성군 동해면 양촌리 814",
    "lat": "35.046023766119845",
    "lng": "128.44742917231395",
    "region": "경상남도"
  },
  {
    "name": "동광초등학교 운동장",
    "address": "경상남도 고성군 거류면 감서리 2",
    "lat": "35.008551746421716",
    "lng": "128.39990896392516",
    "region": "경상남도"
  },
  {
    "name": "미조초등학교 실외운동장",
    "address": "경상남도 남해군 미조면 미조리 465-1",
    "lat": "34.71515275570944",
    "lng": "128.0415032331792",
    "region": "경상남도"
  },
  {
    "name": "남해공설운동장",
    "address": "경상남도 남해군 남해읍 서변리 212",
    "lat": "34.83413004085335",
    "lng": "127.89162758256356",
    "region": "경상남도"
  },
  {
    "name": "하이초등학교 운동장",
    "address": "경상남도 고성군 하이면 덕호리 528-1",
    "lat": "34.929203311920325",
    "lng": "128.12172000645478",
    "region": "경상남도"
  },
  {
    "name": "상리면 어울림문화센터(구.상리중학교)",
    "address": "경상남도 고성군 상리면 척번정리 424-1",
    "lat": "34.99974772800015",
    "lng": "128.1880070463393",
    "region": "경상남도"
  },
  {
    "name": "남명초등학교 실외운동장",
    "address": "경상남도 남해군 남면 당항리 1410",
    "lat": "34.7723330133245",
    "lng": "127.88972284008229",
    "region": "경상남도"
  },
  {
    "name": "창선초등학교 실외운동장",
    "address": "경상남도 남해군 창선면 상죽리 265",
    "lat": "34.85832577553359",
    "lng": "128.01045525622968",
    "region": "경상남도"
  },
  {
    "name": "사천중학교 운동장",
    "address": "경상남도 사천시 사천읍 선인리 186-7",
    "lat": "35.08045706867731",
    "lng": "128.0979233117228",
    "region": "경상남도"
  },
  {
    "name": "정동초등학교 운동장",
    "address": "경상남도 사천시 정동면 대곡리 290",
    "lat": "35.05741126531042",
    "lng": "128.1240959226732",
    "region": "경상남도"
  },
  {
    "name": "한려초등학교",
    "address": "경상남도 통영시 도남동 483-1",
    "lat": "34.827502285077216",
    "lng": "128.42165909147238",
    "region": "경상남도"
  },
  {
    "name": "의령공설운동장",
    "address": "경상남도 의령군 의령읍 동동리 822-1",
    "lat": "35.31596343618963",
    "lng": "128.2670331001282",
    "region": "경상남도"
  },
  {
    "name": "산양중학교",
    "address": "경상남도 통영시 산양읍 남평리 862-1",
    "lat": "34.80229124763912",
    "lng": "128.3925963568287",
    "region": "경상남도"
  },
  {
    "name": "궁류초등학교 운동장",
    "address": "경상남도 의령군 궁류면 토곡리 482-2",
    "lat": "35.44789283101453",
    "lng": "128.2464766502381",
    "region": "경상남도"
  },
  {
    "name": "종합운동장",
    "address": "경상남도 고성군 고성읍 기월리 88",
    "lat": "34.98055958451566",
    "lng": "128.3111876249314",
    "region": "경상남도"
  },
  {
    "name": "철성고등학교 운동장",
    "address": "경상남도 고성군 고성읍 기월리 143-6",
    "lat": "34.983342070904534",
    "lng": "128.31984105992936",
    "region": "경상남도"
  },
  {
    "name": "개천초등학교 운동장",
    "address": "경상남도 고성군 개천면 명성리 632",
    "lat": "35.09831380020202",
    "lng": "128.26011024987832",
    "region": "경상남도"
  },
  {
    "name": "회화초등학교 운동장",
    "address": "경상남도 고성군 회화면 배둔리 347-11",
    "lat": "35.061783201763305",
    "lng": "128.37367629399935",
    "region": "경상남도"
  },
  {
    "name": "거류초등학교 운동장",
    "address": "경상남도 고성군 거류면 당동리 66",
    "lat": "34.99344800676378",
    "lng": "128.40438033212575",
    "region": "경상남도"
  },
  {
    "name": "해양초등학교 실외운동장",
    "address": "경상남도 남해군 남해읍 남변리 461-3",
    "lat": "34.83418733614827",
    "lng": "127.89608332516771",
    "region": "경상남도"
  },
  {
    "name": "삼천포종합운동장",
    "address": "경상남도 사천시 벌리동 2",
    "lat": "34.94226302207957",
    "lng": "128.0888485908508",
    "region": "경상남도"
  },
  {
    "name": "함양고등학교 운동장",
    "address": "경상남도 함양군 함양읍 백연리 253",
    "lat": "35.514251438269774",
    "lng": "127.72172927856447",
    "region": "경상남도"
  },
  {
    "name": "범어초등학교 운동장",
    "address": "경상남도 양산시 물금읍 범어리 718-3",
    "lat": "35.33136069885447",
    "lng": "129.00555892152647",
    "region": "경상남도"
  },
  {
    "name": "상북초등학교 운동장",
    "address": "경상남도 양산시 상북면 석계리 122",
    "lat": "35.416090",
    "lng": "129.060336",
    "region": "경상남도"
  },
  {
    "name": "주민쉼터 공원",
    "address": "경상남도 양산시 어곡동 8-7",
    "lat": "35.382343263142275",
    "lng": "129.02797847986355",
    "region": "경상남도"
  },
  {
    "name": "석산들어린이공원",
    "address": "경상남도 양산시 동면 석산리 1450-3",
    "lat": "35.318572",
    "lng": "129.023268",
    "region": "경상남도"
  },
  {
    "name": "아랫섬어린이공원",
    "address": "경상남도 양산시 삼호동 1012-6",
    "lat": "35.411043",
    "lng": "129.165948",
    "region": "경상남도"
  },
  {
    "name": "서남초등학교 운동장",
    "address": "경상남도 양산시 물금읍 범어리 554",
    "lat": "35.32852654410507",
    "lng": "128.9991869649648",
    "region": "경상남도"
  },
  {
    "name": "물금고등학교 운동장",
    "address": "경상남도 양산시 물금읍 범어리 2673-11",
    "lat": "35.3356793599748",
    "lng": "129.0162032854584",
    "region": "경상남도"
  },
  {
    "name": "범어근린공원",
    "address": "경상남도 양산시 물금읍 범어리 556",
    "lat": "35.330011",
    "lng": "129.000229",
    "region": "경상남도"
  },
  {
    "name": "솔밭어린이공원",
    "address": "경상남도 양산시 명동 995-4",
    "lat": "35.396013",
    "lng": "129.165224",
    "region": "경상남도"
  },
  {
    "name": "삽량근린공원",
    "address": "경상남도 양산시 남부동 601-2",
    "lat": "35.332316",
    "lng": "129.030741",
    "region": "경상남도"
  },
  {
    "name": "평산어린이공원",
    "address": "경상남도 양산시 평산동 74-2",
    "lat": "35.383153",
    "lng": "129.152915",
    "region": "경상남도"
  },
  {
    "name": "평산음악공원",
    "address": "경상남도 양산시 평산동 105-5",
    "lat": "35.380731",
    "lng": "129.150796",
    "region": "경상남도"
  },
  {
    "name": "황산초등학교 운동장",
    "address": "경상남도 양산시 물금읍 범어리 2677-2",
    "lat": "35.330972",
    "lng": "129.009224",
    "region": "경상남도"
  },
  {
    "name": "북정초등학교 운동장",
    "address": "경상남도 양산시 북정동 884-1",
    "lat": "35.360093",
    "lng": "129.041608",
    "region": "경상남도"
  },
  {
    "name": "성산어린이공원",
    "address": "경상남도 양산시 물금읍 범어리 2712-10",
    "lat": "35.32990506360861",
    "lng": "129.01697519602988",
    "region": "경상남도"
  },
  {
    "name": "군두바위어린이공원",
    "address": "경상남도 양산시 삼호동 872",
    "lat": "35.407537",
    "lng": "129.173746",
    "region": "경상남도"
  },
  {
    "name": "금산근린공원",
    "address": "경상남도 양산시 동면 금산리 1460-2",
    "lat": "35.309005",
    "lng": "129.025404",
    "region": "경상남도"
  },
  {
    "name": "석산근린공원",
    "address": "경상남도 양산시 동면 석산리 1448-7",
    "lat": "35.320975",
    "lng": "129.025736",
    "region": "경상남도"
  },
  {
    "name": "가람뜰어린이공원",
    "address": "경상남도 양산시 물금읍 증산리 1808-1",
    "lat": "35.304260",
    "lng": "129.008346",
    "region": "경상남도"
  },
  {
    "name": "효충공원",
    "address": "경상남도 양산시 상북면 소토리 1174-1",
    "lat": "35.38295894338132",
    "lng": "129.0437688918693",
    "region": "경상남도"
  },
  {
    "name": "증산초등학교 운동장",
    "address": "경상남도 양산시 물금읍 범어리 2785-1",
    "lat": "35.315632",
    "lng": "129.007847",
    "region": "경상남도"
  },
  {
    "name": "범어중학교 운동장",
    "address": "경상남도 양산시 물금읍 범어리 2677-1",
    "lat": "35.331777693325925",
    "lng": "129.01014880153804",
    "region": "경상남도"
  },
  {
    "name": "신기11어린이공원",
    "address": "경상남도 양산시 신기동 648-5",
    "lat": "35.352949",
    "lng": "129.036695",
    "region": "경상남도"
  },
  {
    "name": "대평어린이공원",
    "address": "경상남도 양산시 주남동 53-3",
    "lat": "35.415852",
    "lng": "129.165565",
    "region": "경상남도"
  },
  {
    "name": "황새어린이공원",
    "address": "경상남도 양산시 명동 1067-1",
    "lat": "35.407761",
    "lng": "129.168954",
    "region": "경상남도"
  },
  {
    "name": "물금중부공원",
    "address": "경상남도 양산시 물금읍 물금리 883-1",
    "lat": "35.307247",
    "lng": "128.989683",
    "region": "경상남도"
  },
  {
    "name": "여울어린이공원",
    "address": "경상남도 양산시 상북면 석계리 237-12",
    "lat": "35.416166",
    "lng": "129.059362",
    "region": "경상남도"
  },
  {
    "name": "소공원<50>",
    "address": "경상남도 양산시 상북면 대석리 1341-5",
    "lat": "35.390360",
    "lng": "129.059411",
    "region": "경상남도"
  },
  {
    "name": "중앙근린공원",
    "address": "경상남도 양산시 삼호동 886-1",
    "lat": "35.409826",
    "lng": "129.174904",
    "region": "경상남도"
  },
  {
    "name": "새싹어린이공원",
    "address": "경상남도 양산시 물금읍 범어리 2676-10",
    "lat": "35.332664",
    "lng": "129.013601",
    "region": "경상남도"
  },
  {
    "name": "북정근린공원",
    "address": "경상남도 양산시 북정동 435",
    "lat": "35.362962",
    "lng": "129.050103",
    "region": "경상남도"
  },
  {
    "name": "대동어린이공원",
    "address": "경상남도 양산시 삼호동 124",
    "lat": "35.415911",
    "lng": "129.179094",
    "region": "경상남도"
  },
  {
    "name": "평산근린공원",
    "address": "경상남도 양산시 평산동 584-1",
    "lat": "35.38586605925674",
    "lng": "129.14180521425064",
    "region": "경상남도"
  },
  {
    "name": "신주초등학교 운동장",
    "address": "경상남도 양산시 물금읍 범어리 2673-1",
    "lat": "35.33727392369916",
    "lng": "129.01973459456",
    "region": "경상남도"
  },
  {
    "name": "원동초등학교이천분교 운동장",
    "address": "경상남도 양산시 원동면 선리 1424",
    "lat": "35.487103",
    "lng": "128.985440",
    "region": "경상남도"
  },
  {
    "name": "어곡주민공원",
    "address": "경상남도 양산시 어곡동 414",
    "lat": "35.37759553324732",
    "lng": "129.0265166759504",
    "region": "경상남도"
  },
  {
    "name": "양산음악분수공원",
    "address": "경상남도 양산시 물금읍 범어리 2714-2",
    "lat": "35.327708",
    "lng": "129.018735",
    "region": "경상남도"
  },
  {
    "name": "대석어린이공원",
    "address": "경상남도 양산시 상북면 대석리 808-3",
    "lat": "35.391777",
    "lng": "129.053161",
    "region": "경상남도"
  },
  {
    "name": "서창고등학교 운동장",
    "address": "경상남도 양산시 삼호동 483",
    "lat": "35.413677",
    "lng": "129.173593",
    "region": "경상남도"
  },
  {
    "name": "메기들공원",
    "address": "경상남도 양산시 물금읍 가촌리 1283",
    "lat": "35.312523",
    "lng": "129.007643",
    "region": "경상남도"
  },
  {
    "name": "신명어린이공원",
    "address": "경상남도 양산시 평산동 55",
    "lat": "35.385988",
    "lng": "129.154715",
    "region": "경상남도"
  },
  {
    "name": "광도초등학교",
    "address": "경상남도 통영시 광도면 노산리 355-1",
    "lat": "34.900455051707496",
    "lng": "128.40611830142169",
    "region": "경상남도"
  },
  {
    "name": "무지개초등학교 운동장",
    "address": "경상남도 진주시 충무공동 125",
    "lat": "35.171815507714236",
    "lng": "128.13730123712136",
    "region": "경상남도"
  },
  {
    "name": "가좌초등학교 운동장",
    "address": "경상남도 진주시 가좌동 564",
    "lat": "35.149154512311576",
    "lng": "128.10347026003498",
    "region": "경상남도"
  },
  {
    "name": "웅동초등학교운동장",
    "address": "경상남도 창원시 진해구 마천동 144-8",
    "lat": "35.12677489152301",
    "lng": "128.7831079552031",
    "region": "경상남도"
  },
  {
    "name": "안청초등학교운동장",
    "address": "경상남도 창원시 진해구 안골동 369",
    "lat": "35.09950389806447",
    "lng": "128.80653782190694",
    "region": "경상남도"
  },
  {
    "name": "용원초등학교운동장",
    "address": "경상남도 창원시 진해구 용원동 1251",
    "lat": "35.0970687912318",
    "lng": "128.81783434775534",
    "region": "경상남도"
  },
  {
    "name": "도천초등학교운동장",
    "address": "경상남도 창원시 진해구 도천동 12",
    "lat": "35.15237200440635",
    "lng": "128.6539363861115",
    "region": "경상남도"
  },
  {
    "name": "대야초등학교운동장",
    "address": "경상남도 창원시 진해구 여좌동 150",
    "lat": "35.15926676178915",
    "lng": "128.6636954556729",
    "region": "경상남도"
  },
  {
    "name": "진해남중학교운동장",
    "address": "경상남도 창원시 진해구 경화동 781-22",
    "lat": "35.16117698764826",
    "lng": "128.69000122220686",
    "region": "경상남도"
  },
  {
    "name": "삼계초등학교 운동장",
    "address": "경상남도 창원시 마산회원구 내서읍 삼계리 19",
    "lat": "35.23274306175907",
    "lng": "128.50061727237528",
    "region": "경상남도"
  },
  {
    "name": "갈전운동장",
    "address": "경상남도 창원시 의창구 대산면 갈전리 691-2",
    "lat": "35.36690811210735",
    "lng": "128.68063645799842",
    "region": "경상남도"
  },
  {
    "name": "사화초등학교운동장",
    "address": "경상남도 창원시 의창구 팔용동 75",
    "lat": "35.252302469795445",
    "lng": "128.61648898933444",
    "region": "경상남도"
  },
  {
    "name": "온천초등학교운동장",
    "address": "경상남도 창원시 의창구 북면 신촌리 612-2",
    "lat": "35.349147376233276",
    "lng": "128.60551432515035",
    "region": "경상남도"
  },
  {
    "name": "도계초등학교운동장",
    "address": "경상남도 창원시 의창구 도계동 357-1",
    "lat": "35.25915524653533",
    "lng": "128.63910469389427",
    "region": "경상남도"
  },
  {
    "name": "동부초등학교운동장",
    "address": "경상남도 창원시 진해구 석동 169-3",
    "lat": "35.15512255671933",
    "lng": "128.70176267762432",
    "region": "경상남도"
  },
  {
    "name": "한마음어린이공원",
    "address": "경상남도 양산시 신기동 511-2",
    "lat": "35.351604",
    "lng": "129.039850",
    "region": "경상남도"
  },
  {
    "name": "냉천초등학교 운동장",
    "address": "경상남도 창원시 진해구 자은동 111",
    "lat": "35.15656304800475",
    "lng": "128.718032809966",
    "region": "경상남도"
  },
  {
    "name": "신주중학교 운동장",
    "address": "경상남도 양산시 물금읍 범어리 2673-10",
    "lat": "35.33493820034566",
    "lng": "129.0150856805077",
    "region": "경상남도"
  },
  {
    "name": "석금산어린이공원",
    "address": "경상남도 양산시 동면 석산리 1448-4",
    "lat": "35.318171",
    "lng": "129.028027",
    "region": "경상남도"
  },
  {
    "name": "삼성어린이공원",
    "address": "경상남도 양산시 북정동 532-1",
    "lat": "35.361334",
    "lng": "129.048805",
    "region": "경상남도"
  },
  {
    "name": "명동공원",
    "address": "경상남도 양산시 명동 452-1",
    "lat": "35.402777",
    "lng": "129.166579",
    "region": "경상남도"
  },
  {
    "name": "구암중학교 운동장",
    "address": "경상남도 창원시 마산회원구 구암동 1346",
    "lat": "35.25585433961195",
    "lng": "128.5969182948929",
    "region": "경상남도"
  },
  {
    "name": "완월초등학교운동장",
    "address": "경상남도 창원시 마산합포구 완월동 12-8",
    "lat": "35.1999730598415",
    "lng": "128.5631589738477",
    "region": "경상남도"
  },
  {
    "name": "산외초등학교 운동장",
    "address": "경상남도 밀양시 산외면 금천리 489-4",
    "lat": "35.503771199967275",
    "lng": "128.79626512527523",
    "region": "경상남도"
  },
  {
    "name": "밀양여자고등학교 운동장",
    "address": "경상남도 밀양시 내일동 326",
    "lat": "35.495412323811415",
    "lng": "128.75619651696587",
    "region": "경상남도"
  },
  {
    "name": "옥포2근린공원",
    "address": "경상남도 거제시 옥포동 875",
    "lat": "34.90186044392077",
    "lng": "128.69707674694348",
    "region": "경상남도"
  },
  {
    "name": "신현초등학교 운동장",
    "address": "경상남도 거제시 고현동 931-34",
    "lat": "34.88836865243159",
    "lng": "128.6171828730746",
    "region": "경상남도"
  },
  {
    "name": "남강초등학교 운동장",
    "address": "경상남도 진주시 상대동 645-9",
    "lat": "35.183233167701545",
    "lng": "128.10896244062627",
    "region": "경상남도"
  },
  {
    "name": "금성초등학교 운동장",
    "address": "경상남도 진주시 초전동 686-1",
    "lat": "35.19800968997686",
    "lng": "128.1149400649384",
    "region": "경상남도"
  },
  {
    "name": "촉석초등학교 운동장",
    "address": "경상남도 진주시 이현동 25-1",
    "lat": "35.190706192935245",
    "lng": "128.06205386688362",
    "region": "경상남도"
  },
  {
    "name": "봉원중학교 운동장",
    "address": "경상남도 진주시 상봉동 1445",
    "lat": "35.20452283702469",
    "lng": "128.0735426437569",
    "region": "경상남도"
  },
  {
    "name": "성포중학교 운동장",
    "address": "경상남도 거제시 사등면 성포리 41-1",
    "lat": "34.918488484042086",
    "lng": "128.53051876620594",
    "region": "경상남도"
  },
  {
    "name": "외포초등학교 운동장",
    "address": "경상남도 거제시 장목면 외포리 215",
    "lat": "34.942764708606816",
    "lng": "128.7176692945587",
    "region": "경상남도"
  },
  {
    "name": "아주운동장",
    "address": "경상남도 거제시 아주동 295-30",
    "lat": "34.86285953647472",
    "lng": "128.68966515238077",
    "region": "경상남도"
  },
  {
    "name": "아라초등학교 운동장",
    "address": "경상남도 함안군 가야읍 말산리 257-1",
    "lat": "35.271065751471745",
    "lng": "128.4090124674269",
    "region": "경상남도"
  },
  {
    "name": "경진고등학교 운동장",
    "address": "경상남도 진주시 상봉동 1196",
    "lat": "35.200049851650284",
    "lng": "128.06671707901586",
    "region": "경상남도"
  },
  {
    "name": "주약초등학교 운동장",
    "address": "경상남도 진주시 주약동 360-12",
    "lat": "35.17247309648318",
    "lng": "128.09191514579078",
    "region": "경상남도"
  },
  {
    "name": "초전초등학교 운동장",
    "address": "경상남도 진주시 초전동 1634-1",
    "lat": "35.207501144554556",
    "lng": "128.11441884697746",
    "region": "경상남도"
  },
  {
    "name": "천전초등학교 운동장",
    "address": "경상남도 진주시 칠암동 237-2",
    "lat": "35.186133627746095",
    "lng": "128.09102981527872",
    "region": "경상남도"
  },
  {
    "name": "송정초등학교 운동장",
    "address": "경상남도 거제시 연초면 송정리 541",
    "lat": "34.9180057158383",
    "lng": "128.67375283240756",
    "region": "경상남도"
  },
  {
    "name": "거창스포츠파크",
    "address": "경상남도 거창군 거창읍 양평리 1160",
    "lat": "35.6939904",
    "lng": "127.9279695",
    "region": "경상남도"
  },
  {
    "name": "주상초등학교",
    "address": "경상남도 거창군 주상면 도평리 536",
    "lat": "35.74936830992417",
    "lng": "127.91477322578422",
    "region": "경상남도"
  },
  {
    "name": "남상초등학교",
    "address": "경상남도 거창군 남상면 무촌리 589-4",
    "lat": "35.64488319470094",
    "lng": "127.91009902959559",
    "region": "경상남도"
  },
  {
    "name": "군북공설운동장",
    "address": "경상남도 함안군 군북면 중암리 1111-18",
    "lat": "35.26498975360617",
    "lng": "128.3488994836808",
    "region": "경상남도"
  },
  {
    "name": "구산초등학교운동장",
    "address": "경상남도 창원시 마산합포구 구산면 수정리 594-1",
    "lat": "35.12025581103347",
    "lng": "128.57931637476696",
    "region": "경상남도"
  },
  {
    "name": "북면초등학교운동장",
    "address": "경상남도 창원시 의창구 북면 감계리 231-2",
    "lat": "35.305310208877955",
    "lng": "128.6004219076041",
    "region": "경상남도"
  },
  {
    "name": "하천초등학교 운동장",
    "address": "경상남도 창원시 의창구 북면 하천리 944",
    "lat": "35.36924214391857",
    "lng": "128.6040578787858",
    "region": "경상남도"
  },
  {
    "name": "구산초등학교 구서분교운동장",
    "address": "경상남도 창원시 마산합포구 구산면 마전리 82",
    "lat": "35.12107817709317",
    "lng": "128.53801020427414",
    "region": "경상남도"
  },
  {
    "name": "반동초등학교운동장",
    "address": "경상남도 창원시 마산합포구 구산면 반동리 411",
    "lat": "35.08750632898973",
    "lng": "128.58401818854514",
    "region": "경상남도"
  },
  {
    "name": "두룡초등학교",
    "address": "경상남도 통영시 도천동 110-33",
    "lat": "34.837364",
    "lng": "128.412455",
    "region": "경상남도"
  },
  {
    "name": "봉래초등학교 운동장",
    "address": "경상남도 진주시 봉래동 27-2",
    "lat": "35.199878762565454",
    "lng": "128.08734432221658",
    "region": "경상남도"
  },
  {
    "name": "북면초등학교 승산분교 운동장",
    "address": "경상남도 창원시 의창구 북면 대산리 56-2",
    "lat": "35.30402245202215",
    "lng": "128.62805597665997",
    "region": "경상남도"
  },
  {
    "name": "신월운동장",
    "address": "경상남도 창원시 성산구 신월동 34",
    "lat": "35.23011309936007",
    "lng": "128.6922016739849",
    "region": "경상남도"
  },
  {
    "name": "용호운동장",
    "address": "경상남도 창원시 성산구 용호동 61",
    "lat": "35.236005785038714",
    "lng": "128.68079021575835",
    "region": "경상남도"
  },
  {
    "name": "옥포 중앙근린공원",
    "address": "경상남도 거제시 옥포동 산71-21",
    "lat": "34.8943054796183",
    "lng": "128.70200918974717",
    "region": "경상남도"
  },
  {
    "name": "평거초등학교 운동장",
    "address": "경상남도 진주시 판문동 290",
    "lat": "35.16902475236291",
    "lng": "128.04518266784513",
    "region": "경상남도"
  },
  {
    "name": "대곡초등학교 운동장",
    "address": "경상남도 진주시 대곡면 와룡리 591",
    "lat": "35.257557",
    "lng": "128.176783",
    "region": "경상남도"
  },
  {
    "name": "명석중학교 운동장",
    "address": "경상남도 진주시 명석면 관지리 256",
    "lat": "35.21693803526185",
    "lng": "128.04239686401576",
    "region": "경상남도"
  },
  {
    "name": "고성유치원",
    "address": "경상남도 고성군 거류면 송산리 781-3",
    "lat": "34.98320939898842",
    "lng": "128.35970349146413",
    "region": "경상남도"
  },
  {
    "name": "금곡초등학교 운동장",
    "address": "경상남도 진주시 금곡면 두문리 682-5",
    "lat": "35.089539826870535",
    "lng": "128.18491150580357",
    "region": "경상남도"
  },
  {
    "name": "수정초등학교 운동장",
    "address": "경상남도 진주시 평거동 1125",
    "lat": "35.165157752438496",
    "lng": "128.04862948235873",
    "region": "경상남도"
  },
  {
    "name": "진서고등학교 운동장",
    "address": "경상남도 진주시 수곡면 대천리 226-1",
    "lat": "35.19734777830176",
    "lng": "127.92764577319308",
    "region": "경상남도"
  },
  {
    "name": "경남체육고등학교 운동장",
    "address": "경상남도 진주시 진성면 가진리 75",
    "lat": "35.203013059744514",
    "lng": "128.22497521280818",
    "region": "경상남도"
  },
  {
    "name": "진해신항초등학교",
    "address": "경상남도 창원시 진해구 용원동 1341",
    "lat": "35.0892831609086",
    "lng": "128.8105615492518",
    "region": "경상남도"
  },
  {
    "name": "삽량초등학교 운동장",
    "address": "경상남도 양산시 남부동 601-3",
    "lat": "35.331916",
    "lng": "129.029663",
    "region": "경상남도"
  },
  {
    "name": "양산중학교 운동장",
    "address": "경상남도 양산시 북부동 234",
    "lat": "35.349764",
    "lng": "129.043675",
    "region": "경상남도"
  },
  {
    "name": "웅상고등학교 운동장",
    "address": "경상남도 양산시 평산동 290",
    "lat": "35.377857",
    "lng": "129.144762",
    "region": "경상남도"
  },
  {
    "name": "웅상중학교 운동장",
    "address": "경상남도 양산시 평산동 297-3",
    "lat": "35.376966",
    "lng": "129.145126",
    "region": "경상남도"
  },
  {
    "name": "소토초등학교 운동장",
    "address": "경상남도 양산시 상북면 소토리 651",
    "lat": "35.379401",
    "lng": "129.053193",
    "region": "경상남도"
  },
  {
    "name": "덕계초등학교 운동장",
    "address": "경상남도 양산시 덕계동 718-4",
    "lat": "35.375527",
    "lng": "129.153365",
    "region": "경상남도"
  },
  {
    "name": "삼성중학교 운동장",
    "address": "경상남도 양산시 북정동 555",
    "lat": "35.360533",
    "lng": "129.046501",
    "region": "경상남도"
  },
  {
    "name": "원평초등학교",
    "address": "경상남도 통영시 용남면 원평리 157",
    "lat": "34.894590957348136",
    "lng": "128.45932768186182",
    "region": "경상남도"
  },
  {
    "name": "진주제일중학교 운동장",
    "address": "경상남도 진주시 평거동 748-2",
    "lat": "35.1752111284866",
    "lng": "128.0670219490872",
    "region": "경상남도"
  },
  {
    "name": "서진초등학교 운동장",
    "address": "경상남도 진주시 평거동 800",
    "lat": "35.168937941776235",
    "lng": "128.05703948364953",
    "region": "경상남도"
  },
  {
    "name": "율하초등학교 운동장",
    "address": "경상남도 김해시 율하동 1303",
    "lat": "35.171522575169696",
    "lng": "128.80829216358057",
    "region": "경상남도"
  },
  {
    "name": "용남초등학교",
    "address": "경상남도 통영시 용남면 동달리 767",
    "lat": "34.86973506968138",
    "lng": "128.4440044671733",
    "region": "경상남도"
  },
  {
    "name": "덕정초등학교 운동장",
    "address": "경상남도 김해시 관동동 452-4",
    "lat": "35.17770089920889",
    "lng": "128.79862733460274",
    "region": "경상남도"
  },
  {
    "name": "새솔어린이공원",
    "address": "경상남도 양산시 물금읍 증산리 1758-2",
    "lat": "35.306225",
    "lng": "129.004447",
    "region": "경상남도"
  },
  {
    "name": "중동어린이공원",
    "address": "경상남도 양산시 신기동 508-7",
    "lat": "35.35276107685029",
    "lng": "129.03931081295153",
    "region": "경상남도"
  },
  {
    "name": "웅상체육공원",
    "address": "경상남도 양산시 평산동 283",
    "lat": "35.37565787182036",
    "lng": "129.14207160473066",
    "region": "경상남도"
  },
  {
    "name": "순지어린이공원",
    "address": "경상남도 양산시 하북면 순지리 818-1",
    "lat": "35.494113",
    "lng": "129.085325",
    "region": "경상남도"
  },
  {
    "name": "금산어린이공원",
    "address": "경상남도 양산시 동면 금산리 1417-2",
    "lat": "35.312391",
    "lng": "129.022719",
    "region": "경상남도"
  },
  {
    "name": "양산희망학교 운동장",
    "address": "경상남도 양산시 상북면 상삼리 564-3",
    "lat": "35.427200",
    "lng": "129.060028",
    "region": "경상남도"
  },
  {
    "name": "목련어린이공원",
    "address": "경상남도 양산시 동면 금산리 850",
    "lat": "35.300711",
    "lng": "129.026287",
    "region": "경상남도"
  },
  {
    "name": "수질정화공원",
    "address": "경상남도 양산시 동면 금산리 1501-1",
    "lat": "35.30690338532644",
    "lng": "129.02414972151624",
    "region": "경상남도"
  },
  {
    "name": "통새미공원",
    "address": "경상남도 양산시 물금읍 가촌리 1248-2",
    "lat": "35.320589",
    "lng": "128.996865",
    "region": "경상남도"
  },
  {
    "name": "주민쉼터",
    "address": "경상남도 양산시 상북면 석계리 323",
    "lat": "35.41269938354704",
    "lng": "129.06630456447758",
    "region": "경상남도"
  },
  {
    "name": "수남초등학교 운동장",
    "address": "경상남도 김해시 율하동 1395",
    "lat": "35.170215897242336",
    "lng": "128.8187799998154",
    "region": "경상남도"
  },
  {
    "name": "석산강변어린이공원",
    "address": "경상남도 양산시 동면 석산리 1447-2",
    "lat": "35.323511",
    "lng": "129.024166",
    "region": "경상남도"
  },
  {
    "name": "오봉초등학교 운동장",
    "address": "경상남도 양산시 물금읍 범어리 503",
    "lat": "35.33499547282315",
    "lng": "129.0050189487812",
    "region": "경상남도"
  },
  {
    "name": "금산들어린이공원",
    "address": "경상남도 양산시 동면 금산리 1431",
    "lat": "35.312088",
    "lng": "129.026497",
    "region": "경상남도"
  },
  {
    "name": "1호광장",
    "address": "경상남도 양산시 물금읍 범어리 2711-16",
    "lat": "35.328279",
    "lng": "129.014292",
    "region": "경상남도"
  },
  {
    "name": "다솜어린이공원",
    "address": "경상남도 양산시 물금읍 증산리 1817",
    "lat": "35.307130",
    "lng": "129.007972",
    "region": "경상남도"
  },
  {
    "name": "신기12어린이공원",
    "address": "경상남도 양산시 신기동 645-1",
    "lat": "35.355707",
    "lng": "129.037786",
    "region": "경상남도"
  },
  {
    "name": "곡리어린이공원",
    "address": "경상남도 양산시 동면 석산리 864-6",
    "lat": "35.317125",
    "lng": "129.031166",
    "region": "경상남도"
  },
  {
    "name": "텃밭어린이공원",
    "address": "경상남도 양산시 삼호동 478-1",
    "lat": "35.4133755371696",
    "lng": "129.17542749219442",
    "region": "경상남도"
  },
  {
    "name": "서창중학교 운동장",
    "address": "경상남도 양산시 삼호동 158-1",
    "lat": "35.412427",
    "lng": "129.177760",
    "region": "경상남도"
  },
  {
    "name": "소공원<357>",
    "address": "경상남도 양산시 물금읍 물금리 774-51",
    "lat": "35.309163",
    "lng": "128.982040",
    "region": "경상남도"
  },
  {
    "name": "개양중학교 운동장",
    "address": "경상남도 진주시 가좌동 669",
    "lat": "35.16012708571098",
    "lng": "128.1097926974604",
    "region": "경상남도"
  },
  {
    "name": "문산중학교 운동장",
    "address": "경상남도 진주시 충무공동 273-1",
    "lat": "35.17685382767941",
    "lng": "128.1519937233213",
    "region": "경상남도"
  },
  {
    "name": "천성초등학교 운동장",
    "address": "경상남도 양산시 평산동 350",
    "lat": "35.379069",
    "lng": "129.145004",
    "region": "경상남도"
  },
  {
    "name": "원동중학교 운동장",
    "address": "경상남도 양산시 원동면 원리 577",
    "lat": "35.375579",
    "lng": "128.920967",
    "region": "경상남도"
  },
  {
    "name": "동산초등학교 운동장",
    "address": "경상남도 양산시 동면 금산리 758-6",
    "lat": "35.303978",
    "lng": "129.026054",
    "region": "경상남도"
  },
  {
    "name": "영천초등학교 운동장",
    "address": "경상남도 양산시 동면 여락리 30",
    "lat": "35.311208",
    "lng": "129.110737",
    "region": "경상남도"
  },
  {
    "name": "양주중학교 운동장",
    "address": "경상남도 양산시 상북면 석계리 51",
    "lat": "35.415175",
    "lng": "129.066920",
    "region": "경상남도"
  },
  {
    "name": "경남외고 운동장",
    "address": "경상남도 양산시 어곡동 1427-1",
    "lat": "35.39578016408479",
    "lng": "129.01301980018744",
    "region": "경상남도"
  },
  {
    "name": "망경초등학교 운동장",
    "address": "경상남도 진주시 망경동 490",
    "lat": "35.17948819825648",
    "lng": "128.08286992858183",
    "region": "경상남도"
  },
  {
    "name": "진주기계공업고등학교 운동장",
    "address": "경상남도 진주시 상평동 272-1",
    "lat": "35.17711908714348",
    "lng": "128.10324800426073",
    "region": "경상남도"
  },
  {
    "name": "배영초등학교 운동장",
    "address": "경상남도 진주시 신안동 710-1",
    "lat": "35.17615373708788",
    "lng": "128.06735925523935",
    "region": "경상남도"
  },
  {
    "name": "정촌초등학교 운동장",
    "address": "경상남도 진주시 가좌동 691",
    "lat": "35.16018892759599",
    "lng": "128.10868528223506",
    "region": "경상남도"
  },
  {
    "name": "장평초등학교 운동장",
    "address": "경상남도 거제시 장평동 348",
    "lat": "34.89355687187758",
    "lng": "128.6077572311639",
    "region": "경상남도"
  },
  {
    "name": "일운초등학교 운동장",
    "address": "경상남도 거제시 일운면 지세포리 745-1",
    "lat": "34.82833250608187",
    "lng": "128.70616224084569",
    "region": "경상남도"
  },
  {
    "name": "지세포중학교 운동장",
    "address": "경상남도 거제시 일운면 지세포리 980",
    "lat": "34.827899550356555",
    "lng": "128.70261451473664",
    "region": "경상남도"
  },
  {
    "name": "독봉산웰빙근린공원",
    "address": "경상남도 거제시 상동동 369",
    "lat": "34.87768243620826",
    "lng": "128.6344247915228",
    "region": "경상남도"
  },
  {
    "name": "장평동 근린공원",
    "address": "경상남도 거제시 장평동 145",
    "lat": "34.88593067572784",
    "lng": "128.60725211755727",
    "region": "경상남도"
  },
  {
    "name": "거제초등학교 운동장",
    "address": "경상남도 거제시 거제면 동상리 415",
    "lat": "34.85151213090049",
    "lng": "128.59187947166862",
    "region": "경상남도"
  },
  {
    "name": "오량초등학교 운동장",
    "address": "경상남도 거제시 사등면 덕호리 14-1",
    "lat": "34.886424532704595",
    "lng": "128.4823475416875",
    "region": "경상남도"
  },
  {
    "name": "삼성중공업 A운동장",
    "address": "경상남도 거제시 장평동 530-1",
    "lat": "34.8951231612679",
    "lng": "128.6085756959034",
    "region": "경상남도"
  },
  {
    "name": "연초중학교 운동장",
    "address": "경상남도 거제시 연초면 죽토리 724",
    "lat": "34.913122709036905",
    "lng": "128.6598644892471",
    "region": "경상남도"
  },
  {
    "name": "마전초등학교 운동장",
    "address": "경상남도 거제시 장승포동 613",
    "lat": "34.859920128552574",
    "lng": "128.72054886426125",
    "region": "경상남도"
  },
  {
    "name": "장승포초등학교 운동장",
    "address": "경상남도 거제시 장승포동 319",
    "lat": "34.869445995964085",
    "lng": "128.7292022110551",
    "region": "경상남도"
  },
  {
    "name": "아주초등학교 운동장",
    "address": "경상남도 거제시 아주동 352-4",
    "lat": "34.86441262598948",
    "lng": "128.6929789835717",
    "region": "경상남도"
  },
  {
    "name": "국산초등학교 운동장",
    "address": "경상남도 거제시 옥포동 919",
    "lat": "34.89686162039276",
    "lng": "128.69334031973884",
    "region": "경상남도"
  },
  {
    "name": "옥포초등학교 운동장",
    "address": "경상남도 거제시 옥포동 539-1",
    "lat": "34.89211422656151",
    "lng": "128.69045887478313",
    "region": "경상남도"
  },
  {
    "name": "옥포 1근린공원",
    "address": "경상남도 거제시 옥포동 1285",
    "lat": "34.90042175946316",
    "lng": "128.68697164765788",
    "region": "경상남도"
  },
  {
    "name": "거제스포츠파크",
    "address": "경상남도 거제시 거제면 서정리 823-13",
    "lat": "34.8525996359085",
    "lng": "128.58166423441398",
    "region": "경상남도"
  },
  {
    "name": "거제종합운동장",
    "address": "경상남도 거제시 고현동 564",
    "lat": "34.88354059254428",
    "lng": "128.61817960137037",
    "region": "경상남도"
  },
  {
    "name": "옥포운동장",
    "address": "경상남도 거제시 옥포동 1128",
    "lat": "34.901208140727555",
    "lng": "128.69372816599815",
    "region": "경상남도"
  },
  {
    "name": "둔덕가족생활체육공원",
    "address": "경상남도 거제시 둔덕면 하둔리 632-1",
    "lat": "34.83329175126135",
    "lng": "128.50450482339483",
    "region": "경상남도"
  },
  {
    "name": "사등운동장",
    "address": "경상남도 거제시 사등면 지석리 1223",
    "lat": "34.90644215305952",
    "lng": "128.51437067848425",
    "region": "경상남도"
  },
  {
    "name": "고현보조운동장",
    "address": "경상남도 거제시 고현동 906",
    "lat": "34.883551714368686",
    "lng": "128.6162412325419",
    "region": "경상남도"
  },
  {
    "name": "가야초등학교 운동장",
    "address": "경상남도 함안군 가야읍 도항리 88-1",
    "lat": "35.278136062792235",
    "lng": "128.40279427836248",
    "region": "경상남도"
  },
  {
    "name": "함주공원(다목적구장)",
    "address": "경상남도 함안군 가야읍 도항리 249-48",
    "lat": "35.282953",
    "lng": "128.40058",
    "region": "경상남도"
  },
  {
    "name": "함안중학교 운동장",
    "address": "경상남도 함안군 가야읍 도항리 163-3",
    "lat": "35.28292099060072",
    "lng": "128.40400297890412",
    "region": "경상남도"
  },
  {
    "name": "함안고등학교 운동장",
    "address": "경상남도 함안군 가야읍 도항리 163-4",
    "lat": "35.28239574095879",
    "lng": "128.40486942310733",
    "region": "경상남도"
  },
  {
    "name": "명덕고등학교 운동장",
    "address": "경상남도 함안군 가야읍 도항리 463",
    "lat": "35.27304257468463",
    "lng": "128.40255641684485",
    "region": "경상남도"
  },
  {
    "name": "중앙초등학교 운동장",
    "address": "경상남도 함안군 가야읍 산서리 684-390",
    "lat": "35.29300606988868",
    "lng": "128.40105590287124",
    "region": "경상남도"
  },
  {
    "name": "칠원공설운동장",
    "address": "경상남도 함안군 칠원읍 용산리 322",
    "lat": "35.3109515826876",
    "lng": "128.51433040417174",
    "region": "경상남도"
  },
  {
    "name": "유원초등학교 운동장",
    "address": "경상남도 함안군 칠원읍 유원리 374",
    "lat": "35.29776357632069",
    "lng": "128.49673392740937",
    "region": "경상남도"
  },
  {
    "name": "호암중학교 운동장",
    "address": "경상남도 함안군 칠원읍 오곡리 101",
    "lat": "35.274520802068245",
    "lng": "128.52156707817164",
    "region": "경상남도"
  },
  {
    "name": "함안면공설운동장",
    "address": "경상남도 함안군 함안면 북촌리 1030",
    "lat": "35.24080418456711",
    "lng": "128.41984391212472",
    "region": "경상남도"
  },
  {
    "name": "함성중학교 운동장",
    "address": "경상남도 함안군 함안면 북촌리 1002-3",
    "lat": "35.24152898604977",
    "lng": "128.42105007841326",
    "region": "경상남도"
  },
  {
    "name": "군북중학교 운동장",
    "address": "경상남도 함안군 군북면 덕대리 267",
    "lat": "35.260713896203875",
    "lng": "128.3435626586347",
    "region": "경상남도"
  },
  {
    "name": "월촌초등학교 운동장",
    "address": "경상남도 함안군 군북면 월촌리 1214",
    "lat": "35.291240243928996",
    "lng": "128.3032120771482",
    "region": "경상남도"
  },
  {
    "name": "우거초등학교(폐교)운동장",
    "address": "경상남도 함안�� 법수면 우거리 789",
    "lat": "35.31599534135952",
    "lng": "128.35302901559263",
    "region": "경상남도"
  },
  {
    "name": "대산초등학교 운동장",
    "address": "경상남도 함안군 대산면 구혜리 229",
    "lat": "35.350966479918775",
    "lng": "128.4312091952233",
    "region": "경상남도"
  },
  {
    "name": "칠서초등학교 운동장",
    "address": "경상남도 함안군 칠서면 청계리 729",
    "lat": "35.33233535507325",
    "lng": "128.49844279658228",
    "region": "경상남도"
  },
  {
    "name": "칠성중학교 운동장",
    "address": "경상남도 함안군 칠서면 용성리 22-22",
    "lat": "35.38808788955513",
    "lng": "128.50290123003006",
    "region": "경상남도"
  },
  {
    "name": "칠서 공설운동장",
    "address": "경상남도 함안군 칠서면 대치리 281",
    "lat": "35.37179607811901",
    "lng": "128.47534878707702",
    "region": "경상남도"
  },
  {
    "name": "경상남도교육청 낙동강학생교육원 칠북분원",
    "address": "경상남도 함안군 칠북면 검단리 980",
    "lat": "35.348017320876586",
    "lng": "128.52749488755137",
    "region": "경상남도"
  },
  {
    "name": "칠서초등학교 이룡분교",
    "address": "경상남도 함안군 칠서면 이룡리 900",
    "lat": "35.387257272221085",
    "lng": "128.50629431689583",
    "region": "경상남도"
  },
  {
    "name": "산인초등학교",
    "address": "경상남도 함안군 산인면 내인리 204",
    "lat": "35.28981182893706",
    "lng": "128.432528936568",
    "region": "경상남도"
  },
  {
    "name": "여항면공설운동장",
    "address": "경상남도 함안군 여항면 외암리 725",
    "lat": "35.208401388461624",
    "lng": "128.4347916879877",
    "region": "경상남도"
  },
  {
    "name": "율천초등학교 운동장",
    "address": "경상남도 고성군 고성읍 죽계리 735-1",
    "lat": "34.9927948472895",
    "lng": "128.32813124572212",
    "region": "경상남도"
  },
  {
    "name": "동진초등학교 운동장",
    "address": "경상남도 진주시 하대동 119-1",
    "lat": "35.18726750122287",
    "lng": "128.12415709996154",
    "region": "경상남도"
  },
  {
    "name": "명사초등학교",
    "address": "경상남도 거제시 남부면 저구리 311",
    "lat": "34.7254606",
    "lng": "128.60366999999996",
    "region": "경상남도"
  },
  {
    "name": "동부중학교",
    "address": "경상남도 거제시 동부면 산양리 348",
    "lat": "34.82044465831767",
    "lng": "128.6079257726672",
    "region": "경상남도"
  },
  {
    "name": "하청초등학교",
    "address": "경상남도 거제시 하청면 하청리 661-3",
    "lat": "34.9560455",
    "lng": "128.65535350000005",
    "region": "경상남도"
  },
  {
    "name": "수월초등학교",
    "address": "경상남도 거제시 수월동 1170",
    "lat": "34.8904419",
    "lng": "128.6438008",
    "region": "경상남도"
  },
  {
    "name": "범어고등학교 운동장",
    "address": "경상남도 양산시 물금읍 범어리 2712-7",
    "lat": "35.329584",
    "lng": "129.018934",
    "region": "경상남도"
  },
  {
    "name": "진양고등학교 운동장",
    "address": "경상남도 진주시 충무공동 273-3",
    "lat": "35.175483262946436",
    "lng": "128.1523930290436",
    "region": "경상남도"
  },
  {
    "name": "성산초등학교 운동장",
    "address": "경상남도 양산시 물금읍 범어리 2712-6",
    "lat": "35.330385",
    "lng": "129.018263",
    "region": "경상남도"
  },
  {
    "name": "큰골근린공원",
    "address": "경상남도 양산시 삼호동 157",
    "lat": "35.41212177901601",
    "lng": "129.17923820739065",
    "region": "경상남도"
  },
  {
    "name": "칠원초등학교 운동장",
    "address": "경상남도 함안군 칠원읍 구성리 730",
    "lat": "35.30649743713875",
    "lng": "128.51998371553543",
    "region": "경상남도"
  },
  {
    "name": "하청중학교",
    "address": "경상남도 거제시 하청면 하청리 698-1",
    "lat": "34.9542678",
    "lng": "128.6528538",
    "region": "경상남도"
  },
  {
    "name": "능포초등학교",
    "address": "경상남도 거제시 능포동 440",
    "lat": "34.8808614",
    "lng": "128.73682009999993",
    "region": "경상남도"
  },
  {
    "name": "거제공업고등학교",
    "address": "경상남도 거제시 고현동 920-2",
    "lat": "34.882359",
    "lng": "128.61424820000002",
    "region": "경상남도"
  },
  {
    "name": "수월중학교",
    "address": "경상남도 거제시 수월동 1165",
    "lat": "34.8907161",
    "lng": "128.64550020000001",
    "region": "경상남도"
  },
  {
    "name": "물금초등학교 운동장",
    "address": "경상남도 양산시 물금읍 가촌리 469-1",
    "lat": "35.31710548739799",
    "lng": "128.99045062447286",
    "region": "경상남도"
  },
  {
    "name": "석산초등학교 운동장",
    "address": "경상남도 양산시 동면 석산리 1448-8",
    "lat": "35.32148563665956",
    "lng": "129.0268038114009",
    "region": "경상남도"
  },
  {
    "name": "양산고등학교 운동장",
    "address": "경상남도 양산시 북부동 255",
    "lat": "35.349405",
    "lng": "129.044813",
    "region": "경상남도"
  },
  {
    "name": "서창초등학교 운동장",
    "address": "경상남도 양산시 삼호동 623",
    "lat": "35.417453",
    "lng": "129.171701",
    "region": "경상남도"
  },
  {
    "name": "원동초등학교 운동장",
    "address": "경상남도 양산시 원동면 원리 951",
    "lat": "35.364219",
    "lng": "128.921983",
    "region": "경상남도"
  },
  {
    "name": "삼성초등학교 운동장",
    "address": "경상남도 양산시 북정동 383",
    "lat": "35.364246",
    "lng": "129.047041",
    "region": "경상남도"
  },
  {
    "name": "화제초등학교 운동장",
    "address": "경상남도 양산시 원동면 화제리 1296-2",
    "lat": "35.350920",
    "lng": "128.978929",
    "region": "경상남도"
  },
  {
    "name": "신기초등학교 운동장",
    "address": "경상남도 양산시 신기동 511-1",
    "lat": "35.351953",
    "lng": "129.040230",
    "region": "경상남도"
  },
  {
    "name": "산양초등학교",
    "address": "경상남도 통영시 산양읍 남평리 857",
    "lat": "34.80170878275674",
    "lng": "128.3907540247713",
    "region": "경상남도"
  },
  {
    "name": "평산초등학교 운동장",
    "address": "경상남도 양산시 평산동 40-3",
    "lat": "35.38679578850375",
    "lng": "129.15363173058455",
    "region": "경상남도"
  },
  {
    "name": "대운초등학교 운동장",
    "address": "경상남도 양산시 삼호동 886-2",
    "lat": "35.408528",
    "lng": "129.173715",
    "region": "경상남도"
  },
  {
    "name": "좌삼초등학교 운동장",
    "address": "경상남도 양산시 상북면 좌삼리 493",
    "lat": "35.440567",
    "lng": "129.044065",
    "region": "경상남도"
  },
  {
    "name": "하북초등학교 운동장",
    "address": "경상남도 양산시 하북면 순지리 702",
    "lat": "35.489667",
    "lng": "129.088129",
    "region": "경상남도"
  },
  {
    "name": "양산초등학교 운동장",
    "address": "경상남도 양산시 북부동 269",
    "lat": "35.345692",
    "lng": "129.042992",
    "region": "경상남도"
  },
  {
    "name": "충렬여자중학교",
    "address": "경상남도 통영시 용남면 장평리 202",
    "lat": "34.887084",
    "lng": "128.465357",
    "region": "경상남도"
  },
  {
    "name": "가람초등학교 운동장",
    "address": "경상남도 진주시 상평동 278-1",
    "lat": "35.173337663501385",
    "lng": "128.10156780744964",
    "region": "경상남도"
  },
  {
    "name": "용재공원",
    "address": "경상남도 창원시 진해구 용원동 1226",
    "lat": "35.1005",
    "lng": "128.8171",
    "region": "경상남도"
  },
  {
    "name": "명서2주민운동장",
    "address": "경상남도 창원시 의창구 명서동 300-4",
    "lat": "35.24274946000498",
    "lng": "128.63899916410475",
    "region": "경상남도"
  },
  {
    "name": "제동공원",
    "address": "경상남도 창원시 의창구 대산면 제동리 285-1",
    "lat": "35.33489726727237",
    "lng": "128.7107369128189",
    "region": "경상남도"
  },
  {
    "name": "도계체육공원",
    "address": "경상남도 창원시 의창구 도계동 378-4",
    "lat": "35.25795987",
    "lng": "128.64213699",
    "region": "경상남도"
  },
  {
    "name": "무동3어린이공원",
    "address": "경상남도 창원시 의창구 북면 무동리 121-4",
    "lat": "35.31994070",
    "lng": "128.58207547",
    "region": "경상남도"
  },
  {
    "name": "마산조각공원",
    "address": "경상남도 창원시 마산합포구 신포동1가 68-1",
    "lat": "35.19740435661273",
    "lng": "128.5720215039424",
    "region": "경상남도"
  },
  {
    "name": "진영고등학교 운동장",
    "address": "경상남도 김해시 진영읍 진영리 275-21",
    "lat": "35.30454022346869",
    "lng": "128.7305510044128",
    "region": "경상남도"
  },
  {
    "name": "내동중학교 운동장",
    "address": "경상남도 김해시 내동 169",
    "lat": "35.241325558015795",
    "lng": "128.85822415352123",
    "region": "경상남도"
  },
  {
    "name": "삼계초등학교 운동장",
    "address": "경상남도 김해시 삼계동 1424",
    "lat": "35.26746441386483",
    "lng": "128.86407136917725",
    "region": "경상남도"
  },
  {
    "name": "모산공원",
    "address": "경상남도 김해시 장유동 446-1",
    "lat": "35.16819542676387",
    "lng": "128.82280826569172",
    "region": "경상남도"
  },
  {
    "name": "산청중학교 운동장",
    "address": "경상남도 산청군 산청읍 옥산리 923",
    "lat": "35.41108828641245",
    "lng": "127.87119627009818",
    "region": "경상남도"
  },
  {
    "name": "동읍주민운동장",
    "address": "경상남도 창원시 의창구 동읍 용잠리 662",
    "lat": "35.28389161329018",
    "lng": "128.67988944053684",
    "region": "경상남도"
  },
  {
    "name": "사화공원",
    "address": "경상남도 창원시 의창구 중동 794-11",
    "lat": "35.25171818423545",
    "lng": "128.6262969476538",
    "region": "경상남도"
  },
  {
    "name": "초동초등학교 운동장",
    "address": "경상남도 밀양시 초동면 신호리 12-2",
    "lat": "35.4122031603189",
    "lng": "128.69144439697263",
    "region": "경상남도"
  },
  {
    "name": "우산동 공원",
    "address": "경상남도 창원시 마산합포구 우산동 149",
    "lat": "35.1527",
    "lng": "128.5535",
    "region": "경상남도"
  },
  {
    "name": "산호공원",
    "address": "경상남도 창원시 마산합포구 산호동 532-12",
    "lat": "35.21384592661219",
    "lng": "128.58202636241936",
    "region": "경상남도"
  },
  {
    "name": "석동체육공원",
    "address": "경상남도 창원시 진해구 석동 182",
    "lat": "35.15303649217639",
    "lng": "128.70436191558875",
    "region": "경상남도"
  },
  {
    "name": "은하수초등학교 운동장",
    "address": "경상남도 진주시 가좌동 1988",
    "lat": "35.150779843329275",
    "lng": "128.11086416244507",
    "region": "경상남도"
  },
  {
    "name": "풍호체육공원",
    "address": "경상남도 창원시 진해구 풍호동 789-33",
    "lat": "35.13584198",
    "lng": "128.71336870",
    "region": "경상남도"
  },
  {
    "name": "죽림초등학교",
    "address": "경상남도 통영시 광도면 죽림리 1583-76",
    "lat": "34.876512587430966",
    "lng": "128.41680016191611",
    "region": "경상남도"
  },
  {
    "name": "중앙중학교",
    "address": "경상남도 통영시 무전동 1054-4",
    "lat": "34.861841008582985",
    "lng": "128.42428179644332",
    "region": "경상남도"
  },
  {
    "name": "원계근린공원",
    "address": "경상남도 창원시 마산회원구 내서읍 원계리 400-1",
    "lat": "35.23723102525245",
    "lng": "128.50584457953016",
    "region": "경상남도"
  },
  {
    "name": "양덕 가고파공원",
    "address": "경상남도 창원시 마산회원구 양덕동 84-7",
    "lat": "35.22484765152714",
    "lng": "128.5818933766998",
    "region": "경상남도"
  },
  {
    "name": "삼계 더푸른공원",
    "address": "경상남도 창원시 마산회원구 내서읍 삼계리 1",
    "lat": "35.23786104003736",
    "lng": "128.50309256868061",
    "region": "경상남도"
  },
  {
    "name": "통영초등학교",
    "address": "경상남도 통영시 무전동 1054-3",
    "lat": "34.86281318828157",
    "lng": "128.42443891388342",
    "region": "경상남도"
  },
  {
    "name": "삼각지공원",
    "address": "경상남도 창원시 마산회원구 양덕동 412-8",
    "lat": "35.22047638345626",
    "lng": "128.58863207131202",
    "region": "경상남도"
  },
  {
    "name": "내죽도공원",
    "address": "경상남도 통영시 광도면 죽림리 1574-3",
    "lat": "34.881185154140304",
    "lng": "128.42096296627773",
    "region": "경상남도"
  },
  {
    "name": "거제고등학교",
    "address": "경상남도 거제시 아주동 295-8",
    "lat": "34.86138298544621",
    "lng": "128.68712223463044",
    "region": "경상남도"
  },
  {
    "name": "소가야중학교 운동장",
    "address": "경상남도 고성군 삼산면 삼봉리 산76-2",
    "lat": "34.95392867799968",
    "lng": "128.2499818786087",
    "region": "경상남도"
  },
  {
    "name": "대가면 다목적복지회관",
    "address": "경상남도 고성군 대가면 유흥리 717-1",
    "lat": "35.018863438302354",
    "lng": "128.29762254641187",
    "region": "경상남도"
  },
  {
    "name": "계룡초등학교",
    "address": "경상남도 거제시 고현동 164",
    "lat": "34.8807205",
    "lng": "128.62533050000002",
    "region": "경상남도"
  },
  {
    "name": "제산초등학교",
    "address": "경상남도 거제시 양정동 818",
    "lat": "34.88711731884932",
    "lng": "128.64252304236422",
    "region": "경상남도"
  },
  {
    "name": "반송공원",
    "address": "경상남도 창원시 성산구 반송동 산45-4",
    "lat": "35.240877",
    "lng": "128.673571",
    "region": "경상남도"
  },
  {
    "name": "삼랑진고등학교",
    "address": "경상남도 밀양시 삼랑진읍 송지리 173-1",
    "lat": "35.401547",
    "lng": "128.843061",
    "region": "경상남도"
  },
  {
    "name": "남양열린운동장",
    "address": "경상남도 창원시 성산구 남양동 37-1",
    "lat": "35.20594854046287",
    "lng": "128.70597437024153",
    "region": "경상남도"
  },
  {
    "name": "사파주민운동장",
    "address": "경상남도 창원시 성산구 사파동 110",
    "lat": "35.220604",
    "lng": "128.698562",
    "region": "경상남도"
  },
  {
    "name": "세스페데스공원",
    "address": "경상남도 창원시 진해구 남문동 1257",
    "lat": "35.104745",
    "lng": "128.750320",
    "region": "경상남도"
  },
  {
    "name": "\t 한다사중학교 운동장",
    "address": "경상남도 하동군 양보면 장암리 583",
    "lat": "35.06987201149406",
    "lng": "127.83008515834808",
    "region": "경상남도"
  },
  {
    "name": "주촌초등학교 운동장",
    "address": "경상남도 김해시 주촌면 천곡리 1373-11",
    "lat": "35.232641405336835",
    "lng": "128.8383865356424",
    "region": "경상남도"
  },
  {
    "name": "웅남 운동장",
    "address": "경상남도 창원시 성산구 양곡동 451-1",
    "lat": "35.197746455208424",
    "lng": "128.63108932971983",
    "region": "경상남도"
  },
  {
    "name": "팔룡어울림운동장",
    "address": "경상남도 창원시 의창구 팔용동 42-2",
    "lat": "35.25073599142891",
    "lng": "128.61919105052974",
    "region": "경상남도"
  },
  {
    "name": "구산중학교 구남분교 운동장",
    "address": "경상남도 창원시 마산합포구 구산면 반동리 383",
    "lat": "35.086935",
    "lng": "128.587176",
    "region": "경상남도"
  },
  {
    "name": "봉황초등학교 운동장",
    "address": "경상남도 김해시 전하동 518",
    "lat": "35.22232174083827",
    "lng": "128.87011706829594",
    "region": "경상남도"
  },
  {
    "name": "토월초등학교 운동장",
    "address": "경상남도 창원시 성산구 사파동 13",
    "lat": "35.227104",
    "lng": "128.699125",
    "region": "경상남도"
  },
  {
    "name": "반림중학교 운동장",
    "address": "경상남도 창원시 성산구 반림동 2",
    "lat": "35.239215",
    "lng": "128.677807",
    "region": "경상남도"
  },
  {
    "name": "대방체육공원 운동장",
    "address": "경상남도 창원시 성산구 대방동 250-1",
    "lat": "35.216175329833014",
    "lng": "128.71106699111849",
    "region": "경상남도"
  },
  {
    "name": "이동운동장",
    "address": "경상남도 창원시 진해구 이동 606",
    "lat": "35.15026407",
    "lng": "128.69130577",
    "region": "경상남도"
  },
  {
    "name": "가조초등학교",
    "address": "경상남도 거창군 가조면 마상리 336-4",
    "lat": "35.71088574868208",
    "lng": "128.01373600959775",
    "region": "경상남도"
  },
  {
    "name": "삼정자중학교 운동장",
    "address": "경상남도 창원시 성산구 성주동 105",
    "lat": "35.201066",
    "lng": "128.711962",
    "region": "경상남도"
  },
  {
    "name": "대원레포츠 공원",
    "address": "경상남도 창원시 성산구 대원동 109",
    "lat": "35.23128889551646",
    "lng": "128.6488974094394",
    "region": "경상남도"
  },
  {
    "name": "서항근린공원",
    "address": "경상남도 창원시 마산합포구 해운동 54",
    "lat": "35.176493",
    "lng": "128.565791",
    "region": "경상남도"
  },
  {
    "name": "구항공원",
    "address": "경상남도 창원시 마산합포구 오동동 323",
    "lat": "35.20050174254222",
    "lng": "128.57769803344755",
    "region": "경상남도"
  },
  {
    "name": "올림픽공원",
    "address": "경상남도 창원시 성산구 중앙동 119",
    "lat": "35.225533904485204",
    "lng": "128.65962803363828",
    "region": "경상남도"
  },
  {
    "name": "감계3호근린공원",
    "address": "경상남도 창원시 의창구 북면 감계리 237-1",
    "lat": "35.30069424",
    "lng": "128.59397589",
    "region": "경상남도"
  },
  {
    "name": "내동초등학교 운동장",
    "address": "경상남도 김해시 내동 168",
    "lat": "35.242534781001474",
    "lng": "128.85955452919472",
    "region": "경상남도"
  },
  {
    "name": "칠산초등학교 운동장",
    "address": "경상남도 김해시 화목동 773-1",
    "lat": "35.209708496274494",
    "lng": "128.85207116603544",
    "region": "경상남도"
  },
  {
    "name": "신어초등학교 운동장",
    "address": "경상남도 김해시 삼방동 200",
    "lat": "35.243901707004355",
    "lng": "128.91192197799612",
    "region": "경상남도"
  },
  {
    "name": "성주주민운동장",
    "address": "경상남도 창원시 성산구 천선동 1216-1",
    "lat": "35.184008",
    "lng": "128.697222",
    "region": "경상남도"
  },
  {
    "name": "용지공원",
    "address": "경상남도 창원시 성산구 신월동 98",
    "lat": "35.23017444569361",
    "lng": "128.68702143430747",
    "region": "경상남도"
  },
  {
    "name": "팔룡미관공원",
    "address": "경상남도 창원시 의창구 팔용동 147",
    "lat": "35.2541",
    "lng": "128.6079",
    "region": "경상남도"
  },
  {
    "name": "사림운동장",
    "address": "경상남도 창원시 의창구 사림동 120",
    "lat": "35.24837472367702",
    "lng": "128.68178039789237",
    "region": "경상남도"
  },
  {
    "name": "사송중학교 운동장",
    "address": "경상남도 양산시 동면 내송리 885",
    "lat": "35.31965159347661",
    "lng": "129.06896329533862",
    "region": "경상남도"
  },
  {
    "name": "어곡초등학교 운동장",
    "address": "경상남도 양산시 어곡동 11",
    "lat": "35.379978275552084",
    "lng": "129.02941047046778",
    "region": "경상남도"
  },
  {
    "name": "동면초등학교 운동장",
    "address": "경상남도 양산시 동면 내송리 884",
    "lat": "35.32043327363",
    "lng": "129.06889962131112",
    "region": "경상남도"
  },
  {
    "name": "사송초등학교 운동장",
    "address": "경상남도 양산시 동면 사송리 340-3",
    "lat": "35.312512467099",
    "lng": "129.07343024767306",
    "region": "경상남도"
  },
  {
    "name": "물금동아중학교 운동장",
    "address": "경상남도 양산시 물금읍 물금리 95",
    "lat": "35.30779436934641",
    "lng": "128.99328971954586",
    "region": "경상남도"
  },
  {
    "name": "용연초등학교 운동장",
    "address": "경상남도 양산시 하북면 백록리 1245-1",
    "lat": "35.44921699027765",
    "lng": "129.0750616634685",
    "region": "경상남도"
  },
  {
    "name": "계룡중학교",
    "address": "경상남도 거제시 고현동 293-3",
    "lat": "34.8855954",
    "lng": "128.6286166",
    "region": "경상남도"
  },
  {
    "name": "도동초등학교 운동장",
    "address": "경상남도 진주시 하대동 343-3",
    "lat": "35.189244",
    "lng": "128.117592",
    "region": "경상남도"
  }
]