[
  {
    "name": "천마초등학교 운동장",
    "address": "인천광역시 서구 석남동 295-13",
    "lat": "37.50488099870258",
    "lng": "126.67928069829937",
    "region": "인천광역시"
  },
  {
    "name": "신현초등학교 운동장",
    "address": "인천광역시 서구 신현동 291",
    "lat": "37.514252649089165",
    "lng": "126.67010646254104",
    "region": "인천광역시"
  },
  {
    "name": "임학중학교 운동장",
    "address": "인천광역시 계양구 병방동 432-2",
    "lat": "37.54591181330454",
    "lng": "126.74041778547078",
    "region": "인천광역시"
  },
  {
    "name": "석천초등학교 운동장",
    "address": "인천광역시 남동구 구월동 21",
    "lat": "37.456272785682316",
    "lng": "126.70946942410505",
    "region": "인천광역시"
  },
  {
    "name": "만수여자중학교 운동장",
    "address": "인천광역시 남동구 만수동 27",
    "lat": "37.459138441212694",
    "lng": "126.73303077679186",
    "region": "인천광역시"
  },
  {
    "name": "효성공원",
    "address": "인천광역시 계양구 효성동 223",
    "lat": "37.52615028834677",
    "lng": "126.71603857866334",
    "region": "인천광역시"
  },
  {
    "name": "도화초등학교운동장",
    "address": "인천광역시 미추홀구 도화동 541-5",
    "lat": "37.46341170223252",
    "lng": "126.66832781154426",
    "region": "인천광역시"
  },
  {
    "name": "구월초등학교 운동장",
    "address": "인천광역시 남동구 구월동 1226-1",
    "lat": "37.4518958767911",
    "lng": "126.7167624329455",
    "region": "인천광역시"
  },
  {
    "name": "정각초등학교 운동장",
    "address": "인천광역시 남동구 구월동 24-2",
    "lat": "37.45565108314709",
    "lng": "126.71566807884808",
    "region": "인천광역시"
  },
  {
    "name": "인제고등학교 운동장",
    "address": "인천광역시 남동구 간석동 136-1",
    "lat": "37.461590906945844",
    "lng": "126.7132068083547",
    "region": "인천광역시"
  },
  {
    "name": "간석여자중학교 운동장",
    "address": "인천광역시 남동구 간석동 80-1",
    "lat": "37.46833018826199",
    "lng": "126.7107391283048",
    "region": "인천광역시"
  },
  {
    "name": "부일공원",
    "address": "인천광역시 계양구 계산동 930-1",
    "lat": "37.5447919042083",
    "lng": "126.72323871629044",
    "region": "인천광역시"
  },
  {
    "name": "신석초등학교 운동장",
    "address": "인천광역시 서구 석남동 208-2",
    "lat": "37.510838982305536",
    "lng": "126.66452328851202",
    "region": "인천광역시"
  },
  {
    "name": "작전공원 1",
    "address": "인천광역시 계양구 작전동 414",
    "lat": "37.52623008793687",
    "lng": "126.72570657587873",
    "region": "인천광역시"
  },
  {
    "name": "성리초등학교  운동장",
    "address": "인천광역시 남동구 구월동 1487",
    "lat": "37.44550667568134",
    "lng": "126.70982301235192",
    "region": "인천광역시"
  },
  {
    "name": "주원초등학교 운동장",
    "address": "인천광역시 남동구 간석동 379-1",
    "lat": "37.464774568055944",
    "lng": "126.69985064793174",
    "region": "인천광역시"
  },
  {
    "name": "만수중학교 운동장",
    "address": "인천광역시 남동구 만수동 48",
    "lat": "37.45462925804804",
    "lng": "126.73683574805324",
    "region": "인천광역시"
  },
  {
    "name": "마장초등학교 운동장",
    "address": "인천광역시 부평구 청천동 336-10",
    "lat": "37.506609",
    "lng": "126.709434",
    "region": "인천광역시"
  },
  {
    "name": "왕길근린공원",
    "address": "인천광역시 서구 왕길동 649-4",
    "lat": "37.60053561968273",
    "lng": "126.65148685870089",
    "region": "인천광역시"
  },
  {
    "name": "장모루근린공원",
    "address": "인천광역시 서구 검암동 594-2",
    "lat": "37.567733628056146",
    "lng": "126.67549892644942",
    "region": "인천광역시"
  },
  {
    "name": "불로지구4호어린이공원",
    "address": "인천광역시 서구 불로동 793-2",
    "lat": "37.61050270171249",
    "lng": "126.68577324569313",
    "region": "인천광역시"
  },
  {
    "name": "검단2지구2호근린공원",
    "address": "인천광역시 서구 마전동 994",
    "lat": "37.603427352784436",
    "lng": "126.66405852964948",
    "region": "인천광역시"
  },
  {
    "name": "종다리공원",
    "address": "인천광역시 서구 왕길동 641-13",
    "lat": "37.601436091014314",
    "lng": "126.65430990018473",
    "region": "인천광역시"
  },
  {
    "name": "물량장(덕적)",
    "address": "인천광역시 옹진군 덕적면 북리 155-4",
    "lat": "37.252567",
    "lng": "126.118795",
    "region": "인천광역시"
  },
  {
    "name": "능내근린공원",
    "address": "인천광역시 서구 마전동 657-11",
    "lat": "37.60114384991091",
    "lng": "126.6669241498022",
    "region": "인천광역시"
  },
  {
    "name": "작전초등학교 운동장",
    "address": "인천광역시 계양구 작전동 42-5",
    "lat": "37.53464437081422",
    "lng": "126.72873670082375",
    "region": "인천광역시"
  },
  {
    "name": "가정초등학교 운동장",
    "address": "인천광역시 서구 가좌동 395-4",
    "lat": "37.4913643181775",
    "lng": "126.6884970334358",
    "region": "인천광역시"
  },
  {
    "name": "백석초등학교 운동장",
    "address": "인천광역시 서구 당하동 1084-1",
    "lat": "37.5892960689377",
    "lng": "126.67184717650005",
    "region": "인천광역시"
  },
  {
    "name": "병방초등학교 운동장",
    "address": "인천광역시 계양구 병방동 432-1",
    "lat": "37.54669419257803",
    "lng": "126.74105273601305",
    "region": "인천광역시"
  },
  {
    "name": "강화여자고등학교운동장",
    "address": "인천광역시 강화군 강화읍 관청리 805-5",
    "lat": "37.75324009878941",
    "lng": "126.48039221763597",
    "region": "인천광역시"
  },
  {
    "name": "시립테니스장",
    "address": "인천광역시 서구 가좌동 606-3",
    "lat": "37.47576057479904",
    "lng": "126.67661554945707",
    "region": "인천광역시"
  },
  {
    "name": "강화중학교운동장",
    "address": "인천광역시 강화군 강화읍 옥림리 1061-1",
    "lat": "37.74978963644841",
    "lng": "126.49110764265046",
    "region": "인천광역시"
  },
  {
    "name": "마전제1호공원",
    "address": "인천광역시 서구 마전동 907",
    "lat": "37.60512796863173",
    "lng": "126.65745260074175",
    "region": "인천광역시"
  },
  {
    "name": "강화초등학교운동장",
    "address": "인천광역시 강화군 강화읍 관청리 334-2",
    "lat": "37.7493824415876",
    "lng": "126.4873498678206",
    "region": "인천광역시"
  },
  {
    "name": "합일초등학교운동장",
    "address": "인천광역시 강화군 강화읍 신문리 439-4",
    "lat": "37.743231830040834",
    "lng": "126.48388445377336",
    "region": "인천광역시"
  },
  {
    "name": "모통공원",
    "address": "인천광역시 서구 심곡동 301-3",
    "lat": "37.54232195875331",
    "lng": "126.67899810625235",
    "region": "인천광역시"
  },
  {
    "name": "수봉근린공원",
    "address": "인천광역시 미추홀구 숭의동 8-183",
    "lat": "37.45982089572194",
    "lng": "126.66288066640396",
    "region": "인천광역시"
  },
  {
    "name": "갈산근린공원",
    "address": "인천광역시 부평구 갈산동 166-1",
    "lat": "37.519022",
    "lng": "126.724471",
    "region": "인천광역시"
  },
  {
    "name": "도드리공원(삼산2-5공원)",
    "address": "인천광역시 부평구 삼산동 391-4",
    "lat": "37.52059372942281",
    "lng": "126.74595756256163",
    "region": "인천광역시"
  },
  {
    "name": "백운공원",
    "address": "인천광역시 부평구 십정동 186-419",
    "lat": "37.482117121388846",
    "lng": "126.70287234300245",
    "region": "인천광역시"
  },
  {
    "name": "인천신광초등학교 운동장",
    "address": "인천광역시 중구 신흥동3가 7-8",
    "lat": "37.46405438864046",
    "lng": "126.63502877206",
    "region": "인천광역시"
  },
  {
    "name": "신흥중학교 운동장",
    "address": "인천광역시 중구 신흥동3가 7-338",
    "lat": "37.45396672270329",
    "lng": "126.63020373007878",
    "region": "인천광역시"
  },
  {
    "name": "인천신흥초등학교 운동장",
    "address": "인천광역시 중구 답동 6",
    "lat": "37.47041324578795",
    "lng": "126.62921600845826",
    "region": "인천광역시"
  },
  {
    "name": "광성중학교 운동장",
    "address": "인천광역시 중구 도원동 12-73",
    "lat": "37.46730225126044",
    "lng": "126.63996335973476",
    "region": "인천광역시"
  },
  {
    "name": "인천반도체고등학교",
    "address": "인천광역시 중구 율목동 1-27",
    "lat": "37.47111533322871",
    "lng": "126.63585788572898",
    "region": "인천광역시"
  },
  {
    "name": "자유공원",
    "address": "인천광역시 중구 송학동1가 11-1",
    "lat": "37.47501950652933",
    "lng": "126.62186784916702",
    "region": "인천광역시"
  },
  {
    "name": "삼목초등학교 운동장",
    "address": "인천광역시 중구 운서동 2708-2",
    "lat": "37.498676701903534",
    "lng": "126.48608073002087",
    "region": "인천광역시"
  },
  {
    "name": "인천공항중학교 운동장",
    "address": "인천광역시 중구 운서동 2747-8",
    "lat": "37.49748665498452",
    "lng": "126.48427254628893",
    "region": "인천광역시"
  },
  {
    "name": "인천공항초등학교 운동장",
    "address": "인천광역시 중구 운서동 2788-1",
    "lat": "37.491895425757",
    "lng": "126.4857177114148",
    "region": "인천광역시"
  },
  {
    "name": "운서초등학교 운동장",
    "address": "인천광역시 중구 운서동 2895-13",
    "lat": "37.48355769806492",
    "lng": "126.51194736160429",
    "region": "인천광역시"
  },
  {
    "name": "운남초등학교 운동장",
    "address": "인천광역시 중구 운남동 1569",
    "lat": "37.49003205006247",
    "lng": "126.5302483223952",
    "region": "인천광역시"
  },
  {
    "name": "부평여자중학교 운동장",
    "address": "인천광역시 부평구 부개동 120-21",
    "lat": "37.494813680883034",
    "lng": "126.73886421613356",
    "region": "인천광역시"
  },
  {
    "name": "신도바다역",
    "address": "인천광역시 옹진군 북도면 신도리 523-61",
    "lat": "37.51507033923771",
    "lng": "126.43906474113442",
    "region": "인천광역시"
  },
  {
    "name": "물량장(장봉)",
    "address": "인천광역시 옹진군 북도면 장봉리 20-26",
    "lat": "37.53146738395489",
    "lng": "126.38462394475913",
    "region": "인천광역시"
  },
  {
    "name": "십정초등학교 운동장",
    "address": "인천광역시 부평구 십정동 298-1",
    "lat": "37.47436571096047",
    "lng": "126.69763569508791",
    "region": "인천광역시"
  },
  {
    "name": "신트리공원",
    "address": "인천광역시 부평구 부평동 880",
    "lat": "37.50649182539315",
    "lng": "126.72423748256092",
    "region": "인천광역시"
  },
  {
    "name": "반월공원(갈산5공원)",
    "address": "인천광역시 부평구 갈산동 369-1",
    "lat": "37.51001750083079",
    "lng": "126.72972331215999",
    "region": "인천광역시"
  },
  {
    "name": "쉼터공원(갈산6공원)",
    "address": "인천광역시 부평구 갈산동 380",
    "lat": "37.50800364300685",
    "lng": "126.72360516008344",
    "region": "인천광역시"
  },
  {
    "name": "산곡중학교 운동장",
    "address": "인천광역시 부평구 산곡동 180-356",
    "lat": "37.503734",
    "lng": "126.698803",
    "region": "인천광역시"
  },
  {
    "name": "마당공원(갈산7공원)",
    "address": "인천광역시 부평구 갈산동 389",
    "lat": "37.50822118216806",
    "lng": "126.7271097485127",
    "region": "인천광역시"
  },
  {
    "name": "십정체육공원",
    "address": "인천광역시 부평구 십정동 100-1",
    "lat": "37.48028919135161",
    "lng": "126.69207131031558",
    "region": "인천광역시"
  },
  {
    "name": "부이공원",
    "address": "인천광역시 부평구 부개동 514",
    "lat": "37.49036471447417",
    "lng": "126.73963542823071",
    "region": "인천광역시"
  },
  {
    "name": "대촌공원",
    "address": "인천광역시 부평구 부개동 502-16",
    "lat": "37.49697014413219",
    "lng": "126.74050666756041",
    "region": "인천광역시"
  },
  {
    "name": "박물관공원",
    "address": "인천광역시 부평구 삼산동 481",
    "lat": "37.513262",
    "lng": "126.739824",
    "region": "인천광역시"
  },
  {
    "name": "뫼골문화공원",
    "address": "인천광역시 부평구 산곡동 58-3",
    "lat": "37.51387729439742",
    "lng": "126.70099140737565",
    "region": "인천광역시"
  },
  {
    "name": "일신어린이공원(일신1호공원)",
    "address": "인천광역시 부평구 일신동 411",
    "lat": "37.48267092852089",
    "lng": "126.74231452408556",
    "region": "인천광역시"
  },
  {
    "name": "화도초등학교운동장",
    "address": "인천광역시 강화군 화도면 상방리 937",
    "lat": "37.63156040938104",
    "lng": "126.41836613416649",
    "region": "인천광역시"
  },
  {
    "name": "인천광역시교육청학생교육원 운동장",
    "address": "인천광역시 강화군 화도면 장화리 336-1",
    "lat": "37.62348235008722",
    "lng": "126.38024503819986",
    "region": "인천광역시"
  },
  {
    "name": "조산초등학교 운동장",
    "address": "인천광역시 강화군 양도면 조산리 235-1",
    "lat": "37.652805590525375",
    "lng": "126.43775582313516",
    "region": "인천광역시"
  },
  {
    "name": "선두2리 마을회관 공터",
    "address": "인천광역시 강화군 길상면 선두리 1364-2",
    "lat": "37.62063704929874",
    "lng": "126.47102862596493",
    "region": "인천광역시"
  },
  {
    "name": "동광중학교운동장",
    "address": "인천광역시 강화군 양도면 하일리 204-1",
    "lat": "37.66196613761896",
    "lng": "126.42330676317192",
    "region": "인천광역시"
  },
  {
    "name": "교동중고등학교 운동장",
    "address": "인천광역시 강화군 교동면 대룡리 723-7",
    "lat": "37.77786371023635",
    "lng": "126.28355026245075",
    "region": "인천광역시"
  },
  {
    "name": "명신초등학교 운동장",
    "address": "인천광역시 강화군 하점면 망월리 31",
    "lat": "37.75120631777592",
    "lng": "126.39226019382454",
    "region": "인천광역시"
  },
  {
    "name": "교동초등학교 운동장",
    "address": "인천광역시 강화군 교동면 대룡리 535",
    "lat": "37.78383337757134",
    "lng": "126.28161907196002",
    "region": "인천광역시"
  },
  {
    "name": "해명초등학교 운동장",
    "address": "인천광역시 강화군 삼산면 매음리 77-4",
    "lat": "37.66837402643437",
    "lng": "126.36232137680025",
    "region": "인천광역시"
  },
  {
    "name": "마니산청소년 수련원 운동장",
    "address": "인천광역시 강화군 화도면 장화리 985-171",
    "lat": "37.617063559751735",
    "lng": "126.40357375144936",
    "region": "인천광역시"
  },
  {
    "name": "인천광역시 학생교육원 흥왕체험학습장 운동장",
    "address": "인천광역시 강화군 화도면 흥왕리 338-1",
    "lat": "37.6051988528093",
    "lng": "126.42327725887276",
    "region": "인천광역시"
  },
  {
    "name": "양도초등학교 운동장",
    "address": "인천광역시 강화군 양도면 삼흥리 288",
    "lat": "37.688396705136846",
    "lng": "126.41990303993201",
    "region": "인천광역시"
  },
  {
    "name": "내가초등학교 운동장",
    "address": "인천광역시 강화군 내가면 고천리 745-2",
    "lat": "37.720559231997015",
    "lng": "126.39088153839086",
    "region": "인천광역시"
  },
  {
    "name": "지석초등학교 운동장",
    "address": "인천광역시 강화군 교동면 삼선리 493",
    "lat": "37.8008983001507",
    "lng": "126.25674517246509",
    "region": "인천광역시"
  },
  {
    "name": "승영중학교 운동장",
    "address": "인천광역시 강화군 삼산면 석모리 302",
    "lat": "37.70188646317567",
    "lng": "126.31849408149684",
    "region": "인천광역시"
  },
  {
    "name": "마장공원",
    "address": "인천광역시 부평구 산곡동 261-1",
    "lat": "37.500668737692784",
    "lng": "126.7075500739829",
    "region": "인천광역시"
  },
  {
    "name": "사근공원",
    "address": "인천광역시 부평구 갈산동 376",
    "lat": "37.508640320460785",
    "lng": "126.72434389208519",
    "region": "인천광역시"
  },
  {
    "name": "청운공원",
    "address": "인천광역시 부평구 부개동 499-6",
    "lat": "37.502257602242345",
    "lng": "126.74291158592564",
    "region": "인천광역시"
  },
  {
    "name": "구산어린이공원",
    "address": "인천광역시 부평구 구산동 126",
    "lat": "37.474677",
    "lng": "126.749591",
    "region": "인천광역시"
  },
  {
    "name": "부흥공원(부평3호공원)",
    "address": "인천광역시 부평구 부평동 178",
    "lat": "37.49503894734189",
    "lng": "126.73153052268434",
    "region": "인천광역시"
  },
  {
    "name": "대청초등학교운동장",
    "address": "인천광역시 옹진군 대청면 대청리 1085",
    "lat": "37.83234841203747",
    "lng": "124.69944873935182",
    "region": "인천광역시"
  },
  {
    "name": "방촌공원",
    "address": "인천광역시 부평구 부개동 500-7",
    "lat": "37.49798089719868",
    "lng": "126.7381561369874",
    "region": "인천광역시"
  },
  {
    "name": "마분공원(82호공원)",
    "address": "인천광역시 부평구 부개동 331",
    "lat": "37.48517255247641",
    "lng": "126.74056541190745",
    "region": "인천광역시"
  },
  {
    "name": "화이트하우스 수련원 운동장",
    "address": "인천광역시 강화군 화도면 문산리 267",
    "lat": "37.6276518068587",
    "lng": "126.43523991107921",
    "region": "인천광역시"
  },
  {
    "name": "삼산초등학교 운동장",
    "address": "인천광역시 강화군 삼산면 석모리 231",
    "lat": "37.70355447229735",
    "lng": "126.3216698169705",
    "region": "인천광역시"
  },
  {
    "name": "초지1리 마을회관 공터",
    "address": "인천광역시 강화군 길상면 초지리 372",
    "lat": "37.63320451010771",
    "lng": "126.51634722948062",
    "region": "인천광역시"
  },
  {
    "name": "서곶근린공원 주차장 ",
    "address": "인천광역시 서구 연희동 산50",
    "lat": "37.546889785010194",
    "lng": "126.68114974533756",
    "region": "인천광역시"
  },
  {
    "name": "계명공원",
    "address": "인천광역시 서구 연희동 735-2",
    "lat": "37.54982908469711",
    "lng": "126.67209978724262",
    "region": "인천광역시"
  },
  {
    "name": "강화고등학교운동장",
    "address": "인천광역시 강화군 강화읍 국화리 879-6",
    "lat": "37.74708344523347",
    "lng": "126.47398978471736",
    "region": "인천광역시"
  },
  {
    "name": "덕신고등학교운동장",
    "address": "인천광역시 강화군 강화읍 국화리 248-2",
    "lat": "37.744595613186966",
    "lng": "126.47407561540585",
    "region": "인천광역시"
  },
  {
    "name": "서도초중고등학교 운동장",
    "address": "인천광역시 강화군 서도면 주문도리 53",
    "lat": "37.64762388129233",
    "lng": "126.25185728073072",
    "region": "인천광역시"
  },
  {
    "name": "온수2리 마을회관 공터",
    "address": "인천광역시 강화군 길상면 온수리 529-7",
    "lat": "37.639130617826645",
    "lng": "126.49095207452761",
    "region": "인천광역시"
  },
  {
    "name": "한국글로벌셰프고등학교 운동장",
    "address": "인천광역시 강화군 내가면 고천리 1266",
    "lat": "37.71217404333824",
    "lng": "126.39200806617711",
    "region": "인천광역시"
  },
  {
    "name": "강서중학교 운동장",
    "address": "인천광역시 강화군 하점면 이강리 389",
    "lat": "37.77295363672921",
    "lng": "126.38862311840035",
    "region": "인천광역시"
  },
  {
    "name": "하점초등학교 운동장",
    "address": "인천광역시 강화군 하점면 신봉리 산16-6",
    "lat": "37.77352819153771",
    "lng": "126.41536474227883",
    "region": "인천광역시"
  },
  {
    "name": "양사초등학교 운동장",
    "address": "인천광역시 강화군 양사면 덕하리 1278",
    "lat": "37.804655600990735",
    "lng": "126.42475247383098",
    "region": "인천광역시"
  },
  {
    "name": "송해초등학교 운동장",
    "address": "인천광역시 강화군 송해면 솔정리 635-3",
    "lat": "37.768976153335416",
    "lng": "126.46102130413038",
    "region": "인천광역시"
  },
  {
    "name": "난정평화교육원",
    "address": "인천광역시 강화군 교동면 난정리 1282",
    "lat": "37.77053898927426",
    "lng": "126.23944354130099",
    "region": "인천광역시"
  },
  {
    "name": "장화2리마을회관 공터",
    "address": "인천광역시 강화군 화도면 장화리 1349",
    "lat": "37.6224088585418",
    "lng": "126.3790422677991",
    "region": "인천광역시"
  },
  {
    "name": "강화공설운동장",
    "address": "인천광역시 강화군 강화읍 국화리 225-4",
    "lat": "37.74585332560308",
    "lng": "126.47470593452437",
    "region": "인천광역시"
  },
  {
    "name": "갑룡초등학교운동장",
    "address": "인천광역시 강화군 강화읍 갑곳리 438-1",
    "lat": "37.74313214350652",
    "lng": "126.50400638580307",
    "region": "인천광역시"
  },
  {
    "name": "선원초등학교운동장",
    "address": "인천광역시 강화군 선원면 냉정리 100",
    "lat": "37.71446563649943",
    "lng": "126.48005962371812",
    "region": "인천광역시"
  },
  {
    "name": "불은초등학교운동장",
    "address": "인천광역시 강화군 불은면 두운리 553-2",
    "lat": "37.68259764718015",
    "lng": "126.48734718561155",
    "region": "인천광역시"
  },
  {
    "name": "삼성초등학교운동장",
    "address": "인천광역시 강화군 불은면 삼성리 809-153",
    "lat": "37.70654236426005",
    "lng": "126.4500564336775",
    "region": "인천광역시"
  },
  {
    "name": "길상초등학교운동장",
    "address": "인천광역시 강화군 길상면 온수리 532-23",
    "lat": "37.63690891382789",
    "lng": "126.49024933576572",
    "region": "인천광역시"
  },
  {
    "name": "강남중학교운동장",
    "address": "인천광역시 강화군 길상면 온수리 24-10",
    "lat": "37.64441273905827",
    "lng": "126.47999525070175",
    "region": "인천광역시"
  },
  {
    "name": "동검리 마을회관 공터",
    "address": "인천광역시 강화군 길상면 동검리 445",
    "lat": "37.588881706592296",
    "lng": "126.50684789440612",
    "region": "인천광역시"
  },
  {
    "name": "길직2리 마을회관 공터",
    "address": "인천광역시 강화군 길상면 길직리 1118-6",
    "lat": "37.65095805534611",
    "lng": "126.49314612150178",
    "region": "인천광역시"
  },
  {
    "name": "간촌공원",
    "address": "인천광역시 서구 연희동 707",
    "lat": "37.549434287462546",
    "lng": "126.67860768905325",
    "region": "인천광역시"
  },
  {
    "name": "나래공원(삼산2-7공원)",
    "address": "인천광역시 부평구 삼산동 393-3",
    "lat": "37.51902424573734",
    "lng": "126.74576737281392",
    "region": "인천광역시"
  },
  {
    "name": "햇살공원(삼산1-1공원)",
    "address": "인천광역시 부평구 삼산동 427-6",
    "lat": "37.51621316406662",
    "lng": "126.73319397418999",
    "region": "인천광역시"
  },
  {
    "name": "답동소공원",
    "address": "인천광역시 중구 답동 18-5",
    "lat": "37.4695758",
    "lng": "126.6274587",
    "region": "인천광역시"
  },
  {
    "name": "영종하늘체육공원",
    "address": "인천광역시 중구 중산동 1878-3",
    "lat": "37.48916979577775",
    "lng": "126.55653476715075",
    "region": "인천광역시"
  },
  {
    "name": "새갈공원(갈산2공원)",
    "address": "인천광역시 부평구 갈산동 359-1",
    "lat": "37.51349729392908",
    "lng": "126.72949677784207",
    "region": "인천광역시"
  },
  {
    "name": "가족공원(삼산2-4공원)",
    "address": "인천광역시 부평구 삼산동 389-7",
    "lat": "37.52116564781989",
    "lng": "126.74316536374003",
    "region": "인천광역시"
  },
  {
    "name": "동심공원(삼산1-4공원)",
    "address": "인천광역시 부평구 삼산동 456-11",
    "lat": "37.50948972864331",
    "lng": "126.74221830218373",
    "region": "인천광역시"
  },
  {
    "name": "신궁동공원(부개1공원)",
    "address": "인천광역시 부평구 부개동 496-12",
    "lat": "37.504616355740716",
    "lng": "126.73930018523585",
    "region": "인천광역시"
  },
  {
    "name": "송도중학교 운동장",
    "address": "인천광역시 중구 답동 36",
    "lat": "37.46855192306154",
    "lng": "126.62924927444887",
    "region": "인천광역시"
  },
  {
    "name": "인천연안초등학교 운동장",
    "address": "인천광역시 중구 항동7가 27-74",
    "lat": "37.453557705894696",
    "lng": "126.60797063034171",
    "region": "인천광역시"
  },
  {
    "name": "신흥여자중학교 운동장",
    "address": "인천광역시 중구 신흥동3가 7-210",
    "lat": "37.45388729100187",
    "lng": "126.63157010437034",
    "region": "인천광역시"
  },
  {
    "name": "제물포고등학교 운동장",
    "address": "인천광역시 중구 전동 26",
    "lat": "37.476356571279325",
    "lng": "126.62401140913525",
    "region": "인천광역시"
  },
  {
    "name": "용유중학교 운동장",
    "address": "인천광역시 중구 남북동 584-2",
    "lat": "37.447982437368246",
    "lng": "126.41245606962356",
    "region": "인천광역시"
  },
  {
    "name": "용유초등학교 무의분교장 운동장",
    "address": "인천광역시 중구 무의동 248-3",
    "lat": "37.39038038331301",
    "lng": "126.4252244241731",
    "region": "인천광역시"
  },
  {
    "name": "인성여자중학교 운동장",
    "address": "인천광역시 중구 송학동2가 18-1",
    "lat": "37.47381252070821",
    "lng": "126.6245812800122",
    "region": "인천광역시"
  },
  {
    "name": "인일여자고등학교 운동장",
    "address": "인천광역시 중구 전동 25-4",
    "lat": "37.47756794922558",
    "lng": "126.62646097392181",
    "region": "인천광역시"
  },
  {
    "name": "연안부두 해양광장",
    "address": "인천광역시 중구 항동7가 58-1",
    "lat": "37.45514043827734",
    "lng": "126.60128411660321",
    "region": "인천광역시"
  },
  {
    "name": "인성초등학교 운동장",
    "address": "인천광역시 중구 송학동2가 18-1",
    "lat": "37.47361068227704",
    "lng": "126.62414252758019",
    "region": "인천광역시"
  },
  {
    "name": "인천신선초등학교 운동장",
    "address": "인천광역시 중구 신흥동3가 31-8",
    "lat": "37.451202133020395",
    "lng": "126.62779848411697",
    "region": "인천광역시"
  },
  {
    "name": "부개초등학교 운동장",
    "address": "인천광역시 부평구 부개동 356",
    "lat": "37.48540485264528",
    "lng": "126.73849776186611",
    "region": "인천광역시"
  },
  {
    "name": "부들공원",
    "address": "인천광역시 부평구 삼산동 541",
    "lat": "37.5157272038413",
    "lng": "126.74910532404219",
    "region": "인천광역시"
  },
  {
    "name": "갈산초등학교 운동장",
    "address": "인천광역시 부평구 갈산동 360-1",
    "lat": "37.51221435611523",
    "lng": "126.72833050536026",
    "region": "인천광역시"
  },
  {
    "name": "시냇물공원",
    "address": "인천광역시 부평구 삼산동 443-1",
    "lat": "37.513312",
    "lng": "126.736539",
    "region": "인천광역시"
  },
  {
    "name": "옥죽포어구적치장",
    "address": "인천광역시 옹진군 대청면 대청리 487-44",
    "lat": "37.84543878409281",
    "lng": "124.71011286624189",
    "region": "인천광역시"
  },
  {
    "name": "밤골공원",
    "address": "인천광역시 부평구 부평동 944",
    "lat": "37.48069931507968",
    "lng": "126.72971547343984",
    "region": "인천광역시"
  },
  {
    "name": "석정공원",
    "address": "인천광역시 부평구 십정동 445-4",
    "lat": "37.469759319476545",
    "lng": "126.69848775046674",
    "region": "인천광역시"
  },
  {
    "name": "법성공원",
    "address": "인천광역시 부평구 십정동 591",
    "lat": "37.47491876947538",
    "lng": "126.70498371747364",
    "region": "인천광역시"
  },
  {
    "name": "상꾸지공원(갈산1공원)",
    "address": "인천광역시 부평구 갈산동 361-2",
    "lat": "37.51402418682503",
    "lng": "126.72517070287435",
    "region": "인천광역시"
  },
  {
    "name": "세모공원",
    "address": "인천광역시 부평구 부개동 511",
    "lat": "37.49245700563287",
    "lng": "126.7373303587123",
    "region": "인천광역시"
  },
  {
    "name": "열우물공원",
    "address": "인천광역시 부평구 십정동 280",
    "lat": "37.475196",
    "lng": "126.695837",
    "region": "인천광역시"
  },
  {
    "name": "운동장(대청)",
    "address": "인천광역시 옹진군 대청면 대청리 1254-1",
    "lat": "37.81446476200714",
    "lng": "124.68863624764818",
    "region": "인천광역시"
  },
  {
    "name": "굴포공원",
    "address": "인천광역시 부평구 갈산동 373-1",
    "lat": "37.509218423489095",
    "lng": "126.72437533688306",
    "region": "인천광역시"
  },
  {
    "name": "후정공원",
    "address": "인천광역시 부평구 삼산동 386",
    "lat": "37.523568482555945",
    "lng": "126.74376041865108",
    "region": "인천광역시"
  },
  {
    "name": "샘터공원",
    "address": "인천광역시 부평구 십정동 420",
    "lat": "37.47087936601247",
    "lng": "126.69991361486635",
    "region": "인천광역시"
  },
  {
    "name": "갈월공원(갈산9공원)",
    "address": "인천광역시 부평구 갈산동 180-7",
    "lat": "37.514540004273606",
    "lng": "126.72246320327825",
    "region": "인천광역시"
  },
  {
    "name": "일신초등학교 운동장",
    "address": "인천광역시 부평구 일신동 112-3",
    "lat": "37.483280510322025",
    "lng": "126.74259189808653",
    "region": "인천광역시"
  },
  {
    "name": "상정초등학교 운동장",
    "address": "인천광역시 부평구 십정동 198",
    "lat": "37.47950826749269",
    "lng": "126.69858926942072",
    "region": "인천광역시"
  },
  {
    "name": "약산공원",
    "address": "인천광역시 부평구 십정동 587-5",
    "lat": "37.4733337153078",
    "lng": "126.70737125152584",
    "region": "인천광역시"
  },
  {
    "name": "심도중학교운동장",
    "address": "인천광역시 강화군 화도면 상방리 869",
    "lat": "37.63129913421069",
    "lng": "126.42130047082881",
    "region": "인천광역시"
  },
  {
    "name": "문남공원",
    "address": "인천광역시 연수구 연수동 541-2",
    "lat": "37.42158014402831",
    "lng": "126.67856454849735",
    "region": "인천광역시"
  },
  {
    "name": "센트럴 파크",
    "address": "인천광역시 연수구 송도동 24-5",
    "lat": "37.39220568246817",
    "lng": "126.63921242620313",
    "region": "인천광역시"
  },
  {
    "name": "학익초등학교운동장",
    "address": "인천광역시 미추홀구 학익동 330-1",
    "lat": "37.446357758352256",
    "lng": "126.65893883776664",
    "region": "인천광역시"
  },
  {
    "name": "인천남부초등학교운동장",
    "address": "인천광역시 미추홀구 주안동 1444",
    "lat": "37.45044365456351",
    "lng": "126.67637861522864",
    "region": "인천광역시"
  },
  {
    "name": "관교초등학교운동장",
    "address": "인천광역시 미추홀구 관교동 334",
    "lat": "37.44602115238427",
    "lng": "126.69298785489448",
    "region": "인천광역시"
  },
  {
    "name": "화도진중학교 운동장",
    "address": "인천광역시 동구 화수동 2-5",
    "lat": "37.48441187418094",
    "lng": "126.63231340469136",
    "region": "인천광역시"
  },
  {
    "name": "정석항공과학고등학교운동장",
    "address": "인천광역시 미추홀구 용현동 253",
    "lat": "37.449743785911",
    "lng": "126.65453121905193",
    "region": "인천광역시"
  },
  {
    "name": "인하대학교대운동장",
    "address": "인천광역시 미추홀구 용현동 253",
    "lat": "37.449743785911",
    "lng": "126.65453121905193",
    "region": "인천광역시"
  },
  {
    "name": "당하지구3호어린이공원",
    "address": "인천광역시 서구 당하동 1099-4",
    "lat": "37.59094727457465",
    "lng": "126.67869774063497",
    "region": "인천광역시"
  },
  {
    "name": "청천중학교 운동장",
    "address": "인천광역시 부평구 청천동 190-58",
    "lat": "37.51115284026732",
    "lng": "126.70494824696885",
    "region": "인천광역시"
  },
  {
    "name": "병방공원",
    "address": "인천광역시 계양구 병방동 367",
    "lat": "37.548280492904986",
    "lng": "126.73811616971842",
    "region": "인천광역시"
  },
  {
    "name": "계양교통공원",
    "address": "인천광역시 계양구 계산동 1085-1",
    "lat": "37.53745566510769",
    "lng": "126.74280221857295",
    "region": "인천광역시"
  },
  {
    "name": "세원고등학교 운동장",
    "address": "인천광역시 계양구 병방동 5-5",
    "lat": "37.55148345484698",
    "lng": "126.74462001346494",
    "region": "인천광역시"
  },
  {
    "name": "동춘공원",
    "address": "인천광역시 연수구 동춘동 938-2",
    "lat": "37.408615003914555",
    "lng": "126.66979012037501",
    "region": "인천광역시"
  },
  {
    "name": "해돋이공원",
    "address": "인천광역시 연수구 송도동 5-1",
    "lat": "37.38766939223731",
    "lng": "126.6544975611151",
    "region": "인천광역시"
  },
  {
    "name": "비즈니스고등학교운동장",
    "address": "인천광역시 미추홀구 도화동 43-24",
    "lat": "37.47189214987074",
    "lng": "126.66652737179409",
    "region": "인천광역시"
  },
  {
    "name": "상아초등학교 운동장",
    "address": "인천광역시 남동구 간석동 939-4",
    "lat": "37.457537140486295",
    "lng": "126.71223618061428",
    "region": "인천광역시"
  },
  {
    "name": "부평서여자중학교 운동장",
    "address": "인천광역시 부평구 십정동 186-519",
    "lat": "37.486108",
    "lng": "126.705455",
    "region": "인천광역시"
  },
  {
    "name": "간석초등학교 운동장",
    "address": "인천광역시 남동구 구월동 6-1",
    "lat": "37.458885140876774",
    "lng": "126.71607666814852",
    "region": "인천광역시"
  },
  {
    "name": "부평고등학교 운동장",
    "address": "인천광역시 부평구 부평동 10-312",
    "lat": "37.50185969362275",
    "lng": "126.72756047299632",
    "region": "인천광역시"
  },
  {
    "name": "불로초등학교 운동장",
    "address": "인천광역시 서구 불로동 799-2",
    "lat": "37.61440093619764",
    "lng": "126.68859555202002",
    "region": "인천광역시"
  },
  {
    "name": "중동공원",
    "address": "인천광역시 서구 검암동 613-5",
    "lat": "37.56490292431322",
    "lng": "126.67713753279834",
    "region": "인천광역시"
  },
  {
    "name": "이촌근린공원",
    "address": "인천광역시 계양구 효성동 산18",
    "lat": "37.536125461336745",
    "lng": "126.7119419574737",
    "region": "인천광역시"
  },
  {
    "name": "대학공원",
    "address": "인천광역시 연수구 연수동 580",
    "lat": "37.42011297562035",
    "lng": "126.68582301510288",
    "region": "인천광역시"
  },
  {
    "name": "창신초등학교 운동장",
    "address": "인천광역시 서구 원당동 809",
    "lat": "37.59872930447313",
    "lng": "126.69835234696193",
    "region": "인천광역시"
  },
  {
    "name": "서림초등학교 운동장",
    "address": "인천광역시 동구 송림동 61-11",
    "lat": "37.475253252339265",
    "lng": "126.64678310182535",
    "region": "인천광역시"
  },
  {
    "name": "안남공원",
    "address": "인천광역시 계양구 계산동 949",
    "lat": "37.54126578269184",
    "lng": "126.7272182119532",
    "region": "인천광역시"
  },
  {
    "name": "명현중학교 운동장",
    "address": "인천광역시 계양구 효성동 20",
    "lat": "37.531821981282675",
    "lng": "126.71380104389773",
    "region": "인천광역시"
  },
  {
    "name": "안산초등학교 운동장",
    "address": "인천광역시 계양구 계산동 914",
    "lat": "37.54429817131304",
    "lng": "126.73233681314626",
    "region": "인천광역시"
  },
  {
    "name": "창영초등학교 운동장",
    "address": "인천광역시 동구 창영동 30",
    "lat": "37.4715317631955",
    "lng": "126.63937285452432",
    "region": "인천광역시"
  },
  {
    "name": "서흥초등학교 운동장",
    "address": "인천광역시 동구 송림동 34-1",
    "lat": "37.47933145466109",
    "lng": "126.64467982582096",
    "region": "인천광역시"
  },
  {
    "name": "자월분교운동장",
    "address": "인천광역시 옹진군 자월면 자월리 1116-2",
    "lat": "37.253291290585835",
    "lng": "126.30622331078915",
    "region": "인천광역시"
  },
  {
    "name": "샘터공원",
    "address": "인천광역시 계양구 귤현동 509-5",
    "lat": "37.567869",
    "lng": "126.745517",
    "region": "인천광역시"
  },
  {
    "name": "서운공원",
    "address": "인천광역시 계양구 작전동 915-2",
    "lat": "37.528037853839436",
    "lng": "126.74098887817986",
    "region": "인천광역시"
  },
  {
    "name": "계산중학교 운동장",
    "address": "인천광역시 계양구 계산동 1085-4",
    "lat": "37.53422313648946",
    "lng": "126.74254973393127",
    "region": "인천광역시"
  },
  {
    "name": "효성중학교 운동장",
    "address": "인천광역시 계양구 효성동 28-43",
    "lat": "37.53738047467527",
    "lng": "126.71078737706146",
    "region": "인천광역시"
  },
  {
    "name": "선학공원",
    "address": "인천광역시 연수구 선학동 359",
    "lat": "37.42414810633498",
    "lng": "126.69921865343197",
    "region": "인천광역시"
  },
  {
    "name": "체육공원",
    "address": "인천광역시 연수구 연수동 636",
    "lat": "37.4082505897288",
    "lng": "126.68502770244882",
    "region": "인천광역시"
  },
  {
    "name": "만석초등학교 운동장",
    "address": "인천광역시 동구 화수동 26-3",
    "lat": "37.48420868476017",
    "lng": "126.62820070981972",
    "region": "인천광역시"
  },
  {
    "name": "동인천중학교 운동장",
    "address": "인천광역시 남동구 구월동 1089-1",
    "lat": "37.454542576375246",
    "lng": "126.69698281425325",
    "region": "인천광역시"
  },
  {
    "name": "만월중학교 운동장",
    "address": "인천광역시 남동구 서창동 658",
    "lat": "37.426189870498604",
    "lng": "126.75222836287737",
    "region": "인천광역시"
  },
  {
    "name": "부평북초등학교 운동장",
    "address": "인천광역시 부평구 갈산동 10-1",
    "lat": "37.52030677561647",
    "lng": "126.72952517673387",
    "region": "인천광역시"
  },
  {
    "name": "부평공업고등학교 운동장",
    "address": "인천광역시 부평구 갈산동 360-2",
    "lat": "37.51235341475046",
    "lng": "126.72693255130545",
    "region": "인천광역시"
  },
  {
    "name": "소청분교운동장",
    "address": "인천광역시 옹진군 대청면 소청리 454-1",
    "lat": "37.773740332763985",
    "lng": "124.75396066532556",
    "region": "인천광역시"
  },
  {
    "name": "석남서초등학교 운동장",
    "address": "인천광역시 서구 석남동 580",
    "lat": "37.49977336440416",
    "lng": "126.67088721398434",
    "region": "인천광역시"
  },
  {
    "name": "심곡초등학교 운동장",
    "address": "인천광역시 서구 심곡동 291-8",
    "lat": "37.5434267019498",
    "lng": "126.682563111013",
    "region": "인천광역시"
  },
  {
    "name": "서녘공원",
    "address": "인천광역시 계양구 동양동 620-2",
    "lat": "37.56086129359869",
    "lng": "126.75776252232242",
    "region": "인천광역시"
  },
  {
    "name": "작전체육공원(작전공원 2)",
    "address": "인천광역시 계양구 작전동 902",
    "lat": "37.531069163069574",
    "lng": "126.73530453548987",
    "region": "인천광역시"
  },
  {
    "name": "북인천여자중학교 운동장",
    "address": "인천광역시 계양구 효성동 551",
    "lat": "37.52669250734774",
    "lng": "126.70108243796639",
    "region": "인천광역시"
  },
  {
    "name": "서운초등학교 운동장",
    "address": "인천광역시 계양구 서운동 55-133",
    "lat": "37.526893679785665",
    "lng": "126.74445525673683",
    "region": "인천광역시"
  },
  {
    "name": "석남체육공원",
    "address": "인천광역시 서구 석남동 483",
    "lat": "37.51039326114685",
    "lng": "126.6750115539198",
    "region": "인천광역시"
  },
  {
    "name": "덕적면종합운동장",
    "address": "인천광역시 옹진군 덕적면 서포리 226-1",
    "lat": "37.22247861973689",
    "lng": "126.11814648950038",
    "region": "인천광역시"
  },
  {
    "name": "건지초등학교 운동장",
    "address": "인천광역시 서구 가좌동 200",
    "lat": "37.49497019628397",
    "lng": "126.6779714455251",
    "region": "인천광역시"
  },
  {
    "name": "낙원공원",
    "address": "인천광역시 계양구 임학동 25",
    "lat": "37.546505036305085",
    "lng": "126.73754093568361",
    "region": "인천광역시"
  },
  {
    "name": "동양택지1공원",
    "address": "인천광역시 계양구 동양동 575-1",
    "lat": "37.559162871482265",
    "lng": "126.75339915141153",
    "region": "인천광역시"
  },
  {
    "name": "동산공원",
    "address": "인천광역시 계양구 장기동 131",
    "lat": "37.579427009467686",
    "lng": "126.73064225860456",
    "region": "인천광역시"
  },
  {
    "name": "장기공원",
    "address": "인천광역시 계양구 장기동 124",
    "lat": "37.57768411731995",
    "lng": "126.73142918723703",
    "region": "인천광역시"
  },
  {
    "name": "당산초등학교 운동장",
    "address": "인천광역시 계양구 동양동 583",
    "lat": "37.55852498865046",
    "lng": "126.75934109534771",
    "region": "인천광역시"
  },
  {
    "name": "석남초등학교 운동장",
    "address": "인천광역시 서구 석남동 109-32",
    "lat": "37.51014508214996",
    "lng": "126.68029820167645",
    "region": "인천광역시"
  },
  {
    "name": "중앙공원",
    "address": "인천광역시 계양구 장기동 136",
    "lat": "37.5777087844903",
    "lng": "126.73435107253353",
    "region": "인천광역시"
  },
  {
    "name": "모탱이공원",
    "address": "인천광역시 계양구 동양동 607",
    "lat": "37.56171068189622",
    "lng": "126.75456999614319",
    "region": "인천광역시"
  },
  {
    "name": "계산1공원",
    "address": "인천광역시 계양구 계산동 944-20",
    "lat": "37.54276511565014",
    "lng": "126.72372826589428",
    "region": "인천광역시"
  },
  {
    "name": "된밭공원",
    "address": "인천광역시 계양구 작전동 88",
    "lat": "37.53274911934574",
    "lng": "126.72929649678872",
    "region": "인천광역시"
  },
  {
    "name": "계산체육공원",
    "address": "인천광역시 계양구 계산동 907-1",
    "lat": "37.54493840600702",
    "lng": "126.72958455045159",
    "region": "인천광역시"
  },
  {
    "name": "명현초등학교 운동장",
    "address": "인천광역시 계양구 효성동 15-3",
    "lat": "37.531803043006505",
    "lng": "126.71261281807953",
    "region": "인천광역시"
  },
  {
    "name": "서운중학교 운동장",
    "address": "인천광역시 계양구 서운동 55-146",
    "lat": "37.526084171455174",
    "lng": "126.74442055541026",
    "region": "인천광역시"
  },
  {
    "name": "효성남초등학교 운동장",
    "address": "인천광역시 계양구 효성동 276",
    "lat": "37.52838127835077",
    "lng": "126.71616222209016",
    "region": "인천광역시"
  },
  {
    "name": "답동종합운동장",
    "address": "인천광역시 옹진군 대청면 대청리 421-1",
    "lat": "37.832020192826135",
    "lng": "124.71695528619831",
    "region": "인천광역시"
  },
  {
    "name": "주안남초등학교운동장",
    "address": "인천광역시 미추홀구 주안동 1503",
    "lat": "37.450075921946876",
    "lng": "126.68541518889538",
    "region": "인천광역시"
  },
  {
    "name": "인천대제물포캠퍼스대운동장",
    "address": "인천광역시 미추홀구 도화동 20-6",
    "lat": "37.47492872287516",
    "lng": "126.6537231412328",
    "region": "인천광역시"
  },
  {
    "name": "불로중학교 운동장",
    "address": "인천광역시 서구 불로동 306-22",
    "lat": "37.61532357828697",
    "lng": "126.69615356932904",
    "region": "인천광역시"
  },
  {
    "name": "갈매공원",
    "address": "인천광역시 서구 공촌동 304",
    "lat": "37.55277564924825",
    "lng": "126.68481778530007",
    "region": "인천광역시"
  },
  {
    "name": "솔밭 공원",
    "address": "인천광역시 연수구 연수동 582-1",
    "lat": "37.41633948096236",
    "lng": "126.69031107360321",
    "region": "인천광역시"
  },
  {
    "name": "선인고등학교운동장",
    "address": "인천광역시 미추홀구 도화동 20-6",
    "lat": "37.47492872287516",
    "lng": "126.6537231412328",
    "region": "인천광역시"
  },
  {
    "name": "석바위근린공원",
    "address": "인천광역시 미추홀구 주안동 1578",
    "lat": "37.454022810497456",
    "lng": "126.69394328045162",
    "region": "인천광역시"
  },
  {
    "name": "가좌초등학교 운동장",
    "address": "인천광역시 서구 가좌동 30-87",
    "lat": "37.49016183051445",
    "lng": "126.68417864548056",
    "region": "인천광역시"
  },
  {
    "name": "서곶초등학교 운동장",
    "address": "인천광역시 서구 연희동 745-2",
    "lat": "37.5482317091045",
    "lng": "126.67009389660721",
    "region": "인천광역시"
  },
  {
    "name": "모도리소공원",
    "address": "인천광역시 옹진군 북도면 모도리 80-1",
    "lat": "37.53442240402357",
    "lng": "126.41123544034996",
    "region": "인천광역시"
  },
  {
    "name": "양지공원",
    "address": "인천광역시 연수구 연수동 594-1",
    "lat": "37.41513351133229",
    "lng": "126.67869338368108",
    "region": "인천광역시"
  },
  {
    "name": "인천기계공업고등학교운동장",
    "address": "인천광역시 미추홀구 주안동 638-1",
    "lat": "37.45567630838128",
    "lng": "126.66863441092194",
    "region": "인천광역시"
  },
  {
    "name": "주안북초등학교운동장",
    "address": "인천광역시 미추홀구 주안동 14-1",
    "lat": "37.46796839314852",
    "lng": "126.67814344403988",
    "region": "인천광역시"
  },
  {
    "name": "서곶중학교 운동장",
    "address": "인천광역시 서구 연희동 734-2",
    "lat": "37.549180452535126",
    "lng": "126.67117347582008",
    "region": "인천광역시"
  },
  {
    "name": "서부산단공원(주물공단공원)",
    "address": "인천광역시 서구 경서동 678",
    "lat": "37.55564381896551",
    "lng": "126.63954827567423",
    "region": "인천광역시"
  },
  {
    "name": "효성고등학교  운동장",
    "address": "인천광역시 계양구 효성동 13-1",
    "lat": "37.53181704479623",
    "lng": "126.71523156375982",
    "region": "인천광역시"
  },
  {
    "name": "간재울초등학교 운동장",
    "address": "인천광역시 서구 검암동 629-3",
    "lat": "37.56016019759363",
    "lng": "126.67276086360347",
    "region": "인천광역시"
  },
  {
    "name": "금곡초등학교 운동장",
    "address": "인천광역시 서구 금곡동 721-1",
    "lat": "37.60511843710255",
    "lng": "126.65082829777668",
    "region": "인천광역시"
  },
  {
    "name": "동산고등학교 운동장",
    "address": "인천광역시 동구 송림동 97-1",
    "lat": "37.47359664793716",
    "lng": "126.64833860234452",
    "region": "인천광역시"
  },
  {
    "name": "봉화초등학교 운동장",
    "address": "인천광역시 서구 가좌동 147",
    "lat": "37.4950916307139",
    "lng": "126.67024097257392",
    "region": "인천광역시"
  },
  {
    "name": "살나리공원",
    "address": "인천광역시 계양구 서운동 185-1",
    "lat": "37.53625992183555",
    "lng": "126.74617111626561",
    "region": "인천광역시"
  },
  {
    "name": "오조산공원",
    "address": "인천광역시 계양구 용종동 208",
    "lat": "37.54058776619429",
    "lng": "126.73809888035521",
    "region": "인천광역시"
  },
  {
    "name": "계수중학교 운동장",
    "address": "인천광역시 계양구 서운동 109-2",
    "lat": "37.53494726842629",
    "lng": "126.74491545262084",
    "region": "인천광역시"
  },
  {
    "name": "서운고등학교 운동장",
    "address": "인천광역시 계양구 서운동 55-42",
    "lat": "37.526514257372796",
    "lng": "126.74587013625215",
    "region": "인천광역시"
  },
  {
    "name": "부수지공원",
    "address": "인천광역시 연수구 동춘동 925-4",
    "lat": "37.407992672558386",
    "lng": "126.67819440365072",
    "region": "인천광역시"
  },
  {
    "name": "산성어린이공원",
    "address": "인천광역시 미추홀구 문학동 403-15",
    "lat": "37.43479176201413",
    "lng": "126.68664169705694",
    "region": "인천광역시"
  },
  {
    "name": "갈월초등학교 운동장",
    "address": "인천광역시 부평구 갈산동 373",
    "lat": "37.50984526937596",
    "lng": "126.72517448381468",
    "region": "인천광역시"
  },
  {
    "name": "영흥중운동장",
    "address": "인천광역시 옹진군 영흥면 내리 496-95",
    "lat": "37.26563223337787",
    "lng": "126.47979384564083",
    "region": "인천광역시"
  },
  {
    "name": "용일초등학교운동장",
    "address": "인천광역시 미추홀구 용현동 74-1",
    "lat": "37.452794654600474",
    "lng": "126.663498342762",
    "region": "인천광역시"
  },
  {
    "name": "학익고등학교운동장",
    "address": "인천광역시 미추홀구 학익동 688-1",
    "lat": "37.439078449259675",
    "lng": "126.663838831625",
    "region": "인천광역시"
  },
  {
    "name": "주안초등학교운동장",
    "address": "인천광역시 미추홀구 주안동 1627",
    "lat": "37.45479861160219",
    "lng": "126.6733030122394",
    "region": "인천광역시"
  },
  {
    "name": "인천고등학교운동장",
    "address": "인천광역시 미추홀구 주안동 1555",
    "lat": "37.45347591082494",
    "lng": "126.69071249099107",
    "region": "인천광역시"
  },
  {
    "name": "용마초등학교 운동장",
    "address": "인천광역시 부평구 청천동 176-4",
    "lat": "37.515551574355754",
    "lng": "126.70713311705458",
    "region": "인천광역시"
  },
  {
    "name": "작동초등학교 운동장",
    "address": "인천광역시 계양구 작전동 920",
    "lat": "37.528891369446356",
    "lng": "126.73565565398286",
    "region": "인천광역시"
  },
  {
    "name": "검암초등학교 운동장",
    "address": "인천광역시 서구 검암동 495",
    "lat": "37.567788689674806",
    "lng": "126.6789298080405",
    "region": "인천광역시"
  },
  {
    "name": "문화공원",
    "address": "인천광역시 연수구 연수동 578",
    "lat": "37.41776785933933",
    "lng": "126.68048617795098",
    "region": "인천광역시"
  },
  {
    "name": "용정초등학교운동장",
    "address": "인천광역시 미추홀구 숭의동 12-8",
    "lat": "37.45970664314022",
    "lng": "126.65755456943621",
    "region": "인천광역시"
  },
  {
    "name": "석암초등학교운동장",
    "address": "인천광역시 미추홀구 주안동 55-1",
    "lat": "37.461837570713435",
    "lng": "126.68675731151926",
    "region": "인천광역시"
  },
  {
    "name": "인화여자중학교운동장",
    "address": "인천광역시 미추홀구 도화동 20-6",
    "lat": "37.47492872287516",
    "lng": "126.6537231412328",
    "region": "인천광역시"
  },
  {
    "name": "신촌공원",
    "address": "인천광역시 서구 석남동 521-1",
    "lat": "37.50797207393271",
    "lng": "126.66973260062335",
    "region": "인천광역시"
  },
  {
    "name": "가석초등학교 운동장",
    "address": "인천광역시 서구 가정동 430-37",
    "lat": "37.51447606406952",
    "lng": "126.67963380684054",
    "region": "인천광역시"
  },
  {
    "name": "이작분교운동장",
    "address": "인천광역시 옹진군 자월면 이작리 575-3",
    "lat": "37.17660775938015",
    "lng": "126.25283913918574",
    "region": "인천광역시"
  },
  {
    "name": "이작2리목섬족구장",
    "address": "인천광역시 옹진군 자월면 이작리 231-5",
    "lat": "37.18126892686673",
    "lng": "126.22198440415717",
    "region": "인천광역시"
  },
  {
    "name": "가좌중학교 운동장",
    "address": "인천광역시 서구 가좌동 195",
    "lat": "37.4954455109289",
    "lng": "126.67966201487972",
    "region": "인천광역시"
  },
  {
    "name": "간재울공원",
    "address": "인천광역시 서구 검암동 607-2",
    "lat": "37.5641514496344",
    "lng": "126.67459351129254",
    "region": "인천광역시"
  },
  {
    "name": "방축공원",
    "address": "인천광역시 계양구 방축동 211",
    "lat": "37.55053259815936",
    "lng": "126.74032788620077",
    "region": "인천광역시"
  },
  {
    "name": "굴재공원",
    "address": "인천광역시 계양구 귤현동 499-6",
    "lat": "37.56788062463136",
    "lng": "126.74907366946195",
    "region": "인천광역시"
  },
  {
    "name": "까치공원",
    "address": "인천광역시 계양구 작전동 908",
    "lat": "37.53332321770036",
    "lng": "126.73732413997347",
    "region": "인천광역시"
  },
  {
    "name": "경인교대부설초등학교 운동장",
    "address": "인천광역시 계양구 효성동 산19-1",
    "lat": "37.537179056320355",
    "lng": "126.71223386752722",
    "region": "인천광역시"
  },
  {
    "name": "계산초등학교 운동장",
    "address": "인천광역시 계양구 계산동 737",
    "lat": "37.54446935971357",
    "lng": "126.7180285959248",
    "region": "인천광역시"
  },
  {
    "name": "계양중학교 운동장",
    "address": "인천광역시 계양구 귤현동 430",
    "lat": "37.56902795605905",
    "lng": "126.73914649362906",
    "region": "인천광역시"
  },
  {
    "name": "계양초등학교 운동장",
    "address": "인천광역시 계양구 장기동 134",
    "lat": "37.57840143345361",
    "lng": "126.73349646358716",
    "region": "인천광역시"
  },
  {
    "name": "귤현초등학교 운동장",
    "address": "인천광역시 계양구 귤현동 494",
    "lat": "37.56841133446201",
    "lng": "126.74711123541972",
    "region": "인천광역시"
  },
  {
    "name": "예일고등학교 운동장",
    "address": "인천광역시 계양구 방축동 27-1",
    "lat": "37.554002414578235",
    "lng": "126.74164568862169",
    "region": "인천광역시"
  },
  {
    "name": "효성초등학교 운동장",
    "address": "인천광역시 계양구 효성동 28-1",
    "lat": "37.53639659520937",
    "lng": "126.71066079823592",
    "region": "인천광역시"
  },
  {
    "name": "용담공원",
    "address": "인천광역시 연수구 청학동 467",
    "lat": "37.41968080573287",
    "lng": "126.67368754378464",
    "region": "인천광역시"
  },
  {
    "name": "송림초등학교 운동장",
    "address": "인천광역시 동구 송림동 235-1",
    "lat": "37.47417120434232",
    "lng": "126.63743463048384",
    "region": "인천광역시"
  },
  {
    "name": "가좌여자중학교 운동장",
    "address": "인천광역시 서구 석남동 115",
    "lat": "37.5085513641181",
    "lng": "126.67929947376246",
    "region": "인천광역시"
  },
  {
    "name": "청라1호근린공원",
    "address": "인천광역시 서구 청라동 11-29",
    "lat": "37.531706913660145",
    "lng": "126.60338212714655",
    "region": "인천광역시"
  },
  {
    "name": "공촌공원",
    "address": "인천광역시 서구 공촌동 313",
    "lat": "37.551101020585804",
    "lng": "126.68432603177398",
    "region": "인천광역시"
  },
  {
    "name": "초정공원",
    "address": "인천광역시 계양구 용종동 213-1",
    "lat": "37.54084885780512",
    "lng": "126.74149847726004",
    "region": "인천광역시"
  },
  {
    "name": "계산공업고등학교 운동장",
    "address": "인천광역시 계양구 계산동 1084-6",
    "lat": "37.53445433352863",
    "lng": "126.739424026165",
    "region": "인천광역시"
  },
  {
    "name": "계산여자고등학교 운동장",
    "address": "인천광역시 계양구 용종동 228-2",
    "lat": "37.538797611081314",
    "lng": "126.74233461004272",
    "region": "인천광역시"
  },
  {
    "name": "성지초등학교 운동장",
    "address": "인천광역시 계양구 작전동 448-2",
    "lat": "37.526182551340376",
    "lng": "126.7199647463785",
    "region": "인천광역시"
  },
  {
    "name": "작전고등학교 운동장",
    "address": "인천광역시 계양구 작전동 90",
    "lat": "37.532710389382146",
    "lng": "126.73003492089767",
    "region": "인천광역시"
  },
  {
    "name": "봉수초등학교 운동장",
    "address": "인천광역시 서구 가정동 284-438",
    "lat": "37.52593170383468",
    "lng": "126.67824503120775",
    "region": "인천광역시"
  },
  {
    "name": "덕적초중고등학교 운동장",
    "address": "인천광역시 옹진군 덕적면 진리 136",
    "lat": "37.22548882664447",
    "lng": "126.14753072327741",
    "region": "인천광역시"
  },
  {
    "name": "영흥초운동장",
    "address": "인천광역시 옹진군 영흥면 내리 237",
    "lat": "37.25422447473138",
    "lng": "126.46764980460809",
    "region": "인천광역시"
  },
  {
    "name": "십리포주차장1",
    "address": "인천광역시 옹진군 영흥면 내리 724-91",
    "lat": "37.28144787080018",
    "lng": "126.48637623664277",
    "region": "인천광역시"
  },
  {
    "name": "십리포주차장2",
    "address": "인천광역시 옹진군 영흥면 내리 724-43",
    "lat": "37.28027093526617",
    "lng": "126.48327707842189",
    "region": "인천광역시"
  },
  {
    "name": "대평공원",
    "address": "인천광역시 서구 연희동 733-3",
    "lat": "37.54906019337406",
    "lng": "126.6702080913569",
    "region": "인천광역시"
  },
  {
    "name": "가좌근린공원",
    "address": "인천광역시 서구 가좌동 219",
    "lat": "37.488301465512464",
    "lng": "126.68068885803221",
    "region": "인천광역시"
  },
  {
    "name": "동양소공원(동양공원 1)",
    "address": "인천광역시 계양구 동양동 615-3",
    "lat": "37.56161206427414",
    "lng": "126.75791552470983",
    "region": "인천광역시"
  },
  {
    "name": "계산여자중학교 운동장",
    "address": "인천광역시 계양구 계산동 292",
    "lat": "37.5358538873079",
    "lng": "126.73289970050452",
    "region": "인천광역시"
  },
  {
    "name": "계양고등학교 운동장",
    "address": "인천광역시 계양구 용종동 227-3",
    "lat": "37.541620794017525",
    "lng": "126.74386777501797",
    "region": "인천광역시"
  },
  {
    "name": "북인천중학교 운동장",
    "address": "인천광역시 계양구 계산동 765",
    "lat": "37.541955739038514",
    "lng": "126.71721590747704",
    "region": "인천광역시"
  },
  {
    "name": "남동중학교 운동장",
    "address": "인천광역시 남동구 만수동 1047",
    "lat": "37.44016499729726",
    "lng": "126.73802523785179",
    "region": "인천광역시"
  },
  {
    "name": "서창중학교 운동장",
    "address": "인천광역시 남동구 서창동 543-7",
    "lat": "37.43349990169012",
    "lng": "126.7496793164786",
    "region": "인천광역시"
  },
  {
    "name": "논곡초등학교 운동장",
    "address": "인천광역시 남동구 논현동 563-5",
    "lat": "37.410391378662354",
    "lng": "126.71029892444014",
    "region": "인천광역시"
  },
  {
    "name": "시청 본관 잔디밭(인천애뜰)",
    "address": "인천광역시 남동구 구월동 1138",
    "lat": "37.45548082578766",
    "lng": "126.70499326789754",
    "region": "인천광역시"
  },
  {
    "name": "동방초등학교 운동장",
    "address": "인천광역시 남동구 논현동 633-8",
    "lat": "37.40317000768825",
    "lng": "126.71966719510922",
    "region": "인천광역시"
  },
  {
    "name": "신촌초등학교 운동장",
    "address": "인천광역시 부평구 십정동 186-346",
    "lat": "37.48628001903778",
    "lng": "126.70676652326894",
    "region": "인천광역시"
  },
  {
    "name": "청천초등학교 운동장",
    "address": "인천광역시 부평구 청천동 34-6",
    "lat": "37.52035101293587",
    "lng": "126.70103456465593",
    "region": "인천광역시"
  },
  {
    "name": "구월서초등학교 운동장",
    "address": "인천광역시 남동구 구월동 1099",
    "lat": "37.45279211205926",
    "lng": "126.69576539706857",
    "region": "인천광역시"
  },
  {
    "name": "신월초등학교 운동장",
    "address": "인천광역시 남동구 구월동 609-1",
    "lat": "37.44751557238356",
    "lng": "126.72365093907837",
    "region": "인천광역시"
  },
  {
    "name": "인천예술고등학교 운동장",
    "address": "인천광역시 남동구 간석동 417-3",
    "lat": "37.45872195840357",
    "lng": "126.70370599159428",
    "region": "인천광역시"
  },
  {
    "name": "인동초등학교 운동장",
    "address": "인천광역시 남동구 만수동 846",
    "lat": "37.46240056331838",
    "lng": "126.72249583223463",
    "region": "인천광역시"
  },
  {
    "name": "인수초등학교 운동장",
    "address": "인천광역시 남동구 만수동 47",
    "lat": "37.453889734642836",
    "lng": "126.73604684958052",
    "region": "인천광역시"
  },
  {
    "name": "남동초등학교 운동장",
    "address": "인천광역시 남동구 만수동 1017",
    "lat": "37.44439679512215",
    "lng": "126.73675332956479",
    "region": "인천광역시"
  },
  {
    "name": "담방초등학교 운동장",
    "address": "인천광역시 남동구 만수동 1046",
    "lat": "37.44016198966875",
    "lng": "126.73675418860594",
    "region": "인천광역시"
  },
  {
    "name": "서창초등학교 운동장",
    "address": "인천광역시 남동구 서창동 560-6",
    "lat": "37.43580119559007",
    "lng": "126.75020822168567",
    "region": "인천광역시"
  },
  {
    "name": "상인천초등학교 운동장",
    "address": "인천광역시 남동구 간석동 304",
    "lat": "37.46166848223185",
    "lng": "126.70698796537158",
    "region": "인천광역시"
  },
  {
    "name": "동부초등학교 운동장",
    "address": "인천광역시 남동구 만수동 111-5",
    "lat": "37.46272555023886",
    "lng": "126.72750617522804",
    "region": "인천광역시"
  },
  {
    "name": "만수북중학교 운동장",
    "address": "인천광역시 남동구 만수동 10",
    "lat": "37.461366967227",
    "lng": "126.73887082147037",
    "region": "인천광역시"
  },
  {
    "name": "조동초등학교 운동장",
    "address": "인천광역시 남동구 만수동 11",
    "lat": "37.46071381854221",
    "lng": "126.73982833833999",
    "region": "인천광역시"
  },
  {
    "name": "도림초등학교 운동장",
    "address": "인천광역시 남동구 도림동 629-2",
    "lat": "37.4190289037478",
    "lng": "126.73174125419308",
    "region": "인천광역시"
  },
  {
    "name": "논현초등학교 운동장",
    "address": "인천광역시 남동구 논현동 602-2",
    "lat": "37.40511378875121",
    "lng": "126.73115501013864",
    "region": "인천광역시"
  },
  {
    "name": "인천동수중학교 운동장",
    "address": "인천광역시 부평구 부평동 677",
    "lat": "37.48427393433957",
    "lng": "126.71996334773132",
    "region": "인천광역시"
  },
  {
    "name": "부흥초등학교 운동장",
    "address": "인천광역시 부평구 부평동 171",
    "lat": "37.495959724063546",
    "lng": "126.73162263724645",
    "region": "인천광역시"
  },
  {
    "name": "산곡초등학교 운동장",
    "address": "인천광역시 부평구 산곡동 87-236",
    "lat": "37.50723382031135",
    "lng": "126.70184349952176",
    "region": "인천광역시"
  },
  {
    "name": "마곡초등학교 운동장",
    "address": "인천광역시 부평구 산곡동 68",
    "lat": "37.51143934364178",
    "lng": "126.69787964160088",
    "region": "인천광역시"
  },
  {
    "name": "미산초등학교 운동장",
    "address": "인천광역시 부평구 산곡동 128-60",
    "lat": "37.50451959773743",
    "lng": "126.70981304003321",
    "region": "인천광역시"
  },
  {
    "name": "동인천여자중학교 운동장",
    "address": "인천광역시 서구 가좌동 402",
    "lat": "37.48959468243743",
    "lng": "126.68819450532777",
    "region": "인천광역시"
  },
  {
    "name": "시도리운동장",
    "address": "인천광역시 옹진군 북도면 시도리 277-7",
    "lat": "37.533517824640086",
    "lng": "126.43143653869609",
    "region": "인천광역시"
  },
  {
    "name": "작전중학교 운동장",
    "address": "인천광역시 계양구 작전동 85",
    "lat": "37.533331117813596",
    "lng": "126.72961542229467",
    "region": "인천광역시"
  },
  {
    "name": "용현초등학교운동장",
    "address": "인천광역시 미추홀구 용현동 610-108",
    "lat": "37.45326390078829",
    "lng": "126.6414793329009",
    "region": "인천광역시"
  },
  {
    "name": "인천문학초등학교운동장",
    "address": "인천광역시 미추홀구 문학동 343-2",
    "lat": "37.43935284772379",
    "lng": "126.68288252529295",
    "region": "인천광역시"
  },
  {
    "name": "약산초등학교 운동장",
    "address": "인천광역시 남동구 간석동 104-1",
    "lat": "37.467450887099524",
    "lng": "126.71009458267739",
    "region": "인천광역시"
  },
  {
    "name": "석정초등학교 운동장",
    "address": "인천광역시 남동구 간석동 614-5",
    "lat": "37.46716573051754",
    "lng": "126.6962768852534",
    "region": "인천광역시"
  },
  {
    "name": "만수북초등학교 운동장",
    "address": "인천광역시 남동구 만수동 867-18",
    "lat": "37.4594536610206",
    "lng": "126.72872931653087",
    "region": "인천광역시"
  },
  {
    "name": "만수초등학교 운동장",
    "address": "인천광역시 남동구 만수동 1074",
    "lat": "37.447505818715165",
    "lng": "126.73450392510325",
    "region": "인천광역시"
  },
  {
    "name": "남촌초등학교 운동장",
    "address": "인천광역시 남동구 남촌동 556-19",
    "lat": "37.42942477118651",
    "lng": "126.71395914712343",
    "region": "인천광역시"
  },
  {
    "name": "장도초등학교  운동장",
    "address": "인천광역시 남동구 논현동 600-2",
    "lat": "37.407730513000196",
    "lng": "126.73364804917766",
    "region": "인천광역시"
  },
  {
    "name": "원적산공원",
    "address": "인천광역시 부평구 청천동 71-12",
    "lat": "37.51321384817062",
    "lng": "126.69142550012087",
    "region": "인천광역시"
  },
  {
    "name": "부평공원",
    "address": "인천광역시 부평구 부평동 299",
    "lat": "37.4893918522945",
    "lng": "126.71463723012799",
    "region": "인천광역시"
  },
  {
    "name": "백석중학교 운동장",
    "address": "인천광역시 서구 백석동 65-3",
    "lat": "37.57913892114347",
    "lng": "126.67426199408806",
    "region": "인천광역시"
  },
  {
    "name": "당하제1호공원",
    "address": "인천광역시 서구 당하동 1097-1",
    "lat": "37.59154982233569",
    "lng": "126.67379765532358",
    "region": "인천광역시"
  },
  {
    "name": "장터공원",
    "address": "인천광역시 계양구 장기동 146",
    "lat": "37.57839531434272",
    "lng": "126.73679531520854",
    "region": "인천광역시"
  },
  {
    "name": "들놀이공원",
    "address": "인천광역시 계양구 귤현동 231",
    "lat": "37.565806998341834",
    "lng": "126.75168177441591",
    "region": "인천광역시"
  },
  {
    "name": "백학초등학교운동장",
    "address": "인천광역시 미추홀구 학익동 674",
    "lat": "37.438477117630875",
    "lng": "126.67221206124695",
    "region": "인천광역시"
  },
  {
    "name": "인하사대부속중고등학교운동장",
    "address": "인천광역시 미추홀구 학익동 306-30",
    "lat": "37.446458265489866",
    "lng": "126.66252083432208",
    "region": "인천광역시"
  },
  {
    "name": "대화초등학교운동장",
    "address": "인천광역시 미추홀구 도화동 105-11",
    "lat": "37.468674257607184",
    "lng": "126.6685040173884",
    "region": "인천광역시"
  },
  {
    "name": "만월초등학교 운동장",
    "address": "인천광역시 남동구 구월동 1521",
    "lat": "37.44198800938294",
    "lng": "126.7153456462551",
    "region": "인천광역시"
  },
  {
    "name": "구월여자중학교 운동장",
    "address": "인천광역시 남동구 구월동 1409-1",
    "lat": "37.44867158733295",
    "lng": "126.70321521807391",
    "region": "인천광역시"
  },
  {
    "name": "솔안 공원",
    "address": "인천광역시 연수구 연수동 634-2",
    "lat": "37.41187480600507",
    "lng": "126.68267640333197",
    "region": "인천광역시"
  },
  {
    "name": "동막공원",
    "address": "인천광역시 연수구 동춘동 932-2",
    "lat": "37.40363016311117",
    "lng": "126.67340714160147",
    "region": "인천광역시"
  },
  {
    "name": "재능고등학교 운동장",
    "address": "인천광역시 동구 송림동 37-382",
    "lat": "37.47534964712308",
    "lng": "126.6513630043029",
    "region": "인천광역시"
  },
  {
    "name": "쑥골어린이공원",
    "address": "인천광역시 미추홀구 도화동 699-14",
    "lat": "37.47124566882273",
    "lng": "126.66969180107112",
    "region": "인천광역시"
  },
  {
    "name": "십정녹지",
    "address": "인천광역시 부평구 십정동 271",
    "lat": "37.474249",
    "lng": "126.69231",
    "region": "인천광역시"
  },
  {
    "name": "부원초등학교 운동장",
    "address": "인천광역시 부평구 부평동 65-16",
    "lat": "37.50203555715049",
    "lng": "126.71961944379112",
    "region": "인천광역시"
  },
  {
    "name": "가현초등학교 운동장",
    "address": "인천광역시 서구 신현동 305-4",
    "lat": "37.522076330331124",
    "lng": "126.66845440630021",
    "region": "인천광역시"
  },
  {
    "name": "단봉초등학교 운동장",
    "address": "인천광역시 서구 오류동 1720-1",
    "lat": "37.59810383162442",
    "lng": "126.63887580432832",
    "region": "인천광역시"
  },
  {
    "name": "삼목초장봉분교",
    "address": "인천광역시 옹진군 북도면 장봉리 1050",
    "lat": "37.53388864037505",
    "lng": "126.33728325214334",
    "region": "인천광역시"
  },
  {
    "name": "서화초등학교운동장",
    "address": "인천광역시 미추홀구 도화동 47-30",
    "lat": "37.474088425468075",
    "lng": "126.66106574757096",
    "region": "인천광역시"
  },
  {
    "name": "주안체육공원",
    "address": "인천광역시 미추홀구 주안동 281",
    "lat": "37.46315539586242",
    "lng": "126.67645528352463",
    "region": "인천광역시"
  },
  {
    "name": "신현북초등학교 운동장",
    "address": "인천광역시 서구 신현동 85-1",
    "lat": "37.51842923604968",
    "lng": "126.66625027723263",
    "region": "인천광역시"
  },
  {
    "name": "임학공원",
    "address": "인천광역시 계양구 임학동 58",
    "lat": "37.548383",
    "lng": "126.732900",
    "region": "인천광역시"
  },
  {
    "name": "개나리공원",
    "address": "인천광역시 계양구 계산동 1067-1",
    "lat": "37.53848238820624",
    "lng": "126.73264001967271",
    "region": "인천광역시"
  },
  {
    "name": "동양택지2공원",
    "address": "인천광역시 계양구 동양동 582-1",
    "lat": "37.5587111372164",
    "lng": "126.7582812797352",
    "region": "인천광역시"
  },
  {
    "name": "동양중학교 운동장",
    "address": "인천광역시 계양구 동양동 587",
    "lat": "37.56225106370221",
    "lng": "126.76083708523294",
    "region": "인천광역시"
  },
  {
    "name": "부평초등학교 운동��",
    "address": "인천광역시 계양구 계산동 943",
    "lat": "37.541964757002816",
    "lng": "126.72405819390055",
    "region": "인천광역시"
  },
  {
    "name": "안남고등학교 운동장",
    "address": "인천광역시 계양구 작전동 392-10",
    "lat": "37.52490801507136",
    "lng": "126.72681441946894",
    "region": "인천광역시"
  },
  {
    "name": "안남초등학교 운동장",
    "address": "인천광역시 계양구 계산동 34-2",
    "lat": "37.54067766758208",
    "lng": "126.73243009780408",
    "region": "인천광역시"
  },
  {
    "name": "양촌중학교 운동장",
    "address": "인천광역시 계양구 병방동 12",
    "lat": "37.55007970875248",
    "lng": "126.74502128093945",
    "region": "인천광역시"
  },
  {
    "name": "학마을공원",
    "address": "인천광역시 계양구 병방동 432-4",
    "lat": "37.54410483638647",
    "lng": "126.74172631218329",
    "region": "인천광역시"
  },
  {
    "name": "신대초등학교 운동장",
    "address": "인천광역시 계양구 용종동 228-4",
    "lat": "37.53886168855835",
    "lng": "126.7434787810172",
    "region": "인천광역시"
  },
  {
    "name": "안남중학교 운동장",
    "address": "인천광역시 계양구 계산동 58-1",
    "lat": "37.538882",
    "lng": "126.730969",
    "region": "인천광역시"
  },
  {
    "name": "고향골공원",
    "address": "인천광역시 계양구 계산동 982",
    "lat": "37.54059406832261",
    "lng": "126.71954434159868",
    "region": "인천광역시"
  },
  {
    "name": "안골공원",
    "address": "인천광역시 계양구 귤현동 486-7",
    "lat": "37.569773413756394",
    "lng": "126.74666905468594",
    "region": "인천광역시"
  },
  {
    "name": "계산고등학교 운동장",
    "address": "인천광역시 계양구 계산동 907",
    "lat": "37.54695983565998",
    "lng": "126.72970987360682",
    "region": "인천광역시"
  },
  {
    "name": "길주초등학교 운동장",
    "address": "인천광역시 계양구 용종동 227-1",
    "lat": "37.54169623874511",
    "lng": "126.7426656636139",
    "region": "인천광역시"
  },
  {
    "name": "부현동초등학교 운동장",
    "address": "인천광역시 계양구 계산동 1084-4",
    "lat": "37.534381474891276",
    "lng": "126.74059112592185",
    "region": "인천광역시"
  },
  {
    "name": "양촌초등학교 운동장",
    "address": "인천광역시 계양구 병방동 3",
    "lat": "37.550656039534054",
    "lng": "126.74409587926097",
    "region": "인천광역시"
  },
  {
    "name": "화전초등학교 운동장",
    "address": "인천광역시 계양구 작전동 140-4",
    "lat": "37.52855977191079",
    "lng": "126.73098754439096",
    "region": "인천광역시"
  },
  {
    "name": "계양초등학교 상야분교 운동장",
    "address": "인천광역시 계양구 상야동 130-1",
    "lat": "37.57908863229868",
    "lng": "126.77993440030282",
    "region": "인천광역시"
  },
  {
    "name": "부현초등학교 운동장",
    "address": "인천광역시 계양구 계산동 65-4",
    "lat": "37.536140001525226",
    "lng": "126.73147715859359",
    "region": "인천광역시"
  },
  {
    "name": "해서초등학교 운동장",
    "address": "인천광역시 계양구 계산동 783-5",
    "lat": "37.5399765303446",
    "lng": "126.71770962156998",
    "region": "인천광역시"
  },
  {
    "name": "효성서초등학교 운동장",
    "address": "인천광역시 계양구 효성동 623-26",
    "lat": "37.52830431865088",
    "lng": "126.69891787630813",
    "region": "인천광역시"
  },
  {
    "name": "발산초등학교 운동장",
    "address": "인천광역시 서구 당하동 1038-1",
    "lat": "37.590201979700986",
    "lng": "126.6989287842861",
    "region": "인천광역시"
  },
  {
    "name": "예일중학교 운동장",
    "address": "인천광역시 계양구 방축동 27-8",
    "lat": "37.55454659371364",
    "lng": "126.7406287868978",
    "region": "인천광역시"
  },
  {
    "name": "작전여자고등학교 운동장",
    "address": "인천광역시 계양구 작전동 92",
    "lat": "37.53204167319483",
    "lng": "126.73005905470728",
    "region": "인천광역시"
  },
  {
    "name": "신복공원(76호공원)",
    "address": "인천광역시 부평구 부평동 916",
    "lat": "37.50498927217111",
    "lng": "126.73200655281492",
    "region": "인천광역시"
  },
  {
    "name": "동암공원",
    "address": "인천광역시 부평구 십정동 518-4",
    "lat": "37.46983019292962",
    "lng": "126.70407117316194",
    "region": "인천광역시"
  },
  {
    "name": "달빛공원(갈산8공원)(구 대갈공원)",
    "address": "인천광역시 부평구 갈산동 398",
    "lat": "37.507703046270734",
    "lng": "126.73016821916714",
    "region": "인천광역시"
  },
  {
    "name": "나비공원",
    "address": "인천광역시 부평구 청천동 68-12",
    "lat": "37.520287",
    "lng": "126.692638",
    "region": "인천광역시"
  },
  {
    "name": "주차장(덕적)",
    "address": "인천광역시 옹진군 덕적면 북리 490-3",
    "lat": "37.263951024520075",
    "lng": "126.10289625979104",
    "region": "인천광역시"
  },
  {
    "name": "백운초등학교 운동장",
    "address": "인천광역시 부평구 십정동 541-31",
    "lat": "37.47963182513603",
    "lng": "126.70456699209406",
    "region": "인천광역시"
  },
  {
    "name": "중부동공원(부평3호공원)",
    "address": "인천광역시 부평구 부평동 104-10",
    "lat": "37.50043386439871",
    "lng": "126.73306074134796",
    "region": "인천광역시"
  },
  {
    "name": "대월공원(갈산4공원)",
    "address": "인천광역시 부평구 갈산동 362-3",
    "lat": "37.509360567327555",
    "lng": "126.72202750510033",
    "region": "인천광역시"
  },
  {
    "name": "수정공원(84호공원)",
    "address": "인천광역시 부평구 십정동 388",
    "lat": "37.47633764407897",
    "lng": "126.70172644317879",
    "region": "인천광역시"
  },
  {
    "name": "영성공원",
    "address": "인천광역시 부평구 삼산동 388-2",
    "lat": "37.521623326310454",
    "lng": "126.74042997561523",
    "region": "인천광역시"
  },
  {
    "name": "건강공원",
    "address": "인천광역시 부평구 삼산동 518",
    "lat": "37.51738394327306",
    "lng": "126.749452791761",
    "region": "인천광역시"
  },
  {
    "name": "하동공원",
    "address": "인천광역시 부평구 십정동 304-4",
    "lat": "37.47216516196671",
    "lng": "126.69773864568651",
    "region": "인천광역시"
  },
  {
    "name": "하정공원(85호공원)",
    "address": "인천광역시 부평구 십정동 398-9",
    "lat": "37.473720471320625",
    "lng": "126.70090283204065",
    "region": "인천광역시"
  },
  {
    "name": "월미공원",
    "address": "인천광역시 중구 북성동1가 125",
    "lat": "37.4713925530259",
    "lng": "126.60203576087943",
    "region": "인천광역시"
  },
  {
    "name": "송월초등학교 운동장",
    "address": "인천광역시 중구 전동 25-37",
    "lat": "37.47893006059842",
    "lng": "126.62521546172503",
    "region": "인천광역시"
  },
  {
    "name": "승봉분교운동장",
    "address": "인천광역시 옹진군 자월면 승봉리 712",
    "lat": "37.170641599300076",
    "lng": "126.29731819084087",
    "region": "인천광역시"
  },
  {
    "name": "부개서초등학교 운동장",
    "address": "인천광역시 부평구 부개동 155-1",
    "lat": "37.4895910190357",
    "lng": "126.73518505087854",
    "region": "인천광역시"
  },
  {
    "name": "상상공원(삼산2-2공원)",
    "address": "인천광역시 부평구 삼산동 388-37",
    "lat": "37.520044788741295",
    "lng": "126.74247762052376",
    "region": "인천광역시"
  },
  {
    "name": "새울공원(부개3공원)",
    "address": "인천광역시 부평구 부개동 499-3",
    "lat": "37.50340258845873",
    "lng": "126.74060365655708",
    "region": "인천광역시"
  },
  {
    "name": "영종초등학교 운동장",
    "address": "인천광역시 중구 중산동 1871-2",
    "lat": "37.4886395738294",
    "lng": "126.55315702545124",
    "region": "인천광역시"
  },
  {
    "name": "유수지공원",
    "address": "인천광역시 중구 운서동 2746-4",
    "lat": "37.49763974288972",
    "lng": "126.48042440414412",
    "region": "인천광역시"
  },
  {
    "name": "영마루공원",
    "address": "인천광역시 중구 운서동 2709-1",
    "lat": "37.496804256649156",
    "lng": "126.48783681322024",
    "region": "인천광역시"
  },
  {
    "name": "용유초등학교 운동장",
    "address": "인천광역시 중구 남북동 584-2",
    "lat": "37.44797684501742",
    "lng": "126.41240358352636",
    "region": "인천광역시"
  },
  {
    "name": "교통공원",
    "address": "인천광역시 부평구 삼산동 517",
    "lat": "37.519492955737476",
    "lng": "126.74978785411116",
    "region": "인천광역시"
  },
  {
    "name": "세영공원",
    "address": "인천광역시 부평구 부개동 500-2",
    "lat": "37.499856813858635",
    "lng": "126.73681017943483",
    "region": "인천광역시"
  },
  {
    "name": "부개공원",
    "address": "인천광역시 부평구 부개동 497-2",
    "lat": "37.50598208912559",
    "lng": "126.74124514622413",
    "region": "인천광역시"
  },
  {
    "name": "건어장",
    "address": "인천광역시 옹진군 북도면 장봉리 957-6",
    "lat": "37.54174879814031",
    "lng": "126.32922559976548",
    "region": "인천광역시"
  },
  {
    "name": "사랑샘공원",
    "address": "인천광역시 부평구 삼산동 496",
    "lat": "37.52103866865175",
    "lng": "126.73611571163138",
    "region": "인천광역시"
  },
  {
    "name": "인천부내초등학교 운동장",
    "address": "인천광역시 부평구 부개동 501-12",
    "lat": "37.49787401962021",
    "lng": "126.7416263613214",
    "region": "인천광역시"
  },
  {
    "name": "부광중학교 운동장",
    "address": "인천광역시 부평구 부개동 22-1",
    "lat": "37.50147776327431",
    "lng": "126.73682905056373",
    "region": "인천광역시"
  },
  {
    "name": "부광여자고등학교 운동장",
    "address": "인천광역시 부평구 부개동 19-6",
    "lat": "37.502159683546616",
    "lng": "126.73542695896691",
    "region": "인천광역시"
  },
  {
    "name": "부개고등학교 운동장",
    "address": "인천광역시 부평구 부개동 191-74",
    "lat": "37.492355000257334",
    "lng": "126.73840235189606",
    "region": "인천광역시"
  },
  {
    "name": "인천한길초등학교 운동장",
    "address": "인천광역시 부평구 삼산동 393-1",
    "lat": "37.51885191291581",
    "lng": "126.74563701167185",
    "region": "인천광역시"
  },
  {
    "name": "진산중학교 운동장",
    "address": "인천광역시 부평구 삼산동 454-11",
    "lat": "37.509229046202194",
    "lng": "126.74045446869796",
    "region": "인천광역시"
  },
  {
    "name": "인천영선고등학교 운동장",
    "address": "인천광역시 부평구 삼산동 448-5",
    "lat": "37.516013597862376",
    "lng": "126.74440946181558",
    "region": "인천광역시"
  },
  {
    "name": "인천갈산중학교 운동장",
    "address": "인천광역시 부평구 갈산동 372",
    "lat": "37.50975245283997",
    "lng": "126.72670702559452",
    "region": "인천광역시"
  },
  {
    "name": "인천부일초등학교 운동장",
    "address": "인천광역시 부평구 부개동 499-8",
    "lat": "37.50081906167923",
    "lng": "126.74144333595221",
    "region": "인천광역시"
  },
  {
    "name": "인천아시아드주경기장 주차장",
    "address": "인천광역시 서구 연희동 826",
    "lat": "37.54923576435463",
    "lng": "126.66841619968477",
    "region": "인천광역시"
  },
  {
    "name": "검암중학교 운동장 ",
    "address": "인천광역시 서구 검암동 497",
    "lat": "37.566731650584224",
    "lng": "126.67904458780541",
    "region": "인천광역시"
  },
  {
    "name": "영화국제관광고등학교 운동장",
    "address": "인천광역시 동구 창영동 36",
    "lat": "37.47124872171362",
    "lng": "126.63993907939972",
    "region": "인천광역시"
  },
  {
    "name": "공항합동청사 축구장",
    "address": "인천광역시 중구 운서동 2851-24",
    "lat": "37.4412373",
    "lng": "126.463405",
    "region": "인천광역시"
  },
  {
    "name": "공항합동청사 잔디광장",
    "address": "인천광역시 중구 운서동 2851-23",
    "lat": "37.443083275131066",
    "lng": "126.46206736564616",
    "region": "인천광역시"
  },
  {
    "name": "물빛근린공원",
    "address": "인천광역시 남동구 서창동 713",
    "lat": "37.42102999012493",
    "lng": "126.747705061312",
    "region": "인천광역시"
  },
  {
    "name": "오봉근린공원",
    "address": "인천광역시 남동구 도림동 631",
    "lat": "37.41845773918053",
    "lng": "126.73118193903677",
    "region": "인천광역시"
  },
  {
    "name": "인천국제공항 제1국제여객터미널 장기주차장",
    "address": "인천광역시 중구 운서동 2851",
    "lat": "37.44715914281966",
    "lng": "126.4546000957487",
    "region": "인천광역시"
  },
  {
    "name": "인천국제공항 화물터미널 남측5번주차장",
    "address": "인천광역시 중구 운서동 2842-16",
    "lat": "37.46766288213854",
    "lng": "126.47425532340985",
    "region": "인천광역시"
  },
  {
    "name": "인천국제공항 제2여객터미널 제2합동청사주차장",
    "address": "인천광역시 중구 운서동 2868",
    "lat": "37.46784170622272",
    "lng": "126.43383979797342",
    "region": "인천광역시"
  },
  {
    "name": "논현중앙근린공원",
    "address": "인천광역시 남동구 논현동 611-7",
    "lat": "37.403114527935315",
    "lng": "126.72607156720676",
    "region": "인천광역시"
  },
  {
    "name": "논현포대근린공원",
    "address": "인천광역시 남동구 논현동 578-1",
    "lat": "37.408058035151",
    "lng": "126.70903619128086",
    "region": "인천광역시"
  },
  {
    "name": "한아름근린공원",
    "address": "인천광역시 남동구 논현동 756-5",
    "lat": "37.39588883970782",
    "lng": "126.72881338426649",
    "region": "인천광역시"
  },
  {
    "name": "인천국제공항 제1국제여객터미널 서측귀빈주차장",
    "address": "인천광역시 중구 운서동 2851",
    "lat": "37.44824515160362",
    "lng": "126.45012617111188",
    "region": "인천광역시"
  },
  {
    "name": "청라중학교 운동장",
    "address": "인천광역시 서구 청라동 125-4",
    "lat": "37.53723821143654",
    "lng": "126.65384734546781",
    "region": "인천광역시"
  },
  {
    "name": "간재울중학교 운동장",
    "address": "인천광역시 서구 검암동 619-4",
    "lat": "37.56259248949765",
    "lng": "126.67675390280382",
    "region": "인천광역시"
  },
  {
    "name": "신현중학교 운동장",
    "address": "인천광역시 서구 신현동 212-11",
    "lat": "37.51960470980829",
    "lng": "126.66421022317898",
    "region": "인천광역시"
  },
  {
    "name": "청라초등학교 운동장",
    "address": "인천광역시 서구 청라동 125-6",
    "lat": "37.53731381700972",
    "lng": "126.65603992356101",
    "region": "인천광역시"
  },
  {
    "name": "마전초등학교 운동장",
    "address": "인천광역시 서구 마전동 999-12",
    "lat": "37.597362650000896",
    "lng": "126.67119648638592",
    "region": "인천광역시"
  },
  {
    "name": "왕길초등학교 운동장",
    "address": "인천광역시 서구 왕길동 649-3",
    "lat": "37.601462465001994",
    "lng": "126.65089943949836",
    "region": "인천광역시"
  },
  {
    "name": "능허대공원",
    "address": "인천광역시 연수구 옥련동 194-54",
    "lat": "37.422885",
    "lng": "126.643193",
    "region": "인천광역시"
  },
  {
    "name": "원당중학교 운동장",
    "address": "인천광역시 서구 원당동 852-2",
    "lat": "37.59629330030795",
    "lng": "126.7038073071258",
    "region": "인천광역시"
  },
  {
    "name": "청람중학교 운동장",
    "address": "인천광역시 서구 청라동 140-5",
    "lat": "37.538208719756646",
    "lng": "126.6437656422382",
    "region": "인천광역시"
  },
  {
    "name": "검단초등학교 운동장",
    "address": "인천광역시 서구 마전동 1137",
    "lat": "37.61055137884088",
    "lng": "126.6696515679359",
    "region": "인천광역시"
  },
  {
    "name": "가림고등학교 운동장",
    "address": "인천광역시 서구 가좌동 30-92",
    "lat": "37.49216436359805",
    "lng": "126.68091078391197",
    "region": "인천광역시"
  },
  {
    "name": "청라고등학교 운동장",
    "address": "인천광역시 서구 청라동 137-2",
    "lat": "37.53667661718422",
    "lng": "126.66070052108542",
    "region": "인천광역시"
  },
  {
    "name": "검단중학교 운동장",
    "address": "인천광역시 서구 마전동 908-2",
    "lat": "37.60363185271919",
    "lng": "126.65700011644456",
    "region": "인천광역시"
  },
  {
    "name": "은지초등학교 운동장",
    "address": "인천광역시 서구 검암동 536-1",
    "lat": "37.564647810520256",
    "lng": "126.68426990000876",
    "region": "인천광역시"
  },
  {
    "name": "가원초등학교 운동장",
    "address": "인천광역시 서구 가정동 605-1",
    "lat": "37.52882334789281",
    "lng": "126.66376110184915",
    "region": "인천광역시"
  },
  {
    "name": "원당초등학교 운동장",
    "address": "인천광역시 서구 당하동 1022",
    "lat": "37.59227881353832",
    "lng": "126.69168018534369",
    "region": "인천광역시"
  },
  {
    "name": "원당고등학교 운동장",
    "address": "인천광역시 서구 원당동 852-3",
    "lat": "37.596721500944305",
    "lng": "126.70458950894489",
    "region": "인천광역시"
  },
  {
    "name": "목향초등학교 운동장",
    "address": "인천광역시 서구 불로동 306-25",
    "lat": "37.61603798215421",
    "lng": "126.69501022377658",
    "region": "인천광역시"
  },
  {
    "name": "가정여자중학교 운동장",
    "address": "인천광역시 서구 가좌동 343",
    "lat": "37.48544813914839",
    "lng": "126.68464523892864",
    "region": "인천광역시"
  },
  {
    "name": "초은고등학교 운동장",
    "address": "인천광역시 서구 청라동 193-2",
    "lat": "37.52871446193647",
    "lng": "126.65694231854927",
    "region": "인천광역시"
  },
  {
    "name": "마전중학교 운동장",
    "address": "인천광역시 서구 마전동 1029-1",
    "lat": "37.598287904770615",
    "lng": "126.66535926727197",
    "region": "인천광역시"
  },
  {
    "name": "당하중학교 운동장",
    "address": "인천광역시 서구 당하동 1076-1",
    "lat": "37.59057758433019",
    "lng": "126.66994787970441",
    "region": "인천광역시"
  },
  {
    "name": "서창근린공원",
    "address": "인천광역시 남동구 서창동 558-1",
    "lat": "37.43594948726399",
    "lng": "126.74680384064168",
    "region": "인천광역시"
  },
  {
    "name": "나루소공원",
    "address": "인천광역시 남동구 논현동 751-6",
    "lat": "37.39871847228492",
    "lng": "126.73371327018805",
    "region": "인천광역시"
  },
  {
    "name": "어울근린공원",
    "address": "인천광역시 남동구 서창동 681",
    "lat": "37.42795797880785",
    "lng": "126.74552327759531",
    "region": "인천광역시"
  },
  {
    "name": "바람어린이공원",
    "address": "인천광역시 남동구 논현동 739-5",
    "lat": "37.39364096678837",
    "lng": "126.7229595746607",
    "region": "인천광역시"
  },
  {
    "name": "백령종합운동장",
    "address": "인천광역시 옹진군 백령면 남포리 1799",
    "lat": "37.93920541942896",
    "lng": "124.69984531399301",
    "region": "인천광역시"
  },
  {
    "name": "남인천여자중학교 운동장",
    "address": "인천광역시 미추홀구 관교동 335-19",
    "lat": "37.445434085766145",
    "lng": "126.69391068194759",
    "region": "인천광역시"
  },
  {
    "name": "인천전자마이스터고등학교",
    "address": "인천광역시 미추홀구 도화동 20-6",
    "lat": "37.47526188778871",
    "lng": "126.65342442113864",
    "region": "인천광역시"
  },
  {
    "name": "인천국제공항 제2여객터미널 장기주차장",
    "address": "인천광역시 중구 운서동 3233-33",
    "lat": "37.4806884",
    "lng": "126.4165462",
    "region": "인천광역시"
  },
  {
    "name": "인천국제공항 제2여객터미널 썬큰가든",
    "address": "인천광역시 중구 운서동 2868",
    "lat": "37.46832708372352",
    "lng": "126.43387198448161",
    "region": "인천광역시"
  },
  {
    "name": "승학초등학교 운동장",
    "address": "인천광역시 미추홀구 관교동 13-4",
    "lat": "37.440328930970004",
    "lng": "126.69608302775929",
    "region": "인천광역시"
  },
  {
    "name": "인천남중학교 운동장",
    "address": "인천광역시 미추홀구 숭의동 41-3",
    "lat": "37.46462106934627",
    "lng": "126.6541392239068",
    "region": "인천광역시"
  },
  {
    "name": "용현중학교 운동장",
    "address": "인천광역시 미추홀구 용현동 627-435",
    "lat": "37.44758850700733",
    "lng": "126.63907956066035",
    "region": "인천광역시"
  },
  {
    "name": "선인중학교 운동장",
    "address": "인천광역시 미추홀�� 도화동 20-6",
    "lat": "37.47156881046113",
    "lng": "126.65371926854391",
    "region": "인천광역시"
  },
  {
    "name": "인천동수초등학교 운동장",
    "address": "인천광역시 부평구 부개동 442-23",
    "lat": "37.4846",
    "lng": "126.7313",
    "region": "인천광역시"
  },
  {
    "name": "인천금마초등학교 운동장",
    "address": "인천광역시 부평구 구산동 357",
    "lat": "37.4781",
    "lng": "126.7489",
    "region": "인천광역시"
  },
  {
    "name": "인천부평남초등학교 운동장",
    "address": "인천광역시 부평구 부평동 743-1",
    "lat": "37.4882",
    "lng": "126.7206",
    "region": "인천광역시"
  },
  {
    "name": "인천영선초등학교 운동장",
    "address": "인천광역시 부평구 삼산동 438-7",
    "lat": "37.515",
    "lng": "126.7348",
    "region": "인천광역시"
  },
  {
    "name": "부광고등학교 운동장",
    "address": "인천광역시 부평구 산곡동 310-30",
    "lat": "37.488",
    "lng": "126.7034",
    "region": "인천광역시"
  },
  {
    "name": "부원중학교 운동장",
    "address": "인천광역시 부평구 부평동 70-131",
    "lat": "37.492",
    "lng": "126.7172",
    "region": "인천광역시"
  },
  {
    "name": "수도군수지원단 군용철길",
    "address": "인천광역시 부평구 부개동 372",
    "lat": "37.4861",
    "lng": "126.735",
    "region": "인천광역시"
  },
  {
    "name": "산곡여자중학교 운동장",
    "address": "인천광역시 부평구 산곡동 235-4",
    "lat": "37.497",
    "lng": "126.7053",
    "region": "인천광역시"
  },
  {
    "name": "인천굴포초등학교 운동장",
    "address": "인천광역시 부평구 삼산동 454-1",
    "lat": "37.5105",
    "lng": "126.737",
    "region": "인천광역시"
  },
  {
    "name": "인천산곡고등학교 운동장",
    "address": "인천광역시 부평구 산곡동 137-2",
    "lat": "37.5027",
    "lng": "126.7131",
    "region": "인천광역시"
  },
  {
    "name": "인천부평서초등학교 운동장",
    "address": "인천광역시 부평구 부평동 542-18",
    "lat": "37.49492097057707",
    "lng": "126.72128011420462",
    "region": "인천광역시"
  },
  {
    "name": "인천대정초등학교 운동장",
    "address": "인천광역시 부평구 산곡동 311-150",
    "lat": "37.4934",
    "lng": "126.7091",
    "region": "인천광역시"
  },
  {
    "name": "사염공원",
    "address": "인천광역시 서구 청라동 9-92",
    "lat": "37.5419402053184",
    "lng": "126.64618492126459",
    "region": "인천광역시"
  },
  {
    "name": "봉오재공원",
    "address": "인천광역시 서구 가정동 602-17",
    "lat": "37.53230968799185",
    "lng": "126.66978836059702",
    "region": "인천광역시"
  },
  {
    "name": "루원시티5호어린이공원",
    "address": "인천광역시 서구 가정동 294-58",
    "lat": "37.5255880070558",
    "lng": "126.67846798896997",
    "region": "인천광역시"
  },
  {
    "name": "신석체육공원",
    "address": "인천광역시 서구 석남동 222",
    "lat": "37.50798965032421",
    "lng": "126.6652607917785",
    "region": "인천광역시"
  },
  {
    "name": "석곶체육공원",
    "address": "인천광역시 서구 석남동 115-8",
    "lat": "37.5084492346556",
    "lng": "126.68131113052371",
    "region": "인천광역시"
  },
  {
    "name": "감중공원",
    "address": "인천광역시 서구 가좌동 157",
    "lat": "37.49288136822192",
    "lng": "126.67390823364585",
    "region": "인천광역시"
  },
  {
    "name": "가좌공원",
    "address": "인천광역시 서구 가좌동 339",
    "lat": "37.4877651388389",
    "lng": "126.68405771255676",
    "region": "인천광역시"
  },
  {
    "name": "불로지구1호어린이공원",
    "address": "인천광역시 서구 불로동 766-1",
    "lat": "37.61418042309365",
    "lng": "126.68213725090068",
    "region": "인천광역시"
  },
  {
    "name": "불로지구2호어린이공원",
    "address": "인천광역시 서구 불로동 773-8",
    "lat": "37.61373848806208",
    "lng": "126.68413281440368",
    "region": "인천광역시"
  },
  {
    "name": "불로지구5호어린이공원",
    "address": "인천광역시 서구 ��로동 802-6",
    "lat": "37.612939598842196",
    "lng": "126.68908953666488",
    "region": "인천광역시"
  },
  {
    "name": "대촌공원",
    "address": "인천광역시 서구 오류동 1722-11",
    "lat": "37.595463875285525",
    "lng": "126.63333177566027",
    "region": "인천광역시"
  },
  {
    "name": "경인교육대학교 대운동장",
    "address": "인천광역시 계양구 작전동 765-78",
    "lat": "37.53586172408635",
    "lng": "126.71811103820795",
    "region": "인천광역시"
  },
  {
    "name": "불로지구6호어린이공원",
    "address": "인천광역시 서구 불로동 64-2",
    "lat": "37.616564277327214",
    "lng": "126.68083369731382",
    "region": "인천광역시"
  },
  {
    "name": "인천동암초등학교 운동장",
    "address": "인천광역시 부평구 십정동 501",
    "lat": "37.4714",
    "lng": "126.7073",
    "region": "인천광역시"
  },
  {
    "name": "담방문화근린공원",
    "address": "인천광역시 남동구 만수동 1009",
    "lat": "37.44681287085925",
    "lng": "126.732695805765",
    "region": "인천광역시"
  },
  {
    "name": "새남촌 공영주차장",
    "address": "인천광역시 남동구 남촌동 480-1",
    "lat": "37.43273847882884",
    "lng": "126.71286235971172",
    "region": "인천광역시"
  },
  {
    "name": "논현중학교 운동장",
    "address": "인천광역시 남동구 논현동 600-3",
    "lat": "37.408624120754546",
    "lng": "126.73298521437326",
    "region": "인천광역시"
  },
  {
    "name": "중앙공원(주원지구)",
    "address": "인천광역시 남동구 간석동 404",
    "lat": "37.462817224354986",
    "lng": "126.70160998060437",
    "region": "인천광역시"
  },
  {
    "name": "인천부마초등학교 운동장",
    "address": "인천광역시 부평구 산곡동 100-87",
    "lat": "37.5061",
    "lng": "126.7059",
    "region": "인천광역시"
  },
  {
    "name": "장수초등학교 운동장",
    "address": "인천광역시 남동구 만수동 1005-2",
    "lat": "37.45025330228237",
    "lng": "126.74189210421882",
    "region": "인천광역시"
  },
  {
    "name": "부평여자고등학교 운동장",
    "address": "인천광역시 부평구 부평동 65-147",
    "lat": "37.5004",
    "lng": "126.7196",
    "region": "인천광역시"
  },
  {
    "name": "인천산곡남초등학교 운동장",
    "address": "인천광역시 부평구 산곡동 231-1",
    "lat": "37.4969",
    "lng": "126.7068",
    "region": "인천광역시"
  },
  {
    "name": "산곡남중학교 운동장",
    "address": "인천광역시 부평구 산곡동 261-4",
    "lat": "37.4995",
    "lng": "126.7076",
    "region": "인천광역시"
  },
  {
    "name": "벚나무쉼터공원",
    "address": "인천광역시 부평구 부평동 929",
    "lat": "37.5038",
    "lng": "126.7168",
    "region": "인천광역시"
  },
  {
    "name": "인천국제공항 화물터미널 북측2번주차장",
    "address": "인천광역시 중구 운서동 2859-4",
    "lat": "37.46658992865039",
    "lng": "126.46050095558148",
    "region": "인천광역시"
  },
  {
    "name": "인천국제공항 화물터미널 북측4번주차장",
    "address": "인천광역시 중구 운서동 2859-31",
    "lat": "37.47192899722885",
    "lng": "126.46735668182355",
    "region": "인천광역시"
  },
  {
    "name": "인천국제공항 화물터미널 남측2번주차장",
    "address": "인천광역시 중구 운서동 2851-20",
    "lat": "37.4622468643657",
    "lng": "126.46440625190716",
    "region": "인천광역시"
  },
  {
    "name": "인천국제공항 화물터미널 남측4번주차장",
    "address": "인천광역시 중구 운서동 2868",
    "lat": "37.467884283322576",
    "lng": "126.43296003341658",
    "region": "인천광역시"
  },
  {
    "name": "공촌초등학교 운동장",
    "address": "인천광역시 서구 공촌동 277-2",
    "lat": "37.54848618991794",
    "lng": "126.68405313695095",
    "region": "인천광역시"
  },
  {
    "name": "능내초등학교 운동장",
    "address": "인천광역시 서구 마전동 267-1",
    "lat": "37.60278457090616",
    "lng": "126.66645733997454",
    "region": "인천광역시"
  },
  {
    "name": "당하초등학교 운동장",
    "address": "인천광역시 서구 당하동 1107-1",
    "lat": "37.58969584842242",
    "lng": "126.67791370679474",
    "region": "인천광역시"
  },
  {
    "name": "초은중학교 운동장",
    "address": "인천광역시 서구 청라동 192-1",
    "lat": "37.52776624495297",
    "lng": "126.6539119266354",
    "region": "인천광역시"
  },
  {
    "name": "가현중학교 운동장",
    "address": "인천광역시 서구 신현동 305-1",
    "lat": "37.52113295458305",
    "lng": "126.66781071318603",
    "region": "인천광역시"
  },
  {
    "name": "구월근린공원",
    "address": "인천광역시 남동구 구월동 1246",
    "lat": "37.458350161008816",
    "lng": "126.7189606548957",
    "region": "인천광역시"
  },
  {
    "name": "해원고등학교 운동장",
    "address": "인천광역시 서구 청라동 103-5",
    "lat": "37.52772754831561",
    "lng": "126.62736625164155",
    "region": "인천광역시"
  },
  {
    "name": "해원중학교 운동장",
    "address": "인천광역시 서구 청라동 103-25",
    "lat": "37.52669367928871",
    "lng": "126.62779959503403",
    "region": "인천광역시"
  },
  {
    "name": "도담초등학교 운동장",
    "address": "인천광역시 서구 청라동 178-8",
    "lat": "37.52746232117328",
    "lng": "126.64359553787982",
    "region": "인천광역시"
  },
  {
    "name": "경명초등학교 운동장",
    "address": "인천광역시 서구 청라동 139-2",
    "lat": "37.53640794124221",
    "lng": "126.63699235613231",
    "region": "인천광역시"
  },
  {
    "name": "관교중학교 운동장",
    "address": "인천광역시 미추홀구 관교동 482",
    "lat": "37.44421761951954",
    "lng": "126.69170432901441",
    "region": "인천광역시"
  },
  {
    "name": "다솔어린이공원",
    "address": "인천광역시 미추홀구 주안동 1619",
    "lat": "37.46083481792662",
    "lng": "126.69499254660751",
    "region": "인천광역시"
  },
  {
    "name": "송도고등학교",
    "address": "인천광역시 연수구 옥련동 175",
    "lat": "37.42890005642145",
    "lng": "126.6445718731101",
    "region": "인천광역시"
  },
  {
    "name": "푸른송도배수지",
    "address": "인천광역시 연수구 동춘동 559-22",
    "lat": "37.400718583223714",
    "lng": "126.66334733645255",
    "region": "인천광역시"
  },
  {
    "name": "동막초등학교",
    "address": "인천광역시 연수구 동춘동 928-1",
    "lat": "37.40279627300865",
    "lng": "126.67409163280729",
    "region": "인천광역시"
  },
  {
    "name": "해양과학고등학교",
    "address": "인천광역시 연수구 옥련동 194-86",
    "lat": "37.425700234706184",
    "lng": "126.64148193077412",
    "region": "인천광역시"
  },
  {
    "name": "진주2호공영주차장",
    "address": "인천광역시 남동구 만수동 896-15",
    "lat": "37.45898514237743",
    "lng": "126.72605037689205",
    "region": "인천광역시"
  },
  {
    "name": "새골어린이공원",
    "address": "인천광역시 남동구 만수동 1005-1",
    "lat": "37.450097718437384",
    "lng": "126.73916637897489",
    "region": "인천광역시"
  },
  {
    "name": "동부초교1호어린이공원",
    "address": "인천광역시 남동구 만수동 111-185",
    "lat": "37.46221054186734",
    "lng": "126.72660776053016",
    "region": "인천광역시"
  },
  {
    "name": "새싹공원",
    "address": "인천광역시 연수구 옥련동 238-1",
    "lat": "37.42602917217428",
    "lng": "126.64930681005112",
    "region": "인천광역시"
  },
  {
    "name": "만월쉼터",
    "address": "인천광역시 남동구 만수동 산6-2",
    "lat": "37.464856991092155",
    "lng": "126.72712057828898",
    "region": "인천광역시"
  },
  {
    "name": "옥련초등학교",
    "address": "인천광역시 연수구 옥련동 232",
    "lat": "37.42498074595509",
    "lng": "126.64875965799477",
    "region": "인천광역시"
  },
  {
    "name": "용광어린이공원",
    "address": "인천광역시 남동구 간석동 33-4",
    "lat": "37.460869249808326",
    "lng": "126.71502397051974",
    "region": "인천광역시"
  },
  {
    "name": "하늘어린이공원",
    "address": "인천광역시 남동구 간석동 939-5",
    "lat": "37.45709540617549",
    "lng": "126.7100350618271",
    "region": "인천광역시"
  },
  {
    "name": "진주4호공영주차장",
    "address": "인천광역시 남동구 만수동 895-4",
    "lat": "37.45824633832658",
    "lng": "126.72594040632244",
    "region": "인천광역시"
  },
  {
    "name": "하촌어린이공원",
    "address": "인천광역시 남동구 만수동 969",
    "lat": "37.45153010310459",
    "lng": "126.73282377982481",
    "region": "인천광역시"
  },
  {
    "name": "별빛공원",
    "address": "인천광역시 연수구 선학동 210-4",
    "lat": "37.42973299355623",
    "lng": "126.69800678635829",
    "region": "인천광역시"
  },
  {
    "name": "인천하정초등학교운동장",
    "address": "인천광역시 부평구 십정동 393",
    "lat": "37.4751",
    "lng": "126.7006",
    "region": "인천광역시"
  },
  {
    "name": "논현고등학교 운동장",
    "address": "인천광역시 남동구 논현동 604-2",
    "lat": "37.40407409420096",
    "lng": "126.72743006132616",
    "region": "인천광역시"
  },
  {
    "name": "루원시티3호어린이공원",
    "address": "인천광역시 서구 가정동 284-19",
    "lat": "37.52786408710266",
    "lng": "126.67957305908573",
    "region": "인천광역시"
  },
  {
    "name": "진주체육공원",
    "address": "인천광역시 서구 가좌동 30-130",
    "lat": "37.49150231926159",
    "lng": "126.6809034347495",
    "region": "인천광역시"
  },
  {
    "name": "인천진산과학고등학교 운동장",
    "address": "인천광역시 부평구 삼산동 456-6",
    "lat": "37.5132",
    "lng": "126.7433",
    "region": "인천광역시"
  },
  {
    "name": "부영공원 족구장",
    "address": "인천광역시 부평구 산곡동 산20-6",
    "lat": "37.4973",
    "lng": "126.7105",
    "region": "인천광역시"
  },
  {
    "name": "인천진산초등학교운동장",
    "address": "인천광역시 부평구 삼산동 456-1",
    "lat": "37.513",
    "lng": "126.7415",
    "region": "인천광역시"
  },
  {
    "name": "산밑말근린공원",
    "address": "인천광역시 남동구 만수동 1124",
    "lat": "37.467605653112116",
    "lng": "126.7355072416464",
    "region": "인천광역시"
  },
  {
    "name": "부원여자중학교 운동장",
    "address": "인천광역시 부평구 부평동 70-128",
    "lat": "37.4927",
    "lng": "126.7172",
    "region": "인천광역시"
  },
  {
    "name": "송도초등학교",
    "address": "인천광역시 연수구 옥련동 314-2",
    "lat": "37.42644571331947",
    "lng": "126.65833393371479",
    "region": "인천광역시"
  },
  {
    "name": "송도누리공원",
    "address": "인천광역시 연수구 송도동 190-1",
    "lat": "37.378653920930134",
    "lng": "126.65534839302953",
    "region": "인천광역시"
  },
  {
    "name": "아시아드 선수촌 근린공원",
    "address": "인천광역시 남동구 구월동 1531",
    "lat": "37.44157241800754",
    "lng": "126.71139575965404",
    "region": "인천광역시"
  },
  {
    "name": "진주3호공영주차장",
    "address": "인천광역시 남동구 만수동 883-23",
    "lat": "37.45584251325612",
    "lng": "126.73021584749216",
    "region": "인천광역시"
  },
  {
    "name": "뗏마루어린이공원",
    "address": "인천광역시 남동구 만수동 881",
    "lat": "37.45623215533918",
    "lng": "126.72875940799709",
    "region": "인천광역시"
  },
  {
    "name": "새말소공원",
    "address": "인천광역시 남동구 간석동 1-873",
    "lat": "37.46620672724414",
    "lng": "126.72077178955074",
    "region": "인천광역시"
  },
  {
    "name": "산호2호 공영주차장",
    "address": "인천광역시 남동구 만수동 844-184",
    "lat": "37.462851502156866",
    "lng": "126.72361493110651",
    "region": "인천광역시"
  },
  {
    "name": "만수천어린이공원",
    "address": "인천광역시 남동구 만수동 929",
    "lat": "37.45067570857635",
    "lng": "126.72675863478524",
    "region": "인천광역시"
  },
  {
    "name": "동부초교3호어린이공원",
    "address": "인천광역시 남동구 만수동 111-218",
    "lat": "37.460545762098604",
    "lng": "126.72658413648601",
    "region": "인천광역시"
  },
  {
    "name": "동부초교2호어린이공원",
    "address": "인천광역시 남동구 만수동 111-452",
    "lat": "37.46286853413653",
    "lng": "126.7269730567932",
    "region": "인천광역시"
  },
  {
    "name": "인화여자고등학교 운동장",
    "address": "인천광역시 미추홀구 도화동 193-12",
    "lat": "37.4692",
    "lng": "126.6528",
    "region": "인천광역시"
  },
  {
    "name": "가원숲공원",
    "address": "인천광역시 서구 원창동 512",
    "lat": "37.52310338434044",
    "lng": "126.66043281555255",
    "region": "인천광역시"
  },
  {
    "name": "인천여자중학교",
    "address": "인천광역시 연수구 동춘동 932-1",
    "lat": "37.404178852112",
    "lng": "126.67403798853275",
    "region": "인천광역시"
  },
  {
    "name": "동암중학교 운동장",
    "address": "인천광역시 부평구 십정동 589",
    "lat": "37.47374266102085",
    "lng": "126.70585870742734",
    "region": "인천광역시"
  },
  {
    "name": "부영공원",
    "address": "인천광역시 부평구 산곡동 산20",
    "lat": "37.4954",
    "lng": "126.7108",
    "region": "인천광역시"
  },
  {
    "name": "인평자동차고등학교 운동장",
    "address": "인천광역시 부평구 산곡동 371-146",
    "lat": "37.4925",
    "lng": "126.7022",
    "region": "인천광역시"
  },
  {
    "name": "인천예림학교 운동장",
    "address": "인천광역시 부평구 부평동 633",
    "lat": "37.4862",
    "lng": "126.7283",
    "region": "인천광역시"
  },
  {
    "name": "인천부곡초등학교 운동장",
    "address": "인천광역시 부평구 산곡동 148-5",
    "lat": "37.5031",
    "lng": "126.7069",
    "region": "인천광역시"
  },
  {
    "name": "인천산곡북초등학교 운동장",
    "address": "인천광역시 부평구 산곡동 39-1",
    "lat": "37.5108",
    "lng": "126.702",
    "region": "인천광역시"
  },
  {
    "name": "인천삼산중학교 운동장",
    "address": "인천광역시 부평구 삼산동 445-1",
    "lat": "37.5161",
    "lng": "126.736",
    "region": "인천광역시"
  },
  {
    "name": "동수녹지",
    "address": "인천광역시 부평구 부평동 634-5",
    "lat": "37.4864",
    "lng": "126.7296",
    "region": "인천광역시"
  },
  {
    "name": "연일공원",
    "address": "인천광역시 서구 청라동 116-1",
    "lat": "37.54074071222956",
    "lng": "126.65571749210028",
    "region": "인천광역시"
  },
  {
    "name": "갯들공원",
    "address": "인천광역시 서구 청라동 172-8",
    "lat": "37.52763010076624",
    "lng": "126.66188120842337",
    "region": "인천광역시"
  },
  {
    "name": "한가람어린이공원",
    "address": "인천광역시 부평구 부평동 962",
    "lat": "37.49222207849638",
    "lng": "126.73507381684179",
    "region": "인천광역시"
  },
  {
    "name": "희망공원",
    "address": "인천광역시 부평구 부평동 768-350",
    "lat": "37.4826",
    "lng": "126.7124",
    "region": "인천광역시"
  },
  {
    "name": "쇄판어린이공원 ",
    "address": "인천광역시 남동구 만수동 845-1",
    "lat": "37.46233616523245",
    "lng": "126.72319449916795",
    "region": "인천광역시"
  },
  {
    "name": "서인공원",
    "address": "인천광역시 서구 가정동 554",
    "lat": "37.520656971192864",
    "lng": "126.68120384215817",
    "region": "인천광역시"
  },
  {
    "name": "남동문화근린공원",
    "address": "인천광역시 남동구 구월동 620-13",
    "lat": "37.44794265616167",
    "lng": "126.72658004307193",
    "region": "인천광역시"
  },
  {
    "name": "석촌근린공원",
    "address": "인천광역시 남동구 간석동 943",
    "lat": "37.471686320566334",
    "lng": "126.71029508113855",
    "region": "인천광역시"
  },
  {
    "name": "만수어린이공원",
    "address": "인천광역시 남동구 만수동 922",
    "lat": "37.45370725313979",
    "lng": "126.72766815380078",
    "region": "인천광역시"
  },
  {
    "name": "상인천중학교 운동장",
    "address": "인천광역시 남동구 간석동 11-1",
    "lat": "37.46161795274949",
    "lng": "126.71702905045494",
    "region": "인천광역시"
  },
  {
    "name": "까투렴공원",
    "address": "인천광역시 서구 청라동 8-129",
    "lat": "37.544515912292844",
    "lng": "126.6216643436584",
    "region": "인천광역시"
  },
  {
    "name": "소래초등학교 운동장",
    "address": "인천광역시 남동구 논현동 109-85",
    "lat": "37.40438659188103",
    "lng": "126.73457665837336",
    "region": "인천광역시"
  },
  {
    "name": "은봉초등학교 운동장",
    "address": "인천광역시 남동구 논현동 605-1",
    "lat": "37.40532881173047",
    "lng": "126.72520084746638",
    "region": "인천광역시"
  },
  {
    "name": "만성중학교 운동장",
    "address": "인천광역시 남동구 만수동 1005-6",
    "lat": "37.44873856045002",
    "lng": "126.73734231399897",
    "region": "인천광역시"
  },
  {
    "name": "희망의 숲",
    "address": "인천광역시 남동구 간석동 366",
    "lat": "37.46503327218135",
    "lng": "126.70152653406629",
    "region": "인천광역시"
  },
  {
    "name": "석남녹지도시숲",
    "address": "인천광역시 서구 석남동 223-494",
    "lat": "37.5026106011848",
    "lng": "126.66725635528748",
    "region": "인천광역시"
  },
  {
    "name": "불로지구3호어린이공원",
    "address": "인천광역시 서구 불로동 785-10",
    "lat": "37.61208970727724",
    "lng": "126.68533444404393",
    "region": "인천광역시"
  },
  {
    "name": "송현초등학교 운동장",
    "address": "인천광역시 동구 송현동 66-21",
    "lat": "37.481618389929494",
    "lng": "126.63326203823081",
    "region": "인천광역시"
  },
  {
    "name": "미단시티8호근린공원",
    "address": "인천광역시 중구 운북동 1265-5",
    "lat": "37.529136109054754",
    "lng": "126.51444554328909",
    "region": "인천광역시"
  },
  {
    "name": "청일초등학교 운동장",
    "address": "인천광역시 서구 청라동 173-2",
    "lat": "37.52880524399607",
    "lng": "126.63706703104991",
    "region": "인천광역시"
  },
  {
    "name": "해원초등학교 운동장",
    "address": "인천광역시 서구 청라동 103-3",
    "lat": "37.52731536388553",
    "lng": "126.62572975699636",
    "region": "인천광역시"
  },
  {
    "name": "청람초등학교 운동장",
    "address": "인천광역시 서구 청라동 149-1",
    "lat": "37.538233064926885",
    "lng": "126.64494827523636",
    "region": "인천광역시"
  },
  {
    "name": "경서초등학교 운동장",
    "address": "인천광역시 서구 경서동 741",
    "lat": "37.55623237890773",
    "lng": "126.65155956469945",
    "region": "인천광역시"
  },
  {
    "name": "동명초등학교 운동장",
    "address": "인천광역시 동구 송림동 114",
    "lat": "37.474431087926526",
    "lng": "126.6425287069402",
    "region": "인천광역시"
  },
  {
    "name": "초은초등학교 운동장",
    "address": "인천광역시 서구 청라동 192-3",
    "lat": "37.527744414019296",
    "lng": "126.65587800442844",
    "region": "인천광역시"
  },
  {
    "name": "검단고등학교 운동장",
    "address": "인천광역시 서구 마전동 249-16",
    "lat": "37.604000164221254",
    "lng": "126.66512533082353",
    "region": "인천광역시"
  },
  {
    "name": "소양초등학교 운동장",
    "address": "인천광역시 계양구 박촌동 71-2",
    "lat": "37.555758504989896",
    "lng": "126.74231261014938",
    "region": "인천광역시"
  },
  {
    "name": "인천경연초중학교 운동장",
    "address": "인천광역시 서구 청라동 84-2",
    "lat": "37.538346643753584",
    "lng": "126.62540180051849",
    "region": "인천광역시"
  },
  {
    "name": "용현여자중학교 운동장",
    "address": "인천광역시 미추홀구 용현동 627-38",
    "lat": "37.448871",
    "lng": "126.640424",
    "region": "인천광역시"
  },
  {
    "name": "학산초등학교 운동장",
    "address": "인천광역시 미추홀구 학익동 721-7",
    "lat": "37.439954807719495",
    "lng": "126.65832145732942",
    "region": "인천광역시"
  },
  {
    "name": "제물포여자중학교 운동장",
    "address": "인천광역시 미추홀구 주안동 1529",
    "lat": "37.44922257507714",
    "lng": "126.68820111399138",
    "region": "인천광역시"
  },
  {
    "name": "관교여자중학교 운동장",
    "address": "인천광역시 미추홀구 관교동 512",
    "lat": "37.445028154046206",
    "lng": "126.68889588342851",
    "region": "인천광역시"
  },
  {
    "name": "인주초등학교 운동장",
    "address": "인천광역시 미추홀구 학익동 40",
    "lat": "37.442390353527614",
    "lng": "126.67364441009308",
    "region": "인천광역시"
  },
  {
    "name": "경원초등학교 운동장",
    "address": "인천광역시 미추홀구 주안동 1620",
    "lat": "37.46126708605888",
    "lng": "126.69558240427651",
    "region": "인천광역시"
  },
  {
    "name": "문학정보고등학교 운동장",
    "address": "인천광역시 미추홀구 문학동 394-4",
    "lat": "37.43531972375563",
    "lng": "126.68649529896399",
    "region": "인천광역시"
  },
  {
    "name": "용학초등학교 운동장",
    "address": "인천광역시 미추홀구 용현동 664-4",
    "lat": "37.4472",
    "lng": "126.6432",
    "region": "인천광역시"
  },
  {
    "name": "연학초등학교 운동장",
    "address": "인천광역시 미추홀구 학익동 29-2",
    "lat": "37.44319299053505",
    "lng": "126.67235647237396",
    "region": "인천광역시"
  },
  {
    "name": "인항고등학교 운동장",
    "address": "인천광역시 미추홀구 용현동 627-456",
    "lat": "37.446398",
    "lng": "126.640705",
    "region": "인천광역시"
  },
  {
    "name": "숭의초등학교 운동장",
    "address": "인천광역시 미추홀구 숭의동 42-2",
    "lat": "37.46354813046491",
    "lng": "126.65478719144912",
    "region": "인천광역시"
  }
]