[
  {
    "name": "남주중학교 운동장",
    "address": "제주특별자치도 서귀포시 동홍동 1907",
    "lat": 33.275605608482095,
    "lng": 126.56451113694673,
    "region": "제주특별자치도"
  },
  {
    "name": "삼성여고 운동장",
    "address": "제주특별자치도 서귀포시 토평동 893",
    "lat": 33.2545487680816,
    "lng": 126.58407992763685,
    "region": "제주특별자치도"
  },
  {
    "name": "서귀중앙초등학교 운동장",
    "address": "제주특별자치도 서귀포시 서귀동 283-3",
    "lat": 33.25282370731282,
    "lng": 126.5637568277886,
    "region": "제주특별자치도"
  },
  {
    "name": "온평초등학교 운동장",
    "address": "제주특별자치도 서귀포시 성산읍 온평리 1577",
    "lat": 33.408162979623725,
    "lng": 126.89671096400507,
    "region": "제주특별자치도"
  },
  {
    "name": "우도축구장",
    "address": "제주특별자치도 제주시 우도면 연평리 635-3",
    "lat": 33.509892815373796,
    "lng": 126.96183456795595,
    "region": "제주특별자치도"
  },
  {
    "name": "광양초등학교 운동장",
    "address": "제주특별자치도 제주시 이도일동 1257-1",
    "lat": 33.502395200637146,
    "lng": 126.52974078919956,
    "region": "제주특별자치도"
  },
  {
    "name": "제주중앙초등학교 운동장",
    "address": "제주특별자치도 제주시 삼도일동 503",
    "lat": 33.50264053772485,
    "lng": 126.51566205970269,
    "region": "제주특별자치도"
  },
  {
    "name": "화북초등학교 운동장",
    "address": "제주특별자치도 제주시 화북일동 3994",
    "lat": 33.518455776251635,
    "lng": 126.56193755329917,
    "region": "제주특별자치도"
  },
  {
    "name": "아라초등학교 운동장",
    "address": "제주특별자치도 제주시 아라일동 6101",
    "lat": 33.47657780405348,
    "lng": 126.5435299241236,
    "region": "제주특별자치도"
  },
  {
    "name": "온평리 마을 운동장",
    "address": "제주특별자치도 서귀포시 성산읍 온평리 1268-2",
    "lat": 33.393747903020746,
    "lng": 126.89861873731753,
    "region": "제주특별자치도"
  },
  {
    "name": "조천초등학교 운동장",
    "address": "제주특별자치도 제주시 조천읍 조천리 3140",
    "lat": 33.535472084304885,
    "lng": 126.63381822438258,
    "region": "제주특별자치도"
  },
  {
    "name": "색달체육공원",
    "address": "제주특별자치도 서귀포시 색달동 1611-1",
    "lat": 33.26507526600682,
    "lng": 126.41434885010027,
    "region": "제주특별자치도"
  },
  {
    "name": "신창초등학교 운동장",
    "address": "제주특별자치도 제주시 한경면 신창리 422",
    "lat": 33.34898420299742,
    "lng": 126.18415486694873,
    "region": "제주특별자치도"
  },
  {
    "name": "성산국민체육센터",
    "address": "제주특별자치도 서귀포시 성산읍 오조리 1365-1",
    "lat": 33.46684600751254,
    "lng": 126.90610170364377,
    "region": "제주특별자치도"
  },
  {
    "name": "외도초등학교 운동장",
    "address": "제주특별자치도 제주시 외도이동 235-1",
    "lat": 33.493096175284926,
    "lng": 126.43440964458108,
    "region": "제주특별자치도"
  },
  {
    "name": "수산체육공원",
    "address": "제주특별자치도 서귀포시 성산읍 수산리 3105-1",
    "lat": 33.445839934658665,
    "lng": 126.85447722673415,
    "region": "제주특별자치도"
  },
  {
    "name": "삼달리 마을 운동장",
    "address": "제주특별자치도 서귀포시 성산읍 삼달리 1882-1",
    "lat": 33.38805978191169,
    "lng": 126.82585929910695,
    "region": "제주특별자치도"
  },
  {
    "name": "한림종합운동장",
    "address": "제주특별자치도 제주시 한림읍 한림리 887-2",
    "lat": 33.40957231026137,
    "lng": 126.26868162906848,
    "region": "제주특별자치도"
  },
  {
    "name": "추자초등학교 운동장",
    "address": "제주특별자치도 제주시 추자면 대서리 31",
    "lat": 33.96394113763168,
    "lng": 126.29555313506185,
    "region": "제주특별자치도"
  },
  {
    "name": "제주북초등학교 운동장",
    "address": "제주특별자치도 제주시 삼도이동 17-3",
    "lat": 33.51518644962882,
    "lng": 126.52218419592775,
    "region": "제주특별자치도"
  },
  {
    "name": "제주종합경기장 주경기장 ",
    "address": "제주특별자치도 제주시 오라일동 1165",
    "lat": 33.497778893646874,
    "lng": 126.5144890611787,
    "region": "제주특별자치도"
  },
  {
    "name": "애월중학교 운동장",
    "address": "제주특별자치도 제주시 애월읍 애월리 419",
    "lat": 33.464881449423835,
    "lng": 126.3243520259854,
    "region": "제주특별자치도"
  },
  {
    "name": "세화중학교 운동장",
    "address": "제주특별자치도 제주시 구좌읍 세화리 1198",
    "lat": 33.52124683793796,
    "lng": 126.85397872572355,
    "region": "제주특별자치도"
  },
  {
    "name": "제주서초등학교 운동장",
    "address": "제주특별자치도 제주시 용담이동 603-3",
    "lat": 33.511904237968245,
    "lng": 126.510456555211,
    "region": "제주특별자치도"
  },
  {
    "name": "제주중학교 운동장",
    "address": "제주특별자치도 제주시 용담일동 298-1",
    "lat": 33.51150351975947,
    "lng": 126.515913639469,
    "region": "제주특별자치도"
  },
  {
    "name": "노형초등학교 운동장",
    "address": "제주특별자치도 제주시 노형동 2610-1",
    "lat": 33.48474853085729,
    "lng": 126.47615635053972,
    "region": "제주특별자치도"
  },
  {
    "name": "도리초등학교 운동장",
    "address": "제주특별자치도 제주시 도두일동 2430-1",
    "lat": 33.50174835052793,
    "lng": 126.46471601415924,
    "region": "제주특별자치도"
  },
  {
    "name": "삼다체육공원",
    "address": "제주특별자치도 서귀포시 서호동 1602",
    "lat": 33.252038715036214,
    "lng": 126.51667714671612,
    "region": "제주특별자치도"
  },
  {
    "name": "서귀포여자고등학교 운동장",
    "address": "제주특별자치도 서귀포시 호근동 1561",
    "lat": 33.24370091953228,
    "lng": 126.53156507194544,
    "region": "제주특별자치도"
  },
  {
    "name": "서귀포중학교 운동장",
    "address": "제주특별자치도 서귀포시 서귀동 231",
    "lat": 33.2475113527029,
    "lng": 126.57021187272582,
    "region": "제주특별자치도"
  },
  {
    "name": "강정초등학교 운동장",
    "address": "제주특별자치도 서귀포시 강정동 4550",
    "lat": 33.234772038018,
    "lng": 126.47893623146149,
    "region": "제주특별자치도"
  },
  {
    "name": "도순초등학교 운동장",
    "address": "제주특별자치도 서귀포시 도순동 353-1",
    "lat": 33.247109561829305,
    "lng": 126.47730907933796,
    "region": "제주특별자치도"
  },
  {
    "name": "신산초등학교 운동장",
    "address": "제주특별자치도 서귀포시 성산읍 신산리 963",
    "lat": 33.38164208787841,
    "lng": 126.87561286636578,
    "region": "제주특별자치도"
  },
  {
    "name": "수산초등학교 운동장",
    "address": "제주특별자치도 서귀포시 성산읍 수산리 580",
    "lat": 33.44730066628371,
    "lng": 126.88579763499305,
    "region": "제주특별자치도"
  },
  {
    "name": "동남초등학교 운동장",
    "address": "제주특별자치도 서귀포시 성산읍 고성리 1128-1",
    "lat": 33.448798689755506,
    "lng": 126.91380692336773,
    "region": "제주특별자치도"
  },
  {
    "name": "동홍초등학교 운동장",
    "address": "제주특별자치도 서귀포시 동홍동 614-5",
    "lat": 33.26023956314432,
    "lng": 126.57016953500535,
    "region": "제주특별자치도"
  },
  {
    "name": "성산초등학교 운동장",
    "address": "제주특별자치도 서귀포시 성산읍 성산리 333",
    "lat": 33.46795439873369,
    "lng": 126.9317386720321,
    "region": "제주특별자치도"
  },
  {
    "name": "칠십리시공원",
    "address": "제주특별자치도 서귀포시 서홍동 572",
    "lat": 33.24713198663704,
    "lng": 126.55348188383476,
    "region": "제주특별자치도"
  },
  {
    "name": "법환초등학교 운동장",
    "address": "제주특별자치도 서귀포시 법환동 1244-1",
    "lat": 33.23767590214536,
    "lng": 126.50889471516815,
    "region": "제주특별자치도"
  },
  {
    "name": "효돈초등학교 운동장",
    "address": "제주특별자치도 서귀포시 신효동 123-3",
    "lat": 33.2644209798007,
    "lng": 126.61612102282857,
    "region": "제주특별자치도"
  },
  {
    "name": "신산중학교 운동장",
    "address": "제주특별자치도 서귀포시 성산읍 신산리 963",
    "lat": 33.38164208787841,
    "lng": 126.87561286636578,
    "region": "제주특별자치도"
  },
  {
    "name": "서귀포고등학교 운동장",
    "address": "제주특별자치도 서귀포시 동홍동 1460-6",
    "lat": 33.257316845343844,
    "lng": 126.56241585097303,
    "region": "제주특별자치도"
  },
  {
    "name": "성산중학교 운동장",
    "address": "제주특별자치도 서귀포시 성산읍 고성리 1027",
    "lat": 33.44354914419996,
    "lng": 126.91043098020887,
    "region": "제주특별자치도"
  },
  {
    "name": "성산고등학교 운동장",
    "address": "제주특별자치도 서귀포시 성산읍 오조리 360",
    "lat": 33.4696469544857,
    "lng": 126.91541232711324,
    "region": "제주특별자치도"
  },
  {
    "name": "걸매생태공원",
    "address": "제주특별자치도 서귀포시 서홍동 470",
    "lat": 33.249806764784275,
    "lng": 126.5548778834611,
    "region": "제주특별자치도"
  },
  {
    "name": "중문중학교 운동장",
    "address": "제주특별자치도 서귀포시 중문동 1935",
    "lat": 33.25058136491867,
    "lng": 126.42904408023733,
    "region": "제주특별자치도"
  },
  {
    "name": "서귀포산업과학고 운동장",
    "address": "제주특별자치도 서귀포시 상효동 1237-1",
    "lat": 33.29780381249555,
    "lng": 126.59593893458144,
    "region": "제주특별자치도"
  },
  {
    "name": "시흥초등학교 운동장",
    "address": "제주특별자치도 서귀포시 성산읍 시흥리 1214-4",
    "lat": 33.47918088843657,
    "lng": 126.89543914544305,
    "region": "제주특별자치도"
  },
  {
    "name": "새서귀초등학교 운동장",
    "address": "제주특별자치도 서귀포시 서호동 1451",
    "lat": 33.25640914630389,
    "lng": 126.51317910472375,
    "region": "제주특별자치도"
  },
  {
    "name": "남주고등학교 운동장",
    "address": "제주특별자치도 서귀포시 동홍동 1907",
    "lat": 33.275605608482095,
    "lng": 126.56451113694673,
    "region": "제주특별자치도"
  },
  {
    "name": "토평초등학교 운동장",
    "address": "제주특별자치도 서귀포시 토평동 1210-1",
    "lat": 33.26588570955642,
    "lng": 126.58960040546086,
    "region": "제주특별자치도"
  },
  {
    "name": "효돈중학교 운동장",
    "address": "제주특별자치도 서귀포시 하효동 15-1",
    "lat": 33.26531452337017,
    "lng": 126.62063564069582,
    "region": "제주특별자치도"
  },
  {
    "name": "풍천초등학교 운동장",
    "address": "제주특별자치도 서귀포시 성산읍 신천리 603",
    "lat": 33.34883512122376,
    "lng": 126.85015941742276,
    "region": "제주특별자치도"
  },
  {
    "name": "신풍레포츠공원",
    "address": "제주특별자치도 서귀포시 성산읍 신풍리 1567",
    "lat": 33.37894021728454,
    "lng": 126.81606138340719,
    "region": "제주특별자치도"
  },
  {
    "name": "하원초등학교 운동장",
    "address": "제주특별자치도 서귀포시 하원동 323-1",
    "lat": 33.25284261448241,
    "lng": 126.45958536377786,
    "region": "제주특별자치도"
  },
  {
    "name": "귀덕초등학교 운동장",
    "address": "제주특별자치도 제주시 한림읍 귀덕리 1118",
    "lat": 33.442028444180266,
    "lng": 126.29343152046165,
    "region": "제주특별자치도"
  },
  {
    "name": "구좌중앙초등학교 운동장",
    "address": "제주특별자치도 제주시 구좌읍 월정리 100",
    "lat": 33.551485554776114,
    "lng": 126.79782403323244,
    "region": "제주특별자치도"
  },
  {
    "name": "하도초등학교 운동장",
    "address": "제주특별자치도 제주시 구좌읍 하도리 2315",
    "lat": 33.51740387261604,
    "lng": 126.87842887421995,
    "region": "제주특별자치도"
  },
  {
    "name": "대흘초등학교 운동장",
    "address": "제주특별자치도 제주시 조천읍 대흘리 1672-1",
    "lat": 33.49943989674331,
    "lng": 126.65775364827967,
    "region": "제주특별자치도"
  },
  {
    "name": "예래초등학교 운동장",
    "address": "제주특별자치도 서귀포시 상예동 1152-3",
    "lat": 33.24603380398945,
    "lng": 126.39146007992699,
    "region": "제주특별자치도"
  },
  {
    "name": "중문초등학교 운동장",
    "address": "제주특별자치도 서귀포시 중문동 1984",
    "lat": 33.252418150491174,
    "lng": 126.4294421665951,
    "region": "제주특별자치도"
  },
  {
    "name": "강정체육공원",
    "address": "제주특별자치도 서귀포시 강정동 2667",
    "lat": 33.234494865523935,
    "lng": 126.48620995014264,
    "region": "제주특별자치도"
  },
  {
    "name": "서귀중앙여자중학교 운동장",
    "address": "제주특별자치도 서귀포시 동홍동 1488-1",
    "lat": 33.254711433454666,
    "lng": 126.56278970431018,
    "region": "제주특별자치도"
  },
  {
    "name": "신산공원",
    "address": "제주특별자치도 제주시 일도이동 879",
    "lat": 33.50590956177109,
    "lng": 126.53490259255689,
    "region": "제주특별자치도"
  },
  {
    "name": "제주제일중학교 운동장",
    "address": "제주특별자치도 제주시 이도이동 539-4",
    "lat": 33.494687289771186,
    "lng": 126.53913244783318,
    "region": "제주특별자치도"
  },
  {
    "name": "남녕고등학교 운동장",
    "address": "제주특별자치도 제주시 연동 2288",
    "lat": 33.48953671664388,
    "lng": 126.48305025271596,
    "region": "제주특별자치도"
  },
  {
    "name": "봉개초등학교 운동장",
    "address": "제주특별자치도 제주시 봉개동 1930-2",
    "lat": 33.49038768483041,
    "lng": 126.59371079750164,
    "region": "제주특별자치도"
  },
  {
    "name": "제주동초등학교 운동장",
    "address": "제주특별자치도 제주시 건입동 1105",
    "lat": 33.51406673328105,
    "lng": 126.53352804704981,
    "region": "제주특별자치도"
  },
  {
    "name": "대정서초등학교 운동장",
    "address": "제주특별자치도 서귀포시 대정읍 동일리 2659-2",
    "lat": 33.232060318365015,
    "lng": 126.23917579651224,
    "region": "제주특별자치도"
  },
  {
    "name": "공천포전지훈련센터 주경기장",
    "address": "제주특별자치도 서귀포시 남원읍 신례리 544-2",
    "lat": 33.27685262431079,
    "lng": 126.64127111434622,
    "region": "제주특별자치도"
  },
  {
    "name": "창천초등학교 운동장",
    "address": "제주특별자치도 서귀포시 안덕면 창천리 473",
    "lat": 33.263513781865456,
    "lng": 126.36898398399354,
    "region": "제주특별자치도"
  },
  {
    "name": "안덕중학교 운동장",
    "address": "제주특별자치도 서귀포시 안덕면 화순리 296",
    "lat": 33.24881357908864,
    "lng": 126.33701741695783,
    "region": "제주특별자치도"
  },
  {
    "name": "성읍초등학교 운동장",
    "address": "제주특별자치도 서귀포시 표선면 성읍리 1015",
    "lat": 33.383050995836676,
    "lng": 126.79840028285463,
    "region": "제주특별자치도"
  },
  {
    "name": "가마초등학교 운동장",
    "address": "제주특별자치도 서귀포시 표선면 세화리 1538-3",
    "lat": 33.305299619293486,
    "lng": 126.79992914200055,
    "region": "제주특별자치도"
  },
  {
    "name": "토산초등학교 운동장",
    "address": "제주특별자치도 서귀포시 표선면 토산리 515",
    "lat": 33.312230599286664,
    "lng": 126.77777945995008,
    "region": "제주특별자치도"
  },
  {
    "name": "표선고등학교 운동장",
    "address": "제주특별자치도 서귀포시 표선면 표선리 1804",
    "lat": 33.330178648415135,
    "lng": 126.82792067527257,
    "region": "제주특별자치도"
  },
  {
    "name": "예래동 체육공원 축구장",
    "address": "제주특별자치도 서귀포시 하예동 1160-1",
    "lat": 33.244452835845415,
    "lng": 126.38186663389709,
    "region": "제주특별자치도"
  },
  {
    "name": "하례초등학교 운동장",
    "address": "제주특별자치도 서귀포시 남원읍 하례리 326",
    "lat": 33.264262856259926,
    "lng": 126.6309767961512,
    "region": "제주특별자치도"
  },
  {
    "name": "16호 어린이공원",
    "address": "제주특별자치도 제주시 일도이동 337",
    "lat": 33.50695011592772,
    "lng": 126.53628624914705,
    "region": "제주특별자치도"
  },
  {
    "name": "의귀초등학교 운동장",
    "address": "제주특별자치도 서귀포시 남원읍 의귀리 1483-3",
    "lat": 33.310060804510066,
    "lng": 126.7141735553784,
    "region": "제주특별자치도"
  },
  {
    "name": "서귀포여자중학교 운동장",
    "address": "제주특별자치도 서귀포시 서홍동 1326",
    "lat": 33.25642865569492,
    "lng": 126.54676079750053,
    "region": "제주특별자치도"
  },
  {
    "name": "대정고등학교 운동장",
    "address": "제주특별자치도 서귀포시 대정읍 상모리 3428",
    "lat": 33.231822501251436,
    "lng": 126.26083731651283,
    "region": "제주특별자치도"
  },
  {
    "name": "위미초등학교 운동장",
    "address": "제주특별자치도 서귀포시 남원읍 위미리 4610-2",
    "lat": 33.27456534146875,
    "lng": 126.65368974209065,
    "region": "제주특별자치도"
  },
  {
    "name": "한림초등학교 운동장",
    "address": "제주특별자치도 제주시 한림읍 한림리 1383",
    "lat": 33.41112149873511,
    "lng": 126.26097313032449,
    "region": "제주특별자치도"
  },
  {
    "name": "금악초등학교 운동장",
    "address": "제주특별자치도 제주시 한림읍 금악리 1915",
    "lat": 33.356743159637986,
    "lng": 126.29596437512441,
    "region": "제주특별자치도"
  },
  {
    "name": "수원초등학교 운동장",
    "address": "제주특별자치도 제주시 한림읍 대림리 1591",
    "lat": 33.42554214656251,
    "lng": 126.27032421918787,
    "region": "제주특별자치도"
  },
  {
    "name": "북촌초등학교 운동장",
    "address": "제주특별자치도 제주시 조천읍 북촌리 1212",
    "lat": 33.547887722277615,
    "lng": 126.69177464258125,
    "region": "제주특별자치도"
  },
  {
    "name": "저청초등학교 운동장",
    "address": "제주특별자치도 제주시 한경면 저지리 1517",
    "lat": 33.32650814974516,
    "lng": 126.25150750003296,
    "region": "제주특별자치도"
  },
  {
    "name": "종달초등학교 운동장",
    "address": "제주특별자치도 제주시 구좌읍 종달리 1918",
    "lat": 33.49252631754359,
    "lng": 126.89713306755567,
    "region": "제주특별자치도"
  },
  {
    "name": "고산초등학교 운동장",
    "address": "제주특별자치도 제주시 한경면 고산리 2684-1",
    "lat": 33.304252733344235,
    "lng": 126.17742986801866,
    "region": "제주특별자치도"
  },
  {
    "name": "한동초등학교 운동장",
    "address": "제주특별자치도 제주시 구좌읍 한동리 1168",
    "lat": 33.53868222455521,
    "lng": 126.8286382961898,
    "region": "제주특별자치도"
  },
  {
    "name": "평대초등학교 운동장",
    "address": "제주특별자치도 제주시 구좌읍 평대리 650",
    "lat": 33.5294827662948,
    "lng": 126.84047695620852,
    "region": "제주특별자치도"
  },
  {
    "name": "서귀동 어린이공원",
    "address": "제주특별자치도 서귀포시 서귀동 304-4",
    "lat": 33.25121148408754,
    "lng": 126.55836227162764,
    "region": "제주특별자치도"
  },
  {
    "name": "서귀포축구공원",
    "address": "제주특별자치도 서귀포시 신효동 910",
    "lat": 33.2588801206099,
    "lng": 126.61044680028265,
    "region": "제주특별자치도"
  },
  {
    "name": "대정문화체육센터 운동장",
    "address": "제주특별자치도 서귀포시 대정읍 동일리 3171",
    "lat": 33.26337024591995,
    "lng": 126.23544216155898,
    "region": "제주특별자치도"
  },
  {
    "name": "위미중학교 운동장",
    "address": "제주특별자치도 서귀포시 남원읍 위미리 2065-1",
    "lat": 33.280552513791946,
    "lng": 126.66352272034115,
    "region": "제주특별자치도"
  },
  {
    "name": "서귀포초등학교 운동장",
    "address": "제주특별자치도 서귀포시 서귀동 558-3",
    "lat": 33.24415224162399,
    "lng": 126.5655040740994,
    "region": "제주특별자치도"
  },
  {
    "name": "무릉초등학교 운동장",
    "address": "제주특별자치도 서귀포시 대정읍 무릉리 2802",
    "lat": 33.27253813090418,
    "lng": 126.20145320892298,
    "region": "제주특별자치도"
  },
  {
    "name": "서광서리 마을운동장",
    "address": "제주특별자치도 서귀포시 안덕면 서광리 1401-7",
    "lat": 33.29438646841321,
    "lng": 126.29669845104179,
    "region": "제주특별자치도"
  },
  {
    "name": "토평동 시민축구장",
    "address": "제주특별자치도 서귀포시 토평동 1128-1",
    "lat": 33.26243277095713,
    "lng": 126.58941328526039,
    "region": "제주특별자치도"
  },
  {
    "name": "남원생활체육관 운동장",
    "address": "제주특별자치도 서귀포시 남원읍 남원리 2337-1",
    "lat": 33.27770473396217,
    "lng": 126.70430302619958,
    "region": "제주특별자치도"
  },
  {
    "name": "한국국제고등학교 제2운동장",
    "address": "제주특별자치도 서귀포시 대정읍 구억리 1133",
    "lat": 33.28767828326269,
    "lng": 126.28344297408675,
    "region": "제주특별자치도"
  },
  {
    "name": "신흥2리 체육공원",
    "address": "제주특별자치도 서귀포시 남원읍 신흥리 1760-10",
    "lat": 33.320263749530945,
    "lng": 126.74397289752959,
    "region": "제주특별자치도"
  },
  {
    "name": "흥산초등학교 운동장",
    "address": "제주특별자치도 서귀포시 남원읍 신흥리 174-1",
    "lat": 33.29983424727165,
    "lng": 126.7654895782478,
    "region": "제주특별자치도"
  },
  {
    "name": "구 대평분교장 운동장",
    "address": "제주특별자치도 서귀포시 안덕면 창천리 850",
    "lat": 33.23677165614502,
    "lng": 126.36572241782602,
    "region": "제주특별자치도"
  },
  {
    "name": "덕수초등학교 운동장",
    "address": "제주특별자치도 서귀포시 안덕면 덕수리 2379-3",
    "lat": 33.25160846779005,
    "lng": 126.30485236644824,
    "region": "제주특별자치도"
  },
  {
    "name": "보목초등학교 운동장",
    "address": "제주특별자치도 서귀포시 보목동 891",
    "lat": 33.244632294591554,
    "lng": 126.60005092620689,
    "region": "제주특별자치도"
  },
  {
    "name": "태평근린공원",
    "address": "제주특별자치도 서귀포시 동홍동 426-1",
    "lat": 33.251245092453594,
    "lng": 126.5699565410643,
    "region": "제주특별자치도"
  },
  {
    "name": "문부공원",
    "address": "제주특별자치도 서귀포시 동홍동 646-1",
    "lat": 33.2542103705158,
    "lng": 126.56991362572002,
    "region": "제주특별자치도"
  },
  {
    "name": "서귀서초등학교 운동장",
    "address": "제주특별자치도 서귀포시 서홍동 368-2",
    "lat": 33.25426868813338,
    "lng": 126.55645698308932,
    "region": "제주특별자치도"
  },
  {
    "name": "신례초등학교 운동장",
    "address": "제주특별자치도 서귀포시 남원읍 신례리 822-1",
    "lat": 33.28428812188347,
    "lng": 126.63223743438685,
    "region": "제주특별자치도"
  },
  {
    "name": "제주중앙고등학교",
    "address": "제주특별자치도 제주시 월평동 1236",
    "lat": 33.47446475275952,
    "lng": 126.57223083152755,
    "region": "제주특별자치도"
  },
  {
    "name": "서귀북초등학교 운동장",
    "address": "제주특별자치도 서귀포시 서홍동 308-1",
    "lat": 33.26012716773227,
    "lng": 126.55868589878074,
    "region": "제주특별자치도"
  },
  {
    "name": "제주중앙여자중학교",
    "address": "제주특별자치도 제주시 삼도이동 594-13",
    "lat": 33.50493077923566,
    "lng": 126.5210125584756,
    "region": "제주특별자치도"
  },
  {
    "name": "시민복지타운광장",
    "address": "제주특별자치도 제주시 도남동 582",
    "lat": 33.49189829086582,
    "lng": 126.52277089558586,
    "region": "제주특별자치도"
  },
  {
    "name": "제주여자고등학교(중학교)",
    "address": "제주특별자치도 제주시 아라일동 2360",
    "lat": 33.48275551403681,
    "lng": 126.54063142787223,
    "region": "제주특별자치도"
  },
  {
    "name": "서호초등학교",
    "address": "제주특별자치도 서귀포시 호근동 1421-5",
    "lat": 33.25375728612664,
    "lng": 126.52929425239549,
    "region": "제주특별자치도"
  },
  {
    "name": "송당초등학교 운동장",
    "address": "제주특별자치도 제주시 구좌읍 송당리 1366",
    "lat": 33.47081078867102,
    "lng": 126.78083717823027,
    "region": "제주특별자치도"
  },
  {
    "name": "산짓물공원",
    "address": "제주특별자치도 제주시 건입동 1342-1",
    "lat": 33.5156122837264,
    "lng": 126.52881413698185,
    "region": "제주특별자치도"
  },
  {
    "name": "세화공원",
    "address": "제주특별자치도 제주시 구좌읍 상도리 471-31",
    "lat": 33.52242587704319,
    "lng": 126.8633311986923,
    "region": "제주특별자치도"
  },
  {
    "name": "노형제2근린공원",
    "address": "제주특별자치도 제주시 노형동 2582-1",
    "lat": 33.48951799108436,
    "lng": 126.47202104329534,
    "region": "제주특별자치도"
  },
  {
    "name": "해안초등학교 운동장",
    "address": "제주특별자치도 제주시 해안동 1948",
    "lat": 33.456593,
    "lng": 126.454275,
    "region": "제주특별자치도"
  },
  {
    "name": "삼화제6근린공원",
    "address": "제주특별자치도 제주시 도련일동 1912",
    "lat": 33.51383965291832,
    "lng": 126.58326863428192,
    "region": "제주특별자치도"
  },
  {
    "name": "광령초등학교운동장",
    "address": "제주특별자치도 제주시 애월읍 광령리 1223",
    "lat": 33.45995444371658,
    "lng": 126.43674837153503,
    "region": "제주특별자치도"
  },
  {
    "name": "하귀초등학교 운동장",
    "address": "제주특별자치도 제주시 애월읍 하귀2리 1908-2",
    "lat": 33.479506580507525,
    "lng": 126.40203619417761,
    "region": "제주특별자치도"
  },
  {
    "name": "탐라문화광장",
    "address": "제주특별자치도 제주시 일도일동 1478-12",
    "lat": 33.51332233076283,
    "lng": 126.52713507413851,
    "region": "제주특별자치도"
  },
  {
    "name": "월랑초등학교 운동장",
    "address": "제주특별자치도 제주시 노형동 1094-4",
    "lat": 33.49310147377436,
    "lng": 126.47808551788316,
    "region": "제주특별자치도"
  },
  {
    "name": "삼도1동 1호 어린이공원",
    "address": "제주특별자치도 제주시 삼도일동 785-1",
    "lat": 33.50607368147487,
    "lng": 126.51904199142066,
    "region": "제주특별자치도"
  },
  {
    "name": "삼무공원",
    "address": "제주특별자치도 제주시 연동 270-5",
    "lat": 33.49139176657955,
    "lng": 126.49146712993046,
    "region": "제주특별자치도"
  },
  {
    "name": "신제주초등학교 운동장",
    "address": "제주특별자치도 제주시 연동 316",
    "lat": 33.48291879087327,
    "lng": 126.49772674912619,
    "region": "제주특별자치도"
  },
  {
    "name": "제주중앙중학교 운동장",
    "address": "제주특별자치도 제주시 연동 323-14",
    "lat": 33.48623891831813,
    "lng": 126.50055687155928,
    "region": "제주특별자치도"
  },
  {
    "name": "한경축구장",
    "address": "제주특별자치도 제주시 한경면 고산리 1881-2",
    "lat": 33.30129605431293,
    "lng": 126.18451608978162,
    "region": "제주특별자치도"
  },
  {
    "name": "43호 어린이공원",
    "address": "제주특별자치도 제주시 도두일동 2620",
    "lat": 33.50401998556208,
    "lng": 126.4648207495811,
    "region": "제주특별자치도"
  },
  {
    "name": "구엄초등학교 운동장",
    "address": "제주특별자치도 제주시 애월읍 구엄리 1065",
    "lat": 33.4733153217708,
    "lng": 126.3748735664481,
    "region": "제주특별자치도"
  },
  {
    "name": "도평초등학교 운동장",
    "address": "제주특별자치도 제주시 도평동 866",
    "lat": 33.48052285590538,
    "lng": 126.44720030757954,
    "region": "제주특별자치도"
  },
  {
    "name": "삼화초등학교 운동장",
    "address": "제주특별자치도 제주시 화북일동 1012-2",
    "lat": 33.51520936435685,
    "lng": 126.57693931889506,
    "region": "제주특별자치도"
  },
  {
    "name": "동화초등학교 운동장",
    "address": "제주특별자치도 제주시 화북일동 12-2",
    "lat": 33.518986602666864,
    "lng": 126.57590533408562,
    "region": "제주특별자치도"
  },
  {
    "name": "제주대학교교육대학부설초등학교 운동장",
    "address": "제주특별자치도 제주시 화북일동 4810",
    "lat": 33.51552284289133,
    "lng": 126.55129368069947,
    "region": "제주특별자치도"
  },
  {
    "name": "표선 생활체육 인조잔디구장",
    "address": "제주특별자치도 서귀포시 표선면 하천리 1832-1",
    "lat": 33.35444056599063,
    "lng": 126.81459939424316,
    "region": "제주특별자치도"
  },
  {
    "name": "노형중학교 운동장",
    "address": "제주특별자치도 제주시 노형동 3812",
    "lat": 33.47922751619535,
    "lng": 126.47533357143386,
    "region": "제주특별자치도"
  },
  {
    "name": "제주시 생활체육공원 축구장",
    "address": "제주특별자치도 제주시 회천동 3-21",
    "lat": 33.47344944039033,
    "lng": 126.63625276824222,
    "region": "제주특별자치도"
  },
  {
    "name": "삼도1동 3호 어린이공원",
    "address": "제주특별자치도 제주시 삼도일동 547-11",
    "lat": 33.50219644943187,
    "lng": 126.52181350613036,
    "region": "제주특별자치도"
  },
  {
    "name": "삼화제1근린공원",
    "address": "제주특별자치도 제주시 삼양이동 2261",
    "lat": 33.517837067429525,
    "lng": 126.58011011660638,
    "region": "제주특별자치도"
  },
  {
    "name": "삼화제5근린공원",
    "address": "제주특별자치도 제주시 도련일동 1895-1",
    "lat": 33.5158336724501,
    "lng": 126.58362507820121,
    "region": "제주특별자치도"
  },
  {
    "name": "아라중학교 운동장",
    "address": "제주특별자치도 제주시 아라이동 1419",
    "lat": 33.48608813435484,
    "lng": 126.54611885954193,
    "region": "제주특별자치도"
  },
  {
    "name": "하귀일초등학교 운동장",
    "address": "제주특별자치도 제주시 애월읍 하귀2리 1908-2",
    "lat": 33.479570204634214,
    "lng": 126.40189277700931,
    "region": "제주특별자치도"
  },
  {
    "name": "신광초등학교 운동장",
    "address": "제주특별자치도 제주시 연동 1996-5",
    "lat": 33.491890002783194,
    "lng": 126.48416699918032,
    "region": "제주특별자치도"
  },
  {
    "name": "삼성초등학교 운동장",
    "address": "제주특별자치도 제주시 이도일동 1650-1",
    "lat": 33.50303543529878,
    "lng": 126.52525892517198,
    "region": "제주특별자치도"
  },
  {
    "name": "동광초등학교 운동장",
    "address": "제주특별자치도 제주시 일도이동 75",
    "lat": 33.5013948417459,
    "lng": 126.54754868903203,
    "region": "제주특별자치도"
  },
  {
    "name": "이호운동장",
    "address": "제주특별자치도 제주시 이호이동 1231",
    "lat": 33.486417404869584,
    "lng": 126.45711168826188,
    "region": "제주특별자치도"
  },
  {
    "name": "삼화제7근린공원",
    "address": "제주특별자치도 제주시 화북일동 1011",
    "lat": 33.515672662525425,
    "lng": 126.5771985054015,
    "region": "제주특별자치도"
  },
  {
    "name": "남원초등학교 운동장",
    "address": "제주특별자치도 서귀포시 남원읍 남원리 1344",
    "lat": 33.278663893332286,
    "lng": 126.7156636905999,
    "region": "제주특별자치도"
  },
  {
    "name": "대정초등학교 운동장",
    "address": "제주특별자치도 서귀포시 대정읍 하모리 2121-2",
    "lat": 33.22501779723506,
    "lng": 126.25539345084354,
    "region": "제주특별자치도"
  },
  {
    "name": "안덕생활체육관 운동장",
    "address": "제주특별자치도 서귀포시 안덕면 화순리 2063",
    "lat": 33.256193147806705,
    "lng": 126.32816076278654,
    "region": "제주특별자치도"
  },
  {
    "name": "안덕초등학교 운동장",
    "address": "제주특별자치도 서귀포시 안덕면 화순리 1290",
    "lat": 33.25063432426942,
    "lng": 126.3361305345565,
    "region": "제주특별자치도"
  },
  {
    "name": "표선초등학교 운동장",
    "address": "제주특별자치도 서귀포시 표선면 표선리 456",
    "lat": 33.32970445247786,
    "lng": 126.8349845899027,
    "region": "제주특별자치도"
  },
  {
    "name": "표선중학교 운동장",
    "address": "제주특별자치도 서귀포시 표선면 표선리 317-1",
    "lat": 33.33043524258856,
    "lng": 126.83108602513856,
    "region": "제주특별자치도"
  },
  {
    "name": "삼양초등학교 운동장",
    "address": "제주특별자치도 제주시 삼양이동 2181-28",
    "lat": 33.52032658743223,
    "lng": 126.58649588341343,
    "region": "제주특별자치도"
  },
  {
    "name": "강정제1호공원",
    "address": "제주특별자치도 서귀포시 강정동 201",
    "lat": 33.25360522859229,
    "lng": 126.50350049471513,
    "region": "제주특별자치도"
  },
  {
    "name": "강창학공원",
    "address": "제주특별자치도 서귀포시 강정동 1479-1",
    "lat": 33.260149596072274,
    "lng": 126.49863123893724,
    "region": "제주특별자치도"
  },
  {
    "name": "동광리 축구장",
    "address": "제주특별자치도 서귀포시 안덕면 동광리 976",
    "lat": 33.306652,
    "lng": 126.337459,
    "region": "제주특별자치도"
  },
  {
    "name": "문화공원",
    "address": "제주특별자치도 서귀포시 강정동 176",
    "lat": 33.25109743264868,
    "lng": 126.50816383648912,
    "region": "제주특별자치도"
  },
  {
    "name": "삼도1동 2호 어린이 공원",
    "address": "제주특별자치도 제주시 삼도일동 505",
    "lat": 33.5015068545356,
    "lng": 126.51588107533316,
    "region": "제주특별자치도"
  },
  {
    "name": "일도초등학교 운동장",
    "address": "제주특별자치도 제주시 일도이동 1038-1",
    "lat": 33.50971941009824,
    "lng": 126.52922739544888,
    "region": "제주특별자치도"
  },
  {
    "name": "인화초등학교 운동장",
    "address": "제주특별자치도 제주시 일도이동 352",
    "lat": 33.507233824890456,
    "lng": 126.53818587987813,
    "region": "제주특별자치도"
  },
  {
    "name": "삼다공원",
    "address": "제주특별자치도 제주시 연동 301-9",
    "lat": 33.49045908236131,
    "lng": 126.49612288692414,
    "region": "제주특별자치도"
  },
  {
    "name": "신촌초등학교 운동장",
    "address": "제주특별자치도 제주시 조천읍 신촌리 1828",
    "lat": 33.533868956817244,
    "lng": 126.61933388236548,
    "region": "제주특별자치도"
  },
  {
    "name": "남원중학교 운동장",
    "address": "제주특별자치도 서귀포시 남원읍 남원리 171-1",
    "lat": 33.28178849807584,
    "lng": 126.71775057775396,
    "region": "제주특별자치도"
  },
  {
    "name": "가파초등학교 운동장",
    "address": "제주특별자치도 서귀포시 대정읍 가파리 464",
    "lat": 33.168995367418226,
    "lng": 126.27037342608581,
    "region": "제주특별자치도"
  },
  {
    "name": "관덕공원",
    "address": "제주특별자치도 제주시 삼도이동 43-3",
    "lat": 33.513748072827575,
    "lng": 126.52233530335018,
    "region": "제주특별자치도"
  },
  {
    "name": "삼화���4근린공원",
    "address": "제주특별자치도 제주시 도련일동 1981",
    "lat": 33.5129086120933,
    "lng": 126.57792806625359,
    "region": "제주특별자치도"
  },
  {
    "name": "애월초등학교 운동장",
    "address": "제주특별자치도 제주시 애월읍 애월리 1753-1",
    "lat": 33.46512638081546,
    "lng": 126.32297773790258,
    "region": "제주특별자치도"
  },
  {
    "name": "한천초등학교 운동장",
    "address": "제주특별자치도 제주시 용담일동 254-1",
    "lat": 33.50698254542658,
    "lng": 126.51301734390695,
    "region": "제주특별자치도"
  },
  {
    "name": "보성초등학교 운동장",
    "address": "제주특별자치도 서귀포시 대정읍 보성리 1629-1",
    "lat": 33.249370833241485,
    "lng": 126.27590447087948,
    "region": "제주특별자치도"
  },
  {
    "name": "대정중학교 운동장",
    "address": "제주특별자치도 서귀포시 대정읍 하모리 778",
    "lat": 33.21951939973669,
    "lng": 126.25447585601387,
    "region": "제주특별자치도"
  },
  {
    "name": "김녕초등학교 운동장",
    "address": "제주특별자치도 제주시 구좌읍 김녕리 1654",
    "lat": 33.555115606038186,
    "lng": 126.75043433904644,
    "region": "제주특별자치도"
  },
  {
    "name": "제주대학교사범대학부설고등학교",
    "address": "제주특별자치도 제주시 용담삼동 581",
    "lat": 33.513571628280076,
    "lng": 126.50928231082014,
    "region": "제주특별자치도"
  },
  {
    "name": "제주제일고등학교 운동장",
    "address": "제주특별자치도 제주시 노형동 810",
    "lat": 33.480202,
    "lng": 126.479723,
    "region": "제주특별자치도"
  },
  {
    "name": "삼화제2근린공원",
    "address": "제주특별자치도 제주시 도련일동 2008",
    "lat": 33.5169638881933,
    "lng": 126.58049666758289,
    "region": "제주특별자치도"
  },
  {
    "name": "삼양축구장",
    "address": "제주특별자치도 제주시 삼양일동 745",
    "lat": 33.53310471884123,
    "lng": 126.59820556640616,
    "region": "제주특별자치도"
  },
  {
    "name": "외도축구장",
    "address": "제주특별자치도 제주시 외도일동 585",
    "lat": 33.48788054513486,
    "lng": 126.4357227087019,
    "region": "제주특별자치도"
  },
  {
    "name": "영평초등학교 운동장",
    "address": "제주특별자치도 제주시 영평동 1826",
    "lat": 33.47851522678865,
    "lng": 126.5670764985546,
    "region": "제주특별자치도"
  },
  {
    "name": "함덕초등학교 운동장",
    "address": "제주특별자치도 제주시 조천읍 함덕리 287-2",
    "lat": 33.53833715437913,
    "lng": 126.67212077314244,
    "region": "제주특별자치도"
  },
  {
    "name": "제주고등학교 운동장",
    "address": "제주특별자치도 제주시 노형동 607",
    "lat": 33.472449201581576,
    "lng": 126.48172160755195,
    "region": "제주특별자치도"
  },
  {
    "name": "제주월드컵경기장",
    "address": "제주특별자치도 서귀포시 법환동 914",
    "lat": 33.246131678332716,
    "lng": 126.5092575078341,
    "region": "제주특별자치도"
  },
  {
    "name": "태흥초등학교 운동장",
    "address": "제주특별자치도 서귀포시 남원읍 태흥리 970-3",
    "lat": 33.28621151057877,
    "lng": 126.74293792667098,
    "region": "제주특별자치도"
  },
  {
    "name": "삼화제3근린공원",
    "address": "제주특별자치도 제주시 삼양이동 2332-2",
    "lat": 33.51753096717654,
    "lng": 126.58679813146581,
    "region": "제주특별자치도"
  },
  {
    "name": "제주서중학교 운동장",
    "address": "제주특별자치도 제주시 연동 2405",
    "lat": 33.49459963900522,
    "lng": 126.48106529181773,
    "region": "제주특별자치도"
  },
  {
    "name": "탐라중학교 운동장",
    "address": "제주특별자치도 제주시 아라이동 3006",
    "lat": 33.49169982952895,
    "lng": 126.54538685464317,
    "region": "제주특별자치도"
  },
  {
    "name": "고내공원",
    "address": "제주특별자치도 제주시 애월읍 고내리 1356",
    "lat": 33.463131949779005,
    "lng": 126.33261384277273,
    "region": "제주특별자치도"
  },
  {
    "name": "연동공원",
    "address": "제주특별자치도 제주시 연동 1369",
    "lat": 33.482355230920724,
    "lng": 126.48834239789943,
    "region": "제주특별자치도"
  },
  {
    "name": "사계초등학교 운동장",
    "address": "제주특별자치도 서귀포시 안덕면 사계리 1731-2",
    "lat": 33.233244024816536,
    "lng": 126.29977510137813,
    "region": "제주특별자치도"
  },
  {
    "name": "사라봉축구장",
    "address": "제주특별자치도 제주시 건입동 566",
    "lat": 33.51347693761078,
    "lng": 126.54476582028686,
    "region": "제주특별자치도"
  }
]