[
  {
    "name": "남면초등학교 운동장",
    "address": "전라남도 담양군 가사문학면 연천리 355",
    "lat": 35.17804619994087,
    "lng": 127.02671456952291,
    "region": "전라남도"
  },
  {
    "name": "금성초등학교 운동장",
    "address": "전라남도 담양군 금성면 석현리 124",
    "lat": 35.34432506771475,
    "lng": 127.02550213577231,
    "region": "전라남도"
  },
  {
    "name": "용면초등학교 운동장",
    "address": "전라남도 담양군 용면 추성리 404",
    "lat": 35.363282003695076,
    "lng": 126.99082728502928,
    "region": "전라남도"
  },
  {
    "name": "구례공설운동장",
    "address": "전라남도 구례군 구례읍 봉북리 1423-1",
    "lat": 35.21830903723424,
    "lng": 127.46572042044755,
    "region": "전라남도"
  },
  {
    "name": "돌산공원",
    "address": "전라남도 여수시 돌산읍 우두리 산355-145",
    "lat": 34.730613544297455,
    "lng": 127.73879885673524,
    "region": "전라남도"
  },
  {
    "name": "한재초등학��� 운동장",
    "address": "전라남도 담양군 대전면 대치리 788",
    "lat": 35.278153743502244,
    "lng": 126.88936685938384,
    "region": "전라남도"
  },
  {
    "name": "장흥중학교 운동장",
    "address": "전라남도 장흥군 장흥읍 건산리 506",
    "lat": 34.683838637740564,
    "lng": 126.90975126399006,
    "region": "전라남도"
  },
  {
    "name": "다도초등학교 운동장",
    "address": "전라남도 나주시 다도면 궁원리 316",
    "lat": 34.95795794697587,
    "lng": 126.82676646377509,
    "region": "전라남도"
  },
  {
    "name": "마량초등학교 운동장",
    "address": "전라남도 강진군 마량면 마량리 1028-3",
    "lat": 34.45592315935931,
    "lng": 126.81143770661471,
    "region": "전라남도"
  },
  {
    "name": "신전초등학교 운동장",
    "address": "전라남도 강진군 신전면 용월리 1033-1",
    "lat": 34.49956037699742,
    "lng": 126.7096259403113,
    "region": "전라남도"
  },
  {
    "name": "순천도사초등학교 운동장",
    "address": "전라남도 순천시 홍내동 637-3",
    "lat": 34.91451934562393,
    "lng": 127.5001185262266,
    "region": "전라남도"
  },
  {
    "name": "만덕초등학교 운동장",
    "address": "전라남도 담양군 대덕면 매산리 97",
    "lat": 35.24916501831959,
    "lng": 127.03585140898602,
    "region": "전라남도"
  },
  {
    "name": "수북초등학교 운동장",
    "address": "전라남도 담양군 수북면 수북리 161",
    "lat": 35.30099701904775,
    "lng": 126.93029446019165,
    "region": "전라남도"
  },
  {
    "name": "문평초등학교 운동장",
    "address": "전라남도 나주시 문평면 동원리 719",
    "lat": 35.058415373424666,
    "lng": 126.60434552535348,
    "region": "전라남도"
  },
  {
    "name": "노안중학교 운동장",
    "address": "전라남도 나주시 노안면 금동리 59-8",
    "lat": 35.0728955867627,
    "lng": 126.73431222247683,
    "region": "전라남도"
  },
  {
    "name": "대덕초등학교 운동장",
    "address": "전라남도 장흥군 대덕읍 연정리 390-1",
    "lat": 34.49977619645689,
    "lng": 126.89025923117427,
    "region": "전라남도"
  },
  {
    "name": "순천신흥초등학교 운동장",
    "address": "전라남도 순천시 조례동 1615",
    "lat": 34.95372504939143,
    "lng": 127.52812610259551,
    "region": "전라남도"
  },
  {
    "name": "봉산초등학교 운동장",
    "address": "전라남도 담양군 봉산면 신학리 131",
    "lat": 35.27684345364426,
    "lng": 126.9573656031494,
    "region": "전라남도"
  },
  {
    "name": "장흥장평중학교 운동장",
    "address": "전라남도 장흥군 장평면 용강리 52",
    "lat": 34.77400203577255,
    "lng": 126.97321374576829,
    "region": "전라남도"
  },
  {
    "name": "송지초등학교운동장",
    "address": "전라남도 해남군 송지면 산정리 724-1",
    "lat": 34.36890435092888,
    "lng": 126.52038843084524,
    "region": "전라남도"
  },
  {
    "name": "해남군축구전용구장3",
    "address": "전라남도 해남군 해남읍 해리 6-1",
    "lat": 34.56745482602262,
    "lng": 126.61932383623709,
    "region": "전라남도"
  },
  {
    "name": "장흥고등학교 운동장",
    "address": "전라남도 장흥군 장흥읍 건산리 77",
    "lat": 34.679620474687525,
    "lng": 126.91596208322309,
    "region": "전라남도"
  },
  {
    "name": "장동초등학교 운동장",
    "address": "전라남도 장흥군 장동면 북교리 306-4",
    "lat": 34.74654175147143,
    "lng": 126.99402716761878,
    "region": "전라남도"
  },
  {
    "name": "순천남산초등학교 운동장",
    "address": "전라남도 순천시 풍덕동 1102-18",
    "lat": 34.938241267889154,
    "lng": 127.49553183124951,
    "region": "전라남도"
  },
  {
    "name": "순천왕조초등학교 운동장",
    "address": "전라남도 순천시 조례동 1669",
    "lat": 34.9605034464135,
    "lng": 127.51388159352545,
    "region": "전라남도"
  },
  {
    "name": "순천남초등학교 운동장",
    "address": "전라남도 순천시 저전동 90-3",
    "lat": 34.95030258499488,
    "lng": 127.48268526900785,
    "region": "전라남도"
  },
  {
    "name": "무정초등학교 운동장",
    "address": "전라남도 담양군 무정면 봉안리 68-1",
    "lat": 35.290264867180895,
    "lng": 127.04038122413121,
    "region": "전라남도"
  },
  {
    "name": "월산초등학교 운동장",
    "address": "전라남도 담양군 월산면 화방리 629-1",
    "lat": 35.34021845811527,
    "lng": 126.95063710212709,
    "region": "전라남도"
  },
  {
    "name": "반남초등학교 운동장",
    "address": "전라남도 나주시 반남면 신촌리 129",
    "lat": 34.91141543019634,
    "lng": 126.65888996765922,
    "region": "전라남도"
  },
  {
    "name": "금천초등학교 운동장",
    "address": "전라남도 나주시 금천면 오강리 207",
    "lat": 35.0337912962498,
    "lng": 126.75512842111071,
    "region": "전라남도"
  },
  {
    "name": "산포초등학교 운동장",
    "address": "전라남도 나주시 산포면 매성리 199",
    "lat": 35.034278306648005,
    "lng": 126.80563943980273,
    "region": "전라남도"
  },
  {
    "name": "화원초등학교운동장",
    "address": "전라남도 해남군 화원면 청용리 235-1",
    "lat": 34.6721247076635,
    "lng": 126.332792253054,
    "region": "전라남도"
  },
  {
    "name": "해남군축구전용구장1",
    "address": "전라남도 해남군 해남읍 해리 4-18",
    "lat": 34.56838567605491,
    "lng": 126.61998110609566,
    "region": "전라남도"
  },
  {
    "name": "승주초등학교 운동장",
    "address": "전라남도 순천시 승주읍 서평리 546-1",
    "lat": 35.016734862814566,
    "lng": 127.38025422188466,
    "region": "전라남도"
  },
  {
    "name": "송광초등학교 운동장",
    "address": "전라남도 순천시 송광면 이읍리 766",
    "lat": 34.96167072631896,
    "lng": 127.26759374141693,
    "region": "전라남도"
  },
  {
    "name": "담양동초등학교 운동장",
    "address": "전라남도 담양군 담양읍 객사리 271",
    "lat": 35.320649190814486,
    "lng": 126.98348589189324,
    "region": "전라남도"
  },
  {
    "name": "창평고등학교 운동장",
    "address": "전라남도 담양군 창평면 창평리 232",
    "lat": 35.2376608635878,
    "lng": 127.01166173842975,
    "region": "전라남도"
  },
  {
    "name": "남평초등학교 운동장",
    "address": "전라남도 나주시 남평읍 동사리 238",
    "lat": 35.042382927874066,
    "lng": 126.8460108553868,
    "region": "전라남도"
  },
  {
    "name": "동강초등학교 운동장",
    "address": "전라남도 나주시 동강면 인동리 355",
    "lat": 34.9380733345314,
    "lng": 126.56455624222671,
    "region": "전라남도"
  },
  {
    "name": "우수영초등학교운동장",
    "address": "전라남도 해남군 문내면 난대리 437-1",
    "lat": 34.6045497692559,
    "lng": 126.312215106244,
    "region": "전라남도"
  },
  {
    "name": "강진중앙초등학교 운동장",
    "address": "전라남도 강진군 강진읍 평동리 215-1",
    "lat": 34.636561346162935,
    "lng": 126.76655907285402,
    "region": "전라남도"
  },
  {
    "name": "병영초등학교 운동장",
    "address": "전라남도 강진군 병영면 성남리 199-7",
    "lat": 34.71439678465467,
    "lng": 126.8125462532043,
    "region": "전라남도"
  },
  {
    "name": "순천전자고등학교 운동장",
    "address": "전라남도 순천시 서면 동산리 107",
    "lat": 34.997969727697196,
    "lng": 127.48769559662058,
    "region": "전라남도"
  },
  {
    "name": "순천낙안중학교 운동장",
    "address": "전라남도 순천시 낙안면 교촌리 247-1",
    "lat": 34.901471633149136,
    "lng": 127.34571049306496,
    "region": "전라남도"
  },
  {
    "name": "담양남초등학교 운동장",
    "address": "전라남도 담양군 담양읍 지침리 92",
    "lat": 35.31788712668477,
    "lng": 126.98648781620078,
    "region": "전라남도"
  },
  {
    "name": "세지초등학교 운동장",
    "address": "전라남도 나주시 세지면 오봉리 263",
    "lat": 34.918802939780306,
    "lng": 126.74694497451894,
    "region": "전라남도"
  },
  {
    "name": "순천삼산초등학교 운동장",
    "address": "전라남도 순천시 석현동 24",
    "lat": 34.96623967489063,
    "lng": 127.48825445712782,
    "region": "전라남도"
  },
  {
    "name": "관산남초등학교 운동장",
    "address": "전라남도 장흥군 관산읍 삼산리 97",
    "lat": 34.52593751795958,
    "lng": 126.95486059733025,
    "region": "전라남도"
  },
  {
    "name": "부산초등학교 운동장",
    "address": "전라남도 장흥군 부산면 구룡리 378",
    "lat": 34.72230149408461,
    "lng": 126.90200295595758,
    "region": "전라남도"
  },
  {
    "name": "북일초등학교운동장",
    "address": "전라남도 해남군 북일면 흥촌리 109",
    "lat": 34.467052,
    "lng": 126.676845,
    "region": "전라남도"
  },
  {
    "name": "현산초등학교운동장",
    "address": "전라남도 해남군 현산면 일평리 876-2",
    "lat": 34.4588962739612,
    "lng": 126.55283029169965,
    "region": "전라남도"
  },
  {
    "name": "우슬경기장",
    "address": "전라남도 해남군 해남읍 해리 2",
    "lat": 34.56832671682975,
    "lng": 126.62234743694026,
    "region": "전라남도"
  },
  {
    "name": "안양초등학교 운동장",
    "address": "전라남도 장흥군 안양면 운흥리 508",
    "lat": 34.65151140327439,
    "lng": 126.9734373434087,
    "region": "전라남도"
  },
  {
    "name": "원촌초등학교 운동장",
    "address": "전라남도 구례군 산동면 원촌리 214",
    "lat": 35.31682224999097,
    "lng": 127.43839990058234,
    "region": "전라남도"
  },
  {
    "name": "환경사업소 운동장",
    "address": "전라남도 광양시 중동 308-124",
    "lat": 34.92917730508358,
    "lng": 127.69074062861324,
    "region": "전라남도"
  },
  {
    "name": "홍농중학교",
    "address": "전라남도 영광군 홍농읍 상하리 345",
    "lat": 35.401435456768766,
    "lng": 126.44727940228842,
    "region": "전라남도"
  },
  {
    "name": "묘량중앙초등학교",
    "address": "전라남도 영광군 묘량면 운당리 478",
    "lat": 35.267710131261936,
    "lng": 126.55141631080787,
    "region": "전라남도"
  },
  {
    "name": "청람중학교 운동장",
    "address": "전라남도 강진군 군동면 라천리 161",
    "lat": 34.64911478349817,
    "lng": 126.81986458055911,
    "region": "전라남도"
  },
  {
    "name": "강진여자중학교 운동장",
    "address": "전라남도 강진군 강진읍 서성리 292",
    "lat": 34.63991292300724,
    "lng": 126.76052579961139,
    "region": "전라남도"
  },
  {
    "name": "암태중학교",
    "address": "전라남도 신안군 암태면 단고리 104",
    "lat": 34.82965273568737,
    "lng": 126.1127887735456,
    "region": "전라남도"
  },
  {
    "name": "대마초등학교",
    "address": "전라남도 영광군 대마면 월산리 375",
    "lat": 35.30269622742194,
    "lng": 126.58147162331524,
    "region": "전라남도"
  },
  {
    "name": "목포공고 운동장",
    "address": "전라남도 목포시 용당동 171-11",
    "lat": 34.79608311473161,
    "lng": 126.40362739562967,
    "region": "전라남도"
  },
  {
    "name": "남초등학교 운동장",
    "address": "전라남도 목포시 호남동 567",
    "lat": 34.7911582018988,
    "lng": 126.3909275458454,
    "region": "전라남도"
  },
  {
    "name": "고달초등학교 운동장",
    "address": "전라남도 곡성군 고달면 목동리 730",
    "lat": 35.296317289833304,
    "lng": 127.34184417250958,
    "region": "전라남도"
  },
  {
    "name": "운남초등학교 운동장",
    "address": "전라남도 무안군 운남면 연리 391-1",
    "lat": 34.95883097295308,
    "lng": 126.33777152623877,
    "region": "전라남도"
  },
  {
    "name": "대동향교초등학교",
    "address": "전라남도 함평군 대동면 향교리 906",
    "lat": 35.06777879390215,
    "lng": 126.53232002126369,
    "region": "전라남도"
  },
  {
    "name": "연동초 운동장",
    "address": "전라남도 목포시 산정동 1080-4",
    "lat": 34.796323875136615,
    "lng": 126.39442106682213,
    "region": "전라남도"
  },
  {
    "name": "삼학초등학교 운동장",
    "address": "전라남도 목포시 산정동 1367",
    "lat": 34.79093405706313,
    "lng": 126.40084781224948,
    "region": "전라남도"
  },
  {
    "name": "목포시청 주차장",
    "address": "전라남도 목포시 용당동 1188-2",
    "lat": 34.81146,
    "lng": 126.39184,
    "region": "전라남도"
  },
  {
    "name": "유경주차장",
    "address": "전라남도 목포시 보광동2가 2",
    "lat": 34.78765866171892,
    "lng": 126.38809110020692,
    "region": "전라남도"
  },
  {
    "name": "하당중학교 운동장",
    "address": "전라남도 목포시 옥암동 963",
    "lat": 34.81022495935776,
    "lng": 126.42875603723611,
    "region": "전라남도"
  },
  {
    "name": "서호중학교 운동장",
    "address": "전라남도 영암군 서호면 장천리 483",
    "lat": 34.75595355025922,
    "lng": 126.58438594948137,
    "region": "전라남도"
  },
  {
    "name": "버드내1공원",
    "address": "전라남도 순천시 해룡면 상삼리 690",
    "lat": 34.946473950142284,
    "lng": 127.5278384809903,
    "region": "전라남도"
  },
  {
    "name": "제일중학교 운동장",
    "address": "전라남도 목포시 용해동 170-5",
    "lat": 34.796175008510815,
    "lng": 126.40764693958474,
    "region": "전라남도"
  },
  {
    "name": "임성초등학교 운동장",
    "address": "전라남도 목포시 석현동 96-1",
    "lat": 34.82480766231686,
    "lng": 126.43610274309015,
    "region": "전라남도"
  },
  {
    "name": "청호초등학교 운동장",
    "address": "전라남도 목포시 옥암동 966",
    "lat": 34.80973185434273,
    "lng": 126.42771413657039,
    "region": "전라남도"
  },
  {
    "name": "부영초등학교 운동장",
    "address": "전라남도 목포시 옥암동 1024",
    "lat": 34.8033152535232,
    "lng": 126.43350382643641,
    "region": "전라남도"
  },
  {
    "name": "성산초등학교",
    "address": "전라남도 장성군 장성읍 성산리 450",
    "lat": 35.3260432294391,
    "lng": 126.8059700140781,
    "region": "전라남도"
  },
  {
    "name": "벌교초등학교 운동장",
    "address": "전라남도 보성군 벌교읍 벌교리 637",
    "lat": 34.843782808887795,
    "lng": 127.34243300227796,
    "region": "전라남도"
  },
  {
    "name": "비금중학교",
    "address": "전라남도 신안군 비금면 덕산리 714",
    "lat": 34.75992696854769,
    "lng": 125.92421662237263,
    "region": "전라남도"
  },
  {
    "name": "금당공원",
    "address": "전라남도 순천시 연향동 1441",
    "lat": 34.95017564477165,
    "lng": 127.52415688283878,
    "region": "전라남도"
  },
  {
    "name": "구림공업고등학교 운동장",
    "address": "전라남도 영암군 군서면 동구림리 414-1",
    "lat": 34.75960910534644,
    "lng": 126.62698229932,
    "region": "전라남도"
  },
  {
    "name": "대연초등학교 운동장",
    "address": "전라남도 목포시 용해동 631",
    "lat": 34.82046340699283,
    "lng": 126.3993971421537,
    "region": "전라남도"
  },
  {
    "name": "목여상 운동장",
    "address": "전라남도 목포시 상동 525",
    "lat": 34.80748146404034,
    "lng": 126.4099257103057,
    "region": "전라남도"
  },
  {
    "name": "석현초등학교 운동장",
    "address": "전라남도 목포시 석현동 1172",
    "lat": 34.81479152994929,
    "lng": 126.42458835136226,
    "region": "전라남도"
  },
  {
    "name": "문화광장",
    "address": "전라남도 화순군 화순읍 만연리 219",
    "lat": 35.05960942401921,
    "lng": 126.99076028485973,
    "region": "전라남도"
  },
  {
    "name": "장대공원B",
    "address": "전라남도 순천시 조곡동 730-1",
    "lat": 34.95120424647645,
    "lng": 127.49350957606518,
    "region": "전라남도"
  },
  {
    "name": "토지초등학교 운동장",
    "address": "전라남도 구례군 토지면 구산리 137-1",
    "lat": 35.196965231601055,
    "lng": 127.52785518976395,
    "region": "전라남도"
  },
  {
    "name": "거북선공원",
    "address": "전라남도 여수시 학동 162",
    "lat": 34.76128607546987,
    "lng": 127.66646214777928,
    "region": "전라남도"
  },
  {
    "name": "장대공원A",
    "address": "전라남도 순천시 조곡동 208-1",
    "lat": 34.94983506630171,
    "lng": 127.49574468628856,
    "region": "전라남도"
  },
  {
    "name": "영광중앙초등학교",
    "address": "전라남도 영광군 영광읍 백학리 253",
    "lat": 35.27918594012387,
    "lng": 126.50600884816784,
    "region": "전라남도"
  },
  {
    "name": "영광중학교",
    "address": "전라남도 영광군 영광읍 녹사리 183-3",
    "lat": 35.2655561042881,
    "lng": 126.50570763140426,
    "region": "전라남도"
  },
  {
    "name": "백수초등학교",
    "address": "전라남도 영광군 백수읍 천마리 597-2",
    "lat": 35.28320338153332,
    "lng": 126.42135679721811,
    "region": "전라남도"
  },
  {
    "name": "홍농초등학교",
    "address": "전라남도 영광군 홍농읍 상하리 222",
    "lat": 35.39946661188189,
    "lng": 126.44823354694854,
    "region": "전라남도"
  },
  {
    "name": "삼호중앙초등학교 운동장",
    "address": "전라남도 영암군 삼호읍 용앙리 280",
    "lat": 34.74684309532871,
    "lng": 126.47023298606472,
    "region": "전라남도"
  },
  {
    "name": "삼호중학교 운동장",
    "address": "전라남도 영암군 삼호읍 용앙리 262",
    "lat": 34.74953469973104,
    "lng": 126.46823179189961,
    "region": "전라남도"
  },
  {
    "name": "도포초등학교 운동장",
    "address": "전라남도 영암군 도포면 덕화리 100-2",
    "lat": 34.83613475866141,
    "lng": 126.63577608230504,
    "region": "전라남도"
  },
  {
    "name": "목상고등학교 운동장",
    "address": "전라남도 목포시 용당동 937-1",
    "lat": 34.80633840386696,
    "lng": 126.39595671196669,
    "region": "전라남도"
  },
  {
    "name": "신흥초등학교 운동장",
    "address": "전라남도 목포시 상동 1017",
    "lat": 34.7994123650269,
    "lng": 126.42509305636663,
    "region": "전라남도"
  },
  {
    "name": "장성중학교",
    "address": "전라남도 장성군 장성읍 영천리 610-2",
    "lat": 35.30923741022312,
    "lng": 126.79218643960672,
    "region": "전라남도"
  },
  {
    "name": "하의중고등학교",
    "address": "전라남도 신안군 하의면 웅곡리 220",
    "lat": 34.60576407452846,
    "lng": 126.0374952528835,
    "region": "전라남도"
  },
  {
    "name": "신의초등학교",
    "address": "전라남도 신안군 신의면 상태동리 29-5",
    "lat": 34.582992510346315,
    "lng": 126.09562170403362,
    "region": "전라남도"
  },
  {
    "name": "신북중학교 운동장",
    "address": "전라남도 영암군 신북면 월평리 25",
    "lat": 34.89060607063518,
    "lng": 126.69754528273911,
    "region": "전라남도"
  },
  {
    "name": "시종중학교 운동장",
    "address": "전라남도 영암군 시종면 내동리 36",
    "lat": 34.864850794718336,
    "lng": 126.6084893799399,
    "region": "전라남도"
  },
  {
    "name": "그리스도의 교회 주차장",
    "address": "전라남도 목포시 산정동 1112-3",
    "lat": 34.81078218855868,
    "lng": 126.37246358583265,
    "region": "전라남도"
  },
  {
    "name": "분향초등학교",
    "address": "전라남도 장성군 남면 분향리 1083-8",
    "lat": 35.239121626551366,
    "lng": 126.80146092252731,
    "region": "전라남도"
  },
  {
    "name": "동화초등학교",
    "address": "전라남도 장성군 동화면 용정리 717-1",
    "lat": 35.27375158718341,
    "lng": 126.73646801615837,
    "region": "전라남도"
  },
  {
    "name": "영광초등학교",
    "address": "전라남도 영광군 영광읍 무령리 306",
    "lat": 35.27840772402572,
    "lng": 126.51432823781492,
    "region": "전라남도"
  },
  {
    "name": "낭주고등학교 운동장",
    "address": "전라남도 영암군 학산면 독천리 325",
    "lat": 34.73064297098247,
    "lng": 126.56423519389426,
    "region": "전라남도"
  },
  {
    "name": "월평초등학교",
    "address": "전라남도 장성군 황룡면 월평리 61-2",
    "lat": 35.29027043621312,
    "lng": 126.77580410251022,
    "region": "전라남도"
  },
  {
    "name": "풍양중학교",
    "address": "전라남도 고흥군 풍양면 율치리 920-1",
    "lat": 34.57032638133618,
    "lng": 127.25072951551721,
    "region": "전라남도"
  },
  {
    "name": "도덕초등학교",
    "address": "전라남도 고흥군 도덕면 도덕리 799",
    "lat": 34.56683636246382,
    "lng": 127.17401085405598,
    "region": "전라남도"
  },
  {
    "name": "도화고등학교",
    "address": "전라남도 고흥군 도화면 당오리 480-3",
    "lat": 34.51423,
    "lng": 127.3194323,
    "region": "전라남도"
  },
  {
    "name": "포두중학교",
    "address": "전라남도 고흥군 포두면 길두리 1036",
    "lat": 34.56648892833169,
    "lng": 127.34078067968308,
    "region": "전라남도"
  },
  {
    "name": "남양초등학교",
    "address": "전라남도 고흥군 남양면 대곡리 520",
    "lat": 34.728464009378875,
    "lng": 127.35449232759717,
    "region": "전라남도"
  },
  {
    "name": "동강초등학교",
    "address": "전라남도 고흥군 동강면 유둔리 228",
    "lat": 34.78142802860017,
    "lng": 127.33221810683585,
    "region": "전라남도"
  },
  {
    "name": "두원초등학교",
    "address": "전라남도 고흥군 두원면 용산리 773",
    "lat": 34.647278838239316,
    "lng": 127.27470772058584,
    "region": "전라남도"
  },
  {
    "name": "회천초등학교 운동장",
    "address": "전라남도 보성군 회천면 율포리 278",
    "lat": 34.67285274138919,
    "lng": 127.08564877510075,
    "region": "전라남도"
  },
  {
    "name": "삼향초등학교 운동장",
    "address": "전라남도 무안군 삼향읍 유교리 900-1",
    "lat": 34.84243764888452,
    "lng": 126.43253835391923,
    "region": "전라남도"
  },
  {
    "name": "강진호수공원",
    "address": "전라남도 강진군 강진읍 서성리 533-1",
    "lat": 34.63873376221827,
    "lng": 126.75399074844273,
    "region": "전라남도"
  },
  {
    "name": "지도초등학교 어의분교",
    "address": "전라남도 신안군 지도읍 어의리 492",
    "lat": 35.1330872,
    "lng": 126.1873509,
    "region": "전라남도"
  },
  {
    "name": "지명중학교",
    "address": "전라남도 신안군 지도읍 광정리 1271",
    "lat": 35.0604156,
    "lng": 126.2134806,
    "region": "전라남도"
  },
  {
    "name": "서삼초등학교",
    "address": "전라남도 장성군 서삼면 장산리 196",
    "lat": 35.33369721827041,
    "lng": 126.76795715085802,
    "region": "전라남도"
  },
  {
    "name": "장성중앙초등학교",
    "address": "전라남도 장성군 장성읍 영천리 880",
    "lat": 35.298808313741375,
    "lng": 126.78652995866419,
    "region": "전라남도"
  },
  {
    "name": "지도초등학교",
    "address": "전라남도 신안군 지도읍 읍내리 93-1",
    "lat": 35.06315898790547,
    "lng": 126.20703625519397,
    "region": "전라남도"
  },
  {
    "name": "압해서초등학교",
    "address": "전라남도 신안군 압해읍 대천리 659-1",
    "lat": 34.8623248,
    "lng": 126.2733871,
    "region": "전라남도"
  },
  {
    "name": "군남초등학교",
    "address": "전라남도 영광군 군남면 백양리 161-1",
    "lat": 35.23601699651548,
    "lng": 126.45811486204802,
    "region": "전라남도"
  },
  {
    "name": "미항초등학교 운동장",
    "address": "전라남도 목포시 옥암동 1102",
    "lat": 34.80119198235661,
    "lng": 126.43925278726465,
    "region": "전라남도"
  },
  {
    "name": "옥암중학교 운동장",
    "address": "전라남도 목포시 옥암동 1271",
    "lat": 34.81027619227433,
    "lng": 126.4527524419734,
    "region": "전라남도"
  },
  {
    "name": "진원동초등학교",
    "address": "전라남도 장성군 진원면 용산리 841-1",
    "lat": 35.25971643343514,
    "lng": 126.86319345475724,
    "region": "전라남도"
  },
  {
    "name": "포두초등학교",
    "address": "전라남도 고흥군 포두면 상대리 111",
    "lat": 34.56908409783507,
    "lng": 127.34105893042685,
    "region": "전라남도"
  },
  {
    "name": "봉래초등학교",
    "address": "전라남도 고흥군 봉래면 신금리 682-1",
    "lat": 34.46882414987976,
    "lng": 127.46588999512596,
    "region": "전라남도"
  },
  {
    "name": "백양초등학교",
    "address": "전라남도 고흥군 동일면 백양리 795",
    "lat": 34.50370343792109,
    "lng": 127.4669655675989,
    "region": "전라남도"
  },
  {
    "name": "백양중학교",
    "address": "전라남도 고흥군 동일면 백양리 788",
    "lat": 34.5035014447248,
    "lng": 127.4655212366302,
    "region": "전라남도"
  },
  {
    "name": "점암초등학교",
    "address": "전라남도 고흥군 점암면 모룡리 817",
    "lat": 34.65156422303289,
    "lng": 127.38179293335608,
    "region": "전라남도"
  },
  {
    "name": "영남초등학교",
    "address": "전라남도 고흥군 영남면 양사리 528",
    "lat": 34.60333107743442,
    "lng": 127.45553806388767,
    "region": "전라남도"
  },
  {
    "name": "염산중학교",
    "address": "전라남도 영광군 염산면 봉남리 126",
    "lat": 35.2199805596225,
    "lng": 126.37310642716143,
    "region": "전라남도"
  },
  {
    "name": "장천초등학교 운동장",
    "address": "전라남도 영암군 서호면 장천리 573",
    "lat": 34.755736299377496,
    "lng": 126.58236600559356,
    "region": "전라남도"
  },
  {
    "name": "과역초등학교",
    "address": "전라남도 고흥군 과역면 과역리 458",
    "lat": 34.679566550806676,
    "lng": 127.35744235355958,
    "region": "전라남도"
  },
  {
    "name": "과역영주고등학교",
    "address": "전라남도 고흥군 과역면 과역리 442-2",
    "lat": 34.68193173210066,
    "lng": 127.35675200713732,
    "region": "전라남도"
  },
  {
    "name": "남양우도분교",
    "address": "전라남도 고흥군 남양면 남양리 1230",
    "lat": 34.72229424020312,
    "lng": 127.31432601774269,
    "region": "전라남도"
  },
  {
    "name": "남양중학교",
    "address": "전라남도 고흥군 남양면 대곡리 45-1",
    "lat": 34.73622868128442,
    "lng": 127.35675117658434,
    "region": "전라남도"
  },
  {
    "name": "대서초등학교",
    "address": "전라남도 고흥군 대서면 금마리 34",
    "lat": 34.77209491379324,
    "lng": 127.28362245453116,
    "region": "전라남도"
  },
  {
    "name": "박지성공설운동장",
    "address": "전라남도 고흥군 고흥읍 호형리 957",
    "lat": 34.61413775269652,
    "lng": 127.29844450950138,
    "region": "전라남도"
  },
  {
    "name": "남포미술관",
    "address": "전라남도 고흥군 영남면 양사리 552",
    "lat": 34.60366757058398,
    "lng": 127.45663486866565,
    "region": "전라남도"
  },
  {
    "name": "과역중학교",
    "address": "전라남도 고흥군 과역면 과역리 535",
    "lat": 34.67581382512633,
    "lng": 127.35894054341247,
    "region": "전라남도"
  },
  {
    "name": "보성남초등학교 운동장",
    "address": "전라남도 보성군 보성읍 주봉리 226",
    "lat": 34.77022055437554,
    "lng": 127.07771480083464,
    "region": "전라남도"
  },
  {
    "name": "문덕초등학교 운동장",
    "address": "전라남도 보성군 문덕면 봉정리 277",
    "lat": 34.91981576234568,
    "lng": 127.17473298311234,
    "region": "전라남도"
  },
  {
    "name": "와룡체육공원",
    "address": "전라남도 곡성군 죽곡면 남양리 282-11",
    "lat": 35.15943590915115,
    "lng": 127.34109270958756,
    "region": "전라남도"
  },
  {
    "name": "군서초등학교",
    "address": "전라남도 영광군 군서면 남죽리 658",
    "lat": 35.2571613781433,
    "lng": 126.47772653822828,
    "region": "전라남도"
  },
  {
    "name": "서해초등학교 운동장",
    "address": "전라남도 목포시 연산동 1271",
    "lat": 34.81051259584414,
    "lng": 126.38129399850156,
    "region": "전라남도"
  },
  {
    "name": "유달초등학교 운동장",
    "address": "전라남도 목포시 유달동 8",
    "lat": 34.786070538207284,
    "lng": 126.37929521174355,
    "region": "전라남도"
  },
  {
    "name": "중앙고등학교 운동장",
    "address": "전라남도 목포시 대양동 208-4",
    "lat": 34.83498190436754,
    "lng": 126.42493620954606,
    "region": "전라남도"
  },
  {
    "name": "제일여자고등학교 운동장",
    "address": "전라남도 목포시 옥암동 983",
    "lat": 34.807487293732315,
    "lng": 126.43081619702498,
    "region": "전라남도"
  },
  {
    "name": "곡성중앙초등학교 운동장",
    "address": "전라남도 곡성군 곡성읍 읍내리 703",
    "lat": 35.284274154939816,
    "lng": 127.29171422458666,
    "region": "전라남도"
  },
  {
    "name": "오산초등학교 운동장",
    "address": "전라남도 곡성군 오산면 봉동리 500",
    "lat": 35.23877004374507,
    "lng": 127.12124281421885,
    "region": "전라남도"
  },
  {
    "name": "안좌중학교",
    "address": "전라남도 신안군 안좌면 창마리 290",
    "lat": 34.74475526122512,
    "lng": 126.12799894781526,
    "region": "전라남도"
  },
  {
    "name": "공설운동장",
    "address": "전라남도 화순군 화순읍 대리 460",
    "lat": 35.04951863863373,
    "lng": 126.96779470519469,
    "region": "전라남도"
  },
  {
    "name": "청풍초등학교 운동장",
    "address": "전라남도 화순군 청풍면 차리 270",
    "lat": 34.8755335820577,
    "lng": 126.97070664234182,
    "region": "전라남도"
  },
  {
    "name": "아산초등학교 운동장",
    "address": "전라남도 화순군 북면 이천리 55",
    "lat": 35.16877657629882,
    "lng": 127.13334775136231,
    "region": "전라남도"
  },
  {
    "name": "영암여자고등학교 운동장",
    "address": "전라남도 영암군 영암읍 동무리 4",
    "lat": 34.80316127178239,
    "lng": 126.70280529575174,
    "region": "전라남도"
  },
  {
    "name": "백수서초등학교",
    "address": "전라남도 영광군 백수읍 대전리 404",
    "lat": 35.282142023319956,
    "lng": 126.39656650132306,
    "region": "전라남도"
  },
  {
    "name": "증도초등학교",
    "address": "전라남도 신안군 증도면 증동리 1812-2",
    "lat": 35.0018739,
    "lng": 126.136542,
    "region": "전라남도"
  },
  {
    "name": "증도중학교",
    "address": "전라남도 신안군 증도면 증동리 1512",
    "lat": 34.99866848826811,
    "lng": 126.14437043666771,
    "region": "전라남도"
  },
  {
    "name": "동성공원",
    "address": "전라남도 순천시 연향동 1352",
    "lat": 34.94949925591121,
    "lng": 127.51724540306732,
    "region": "전라남도"
  },
  {
    "name": "신대23공원",
    "address": "전라남도 순천시 해룡면 신대리 2102",
    "lat": 34.92719624056352,
    "lng": 127.54677414894104,
    "region": "전라남도"
  },
  {
    "name": "득량남초등학교 운동장",
    "address": "전라남도 보성군 득량면 해평리 588",
    "lat": 34.75254517715965,
    "lng": 127.18675611273012,
    "region": "전라남도"
  },
  {
    "name": "신지동초등학교",
    "address": "전라남도 완도군 신지면 신상리 211",
    "lat": 34.32709647095669,
    "lng": 126.85130861107903,
    "region": "전라남도"
  },
  {
    "name": "소안중학교 운동장",
    "address": "전라남도 완도군 소안면 비자리 874",
    "lat": 34.173092808406004,
    "lng": 126.6559226840527,
    "region": "전라남도"
  },
  {
    "name": "대황강체육공원",
    "address": "전라남도 곡성군 석곡면 유정리 20-1",
    "lat": 35.124849554215224,
    "lng": 127.25361689710148,
    "region": "전라남도"
  },
  {
    "name": "삼계중학교",
    "address": "전라남도 장성군 삼계면 사창리 339",
    "lat": 35.258022706826864,
    "lng": 126.6662775846335,
    "region": "전라남도"
  },
  {
    "name": "사창초등학교",
    "address": "전라남도 장성군 삼계면 사창리 270",
    "lat": 35.26046351138967,
    "lng": 126.66607492882214,
    "region": "전라남도"
  },
  {
    "name": "도초고등학교",
    "address": "전라남도 신안군 도초면 수항리 1468",
    "lat": 34.703805,
    "lng": 125.9512298,
    "region": "전라남도"
  },
  {
    "name": "팔금초등학교",
    "address": "전라남도 신안군 팔금면 읍리 699",
    "lat": 34.78560918294482,
    "lng": 126.14430910744036,
    "region": "전라남도"
  },
  {
    "name": "암태초등학교",
    "address": "전라남도 신안군 암태면 단고리 266",
    "lat": 34.8291632649623,
    "lng": 126.10785853792027,
    "region": "전라남도"
  },
  {
    "name": "삼호서초등학교 운동장",
    "address": "전라남도 영암군 삼호읍 용당리 2178-1",
    "lat": 34.7456494461196,
    "lng": 126.37851926342445,
    "region": "전라남도"
  },
  {
    "name": "덕진초등학교 운동장",
    "address": "전라남도 영암군 덕진면 덕진리 310-2",
    "lat": 34.82129752138694,
    "lng": 126.69878050784595,
    "region": "전라남도"
  },
  {
    "name": "금정초등학교 운동장",
    "address": "전라남도 영암군 금정면 용흥리 1052",
    "lat": 34.86100184325687,
    "lng": 126.7534681854848,
    "region": "전라남도"
  },
  {
    "name": "북이초등학교",
    "address": "전라남도 장성군 북이면 신평리 5-1",
    "lat": 35.4331865152982,
    "lng": 126.8048345455691,
    "region": "전라남도"
  },
  {
    "name": "소안고등학교 운동장",
    "address": "전라남도 완도군 소안면 비자리 1247",
    "lat": 34.1746098548701,
    "lng": 126.65121138095851,
    "region": "전라남도"
  },
  {
    "name": "금당초등학교",
    "address": "전라남도 완도군 금당면 육산리 260",
    "lat": 34.440702317789714,
    "lng": 127.06146721833112,
    "region": "전라남도"
  },
  {
    "name": "약산초등학교",
    "address": "전라남도 완도군 약산면 장용리 931",
    "lat": 34.39368184406733,
    "lng": 126.89701706171037,
    "region": "전라남도"
  },
  {
    "name": "노화초등학교",
    "address": "전라남도 완도군 노화읍 도청리 324",
    "lat": 34.195442187491516,
    "lng": 126.57006573067841,
    "region": "전라남도"
  },
  {
    "name": "신지초등학교",
    "address": "전라남도 완도군 신지면 대곡리 850",
    "lat": 34.33722610409729,
    "lng": 126.83016978283202,
    "region": "전라남도"
  },
  {
    "name": "군외초등학교",
    "address": "전라남도 완도군 군외면 신학리 666",
    "lat": 34.379109380510315,
    "lng": 126.64659974674075,
    "region": "전라남도"
  },
  {
    "name": "노화중학교",
    "address": "전라남도 ���도군 노화읍 이포리 345",
    "lat": 34.18357915297576,
    "lng": 126.5732754828744,
    "region": "전라남도"
  },
  {
    "name": "소안항일기념관",
    "address": "전라남도 완도군 소안면 가학리 259",
    "lat": 34.1670823,
    "lng": 126.6519992,
    "region": "전라남도"
  },
  {
    "name": "금일중학교 생일분교",
    "address": "전라남도 완도군 생일면 유서리 626",
    "lat": 34.334970331717955,
    "lng": 126.99050360335102,
    "region": "전라남도"
  },
  {
    "name": "행동공원",
    "address": "전라남도 순천시 행동 65-7",
    "lat": 34.95520120480578,
    "lng": 127.48266234108961,
    "region": "전라남도"
  },
  {
    "name": "신대21공원",
    "address": "전라남도 순천시 해룡면 신대리 2090",
    "lat": 34.93119586260601,
    "lng": 127.55172254474131,
    "region": "전라남도"
  },
  {
    "name": "황룡중학교",
    "address": "전라남도 장성군 황룡면 장산리 402",
    "lat": 35.29706675714485,
    "lng": 126.75880783760866,
    "region": "전라남도"
  },
  {
    "name": "도화초등학교",
    "address": "전라남도 고흥군 도화면 당오리 518",
    "lat": 34.5105048493295,
    "lng": 127.31819839268209,
    "region": "전라남도"
  },
  {
    "name": "마량원포축구장",
    "address": "전라남도 강진군 마량면 원포리 222",
    "lat": 34.46438975888324,
    "lng": 126.83305801118736,
    "region": "전라남도"
  },
  {
    "name": "오산초등학교 운동장",
    "address": "전라남도 진도군 고군면 오산리 1048-3",
    "lat": 34.49183897963677,
    "lng": 126.3418636916799,
    "region": "전라남도"
  },
  {
    "name": "생영초등학교",
    "address": "전라남도 완도군 생일면 유서리 270",
    "lat": 34.33268837832286,
    "lng": 126.99664967802663,
    "region": "전라남도"
  },
  {
    "name": "조도초등학교 운동장",
    "address": "전라남도 진도군 조도면 창유리 458",
    "lat": 34.29618534817321,
    "lng": 126.04825778873524,
    "region": "전라남도"
  },
  {
    "name": "고금중학교 운동장",
    "address": "전라남도 완도군 고금면 농상리 365",
    "lat": 34.39401276486541,
    "lng": 126.80299151393147,
    "region": "전라남도"
  },
  {
    "name": "완도군체육공원",
    "address": "전라남도 완도군 완도읍 가용리 46",
    "lat": 34.317992900566416,
    "lng": 126.73688680997546,
    "region": "전라남도"
  },
  {
    "name": "완도군체육공원",
    "address": "전라남도 완도군 완도읍 가용리 50-21",
    "lat": 34.318856,
    "lng": 126.7356711,
    "region": "전라남도"
  },
  {
    "name": "입면초등학교 운동장",
    "address": "전라남도 곡성군 입면 송전리 573",
    "lat": 35.307266375491515,
    "lng": 127.18525982133268,
    "region": "전라남도"
  },
  {
    "name": "목포대학교 운동장",
    "address": "전라남도 무안군 청계면 도림리 61",
    "lat": 34.90851168986356,
    "lng": 126.43555791536457,
    "region": "전라남도"
  },
  {
    "name": "자은초등학교",
    "address": "전라남도 신안군 자은면 구영리 44",
    "lat": 34.890856633721505,
    "lng": 126.04814660309687,
    "region": "전라남도"
  },
  {
    "name": "장산중학교",
    "address": "전라남도 신안군 장산면 도창리 778",
    "lat": 34.64273677398454,
    "lng": 126.14133250727266,
    "region": "전라남도"
  },
  {
    "name": "춘양초등학교 운동장",
    "address": "전라남도 화순군 춘양면 석정리 239",
    "lat": 34.94956153046268,
    "lng": 126.95968838860783,
    "region": "전라남도"
  },
  {
    "name": "동복초등학교 운동장",
    "address": "전라남도 화순군 동복면 칠정리 702",
    "lat": 35.07203005415924,
    "lng": 127.1282478497352,
    "region": "전라남도"
  },
  {
    "name": "낭주중학교 운동장",
    "address": "전라남도 영암군 학산면 독천리 151",
    "lat": 34.72720646264594,
    "lng": 126.56730125183093,
    "region": "전라남도"
  },
  {
    "name": "겸백초등학교 운동장",
    "address": "전라남도 보성군 겸백면 석호리 559",
    "lat": 34.83127924504998,
    "lng": 127.15059329978598,
    "region": "전라남도"
  },
  {
    "name": "미력초등학교 운동장",
    "address": "전라남도 보성군 미력면 도개리 731",
    "lat": 34.79957798005636,
    "lng": 127.08617032579753,
    "region": "전라남도"
  },
  {
    "name": "심청체육공원",
    "address": "전라남도 곡성군 오산면 연화리 1080",
    "lat": 35.265094199717765,
    "lng": 127.12305134516454,
    "region": "전라남도"
  },
  {
    "name": "곡성고등학교 운동장",
    "address": "전라남도 곡성군 곡성읍 읍내리 446-1",
    "lat": 35.284585615544394,
    "lng": 127.29310770461336,
    "region": "전라남도"
  },
  {
    "name": "매산공원",
    "address": "전라남도 순천시 금곡동 315",
    "lat": 34.95639622775915,
    "lng": 127.4767750978499,
    "region": "전라남도"
  },
  {
    "name": "약수초등학교",
    "address": "전라남도 장성군 북하면 약수리 406",
    "lat": 35.408003849198074,
    "lng": 126.88055628823953,
    "region": "전라남도"
  },
  {
    "name": "삼서중학교",
    "address": "전라남도 장성군 삼서면 대곡리 297-1",
    "lat": 35.228797917251164,
    "lng": 126.6516386835147,
    "region": "전라남도"
  },
  {
    "name": "노동초등학교 운동장",
    "address": "전라남도 보성군 노동면 거석리 522",
    "lat": 34.82379375230484,
    "lng": 127.04894274473192,
    "region": "전라남도"
  },
  {
    "name": "문화운동장",
    "address": "전라남도 곡성군 곡성읍 읍내리 192-12",
    "lat": 35.28112668252935,
    "lng": 127.29741066414203,
    "region": "전라남도"
  },
  {
    "name": "옥과초등학교 운동장",
    "address": "전라남도 곡성군 옥과면 무창리 972",
    "lat": 35.27697223762365,
    "lng": 127.14244686412191,
    "region": "전라남도"
  },
  {
    "name": "압해초등학교",
    "address": "전라남도 신안군 압해읍 동서리 191",
    "lat": 34.86734681319767,
    "lng": 126.30905998207386,
    "region": "전라남도"
  },
  {
    "name": "안평중앙교회",
    "address": "전라남도 장성군 장성읍 안평리 419-34",
    "lat": 35.34064790990339,
    "lng": 126.77765482684265,
    "region": "전라남도"
  },
  {
    "name": "진원면행정복지센터",
    "address": "전라남도 장성군 진원면 선적리 128",
    "lat": 35.273077624450366,
    "lng": 126.8332331793206,
    "region": "전라남도"
  },
  {
    "name": "보성초등학교 운동장",
    "address": "전라남도 보성군 보성읍 보성리 806",
    "lat": 34.77118414929983,
    "lng": 127.07860782261095,
    "region": "전라남도"
  },
  {
    "name": "하멜기념관(외부공원)",
    "address": "전라남도 강진군 병영면 성동리 109",
    "lat": 34.719446429410205,
    "lng": 126.81853975720638,
    "region": "전라남도"
  },
  {
    "name": "압해동초등학교",
    "address": "전라남도 신안군 압해읍 신장리 518-1",
    "lat": 34.8408058,
    "lng": 126.3545597,
    "region": "전라남도"
  },
  {
    "name": "함평학다리고등학교",
    "address": "전라남도 함평군 함평읍 내교리 518",
    "lat": 35.05955511778061,
    "lng": 126.51554272595466,
    "region": "전라남도"
  },
  {
    "name": "해보초등학교",
    "address": "전라남도 함평군 해보면 금덕리 477",
    "lat": 35.1767071237322,
    "lng": 126.6027190431781,
    "region": "전라남도"
  },
  {
    "name": "벌교상업고등학교 운동장",
    "address": "전라남도 보성군 벌교읍 회정리 527",
    "lat": 34.846179377044855,
    "lng": 127.34949651771991,
    "region": "전라남도"
  },
  {
    "name": "석곡초등학교 운동장",
    "address": "전라남도 곡성군 석곡면 석곡리 8",
    "lat": 35.135041763980766,
    "lng": 127.25359342777134,
    "region": "전라남도"
  },
  {
    "name": "지명고등학교",
    "address": "전라남도 신안군 지도읍 읍내리 404-4",
    "lat": 35.06330508375352,
    "lng": 126.20228344557813,
    "region": "전라남도"
  },
  {
    "name": "월야초등학교",
    "address": "전라남도 함평군 월야면 월야리 1240",
    "lat": 35.17700621026829,
    "lng": 126.63268610611571,
    "region": "전라남도"
  },
  {
    "name": "조례호수공원",
    "address": "전라남도 순천시 조례동 1867",
    "lat": 34.96776004606643,
    "lng": 127.52423199724824,
    "region": "전라남도"
  },
  {
    "name": "장천공원",
    "address": "전라남도 순천시 장천동 81",
    "lat": 34.94881868356119,
    "lng": 127.48705365482765,
    "region": "전라남도"
  },
  {
    "name": "영암초등학교 운동장",
    "address": "전라남도 영암군 영암읍 회문리 186",
    "lat": 34.79660784906088,
    "lng": 126.68750126860364,
    "region": "전라남도"
  },
  {
    "name": "독천초등학교 운동장",
    "address": "전라남도 영암군 학산면 독천리 85",
    "lat": 34.72771360183803,
    "lng": 126.5648969371302,
    "region": "전라남도"
  },
  {
    "name": "고흥동초등학교",
    "address": "전라남도 고흥군 고흥읍 호형리 1287",
    "lat": 34.608748892295196,
    "lng": 127.290284585104,
    "region": "전라남도"
  },
  {
    "name": "고흥고등학교",
    "address": "전라남도 고흥군 고흥읍 호형리 1259-4",
    "lat": 34.60621904326101,
    "lng": 127.29354139920699,
    "region": "전라남도"
  },
  {
    "name": "다향고등학교 운동장",
    "address": "전라남도 보성군 보성읍 옥평리 770",
    "lat": 34.76349584200069,
    "lng": 127.09325015544891,
    "region": "전라남도"
  },
  {
    "name": "녹동고등학교",
    "address": "전라남도 고흥군 도양읍 용정리 1318",
    "lat": 34.53813723072631,
    "lng": 127.14166127067175,
    "region": "전라남도"
  },
  {
    "name": "풍양초등학교",
    "address": "전라남도 고흥군 풍양면 야막리 461-1",
    "lat": 34.57482380005824,
    "lng": 127.24288718886768,
    "region": "전라남도"
  },
  {
    "name": "도덕중학교",
    "address": "전라남도 고흥군 도덕면 신양리 1350",
    "lat": 34.574964779785645,
    "lng": 127.17522774161394,
    "region": "전라남도"
  },
  {
    "name": "금산초등학교",
    "address": "전라남도 고흥군 금산면 대흥리 391",
    "lat": 34.46196381805135,
    "lng": 127.1296164193279,
    "region": "전라남도"
  },
  {
    "name": "금산중학교",
    "address": "전라남도 고흥군 금산면 대흥리 320",
    "lat": 34.464535712322814,
    "lng": 127.12805795142383,
    "region": "전라남도"
  },
  {
    "name": "지도초등학교 선치분교",
    "address": "전라남도 신안군 지도읍 선도리 594-1",
    "lat": 34.9827526,
    "lng": 126.2637398,
    "region": "전라남도"
  },
  {
    "name": "신대22공원",
    "address": "전라남도 순천시 해룡면 신대리 2099",
    "lat": 34.92898802767323,
    "lng": 127.55095510652893,
    "region": "전라남도"
  },
  {
    "name": "풍덕공원",
    "address": "전라남도 순천시 풍덕동 1287",
    "lat": 34.93987746734502,
    "lng": 127.49852965641014,
    "region": "전라남도"
  },
  {
    "name": "연산초등학교 운동장",
    "address": "전라남도 목포시 연산동 1270",
    "lat": 34.81117386166886,
    "lng": 126.38059289128971,
    "region": "전라남도"
  },
  {
    "name": "대성초등학교 운동장",
    "address": "전라남도 목포시 대성동 212",
    "lat": 34.79942564386779,
    "lng": 126.38031413809485,
    "region": "전라남도"
  },
  {
    "name": "덕인중학교 운동장",
    "address": "전라남도 목포시 죽교동 30",
    "lat": 34.798495731258384,
    "lng": 126.37283283703225,
    "region": "전라남도"
  },
  {
    "name": "용해초등학교 운동장",
    "address": "전라남도 목포시 용해동 974",
    "lat": 34.81877811733616,
    "lng": 126.3964082125397,
    "region": "전라남도"
  },
  {
    "name": "한빛초등학교 운동장",
    "address": "전라남도 목포시 상동 887",
    "lat": 34.8033502371484,
    "lng": 126.42245177002422,
    "region": "전라남도"
  },
  {
    "name": "애향초등학교 운동장",
    "address": "전라남도 목포시 옥암동 1172",
    "lat": 34.809016424756685,
    "lng": 126.44185547812646,
    "region": "전라남도"
  },
  {
    "name": "율어초등학교 운동장",
    "address": "전라남도 보성군 율어면 문양리 274",
    "lat": 34.87259319714428,
    "lng": 127.18624137930503,
    "region": "전라남도"
  },
  {
    "name": "점암중앙중학교",
    "address": "전라남도 고흥군 점암면 모룡리 489",
    "lat": 34.65057361530987,
    "lng": 127.38350118441046,
    "region": "전라남도"
  },
  {
    "name": "완도군종합운동장",
    "address": "전라남도 완도군 완도읍 군내리 1256-2",
    "lat": 34.31646008612704,
    "lng": 126.74176567141888,
    "region": "전라남도"
  },
  {
    "name": "금일초등학교",
    "address": "전라남도 완도군 금일읍 신구리 680",
    "lat": 34.355046218895474,
    "lng": 127.03350010665129,
    "region": "전라남도"
  },
  {
    "name": "금일동초등학교",
    "address": "전라남도 완도군 금일읍 월송리 250",
    "lat": 34.3401307976331,
    "lng": 127.0555036798488,
    "region": "전라남도"
  },
  {
    "name": "노화고등학교",
    "address": "전라남도 완도군 노화읍 이포리 255",
    "lat": 34.181775984583766,
    "lng": 126.57786787879972,
    "region": "전라남도"
  },
  {
    "name": "신광중학교",
    "address": "전라남도 함평군 신광면 월암리 272",
    "lat": 35.15516323884476,
    "lng": 126.50070116563835,
    "region": "전라남도"
  },
  {
    "name": "엄다초등학교",
    "address": "전라남도 함평군 엄다면 엄다리 811-1",
    "lat": 35.01153672768363,
    "lng": 126.51367761383162,
    "region": "전라남도"
  },
  {
    "name": "나산초등학교",
    "address": "전라남도 함평군 나산면 삼축리 389-5",
    "lat": 35.116358796281055,
    "lng": 126.6063256042049,
    "region": "전라남도"
  },
  {
    "name": "풍남초등학교",
    "address": "전라남도 고흥군 풍양면 풍남리 955-1",
    "lat": 34.523331971985904,
    "lng": 127.24472978866596,
    "region": "전라남도"
  },
  {
    "name": "대서중학교",
    "address": "전라남도 고흥군 대서면 화산리 1305",
    "lat": 34.77433782037014,
    "lng": 127.28641128957072,
    "region": "전라남도"
  },
  {
    "name": "임자초등학교",
    "address": "전라남도 신안군 임자면 대기리 348",
    "lat": 35.08988675868052,
    "lng": 126.10144507790322,
    "region": "전라남도"
  },
  {
    "name": "안좌초등학교",
    "address": "전라남도 신안군 안좌면 읍동리 1014",
    "lat": 34.754382676706726,
    "lng": 126.12459552259334,
    "region": "전라남도"
  },
  {
    "name": "화순중학교 운동장",
    "address": "전라남도 화순군 화순읍 대리 97-5",
    "lat": 35.056597745937836,
    "lng": 126.97807478848908,
    "region": "전라남도"
  },
  {
    "name": "사평초등학교 운동장",
    "address": "전라남도 화순군 사평면 사평리 940-1",
    "lat": 35.0084994699057,
    "lng": 127.093184574304,
    "region": "전라남도"
  },
  {
    "name": "법성포초등학교",
    "address": "전라남도 영광군 법성면 대덕리 526",
    "lat": 35.359827226621704,
    "lng": 126.45484332492484,
    "region": "전라남도"
  },
  {
    "name": "구림초등학교 운동장",
    "address": "전라남도 영암군 군서면 동구림리 93-1",
    "lat": 34.76332132293246,
    "lng": 126.63233295359491,
    "region": "전라남도"
  },
  {
    "name": "용호초등학교 운동장",
    "address": "전라남도 목포시 용당동 1028-7",
    "lat": 34.799656289159266,
    "lng": 126.400690482557,
    "region": "전라남도"
  },
  {
    "name": "복내초등학교 운동장",
    "address": "전라남도 보성군 복내면 복내리 322",
    "lat": 34.8984352380343,
    "lng": 127.12785936779824,
    "region": "전라남도"
  },
  {
    "name": "신북초등학교 운동장",
    "address": "전라남도 영암군 신북면 월평리 13",
    "lat": 34.891099098814465,
    "lng": 126.69640700838102,
    "region": "전라남도"
  },
  {
    "name": "몽탄초등학교 운동장",
    "address": "전라남도 무안군 몽탄면 사천리 170",
    "lat": 34.92882818124237,
    "lng": 126.50144676762793,
    "region": "전라남도"
  },
  {
    "name": "두모체육공원",
    "address": "전라남도 신안군 자은면 송산리 산65",
    "lat": 34.910369277348906,
    "lng": 126.05273276567361,
    "region": "전라남도"
  },
  {
    "name": "비금동초등학교",
    "address": "전라남도 신안군 비금면 용소리 238-2",
    "lat": 34.7843075,
    "lng": 125.9798055,
    "region": "전라남도"
  },
  {
    "name": "팔금중학교",
    "address": "전라남도 신안군 팔금면 읍리 502-1",
    "lat": 34.78485480848201,
    "lng": 126.14468255839427,
    "region": "전라남도"
  },
  {
    "name": "서부초등학교 운동장",
    "address": "전라남도 목포시 산정동 1061-2",
    "lat": 34.80313443431532,
    "lng": 126.37202003518813,
    "region": "전라남도"
  },
  {
    "name": "북일초등학교",
    "address": "전라남도 장성군 북일면 오산리 106-1",
    "lat": 35.38464049234392,
    "lng": 126.79421299756929,
    "region": "전라남도"
  },
  {
    "name": "약수중학교",
    "address": "전라남도 장성군 북하면 약수리 428-1",
    "lat": 35.40672859888256,
    "lng": 126.88063079405582,
    "region": "전라남도"
  },
  {
    "name": "사거리성당",
    "address": "전라남도 장성군 북이면 사거리 651-4",
    "lat": 35.42777129146984,
    "lng": 126.80893534520858,
    "region": "전라남도"
  },
  {
    "name": "약수교회",
    "address": "전라남도 장성군 북하면 약수리 389-13",
    "lat": 35.40747431912757,
    "lng": 126.88117319637371,
    "region": "전라남도"
  },
  {
    "name": "청계초등학교 운동장",
    "address": "전라남도 무안군 청계면 상마리 36-1",
    "lat": 34.925449388647145,
    "lng": 126.42866365152653,
    "region": "전라남도"
  },
  {
    "name": "현경초등학교 운동장",
    "address": "전라남도 무안군 현경면 외반리 192-3",
    "lat": 35.019208882436715,
    "lng": 126.41405747667953,
    "region": "전라남도"
  },
  {
    "name": "망운초등학교 운동장",
    "address": "전라남도 무안군 망운면 목동리 664-1",
    "lat": 35.015780239236555,
    "lng": 126.39291664993671,
    "region": "전라남도"
  },
  {
    "name": "자은중학교",
    "address": "전라남도 신안군 자은면 구영리 120",
    "lat": 34.88819523928188,
    "lng": 126.04330593282528,
    "region": "전라남도"
  },
  {
    "name": "화순초등학교 운동장",
    "address": "전라남도 화순군 화순읍 교리 84",
    "lat": 35.06542751117789,
    "lng": 126.98478865502958,
    "region": "전라남도"
  },
  {
    "name": "북면중학교 운동장",
    "address": "전라남도 화순군 북면 이천리 26",
    "lat": 35.165755418483364,
    "lng": 127.13469609931234,
    "region": "전라남도"
  },
  {
    "name": "삼서초등학교",
    "address": "전라남도 장성군 삼서면 대곡리 320-1",
    "lat": 35.229778981744616,
    "lng": 126.65369504376177,
    "region": "전라남도"
  },
  {
    "name": "장성소망교회",
    "address": "전라남도 장성군 장성읍 장안리 252",
    "lat": 35.314806502956614,
    "lng": 126.78374046122713,
    "region": "전라남도"
  },
  {
    "name": "홍길동체육관",
    "address": "전라남도 장성군 장성읍 기산리 388",
    "lat": 35.303118261933506,
    "lng": 126.76681870210221,
    "region": "전라남도"
  },
  {
    "name": "동면초등학교 운동장",
    "address": "전라남도 화순군 동면 장동리 351",
    "lat": 35.031417667693034,
    "lng": 127.04313425911418,
    "region": "전라남도"
  },
  {
    "name": "시종초등학교 운동장",
    "address": "전라남도 영암군 시종면 내동리 10-2",
    "lat": 34.86701567318302,
    "lng": 126.60748520490593,
    "region": "전라남도"
  },
  {
    "name": "동화면행정복지센터",
    "address": "전라남도 장성군 동화면 구림리 9-2",
    "lat": 35.28409633301508,
    "lng": 126.73876875554373,
    "region": "전라남도"
  },
  {
    "name": "석교초등학교 운동장",
    "address": "전라남도 진도군 임회면 석교리 416",
    "lat": 34.40553023610771,
    "lng": 126.1917263150628,
    "region": "전라남도"
  },
  {
    "name": "지산초등학교 운동장",
    "address": "전라남도 진도군 지산면 인지리 240-2",
    "lat": 34.421776668599136,
    "lng": 126.1667545447093,
    "region": "전라남도"
  },
  {
    "name": "고금초등학교 운동장",
    "address": "전라남도 완도군 고금면 덕암리 644",
    "lat": 34.397150546987554,
    "lng": 126.80030983743015,
    "region": "전라남도"
  },
  {
    "name": "약산중고등학교",
    "address": "전라남도 완도군 약산면 장용리 850",
    "lat": 34.39289756226205,
    "lng": 126.89908202822882,
    "region": "전라남도"
  },
  {
    "name": "동진리경로당 주차장",
    "address": "전라남도 완도군 소안면 진산리 1067-1",
    "lat": 34.13493175801176,
    "lng": 126.6478767427506,
    "region": "전라남도"
  },
  {
    "name": "보길초등학교",
    "address": "전라남도 완도군 보길면 부황리 202",
    "lat": 34.162384411927114,
    "lng": 126.55533230989715,
    "region": "전라남도"
  },
  {
    "name": "고금고등학교 운동장",
    "address": "전라남도 완도군 고금면 덕암리 775",
    "lat": 34.40070325765448,
    "lng": 126.80428887567933,
    "region": "전라남도"
  },
  {
    "name": "일몰공원",
    "address": "전라남도 완도군 군외면 대문리 189-3",
    "lat": 34.36173831401193,
    "lng": 126.64196689008305,
    "region": "전라남도"
  },
  {
    "name": "소안초등학교",
    "address": "전라남도 완도군 소안면 비자리 940",
    "lat": 34.17198692965162,
    "lng": 126.65376283424702,
    "region": "전라남도"
  },
  {
    "name": "미소공원",
    "address": "전라남도 완도군 군외면 당인리 산49-34",
    "lat": 34.32615125415063,
    "lng": 126.66276834800277,
    "region": "전라남도"
  },
  {
    "name": "신지중학교",
    "address": "전라남도 완도군 신지면 대곡리 781-1",
    "lat": 34.33673090199709,
    "lng": 126.82864171226488,
    "region": "전라남도"
  },
  {
    "name": "청산초등학교",
    "address": "전라남도 완도군 청산면 도청리 988",
    "lat": 34.18271974160132,
    "lng": 126.85886086684262,
    "region": "전라남도"
  },
  {
    "name": "윤선도문학체험공원",
    "address": "전라남도 완도군 보길면 부황리 산63",
    "lat": 34.15974964841951,
    "lng": 126.55257582664481,
    "region": "전라남도"
  },
  {
    "name": "노화중앙초등학교",
    "address": "전라남도 완도군 노화읍 이포리 674",
    "lat": 34.178801391873,
    "lng": 126.57212379391466,
    "region": "전라남도"
  },
  {
    "name": "노화북초등학교",
    "address": "전라남도 완도군 노화읍 신양리 452-1",
    "lat": 34.21576766900109,
    "lng": 126.57763710127793,
    "region": "전라남도"
  },
  {
    "name": "청산중학교",
    "address": "전라남도 완도군 청산면 도청리 220",
    "lat": 34.181400761240944,
    "lng": 126.86379372728875,
    "region": "전라남도"
  },
  {
    "name": "보길중학교",
    "address": "전라남도 완도군 보길면 부황리 11-3",
    "lat": 34.168278655286684,
    "lng": 126.56337801077446,
    "region": "전라남도"
  },
  {
    "name": "갯바람공원",
    "address": "전라남도 완도군 군외면 당인리 427-1",
    "lat": 34.337394491401604,
    "lng": 126.64826240132787,
    "region": "전라남도"
  },
  {
    "name": "보길동초등학교",
    "address": "전라남도 완도군 보길면 중통리 379-1",
    "lat": 34.16347759247198,
    "lng": 126.5914925335031,
    "region": "전라남도"
  },
  {
    "name": "왕곡초등학교 운동장",
    "address": "전라남도 나주시 왕곡면 월천리 206",
    "lat": 34.96279878062741,
    "lng": 126.65489296417631,
    "region": "전라남도"
  },
  {
    "name": "공산초등학교 운동장",
    "address": "전라남도 나주시 공산면 금곡리 780",
    "lat": 34.9408700795633,
    "lng": 126.61310763193804,
    "region": "전라남도"
  },
  {
    "name": "장흥실내체육관 공설운동장",
    "address": "전라남도 장흥군 장흥읍 충열리 200",
    "lat": 34.66898461336491,
    "lng": 126.89156994840172,
    "region": "전라남도"
  },
  {
    "name": "해남군축구전용구장2",
    "address": "전라남도 해남군 해남읍 해리 4-8",
    "lat": 34.5686432964053,
    "lng": 126.61895553634847,
    "region": "전라남도"
  },
  {
    "name": "서정초등학교운동장",
    "address": "전라남도 해남군 송지면 서정리 90",
    "lat": 34.3889794508196,
    "lng": 126.56115198418625,
    "region": "전라남도"
  },
  {
    "name": "유치초중학교 운동장",
    "address": "전라남도 장흥군 유치면 조양리 695",
    "lat": 34.802488421232724,
    "lng": 126.83552792861992,
    "region": "전라남도"
  },
  {
    "name": "율촌초등학교 운동장",
    "address": "전라남도 여수시 율촌면 조화리 182",
    "lat": 34.88272786953376,
    "lng": 127.57650488645234,
    "region": "전라남도"
  },
  {
    "name": "거문초등학교 운동장",
    "address": "전라남도 여수시 삼산면 서도리 25",
    "lat": 34.0557769799445,
    "lng": 127.29628536792144,
    "region": "전라남도"
  },
  {
    "name": "봉산초등학교 운동장",
    "address": "전라남도 여수시 봉산동 12",
    "lat": 34.735035242712115,
    "lng": 127.72748678755806,
    "region": "전라남도"
  },
  {
    "name": "여수정보과학고등학교 운동장",
    "address": "전라남도 여수시 문수동 182",
    "lat": 34.75231391443686,
    "lng": 127.69880983271528,
    "region": "전라남도"
  },
  {
    "name": "봉덕초등학교 운동장",
    "address": "전라남도 여수시 돌산읍 죽포리 1623",
    "lat": 34.64207764849735,
    "lng": 127.77834170978709,
    "region": "전라남도"
  },
  {
    "name": "여안초등학교 운동장(폐교)",
    "address": "전라남도 여수시 남면 안도리 991",
    "lat": 34.48547478434974,
    "lng": 127.8055465404163,
    "region": "전라남도"
  },
  {
    "name": "종고초등학교 운동장",
    "address": "전라남도 여수시 덕충동 111",
    "lat": 34.74989160288285,
    "lng": 127.74379583827593,
    "region": "전라남도"
  },
  {
    "name": "옥룡초등학교 운동장",
    "address": "전라남도 광양시 옥룡면 운평리 624-4",
    "lat": 35.01547765636387,
    "lng": 127.61825529487591,
    "region": "전라남도"
  },
  {
    "name": "상암초등학교 묘도분교장 운동장",
    "address": "전라남도 여수시 묘도동 910-1",
    "lat": 34.875288180765466,
    "lng": 127.7094266588012,
    "region": "전라남도"
  },
  {
    "name": "나주실내체육관 주차장",
    "address": "전라남도 나주시 송월동 1107-1",
    "lat": 35.01235445381037,
    "lng": 126.7124352684833,
    "region": "전라남도"
  },
  {
    "name": "성황초등학교 운동장",
    "address": "전라남도 광양시 성황동 342",
    "lat": 34.94024594573033,
    "lng": 127.68267832673284,
    "region": "전라남도"
  },
  {
    "name": "신풍초등학교 운동장",
    "address": "전라남도 여수시 율촌면 신풍리 1006",
    "lat": 34.843385588073936,
    "lng": 127.60965707432123,
    "region": "전라남도"
  },
  {
    "name": "거문중학교 운동장",
    "address": "전라남도 여수시 삼산면 덕촌리 811",
    "lat": 34.02478003419757,
    "lng": 127.30307779780118,
    "region": "전라남도"
  },
  {
    "name": "여수동초등학교 운동장",
    "address": "전라남도 여수시 공화동 1181",
    "lat": 34.746983857173426,
    "lng": 127.74080796516556,
    "region": "전라남도"
  },
  {
    "name": "여수진남초등학교 운동장",
    "address": "전라남도 여수시 광무동 819",
    "lat": 34.751827007066176,
    "lng": 127.7269050853396,
    "region": "전라남도"
  },
  {
    "name": "부영초등학교 운동장",
    "address": "전라남도 여수시 여서동 592",
    "lat": 34.74551267467212,
    "lng": 127.7003376914006,
    "region": "전라남도"
  },
  {
    "name": "여천고등학교 운동장",
    "address": "전라남도 여수시 선원동 54",
    "lat": 34.771109146225015,
    "lng": 127.6616112544485,
    "region": "전라남도"
  },
  {
    "name": "철조각공원",
    "address": "전라남도 광양시 금호동 716",
    "lat": 34.94028627756372,
    "lng": 127.73192730342487,
    "region": "전라남도"
  },
  {
    "name": "빛가람초등학교 운동장",
    "address": "전라남도 나주시 빛가람동 625",
    "lat": 35.0081239845355,
    "lng": 126.78560685993207,
    "region": "전라남도"
  },
  {
    "name": "영산포여자중학교 운동장",
    "address": "전라남도 나주시 이창동 136",
    "lat": 34.99683271414782,
    "lng": 126.71173888653807,
    "region": "전라남도"
  },
  {
    "name": "다압초등학교 운동장",
    "address": "전라남도 광양시 다압면 고사리 1106",
    "lat": 35.12064136199795,
    "lng": 127.69186050427582,
    "region": "전라남도"
  },
  {
    "name": "나진초등학교 운동장",
    "address": "전라남도 여수시 화양면 나진리 463",
    "lat": 34.70868711812652,
    "lng": 127.61223373902406,
    "region": "전라남도"
  },
  {
    "name": "중앙초등학교 운동장",
    "address": "전라남도 여수시 종화동 943",
    "lat": 34.7409437454214,
    "lng": 127.74425999284861,
    "region": "전라남도"
  },
  {
    "name": "여수서초등학교 운동장",
    "address": "전라남도 여수시 서교동 898",
    "lat": 34.741382731909866,
    "lng": 127.72496129385416,
    "region": "전라남도"
  },
  {
    "name": "순천이수초등학교 운동장",
    "address": "전라남도 순천시 조례동 1283",
    "lat": 34.94999199454369,
    "lng": 127.51186539946447,
    "region": "전라남도"
  },
  {
    "name": "광의초등학교 운동장",
    "address": "전라남도 구례군 광의면 연파리 271",
    "lat": 35.25912472598923,
    "lng": 127.44554221630096,
    "region": "전라남도"
  },
  {
    "name": "구례고등학교 운동장",
    "address": "전라남도 구례군 구례읍 봉남리 54",
    "lat": 35.20444731415429,
    "lng": 127.46331590379938,
    "region": "전라남도"
  },
  {
    "name": "봉강초등학교 운동장",
    "address": "전라남도 광양시 봉강면 봉당리 468-2",
    "lat": 35.01215027510938,
    "lng": 127.5814282981642,
    "region": "전라남도"
  },
  {
    "name": "여문공원",
    "address": "전라남도 여수시 문수동 169",
    "lat": 34.753872733610685,
    "lng": 127.70128279924393,
    "region": "전라남도"
  },
  {
    "name": "칠성초등학�� 운동장",
    "address": "전라남도 광양시 광양읍 칠성리 1006",
    "lat": 34.9790185448964,
    "lng": 127.57884480817397,
    "region": "전라남도"
  },
  {
    "name": "남초등학교 운동장",
    "address": "전라남도 여수시 국동 513",
    "lat": 34.73101018053101,
    "lng": 127.71997638447212,
    "region": "전라남도"
  },
  {
    "name": "여수문수중학교 운동장",
    "address": "전라남도 여수시 문수동 171",
    "lat": 34.75353149848683,
    "lng": 127.70018199315874,
    "region": "전라남도"
  },
  {
    "name": "용방초등학교 운동장",
    "address": "전라남도 구례군 용방면 용정리 199-2",
    "lat": 35.25057100534726,
    "lng": 127.43330595125383,
    "region": "전라남도"
  },
  {
    "name": "부영여자고등학교 운동장",
    "address": "전라남도 여수시 안산동 657-1",
    "lat": 34.75880098659503,
    "lng": 127.65166776700545,
    "region": "전라남도"
  },
  {
    "name": "중동근린공원",
    "address": "전라남도 광양시 중동 1673",
    "lat": 34.934176333425064,
    "lng": 127.69290952847882,
    "region": "전라남도"
  },
  {
    "name": "가야초등학교 운동장",
    "address": "전라남도 광양시 광영동 250",
    "lat": 34.96683358737286,
    "lng": 127.71314207038036,
    "region": "전라남도"
  },
  {
    "name": "산동중학교 운동장",
    "address": "전라남도 구례군 산동면 원촌리 341",
    "lat": 35.31565295377794,
    "lng": 127.43531051411156,
    "region": "전라남도"
  },
  {
    "name": "안심초등학교 운동장",
    "address": "전라남도 여수시 소호동 428",
    "lat": 34.739855385414245,
    "lng": 127.64679277267636,
    "region": "전라남도"
  },
  {
    "name": "여남초등학교 운동장",
    "address": "전라남도 여수시 남면 우학리 263",
    "lat": 34.51168256826483,
    "lng": 127.76636466283556,
    "region": "전라남도"
  },
  {
    "name": "구례여자중학교 운동장",
    "address": "전라남도 구례군 구례읍 봉남리 106",
    "lat": 35.20564127033431,
    "lng": 127.4635681958811,
    "region": "전라남도"
  },
  {
    "name": "전라남도자연탐구수련원 지리산학생수련장 운동장",
    "address": "전라남도 구례군 광의면 수월리 494",
    "lat": 35.24730732072011,
    "lng": 127.46363031536765,
    "region": "전라남도"
  },
  {
    "name": "전남자연과학고등학교 운동장",
    "address": "전라남도 구례군 구례읍 봉서리 1066",
    "lat": 35.199911938794344,
    "lng": 127.46248304843904,
    "region": "전라남도"
  },
  {
    "name": "세풍초등학교 운동장",
    "address": "전라남도 광양시 광양읍 세풍리 210",
    "lat": 34.94338214571192,
    "lng": 127.58222222327872,
    "region": "전라남도"
  },
  {
    "name": "소라초등학교 운동장",
    "address": "전라남도 여수시 소라면 덕양리 1220",
    "lat": 34.79584887912416,
    "lng": 127.63121055304106,
    "region": "전라남도"
  },
  {
    "name": "연도초등학교 운동장",
    "address": "전라남도 여수시 남면 연도리 424",
    "lat": 34.43271745228929,
    "lng": 127.8008433504385,
    "region": "전라남도"
  },
  {
    "name": "구봉초등학교 운동장",
    "address": "전라남도 여수시 국동 823",
    "lat": 34.73580175802193,
    "lng": 127.71433171452212,
    "region": "전라남도"
  },
  {
    "name": "광영초등학교 운동장",
    "address": "전라남도 광양시 광영동 75",
    "lat": 34.963354387209286,
    "lng": 127.72025542686063,
    "region": "전라남도"
  },
  {
    "name": "진남여자중학교 운동장",
    "address": "전라남도 여수시 미평동 328",
    "lat": 34.77010422394119,
    "lng": 127.70651711968561,
    "region": "전라남도"
  },
  {
    "name": "쌍봉초등학교 운동장",
    "address": "전라남도 여수시 학동 238",
    "lat": 34.76357034888309,
    "lng": 127.66793616704973,
    "region": "전라남도"
  },
  {
    "name": "신기초등학교 운동장",
    "address": "전라남도 여수시 신기동 75-3",
    "lat": 34.76079879049995,
    "lng": 127.67564270090644,
    "region": "전라남도"
  },
  {
    "name": "웅천초등학교 운동장",
    "address": "전라남도 여수시 웅천동 1674",
    "lat": 34.74990947139152,
    "lng": 127.67472184277902,
    "region": "전라남도"
  },
  {
    "name": "영산포초등학교 운동장",
    "address": "전라남도 나주시 이창동 178",
    "lat": 34.993516935379255,
    "lng": 126.71463813176463,
    "region": "전라남도"
  },
  {
    "name": "구례동중학교 운동장",
    "address": "전라남도 구례군 토지면 파도리 25",
    "lat": 35.1924782321285,
    "lng": 127.54577604400093,
    "region": "전라남도"
  },
  {
    "name": "개도중학교 운동장",
    "address": "전라남도 여수시 화정면 개도리 1057",
    "lat": 34.571445777155915,
    "lng": 127.65949130058603,
    "region": "전라남도"
  },
  {
    "name": "구봉중학교 운동장",
    "address": "전라남도 여수시 국동 878",
    "lat": 34.7318772837228,
    "lng": 127.71459151430707,
    "region": "전라남도"
  },
  {
    "name": "신월초등학교 운동장",
    "address": "전라남도 여수시 신월동 9-22",
    "lat": 34.72702778047346,
    "lng": 127.7139621755697,
    "region": "전라남도"
  },
  {
    "name": "양지초등학교 운동장",
    "address": "전라남도 여수시 미평동 762",
    "lat": 34.77260337245378,
    "lng": 127.70108577652758,
    "region": "전라남도"
  },
  {
    "name": "곡성중학교 운동장",
    "address": "전라남도 곡성군 곡성읍 읍내리 726-1",
    "lat": 35.28141930984738,
    "lng": 127.2891322179172,
    "region": "전라남도"
  },
  {
    "name": "이양초등학교 운동장",
    "address": "전라남도 화순군 이양면 이양리 317",
    "lat": 34.88341510947836,
    "lng": 126.98854644212757,
    "region": "전라남도"
  },
  {
    "name": "능주고등학교 운동장",
    "address": "전라남도 화순군 능주면 잠정리 106",
    "lat": 34.9856510027376,
    "lng": 126.95858271680548,
    "region": "전라남도"
  },
  {
    "name": "도포중학교 운동장",
    "address": "전라남도 영암군 도포면 구학리 370-3",
    "lat": 34.849206673125806,
    "lng": 126.64280292908285,
    "region": "전라남도"
  },
  {
    "name": "전남체육중고등학교 운동장",
    "address": "전라남도 무안군 일로읍 월암리 16-4",
    "lat": 34.844543818908754,
    "lng": 126.49737936648583,
    "region": "전라남도"
  },
  {
    "name": "강진군 축구전용구장(남포축구장)",
    "address": "전라남도 강진군 강진읍 남포리 548",
    "lat": 34.61992195676118,
    "lng": 126.77373043948278,
    "region": "전라남도"
  },
  {
    "name": "임자고등학교",
    "address": "전라남도 신안군 임자면 대기리 353",
    "lat": 35.0903704,
    "lng": 126.0990949,
    "region": "전라남도"
  },
  {
    "name": "안좌고등학교",
    "address": "전라남도 신안군 안좌면 읍동리 499-3",
    "lat": 34.74988300288544,
    "lng": 126.1296738384694,
    "region": "전라남도"
  },
  {
    "name": "불갑초등학교",
    "address": "전라남도 영광군 불갑면 쌍운리 404",
    "lat": 35.21121703400916,
    "lng": 126.50772996975644,
    "region": "전라남도"
  },
  {
    "name": "동초등학교 운동장",
    "address": "전라남도 목포시 산정동 270-1",
    "lat": 34.80942163040397,
    "lng": 126.38751848701376,
    "region": "전라남도"
  },
  {
    "name": "항도여자중학교 운동장",
    "address": "전라남도 목포시 상동 327",
    "lat": 34.81624115082421,
    "lng": 126.41124561021917,
    "region": "전라남도"
  },
  {
    "name": "옥암초등학교 운동장",
    "address": "전라남도 목포시 옥암동 1270",
    "lat": 34.81122748119189,
    "lng": 126.45281820885475,
    "region": "전라남도"
  },
  {
    "name": "함평골프고등학교",
    "address": "전라남도 함평군 학교면 사거리 460",
    "lat": 35.02666645827233,
    "lng": 126.53568802218008,
    "region": "전라남도"
  },
  {
    "name": "미암초등학교 운동장",
    "address": "전라남도 영암군 미암면 선황리 1190-1",
    "lat": 34.69994115606238,
    "lng": 126.57401225068261,
    "region": "전라남도"
  },
  {
    "name": "조성초등학교 운동장",
    "address": "전라남도 보성군 조성면 조성리 683-1",
    "lat": 34.80961682383614,
    "lng": 127.24836576537331,
    "region": "전라남도"
  },
  {
    "name": "곡성생활체육공원(동악체육공원)",
    "address": "전라남도 곡성군 곡성읍 교촌리 47",
    "lat": 35.28262901965767,
    "lng": 127.28493773513657,
    "region": "전라남도"
  },
  {
    "name": "흑산초등학교 홍도분교",
    "address": "전라남도 신안군 흑산면 홍도리 95-2",
    "lat": 34.6851755,
    "lng": 125.1924403,
    "region": "전라남도"
  },
  {
    "name": "한천초등학교 운동장",
    "address": "전라남도 화순군 한천면 한계리 183",
    "lat": 34.97907681325868,
    "lng": 127.00405213752694,
    "region": "전라남도"
  },
  {
    "name": "도곡초등학교 운동장",
    "address": "전라남도 화순군 도곡면 천암리 191",
    "lat": 35.01310446023031,
    "lng": 126.90867240310305,
    "region": "전라남도"
  },
  {
    "name": "천태초등학교 운동장",
    "address": "전라남도 화순군 도암면 원천리 252",
    "lat": 34.945355806913575,
    "lng": 126.89343805608554,
    "region": "전라남도"
  },
  {
    "name": "무안고등학교 운동장",
    "address": "전라남도 무안군 무안읍 성남리 1000",
    "lat": 34.98181665123638,
    "lng": 126.46726306324157,
    "region": "전라남도"
  },
  {
    "name": "남악초등학교 운동장",
    "address": "전라남도 무안군 삼향읍 남악리 1587",
    "lat": 34.81243005436664,
    "lng": 126.4740720612415,
    "region": "전라남도"
  },
  {
    "name": "강진군 축구전용구장(다산구장)",
    "address": "전라남도 강진군 군동면 호계리 1091",
    "lat": 34.648467005563006,
    "lng": 126.7808988033394,
    "region": "전라남도"
  },
  {
    "name": "강진군 축구전용구장(하멜구장)",
    "address": "전라남도 강진군 강진읍 교촌리 211-1",
    "lat": 34.64479964187998,
    "lng": 126.78038310658089,
    "region": "전라남도"
  },
  {
    "name": "흑산초등학교",
    "address": "전라남도 신안군 흑산면 진리 477",
    "lat": 34.6841346,
    "lng": 125.4273365,
    "region": "전라남도"
  },
  {
    "name": "신의중학교",
    "address": "전라남도 신안군 신의면 상태동리 420-1",
    "lat": 34.5902353394793,
    "lng": 126.07980263079386,
    "region": "전라남도"
  },
  {
    "name": "손불중학교",
    "address": "전라남도 함평군 손불면 대전리 636",
    "lat": 35.14405428377296,
    "lng": 126.42782695494786,
    "region": "전라남도"
  },
  {
    "name": "이서초등학교 운동장",
    "address": "전라남도 화순군 이서면 영평리 282-1",
    "lat": 35.117384519625254,
    "lng": 127.04446804828095,
    "region": "전라남도"
  },
  {
    "name": "국민체육센터",
    "address": "전라남도 영광군 영광읍 단주리 673",
    "lat": 35.28866193259367,
    "lng": 126.49627268357365,
    "region": "전라남도"
  },
  {
    "name": "염산초등학교",
    "address": "전라남도 영광군 염산면 봉남리 195",
    "lat": 35.220615846722986,
    "lng": 126.36686210681245,
    "region": "전라남도"
  },
  {
    "name": "이로초등학교 운동장",
    "address": "전라남도 목포시 용해동 240-2",
    "lat": 34.80480038883732,
    "lng": 126.40665576431375,
    "region": "전라남도"
  },
  {
    "name": "상동초등학교 운동장",
    "address": "전라남도 목포시 상동 364",
    "lat": 34.813729224216495,
    "lng": 126.41189054373918,
    "region": "전라남도"
  },
  {
    "name": "하당초등학교 운동장",
    "address": "전라남도 목포시 상동 820",
    "lat": 34.80629064120779,
    "lng": 126.41922312045286,
    "region": "전라남도"
  },
  {
    "name": "벌교고등학교 운동장",
    "address": "전라남도 보성군 벌교읍 장좌리 511",
    "lat": 34.834425837872075,
    "lng": 127.34273850917819,
    "region": "전라남도"
  },
  {
    "name": "장성남중학교",
    "address": "전라남도 장성군 남면 분향리 335",
    "lat": 35.24324737283395,
    "lng": 126.81160221542007,
    "region": "전라남도"
  },
  {
    "name": "계곡초등학교운동장",
    "address": "전라남도 해남군 계곡면 성진리 231-1",
    "lat": 34.645726283196794,
    "lng": 126.65612514381048,
    "region": "전라남도"
  },
  {
    "name": "나주초등학교 운동장",
    "address": "전라남도 나주시 남외동 128",
    "lat": 35.027093840405946,
    "lng": 126.71904799769062,
    "region": "전라남도"
  },
  {
    "name": "골약초등학교 운동장",
    "address": "전라남도 광양시 황길동 827",
    "lat": 34.91014730669014,
    "lng": 127.6604808656238,
    "region": "전라남도"
  },
  {
    "name": "황산초등학교운동장",
    "address": "전라남도 해남군 황산면 남리리 31-32",
    "lat": 34.5760443308145,
    "lng": 126.427476303533,
    "region": "전라남도"
  },
  {
    "name": "옥천초등학교운동장",
    "address": "전라남도 해남군 옥천면 영춘리 573-1",
    "lat": 34.567922298479054,
    "lng": 126.64970711191545,
    "region": "전라남도"
  },
  {
    "name": "옴천초등학교 운동장",
    "address": "전라남도 강진군 옴천면 개산리 245",
    "lat": 34.744842298050806,
    "lng": 126.79547039716884,
    "region": "전라남도"
  },
  {
    "name": "북평초등학교운동장",
    "address": "전라남도 해남군 북평면 남창리 142",
    "lat": 34.40792635324236,
    "lng": 126.63134180214195,
    "region": "전라남도"
  },
  {
    "name": "남산초등학교 운동장",
    "address": "전라남도 여수시 남산동 765",
    "lat": 34.737165827193714,
    "lng": 127.72996188787825,
    "region": "전라남도"
  },
  {
    "name": "도암초등학교 운동장",
    "address": "전라남도 강진군 도암면 석문리 242",
    "lat": 34.55085201321371,
    "lng": 126.72580098713617,
    "region": "전라남도"
  },
  {
    "name": "영강초등학교 운동장",
    "address": "전라남도 나주시 삼영동 96",
    "lat": 35.00639873087576,
    "lng": 126.7123146328518,
    "region": "전라남도"
  },
  {
    "name": "간문초등학교 운동장",
    "address": "전라남도 구례군 간전면 간문리 220-1",
    "lat": 35.17718422377727,
    "lng": 127.54205319028277,
    "region": "전라남도"
  },
  {
    "name": "구례중앙초등학교 운동장",
    "address": "전라남도 구례군 구례읍 봉남리 32-1",
    "lat": 35.204643314498874,
    "lng": 127.46547732620317,
    "region": "전라남도"
  },
  {
    "name": "문척초등학교 운동장",
    "address": "전라남도 구례군 문척면 월전리 286-1",
    "lat": 35.191835287454936,
    "lng": 127.49063445852715,
    "region": "전라남도"
  },
  {
    "name": "자산공원",
    "address": "전라남도 여수시 종화동 3",
    "lat": 34.739475554871845,
    "lng": 127.75039586938139,
    "region": "전라남도"
  },
  {
    "name": "장평면민회관 공터",
    "address": "전라남도 장흥군 장평면 용강리 27-1",
    "lat": 34.773548452087034,
    "lng": 126.97532509458105,
    "region": "전라남도"
  },
  {
    "name": "회진초등학교 운동장",
    "address": "전라남도 장흥군 회진면 회진리 738-2",
    "lat": 34.48004403844548,
    "lng": 126.93632304262766,
    "region": "전라남도"
  },
  {
    "name": "화산초등학교운동장",
    "address": "전라남도 해남군 화산면 방축리 365-1",
    "lat": 34.4920096973194,
    "lng": 126.516270291242,
    "region": "전라남도"
  },
  {
    "name": "작천초등학교 운동장",
    "address": "전라남도 강진군 작천면 현산리 5",
    "lat": 34.7030763847806,
    "lng": 126.77203762082297,
    "region": "전라남도"
  },
  {
    "name": "구례중학교 운동장",
    "address": "전라남도 구례군 구례읍 봉서리 1093",
    "lat": 35.200960145663295,
    "lng": 127.46301914332295,
    "region": "전라남도"
  },
  {
    "name": "칠량초등학교 운동장",
    "address": "전라남도 강진군 칠량면 영동리 1113-5",
    "lat": 34.57368407836238,
    "lng": 126.80020033358754,
    "region": "전라남도"
  },
  {
    "name": "주암초등학교 운동장",
    "address": "전라남도 순천시 주암면 구산리 721",
    "lat": 35.07634935630036,
    "lng": 127.24016888995294,
    "region": "전라남도"
  },
  {
    "name": "외서초등학교 운동장",
    "address": "전라남도 순천시 외서면 월암리 161",
    "lat": 34.91622282111473,
    "lng": 127.2732722621067,
    "region": "전라남도"
  },
  {
    "name": "상사초등학교 운동장",
    "address": "전라남도 순천시 상사면 응령리 287",
    "lat": 34.94394028228557,
    "lng": 127.44609557122583,
    "region": "전라남도"
  },
  {
    "name": "순천팔마체육관",
    "address": "전라남도 순천시 연향동 752",
    "lat": 34.93643455406176,
    "lng": 127.51995795894611,
    "region": "전라남도"
  },
  {
    "name": "황전초등학교 운동장",
    "address": "전라남도 순천시 황전면 수평리 309-1",
    "lat": 35.09988773551629,
    "lng": 127.43021488747996,
    "region": "전라남도"
  },
  {
    "name": "순천별량중학교 운동장",
    "address": "전라남도 순천시 별량면 동송리 400",
    "lat": 34.866261484111206,
    "lng": 127.45255861050637,
    "region": "전라남도"
  },
  {
    "name": "구례북초등학교 운동장",
    "address": "전라남도 구례군 구례읍 봉동리 489",
    "lat": 35.20998411200751,
    "lng": 127.46037715257826,
    "region": "전라남도"
  },
  {
    "name": "중동초등학교 운동장",
    "address": "전라남도 구례군 산동면 관산리 631",
    "lat": 35.318716229501234,
    "lng": 127.46519528009394,
    "region": "전라남도"
  },
  {
    "name": "구례북중학교 운동장",
    "address": "전라남도 구례군 용방면 신지리 802",
    "lat": 35.25806373141581,
    "lng": 127.43867136974256,
    "region": "전라남도"
  },
  {
    "name": "마로초등학교 운동장",
    "address": "전라남도 광양시 광양읍 용강리 342",
    "lat": 34.967727137577235,
    "lng": 127.61225102270684,
    "region": "전라남도"
  },
  {
    "name": "항만물류고등학교 운동장",
    "address": "전라남도 광양시 진상면 섬거리 557-38",
    "lat": 35.01749122641479,
    "lng": 127.71751370847724,
    "region": "전라남도"
  },
  {
    "name": "백초초등학교 운동장",
    "address": "전라남도 여수시 돌산읍 우두리 712",
    "lat": 34.72936368207924,
    "lng": 127.74415243557134,
    "region": "전라남도"
  },
  {
    "name": "여양고등학교 운동장",
    "address": "전라남도 여수시 소라면 덕양리 761",
    "lat": 34.78936271299324,
    "lng": 127.63228297233582,
    "region": "전라남도"
  },
  {
    "name": "여남중/고학교 운동장",
    "address": "전라남도 여수시 남면 우학리 181",
    "lat": 34.51208499491342,
    "lng": 127.76770724658556,
    "region": "전라남도"
  },
  {
    "name": "태인동사무소 주차장",
    "address": "전라남도 광양시 태인동 398",
    "lat": 34.94325400031258,
    "lng": 127.74952689120217,
    "region": "전라남도"
  },
  {
    "name": "관산초등학교 운동장",
    "address": "전라남도 장흥군 관산읍 옥당리 405",
    "lat": 34.56104454438748,
    "lng": 126.94002551872515,
    "region": "전라남도"
  },
  {
    "name": "국민체육센터 종합운동장",
    "address": "전라남도 강진군 군동면 호계리 1076",
    "lat": 34.64683829542115,
    "lng": 126.78185095992035,
    "region": "전라남도"
  },
  {
    "name": "마산초등학교운동장",
    "address": "전라남도 해남군 마산면 화내리 678-1",
    "lat": 34.6185458277663,
    "lng": 126.572802648912,
    "region": "전라남도"
  },
  {
    "name": "나주중앙초등학교 운동장",
    "address": "전라남도 나주시 성북동 13",
    "lat": 35.03834096398703,
    "lng": 126.71940788386384,
    "region": "전라남도"
  },
  {
    "name": "덕례초등학교 운동장",
    "address": "전라남도 광양시 광양읍 덕례리 448",
    "lat": 34.968621053147324,
    "lng": 127.5706296249622,
    "region": "전라남도"
  },
  {
    "name": "옥곡중학교 운동장",
    "address": "전라남도 광양시 옥곡면 묵백리 74-1",
    "lat": 34.99479219888229,
    "lng": 127.7012842707833,
    "region": "전라남도"
  },
  {
    "name": "진상초등학교 운동장",
    "address": "전라남도 광양시 진상면 섬거리 553-1",
    "lat": 35.019862589567865,
    "lng": 127.71598014907576,
    "region": "전라남도"
  },
  {
    "name": "강남정공원",
    "address": "전라남도 여수시 돌산읍 우두리 1117-2",
    "lat": 34.716583253367226,
    "lng": 127.74924197215462,
    "region": "전라남도"
  },
  {
    "name": "어울림체육관 주차장",
    "address": "전라남도 광양시 금호동 817",
    "lat": 34.940203512356845,
    "lng": 127.72203191933781,
    "region": "전라남도"
  },
  {
    "name": "시전초등학교 운동장",
    "address": "전라남도 여수시 신기동 136",
    "lat": 34.756762995409765,
    "lng": 127.67196156824548,
    "region": "전라남도"
  },
  {
    "name": "여천초등학교 운동장",
    "address": "전라남도 여수시 주삼동 793",
    "lat": 34.7881778808755,
    "lng": 127.65524076112354,
    "region": "전라남도"
  },
  {
    "name": "다시초등학교 운동장",
    "address": "전라남도 나주시 다시면 월태리 521",
    "lat": 35.01762606159569,
    "lng": 126.63998428834988,
    "region": "전라남도"
  },
  {
    "name": "삼산초등학교운동장",
    "address": "전라남도 해남군 삼산면 충리 97-4",
    "lat": 34.51501291769728,
    "lng": 126.60778011422029,
    "region": "전라남도"
  },
  {
    "name": "산이초등학교운동장",
    "address": "전라남도 해남군 산이면 초송리 593",
    "lat": 34.6434042403301,
    "lng": 126.44687228544592,
    "region": "전라남도"
  },
  {
    "name": "봉황초등학교 운동장",
    "address": "전라남도 나주시 봉황면 죽석리 771",
    "lat": 34.95719838112732,
    "lng": 126.78864212809593,
    "region": "전라남도"
  },
  {
    "name": "빛누리초등학교 운동장",
    "address": "전라남도 나주시 빛가람동 25",
    "lat": 35.02986458904366,
    "lng": 126.78563833236696,
    "region": "전라남도"
  },
  {
    "name": "옥룡북초등학교 운동장",
    "address": "전라남도 광양시 옥룡면 죽천리 677",
    "lat": 35.04134924222232,
    "lng": 127.61670535063544,
    "region": "전라남도"
  },
  {
    "name": "옥곡초등학교 운동장",
    "address": "전라남도 광양시 옥곡면 원월리 9",
    "lat": 34.990917244169765,
    "lng": 127.69549234073637,
    "region": "전라남도"
  },
  {
    "name": "화태초등학교 운동장",
    "address": "전라남도 여수시 남면 화태리 313",
    "lat": 34.585009605431225,
    "lng": 127.73500850157133,
    "region": "전라남도"
  },
  {
    "name": "여수북초등학교 운동장",
    "address": "전라남도 여수시 만흥동 313-1",
    "lat": 34.77754045206271,
    "lng": 127.74285169549677,
    "region": "전라남도"
  },
  {
    "name": "고서초등학교 운동장",
    "address": "전라남도 담양군 고서면 동운리 591-2",
    "lat": 35.22439055816123,
    "lng": 126.97390857847513,
    "region": "전라남도"
  },
  {
    "name": "창평초등학교 운동장",
    "address": "전라남도 담양군 창평면 창평리 39-1",
    "lat": 35.24048741023854,
    "lng": 127.01873165131062,
    "region": "전라남도"
  },
  {
    "name": "마동근린체육공원",
    "address": "전라남도 광양시 마동 1062",
    "lat": 34.95354111272905,
    "lng": 127.69278351668723,
    "region": "전라남도"
  },
  {
    "name": "무선초등학교 운동장",
    "address": "전라남도 여수시 화장동 776",
    "lat": 34.77220447559928,
    "lng": 127.64553044341818,
    "region": "전라남도"
  },
  {
    "name": "여도초등학교 운동장",
    "address": "전라남도 여수시 봉계동 37",
    "lat": 34.7850051508335,
    "lng": 127.6944042296117,
    "region": "전라남도"
  },
  {
    "name": "대구초등학교 운동장",
    "address": "전라남도 강진군 대구면 수동리 785",
    "lat": 34.49216565648561,
    "lng": 126.79876239524363,
    "region": "전라남도"
  },
  {
    "name": "성전초등학교 운동장",
    "address": "전라남도 강진군 성전면 월평리 102",
    "lat": 34.69342661472366,
    "lng": 126.70740978592691,
    "region": "전라남도"
  },
  {
    "name": "스포츠파크체육관 운동장",
    "address": "전라남도 나주시 송월동 1539",
    "lat": 35.01164123419676,
    "lng": 126.71928398299627,
    "region": "전라남도"
  },
  {
    "name": "나주시민회관 주차장",
    "address": "전라남도 나주시 남내동 27-1",
    "lat": 35.03145911255764,
    "lng": 126.72191709280008,
    "region": "전라남도"
  },
  {
    "name": "청천초등학교 운동장",
    "address": "전라남도 구례군 마산면 마산리 498-3",
    "lat": 35.22157718391601,
    "lng": 127.48715814969732,
    "region": "전라남도"
  },
  {
    "name": "진월초등학교 운동장",
    "address": "전라남도 광양시 진월면 선소리 226",
    "lat": 34.97804347088493,
    "lng": 127.75973322695164,
    "region": "전라남도"
  },
  {
    "name": "군외중학교",
    "address": "전라남도 완도군 군외면 원동리 1",
    "lat": 34.38968737180441,
    "lng": 126.65307222308364,
    "region": "전라남도"
  },
  {
    "name": "의신초등학교 운동장",
    "address": "전라남도 진도군 의신면 돈지리 678-1",
    "lat": 34.44052623434555,
    "lng": 126.27791340959541,
    "region": "전라남도"
  },
  {
    "name": "진도중학교 운동장",
    "address": "전라남도 진도군 진도읍 교동리 580-1",
    "lat": 34.48317457374806,
    "lng": 126.25858638652112,
    "region": "전라남도"
  },
  {
    "name": "미라펜션",
    "address": "전라남도 완도군 소안면 미라리 300",
    "lat": 34.146545632581535,
    "lng": 126.66942469709807,
    "region": "전라남도"
  },
  {
    "name": "금성초등학교 운동장",
    "address": "전라남도 진도군 군내면 둔전리 356-2",
    "lat": 34.537438419934304,
    "lng": 126.29301462057671,
    "region": "전라남도"
  },
  {
    "name": "오성초등학교 운동장",
    "address": "전라남도 화순군 화순읍 벽라리 229",
    "lat": 35.0523797937287,
    "lng": 126.96427903088131,
    "region": "전라남도"
  },
  {
    "name": "중앙공원",
    "address": "전라남도 순천시 동외동 176",
    "lat": 34.95769336003892,
    "lng": 127.48627043700466,
    "region": "전라남도"
  },
  {
    "name": "도암중학교 운동장",
    "address": "전라남도 화순군 도암면 원천리 829",
    "lat": 34.93784285551789,
    "lng": 126.89553424443177,
    "region": "전라남도"
  },
  {
    "name": "동면중학교 운동장",
    "address": "전라남도 화순군 동면 천덕리 84",
    "lat": 35.024723219703475,
    "lng": 127.05264611735923,
    "region": "전라남도"
  },
  {
    "name": "화원고등학교운동장",
    "address": "전라남도 해남군 화원면 신덕리 45",
    "lat": 34.66987873916628,
    "lng": 126.3243205292555,
    "region": "전라남도"
  },
  {
    "name": "해남공업고등학교운동장",
    "address": "전라남도 해남군 해남읍 남외리 24-1",
    "lat": 34.57191231957077,
    "lng": 126.5934014013592,
    "region": "전라남도"
  },
  {
    "name": "우수영중학교운동장",
    "address": "전라남도 해남군 문내면 동외리 880-1",
    "lat": 34.594663761695465,
    "lng": 126.31228846993672,
    "region": "전라남도"
  },
  {
    "name": "산이서초등학교운동장",
    "address": "전라남도 해남군 산이면 상공리 231-4",
    "lat": 34.67712719184351,
    "lng": 126.41109773123604,
    "region": "전라남도"
  },
  {
    "name": "법성고등학교",
    "address": "전라남도 영광군 법성면 대덕리 341-1",
    "lat": 35.35932829292289,
    "lng": 126.45763358978387,
    "region": "전라남도"
  },
  {
    "name": "법성포초등학교(안마분교)",
    "address": "전라남도 영광군 낙월면 월촌리 산313-3",
    "lat": 35.34597624249217,
    "lng": 126.02506935596352,
    "region": "전라남도"
  },
  {
    "name": "염산초등학교(낙월분교)",
    "address": "전라남도 영광군 낙월면 상낙월리 산361",
    "lat": 35.201995560484434,
    "lng": 126.13674464440349,
    "region": "전라남도"
  },
  {
    "name": "청호중학교 운동장",
    "address": "전라남도 목포시 연산동 1984",
    "lat": 34.816179,
    "lng": 126.390925,
    "region": "전라남도"
  },
  {
    "name": "전라남도인재개발원",
    "address": "전라남도 강진군 도암면 만덕리 368",
    "lat": 34.575739150794114,
    "lng": 126.74616158008574,
    "region": "전라남도"
  },
  {
    "name": "수북중학교 운동장",
    "address": "전라남도 담양군 수북면 수북리 198",
    "lat": 35.2996,
    "lng": 126.9329,
    "region": "전라남도"
  },
  {
    "name": "한재중학교 운동장",
    "address": "전라남도 담양군 대전면 대치리 891-2",
    "lat": 35.2745,
    "lng": 126.8908,
    "region": "전라남도"
  },
  {
    "name": "죽곡초등학교",
    "address": "전라남도 곡성군 죽곡면 태평리 614",
    "lat": 35.15332689275576,
    "lng": 127.31824614857496,
    "region": "전라남도"
  }
]