[
  {
    "name": "부안스포츠파크 부안공설운동장",
    "address": "전북특별자치도 부안군 행안면 진동리 933",
    "lat": "35.700557571019935",
    "lng": "126.72215580939873",
    "region": "전북특별자치도"
  },
  {
    "name": "유등초등학교 운동장",
    "address": "전북특별자치도 순창군 유등면 외이리 186",
    "lat": "35.362298551681334",
    "lng": "127.18890845775819",
    "region": "전북특별자치도"
  },
  {
    "name": "풍산초등학교 운동장",
    "address": "전북특별자치도 순창군 풍산면 반월리 153",
    "lat": "35.33700427640309",
    "lng": "127.13752806186403",
    "region": "전북특별자치도"
  },
  {
    "name": "팔덕초등학교 운동장",
    "address": "전북특별자치도 순창군 팔덕면 용산리 353-1",
    "lat": "35.39227300990539",
    "lng": "127.09735393523928",
    "region": "전북특별자치도"
  },
  {
    "name": "쌍치초등학교 운동장",
    "address": "전북특별자치도 순창군 쌍치면 쌍계리 129",
    "lat": "35.50186445827393",
    "lng": "127.00284802467714",
    "region": "전북특별자치도"
  },
  {
    "name": "순창군공설운동장",
    "address": "전북특별자치도 순창군 순창읍 교성리 196-25",
    "lat": "35.369822736770516",
    "lng": "127.1290040016182",
    "region": "전북특별자치도"
  },
  {
    "name": "산서초등학교 운동장",
    "address": "전북특별자치도 장수군 산서면 동화리 208",
    "lat": "35.58679809579409",
    "lng": "127.39477899670423",
    "region": "전북특별자치도"
  },
  {
    "name": "번암초등학교 운동장",
    "address": "전북특별자치도 장수군 번암면 노단리 453",
    "lat": "35.53424989713406",
    "lng": "127.54686472747733",
    "region": "전북특별자치도"
  },
  {
    "name": "김제시민운동장",
    "address": "전북특별자치도 김제시 검산동 산62-1",
    "lat": "35.81465792310927",
    "lng": "126.90115505185666",
    "region": "전북특별자치도"
  },
  {
    "name": "복흥면정산체육소공원",
    "address": "전북특별자치도 순창군 복흥면 정산리 744-39",
    "lat": "35.42799773585079",
    "lng": "126.93267971277619",
    "region": "전북특별자치도"
  },
  {
    "name": "금과초등학교 운동장",
    "address": "전북특별자치도 순창군 금과면 매우리 145",
    "lat": "35.33911790518027",
    "lng": "127.08712399006194",
    "region": "전북특별자치도"
  },
  {
    "name": "구림���등학교 운동장",
    "address": "전북특별자치도 순창군 구림면 운남리 233",
    "lat": "35.45290079511244",
    "lng": "127.10097491741213",
    "region": "전북특별자치도"
  },
  {
    "name": "장수고등학교 운동장",
    "address": "전북특별자치도 장수군 장수읍 선창리 345-1",
    "lat": "35.655520784806406",
    "lng": "127.52270663770815",
    "region": "전북특별자치도"
  },
  {
    "name": "계북초등학교 운동장",
    "address": "전북특별자치도 장수군 계북면 어전리 739",
    "lat": "35.787282304579",
    "lng": "127.6167638829661",
    "region": "전북특별자치도"
  },
  {
    "name": "중앙초등학교 운동장",
    "address": "전북특별자치도 순창군 순창읍 남계리 268",
    "lat": "35.377162515885864",
    "lng": "127.14427649974941",
    "region": "전북특별자치도"
  },
  {
    "name": "적상면 생활체육공원",
    "address": "전북특별자치도 무주군 적상면 사천리 294-4",
    "lat": "35.94228808800025",
    "lng": "127.65754938125609",
    "region": "전북특별자치도"
  },
  {
    "name": "부남면 생활체육공원",
    "address": "전북특별자치도 무주군 부남면 대유리 1238-20",
    "lat": "35.97980121166205",
    "lng": "127.55644619464874",
    "region": "전북특별자치도"
  },
  {
    "name": "한국폴리텍익산캠퍼스 운동장",
    "address": "전북특별자치도 익산시 어양동 16",
    "lat": "35.95251648808167",
    "lng": "126.99126332554339",
    "region": "전북특별자치도"
  },
  {
    "name": "덕과초등학교운동장",
    "address": "전북특별자치도 남원시 덕과면 고정리 505-2",
    "lat": "35.51369964031494",
    "lng": "127.35369535771619",
    "region": "전북특별자치도"
  },
  {
    "name": "인월중고등학교운동장",
    "address": "전북특별자치도 남원시 인월면 서무리 678-2",
    "lat": "35.46446018670185",
    "lng": "127.60217417518483",
    "region": "전북특별자치도"
  },
  {
    "name": "김제용동초등학교 ",
    "address": "전북특별자치도 김제시 용지면 장신리 280",
    "lat": "35.85419022656075",
    "lng": "127.0026334583985",
    "region": "전북특별자치도"
  },
  {
    "name": "김제공덕초등학교",
    "address": "전북특별자치도 김제시 공덕면 동계리 702-2",
    "lat": "35.89418301564129",
    "lng": "126.9115820623361",
    "region": "전북특별자치도"
  },
  {
    "name": "김제중앙초등학교",
    "address": "전북특별자치도 김제시 요촌동 214-1",
    "lat": "35.80193145325687",
    "lng": "126.88957787559852",
    "region": "전북특별자치도"
  },
  {
    "name": "남원교룡초등학교",
    "address": "전북특별자치도 남원시 향교동 740-2",
    "lat": "35.4166297133315",
    "lng": "127.37901806831363",
    "region": "전북특별자치도"
  },
  {
    "name": "남원왕치초등학교운동장",
    "address": "전북특별자치도 남원시 용정동 111",
    "lat": "35.43376746991033",
    "lng": "127.38251030445097",
    "region": "전북특별자치도"
  },
  {
    "name": "도통초등학교운동장",
    "address": "전북특별자치도 남원시 도통동 613",
    "lat": "35.41332577677612",
    "lng": "127.39452109726055",
    "region": "전북특별자치도"
  },
  {
    "name": "금지중학교운동장",
    "address": "전북특별자치도 남원시 금지면 옹정리 589-1",
    "lat": "35.34938930233372",
    "lng": "127.30145308342523",
    "region": "전북특별자치도"
  },
  {
    "name": "보절초등학교운동장",
    "address": "전북특별자치도 남원시 보절면 신파리 856-1",
    "lat": "35.51355716479065",
    "lng": "127.40074396133423",
    "region": "전북특별자치도"
  },
  {
    "name": "남원대산초등학교운동장",
    "address": "전북특별자치도 남원시 대산면 운교리 178",
    "lat": "35.43143840336364",
    "lng": "127.32689953920278",
    "region": "전북특별자치도"
  },
  {
    "name": "남원초등학교운동장",
    "address": "전북특별자치도 남원시 금동 343-1",
    "lat": "35.401775961346935",
    "lng": "127.37385928703023",
    "region": "전북특별자치도"
  },
  {
    "name": "남원중학교운동장",
    "address": "전북특별자치도 남원시 향교동 640",
    "lat": "35.42015548008452",
    "lng": "127.37929701805116",
    "region": "전북특별자치도"
  },
  {
    "name": "산동초등학교운동장",
    "address": "전북특별자치도 남원시 산동면 태평리 138",
    "lat": "35.49251157654142",
    "lng": "127.47735220734764",
    "region": "전북특별자치도"
  },
  {
    "name": "산내초등학교운동장",
    "address": "전북특별자치도 남원시 산내면 대정리 646-1",
    "lat": "35.41967533608335",
    "lng": "127.62726457677277",
    "region": "전북특별자치도"
  },
  {
    "name": "남원성원고등학교 운동장",
    "address": "전북특별자치도 남원시 왕정동 267",
    "lat": "35.41399392592492",
    "lng": "127.37033634164551",
    "region": "전북특별자치도"
  },
  {
    "name": "대강중학교운동장",
    "address": "전북특별자치도 남���시 대강면 방동리 500-1",
    "lat": "35.341963362724464",
    "lng": "127.21515520628031",
    "region": "전북특별자치도"
  },
  {
    "name": "남원용성초등학교운동장",
    "address": "전북특별자치도 남원시 동충동 192-4",
    "lat": "35.40976729498341",
    "lng": "127.37956992541011",
    "region": "전북특별자치도"
  },
  {
    "name": "삼례재래시장",
    "address": "전북특별자치도 완주군 삼례읍 삼례리 1410",
    "lat": "35.910206",
    "lng": "127.072502",
    "region": "전북특별자치도"
  },
  {
    "name": "봉동 장기늘푸름공원",
    "address": "전북특별자치도 완주군 봉동읍 장기리 1129-27",
    "lat": "35.935921565919635",
    "lng": "127.16500420121099",
    "region": "전북특별자치도"
  },
  {
    "name": "봉동 신월마을경로회관",
    "address": "전북특별자치도 완주군 봉동읍 낙평리 1217-2",
    "lat": "35.92751439006273",
    "lng": "127.16136647954487",
    "region": "전북특별자치도"
  },
  {
    "name": "용진 파출소 뒤 주차장",
    "address": "전북특별자치도 완주군 용진읍 용흥리 842-3",
    "lat": "35.882589482286804",
    "lng": "127.15662539005281",
    "region": "전북특별자치도"
  },
  {
    "name": "진안여자중학교",
    "address": "전북특별자치도 진안군 진안읍 군상리 1066",
    "lat": "35.80105809271957",
    "lng": "127.42104346727075",
    "region": "전북특별자치도"
  },
  {
    "name": "이백초등학교운동장",
    "address": "전북특별자치도 남원시 이백면 평촌리 109",
    "lat": "35.429398034781784",
    "lng": "127.46062750806989",
    "region": "전북특별자치도"
  },
  {
    "name": "한빛중학교운동장",
    "address": "전북특별자치도 남원시 월락동 428",
    "lat": "35.42315019844577",
    "lng": "127.40225819430063",
    "region": "전북특별자치도"
  },
  {
    "name": "김제죽산초등학교",
    "address": "전북특별자치도 김제시 죽산면 죽산리 498-1",
    "lat": "35.7730281373036",
    "lng": "126.81591108240926",
    "region": "전북특별자치도"
  },
  {
    "name": "김제동초등학교",
    "address": "전북특별자치도 김제시 신풍동 48-3",
    "lat": "35.79533589217375",
    "lng": "126.90135199106696",
    "region": "전북특별자치도"
  },
  {
    "name": "청웅중학교 운동장",
    "address": "전북특별자치도 임실군 청웅면 구고리 251",
    "lat": "35.569069136759715",
    "lng": "127.19871156799307",
    "region": "전북특별자치도"
  },
  {
    "name": "성수초등학교 운동장",
    "address": "전북특별자치도 임실군 성수면 양지리 675",
    "lat": "35.62956511875701",
    "lng": "127.33069372714648",
    "region": "전북특별자치도"
  },
  {
    "name": "덕치초등학교 운동장",
    "address": "전북특별자치도 임실군 덕치면 일중리 221",
    "lat": "35.49612387805269",
    "lng": "127.14865995600611",
    "region": "전북특별자치도"
  },
  {
    "name": "전주한들초등학교(운동장)",
    "address": "전북특별자치도 전주시 완산구 중화산동2가 752-4",
    "lat": "35.82137687507759",
    "lng": "127.1172648310166",
    "region": "전북특별자치도"
  },
  {
    "name": "운암초등학교 운동장",
    "address": "전북특별자치도 임실군 운암면 쌍암리 617-5",
    "lat": "35.66338675696364",
    "lng": "127.1569319062607",
    "region": "전북특별자치도"
  },
  {
    "name": "평화중학교(운동장)",
    "address": "전북특별자치도 전주시 완산구 평화동2가 911-2",
    "lat": "35.78321871676152",
    "lng": "127.13429095467511",
    "region": "전북특별자치도"
  },
  {
    "name": "전주서곡초등학교(운동장)",
    "address": "전북특별자치도 전주시 완산구 효자동3가 1474",
    "lat": "35.832812082722924",
    "lng": "127.10035971454055",
    "region": "전북특별자치도"
  },
  {
    "name": "풍남초등학교(운동장)",
    "address": "전북특별자치도 전주시 완산구 남노송동 507-1",
    "lat": "35.8220007612718",
    "lng": "127.15362936732359",
    "region": "전북특별자치도"
  },
  {
    "name": "전주평화초등학교(운동장)",
    "address": "전북특별자치도 전주시 완산구 평화동1가 389-2",
    "lat": "35.79946459436089",
    "lng": "127.13891680537863",
    "region": "전북특별자치도"
  },
  {
    "name": "운주초등학교 운동장",
    "address": "전북특별자치도 완주군 운주면 장선리 507-2",
    "lat": "36.09188717342701",
    "lng": "127.27825415796073",
    "region": "전북특별자치도"
  },
  {
    "name": "갈담초등학교 운동장",
    "address": "전북특별자치도 임실군 강진면 갈담리 323-1",
    "lat": "35.53175547584157",
    "lng": "127.16555050834558",
    "region": "전북특별자치도"
  },
  {
    "name": "전주남중학교(운동장)",
    "address": "전북특별자치도 전주시 완산구 평화동1가 445-4",
    "lat": "35.795834560920184",
    "lng": "127.14039283245803",
    "region": "전북특별자치도"
  },
  {
    "name": "서전주중학교(운동장)",
    "address": "전북특별자치도 전주시 완산구 효자동1가 364-8",
    "lat": "35.810429025733974",
    "lng": "127.11271898866099",
    "region": "전북특별자치도"
  },
  {
    "name": "이서초등학교 운동장",
    "address": "전북특별자치도 완주군 이서면 상개리 539",
    "lat": "35.81961227943952",
    "lng": "127.0249498386242",
    "region": "전북특별자치도"
  },
  {
    "name": "임실군공설운동장",
    "address": "전북특별자치도 임실군 임실읍 이도리 429-1",
    "lat": "35.6080428404253",
    "lng": "127.28336400662037",
    "region": "전북특별자치도"
  },
  {
    "name": "무주고등학교 운동장",
    "address": "전북특별자치도 무주군 무주읍 읍내리 472-7",
    "lat": "36.01282943350614",
    "lng": "127.66354143619537",
    "region": "전북특별자치도"
  },
  {
    "name": "무풍중고등학교 운동장",
    "address": "전북특별자치도 무주군 무풍면 현내리 503",
    "lat": "35.967334997906846",
    "lng": "127.84631252288818",
    "region": "전북특별자치도"
  },
  {
    "name": "전주조촌초등학교(운동장)",
    "address": "전북특별자치도 전주시 덕진구 여의동 572-1",
    "lat": "35.86933563220859",
    "lng": "127.07636616836523",
    "region": "전북특별자치도"
  },
  {
    "name": "설천초등학교 운동장",
    "address": "전북특별자치도 무주군 설천면 소천리 904-27",
    "lat": "36.00898697895906",
    "lng": "127.78897225856782",
    "region": "전북특별자치도"
  },
  {
    "name": "안성중학교 운동장",
    "address": "전북특별자치도 무주군 안성면 사전리 1224",
    "lat": "35.869316767407575",
    "lng": "127.65372991561891",
    "region": "전북특별자치도"
  },
  {
    "name": "전주금암초등학교(운동장)",
    "address": "전북특별자치도 전주시 덕진구 금암동 522-1",
    "lat": "35.83695525064411",
    "lng": "127.13647079112205",
    "region": "전북특별자치도"
  },
  {
    "name": "구천초등학교 운동장",
    "address": "전북특별자치도 무주군 설천면 삼공리 314",
    "lat": "35.909130412500346",
    "lng": "127.77765333652498",
    "region": "전북특별자치도"
  },
  {
    "name": "괴목초등학교 운동장",
    "address": "전북특별자치도 무주군 적상면 포내리 803",
    "lat": "35.94700887405379",
    "lng": "127.71600008010866",
    "region": "전북특별자치도"
  },
  {
    "name": "안성초등학교 운동장",
    "address": "전북특별자치도 무주군 안성면 장기리 1309",
    "lat": "35.86553905974147",
    "lng": "127.65515685081485",
    "region": "전북특별자치도"
  },
  {
    "name": "정읍여자고등학교 운동장",
    "address": "전북특별자치도 정읍시 상동 188",
    "lat": "35.55969640694286",
    "lng": "126.871264014264",
    "region": "전북특별자치도"
  },
  {
    "name": "안성고등학교 운동장",
    "address": "전북특별자치도 무주군 안성면 사전리 1238",
    "lat": "35.87000795104663",
    "lng": "127.65332221984862",
    "region": "전북특별자치도"
  },
  {
    "name": "고창군공설운동장 ",
    "address": "전북특별자치도 고창군 고창읍 월암리 316",
    "lat": "35.43248576087191",
    "lng": "126.72377723919446",
    "region": "전북특별자치도"
  },
  {
    "name": "전주미산초등학교(운동장)",
    "address": "전북특별자치도 전주시 덕진구 전미동2가 305-2",
    "lat": "35.8837966165189",
    "lng": "127.10977764878943",
    "region": "전북특별자치도"
  },
  {
    "name": "무풍초등학교 운동장",
    "address": "전북특별자치도 무주군 무풍면 현내리 626",
    "lat": "35.9671526462005",
    "lng": "127.84779846668243",
    "region": "전북특별자치도"
  },
  {
    "name": "동향초등학교 운동장",
    "address": "전북특별자치도 진안군 동향면 대량리 629",
    "lat": "35.83982768058872",
    "lng": "127.56637749381076",
    "region": "전북특별자치도"
  },
  {
    "name": "가천초등학교 운동장",
    "address": "전북특별자치도 완주군 경천면 가천리 351",
    "lat": "36.03249317544616",
    "lng": "127.26383614335035",
    "region": "전북특별자치도"
  },
  {
    "name": "전주오송중학교(운동장)",
    "address": "전북특별자치도 전주시 덕진구 송천동2가 175-22",
    "lat": "35.86570497519609",
    "lng": "127.12851524845514",
    "region": "전북특별자치도"
  },
  {
    "name": "설천중고등학교 운동장",
    "address": "전북특별자치도 무주군 설천면 소천리 907-1",
    "lat": "36.01205488264216",
    "lng": "127.78776526451112",
    "region": "전북특별자치도"
  },
  {
    "name": "대강초등학교운동장",
    "address": "전북특별자치도 남원시 대강면 사석리 732-4",
    "lat": "35.34596755111497",
    "lng": "127.22862153261235",
    "region": "전북특별자치도"
  },
  {
    "name": "사매초등학교운동장",
    "address": "전북특별자치도 남원시 사매면 오신리 618",
    "lat": "35.49954175967984",
    "lng": "127.3608033219139",
    "region": "전북특별자치도"
  },
  {
    "name": "주생초등학교운동장",
    "address": "전북특별자치도 남원시 주생면 지당리 480-9",
    "lat": "35.382765728311064",
    "lng": "127.32612669439445",
    "region": "전북특별자치도"
  },
  {
    "name": "아영중학교운동장",
    "address": "전북특별자치도 남원시 아영면 청계리 103",
    "lat": "35.50657043082237",
    "lng": "127.60978728532788",
    "region": "전북특별자치도"
  },
  {
    "name": "용성중학교운동장",
    "address": "전북특별자치도 남원시 도통동 237",
    "lat": "35.4208678007358",
    "lng": "127.39302121384706",
    "region": "전북특별자치도"
  },
  {
    "name": "운봉중학교운동장",
    "address": "전북특별자치도 남원시 운봉읍 동천리 27",
    "lat": "35.436771153600894",
    "lng": "127.53612220104509",
    "region": "전북특별자치도"
  },
  {
    "name": "운봉초등학교운동장",
    "address": "전북특별자치도 남원시 운봉읍 서천리 65-4",
    "lat": "35.44063254769589",
    "lng": "127.53269833695364",
    "region": "전북특별자치도"
  },
  {
    "name": "원천초등학교운동장",
    "address": "전북특별자치도 남원시 주천면 장안리 248",
    "lat": "35.38882569662052",
    "lng": "127.44547461953182",
    "region": "전북특별자치도"
  },
  {
    "name": "수지중학교운동장",
    "address": "전북특별자치도 남원시 수지면 산정리 584-10",
    "lat": "35.33392637513081",
    "lng": "127.36319276327121",
    "region": "전북특별자치도"
  },
  {
    "name": "송동초등학교 운동장",
    "address": "전북특별자치도 남원시 송동면 신평리 773",
    "lat": "35.35534121396915",
    "lng": "127.3358559011193",
    "region": "전북특별자치도"
  },
  {
    "name": "김제봉남중학교",
    "address": "전북특별자치도 김제시 봉남면 대송리 578-3",
    "lat": "35.75287385141627",
    "lng": "126.96196126567297",
    "region": "전북특별자치도"
  },
  {
    "name": "김제여자고등학교",
    "address": "전북특별자치도 김제시 신풍동 106-2",
    "lat": "35.80047269541119",
    "lng": "126.89579724464284",
    "region": "전북특별자치도"
  },
  {
    "name": "김제월촌초등학교",
    "address": "전북특별자치도 김제시 입석동 469",
    "lat": "35.78886931310506",
    "lng": "126.8681592447861",
    "region": "전북특별자치도"
  },
  {
    "name": "전주진북초등학교(운동장)",
    "address": "전북특별자치도 전주시 덕진구 진북동 1046-1",
    "lat": "35.8258147346044",
    "lng": "127.13212979124097",
    "region": "전북특별자치도"
  },
  {
    "name": "조림초등학교 운동장",
    "address": "전북특별자치도 진안군 정천면 봉학리 517",
    "lat": "35.87218122025522",
    "lng": "127.43000425999813",
    "region": "전북특별자치도"
  },
  {
    "name": "변산중학교 운동장",
    "address": "전북특별자치도 부안군 진서면 곰소리 427",
    "lat": "35.588735208913775",
    "lng": "126.6061180830001",
    "region": "전북특별자치도"
  },
  {
    "name": "한국기술부사관고등학교 운동장",
    "address": "전북특별자치도 진안군 진안읍 군상리 1054",
    "lat": "35.80075098039095",
    "lng": "127.4173092842102",
    "region": "전북특별자치도"
  },
  {
    "name": "신평초등학교 운동장",
    "address": "전북특별자치도 임실군 신평면 원천리 139",
    "lat": "35.657219684063634",
    "lng": "127.22679711487432",
    "region": "전북특별자치도"
  },
  {
    "name": "전주삼천초등학교(운동장)",
    "address": "전북특별자치도 전주시 완산구 삼천동1가 585-1",
    "lat": "35.800625582848696",
    "lng": "127.12317520166751",
    "region": "전북특별자치도"
  },
  {
    "name": "곤지중학교(운동장)",
    "address": "전북특별자치도 전주시 완산구 동완산동 167",
    "lat": "35.81028237655612",
    "lng": "127.1435351316707",
    "region": "전북특별자치도"
  },
  {
    "name": "효정중학교(운동장)",
    "address": "전북특별자치도 전주시 완산구 효자동1가 62",
    "lat": "35.80679980372126",
    "lng": "127.13310532759631",
    "region": "전북특별자치도"
  },
  {
    "name": "효자초등학교(운동장)",
    "address": "전북특별자치도 전주시 완산구 효자동1가 567",
    "lat": "35.80289307524569",
    "lng": "127.12269917079914",
    "region": "전북특별자치도"
  },
  {
    "name": "진안군청",
    "address": "전북특별자치도 진안군 진안읍 군하리 97-4",
    "lat": "35.79160933072278",
    "lng": "127.4250340461731",
    "region": "전북특별자치도"
  },
  {
    "name": "원광대학교 제2운동장",
    "address": "전북특별자치도 익산시 신용동 32",
    "lat": "35.97076486820608",
    "lng": "126.9597887992859",
    "region": "전북특별자치도"
  },
  {
    "name": "삼례 우수저류지",
    "address": "전북특별자치도 완주군 삼례읍 후정리 273-25",
    "lat": "35.90730336067735",
    "lng": "127.065352499485",
    "region": "전북특별자치도"
  },
  {
    "name": "고산시장",
    "address": "전북특별자치도 완주군 고산면 읍내리 919",
    "lat": "35.97368014080334",
    "lng": "127.20396637916566",
    "region": "전북특별자치도"
  },
  {
    "name": "진안고원시장",
    "address": "전북특별자치도 진안군 진안읍 군상리 406-8",
    "lat": "35.79266234920317",
    "lng": "127.4286389350891",
    "region": "전북특별자치도"
  },
  {
    "name": "진안공설운동장 주차장(국궁장)",
    "address": "전북특별자치도 진안군 진안읍 군하리 58",
    "lat": "35.78799534128932",
    "lng": "127.42834269525093",
    "region": "전북특별자치도"
  },
  {
    "name": "마령고등학교",
    "address": "전북특별자치도 진안군 마령면 평지리 583-1",
    "lat": "35.73178106204528",
    "lng": "127.37217705168037",
    "region": "전북특별자치도"
  },
  {
    "name": "전주북일초등학교(운동장)",
    "address": "전북특별자치도 전주시 덕진구 인후동1가 750-1",
    "lat": "35.842075509735736",
    "lng": "127.15547421281009",
    "region": "전북특별자치도"
  },
  {
    "name": "군산미장초등학교 운동장",
    "address": "전북특별자치도 군산시 미장동 500",
    "lat": "35.96522056058502",
    "lng": "126.72731101512905",
    "region": "전북특별자치도"
  },
  {
    "name": "부남초등학교 운동장",
    "address": "전북특별자치도 무주군 부남면 대소리 505",
    "lat": "35.973126616311944",
    "lng": "127.559554874897",
    "region": "전북특별자치도"
  },
  {
    "name": "진안중학교",
    "address": "전북특별자치도 진안군 진안읍 군상리 1053-4",
    "lat": "35.79999607208949",
    "lng": "127.41871763613103",
    "region": "전북특별자치도"
  },
  {
    "name": "적성초등학교 운동장",
    "address": "전북특별자치도 순창군 적성면 고원리 616",
    "lat": "35.39819616348482",
    "lng": "127.21009522676624",
    "region": "전북특별자치도"
  },
  {
    "name": "천천초등학교 운동장",
    "address": "전북특별자치도 장수군 천천면 춘송리 833-1",
    "lat": "35.73561361604903",
    "lng": "127.53331647768894",
    "region": "전북특별자치도"
  },
  {
    "name": "인계초등학교 운동장",
    "address": "전북특별자치도 순창군 인계면 가성리 493",
    "lat": "35.41372461041338",
    "lng": "127.15919494628763",
    "region": "전북특별자치도"
  },
  {
    "name": "장계초등학교 운동장",
    "address": "전북특별자치도 장수군 장계면 장계리 250",
    "lat": "35.73186904063975",
    "lng": "127.58106887340115",
    "region": "전북특별자치도"
  },
  {
    "name": "계남초등학교 운동장",
    "address": "전북특별자치도 장수군 계남면 화음리 948-1",
    "lat": "35.701825071198535",
    "lng": "127.57882005893751",
    "region": "전북특별자치도"
  },
  {
    "name": "동계초등학교 운동장",
    "address": "전북특별자치도 순창군 동계면 현포리 568",
    "lat": "35.44020766580086",
    "lng": "127.24058926106025",
    "region": "전북특별자치도"
  },
  {
    "name": "이리동중학교 운동장",
    "address": "전북특별자치도 익산시 동산동 1062",
    "lat": "35.93298081911631",
    "lng": "126.96932187709776",
    "region": "전북특별자치도"
  },
  {
    "name": "군장대학교 운동장",
    "address": "전북특별자치도 군산시 성산면 도암리 608-8",
    "lat": "36.00025001098949",
    "lng": "126.78393226909228",
    "region": "전북특별자치도"
  },
  {
    "name": "미성초등학교 운동장",
    "address": "전북특별자치도 군산시 산북동 3623",
    "lat": "35.95768280384883",
    "lng": "126.67438030242914",
    "region": "전북특별자치도"
  },
  {
    "name": "군산수송초등학교 운동장",
    "address": "전북특별자치도 군산시 수송동 396-9",
    "lat": "35.97204560434869",
    "lng": "126.71642124652855",
    "region": "전북특별자치도"
  },
  {
    "name": "군산신풍초등학교 운동장",
    "address": "전북특별자치도 군산시 나운동 835-1",
    "lat": "35.96461748949767",
    "lng": "126.69560863052817",
    "region": "전북특별자치도"
  },
  {
    "name": "군산신흥초등학교 운동장",
    "address": "전북특별자치도 군산시 나운동 45-4",
    "lat": "35.96770650006205",
    "lng": "126.70638260380439",
    "region": "전북특별자치도"
  },
  {
    "name": "군산용문초등학교 운동장",
    "address": "전북특별자치도 군산시 미룡동 898-8",
    "lat": "35.941942009876705",
    "lng": "126.6886927656531",
    "region": "전북특별자치도"
  },
  {
    "name": "옥산오토캠핑장 ",
    "address": "전북특별자치도 군산시 옥산면 남내리 737",
    "lat": "35.936685317275476",
    "lng": "126.7566919326782",
    "region": "전북특별자치도"
  },
  {
    "name": "옥산 대려마을",
    "address": "전북특별자치도 군산시 옥산면 옥산리 174-24",
    "lat": "35.93691831421658",
    "lng": "126.74225276746755",
    "region": "전북특별자치도"
  },
  {
    "name": "군산푸른솔초등학교 운동장",
    "address": "전북특별자치도 군산시 수송동 813",
    "lat": "35.961278545832826",
    "lng": "126.71162619203876",
    "region": "전북특별자치도"
  },
  {
    "name": "군산풍문초등학교 운동장",
    "address": "전북특별자치도 군산시 장재동 45-19",
    "lat": "35.97712997581876",
    "lng": "126.7182176051947",
    "region": "전북특별자치도"
  },
  {
    "name": "군산흥남초등학교 운동장",
    "address": "전북특별자치도 군산시 문화동 21",
    "lat": "35.97138675809211",
    "lng": "126.70858360638464",
    "region": "전북특별자치도"
  },
  {
    "name": "소룡초등학교 운동장",
    "address": "전북특별자치도 군산시 소룡동 1341",
    "lat": "35.97437248044053",
    "lng": "126.68305686191121",
    "region": "전북특별자치도"
  },
  {
    "name": "대야남초등학교",
    "address": "전북특별자치도 군산시 대야면 복교리 952-48",
    "lat": "35.91866689467667",
    "lng": "126.82021737098691",
    "region": "전북특별자치도"
  },
  {
    "name": "대야초등학교 운동장",
    "address": "전북특별자치도 군산시 대야면 산월리 448",
    "lat": "35.94830635875677",
    "lng": "126.81901593901931",
    "region": "전북특별자치도"
  },
  {
    "name": "발산초등학교 운동장",
    "address": "전북특별자치도 군산시 개정면 발산리 45-1",
    "lat": "35.95898980516316",
    "lng": "126.79651737213136",
    "region": "전북특별자치도"
  },
  {
    "name": "군산월명초등학교 운동장",
    "address": "전북특별자치도 군산시 수송동 885-2",
    "lat": "35.96198149751717",
    "lng": "126.72027558088297",
    "region": "전북특별자치도"
  },
  {
    "name": "임피초등학교 운동장",
    "address": "전북특별자치도 군산시 임피면 읍내리 536",
    "lat": "35.9879189253705",
    "lng": "126.84999644575454",
    "region": "전북특별자치도"
  },
  {
    "name": "창오초등학교 운동장",
    "address": "전북특별자치도 군산시 성산면 창오리 221-4",
    "lat": "35.98490488370106",
    "lng": "126.81651933714839",
    "region": "전북특별자치도"
  },
  {
    "name": "무녀도초등학교 운동장",
    "address": "전북특별자치도 군산시 옥도면 무녀도리 산108",
    "lat": "35.80499638152796",
    "lng": "126.42534820502703",
    "region": "전북특별자치도"
  },
  {
    "name": "군산초등학교 운동장",
    "address": "전북특별자치도 군산시 지곡동 615",
    "lat": "35.953221033443356",
    "lng": "126.71033799648278",
    "region": "전북특별자치도"
  },
  {
    "name": "군산자양중학교 운동장",
    "address": "전북특별자치도 군산시 옥구읍 선제리 716",
    "lat": "35.925212332993816",
    "lng": "126.67744822855022",
    "region": "전북특별자치도"
  },
  {
    "name": "군산진포중학교 운동장",
    "address": "전북특별자치도 군산시 수송동 61-10",
    "lat": "35.97264152936765",
    "lng": "126.72322601245219",
    "region": "전북특별자치도"
  },
  {
    "name": "군산월명중학교 운동장",
    "address": "전북특별자치도 군산시 소룡동 1526",
    "lat": "35.974622078366366",
    "lng": "126.67980345394616",
    "region": "전북특별자치도"
  },
  {
    "name": "군산여자상업고등학교 운동장",
    "address": "전북특별자치도 군산시 지곡동 518",
    "lat": "35.95710299587271",
    "lng": "126.70786172008279",
    "region": "전북특별자치도"
  },
  {
    "name": "군산중앙여자고등학교",
    "address": "전북특별자치도 군산시 수송동 752-1",
    "lat": "35.96826792179375",
    "lng": "126.71231421653076",
    "region": "전북특별자치도"
  },
  {
    "name": "호원대학교 운동장",
    "address": "전북특별자치도 군산시 임피면 월하리 727",
    "lat": "35.965636644394",
    "lng": "126.86487504598844",
    "region": "전북특별자치도"
  },
  {
    "name": "전북대익산캠퍼스 대운동장",
    "address": "전북특별자치도 익산시 마동 199-1",
    "lat": "35.94289611674575",
    "lng": "126.96106016635895",
    "region": "전북특별자치도"
  },
  {
    "name": "삼례역 앞 주차장",
    "address": "전북특별자치도 완주군 삼례읍 후정리 279-7",
    "lat": "35.906419549981415",
    "lng": "127.0650649579302",
    "region": "전북특별자치도"
  },
  {
    "name": "함라초등학교 운동장",
    "address": "전북특별자치도 익산시 함라면 함열리 139-1",
    "lat": "36.05923434689763",
    "lng": "126.91185235977726",
    "region": "전북특별자치도"
  },
  {
    "name": "이리영등중학교 운동장",
    "address": "전북특별자치도 익산시 어양동 622-1",
    "lat": "35.96394405561396",
    "lng": "126.98147177696231",
    "region": "전북특별자치도"
  },
  {
    "name": "어양중학교 운동장",
    "address": "전북특별자치도 익산시 어양동 191",
    "lat": "35.964786377539404",
    "lng": "126.98458313941765",
    "region": "전북특별자치도"
  },
  {
    "name": "마령초등학교 운동장",
    "address": "전북특별자치도 진안군 마령면 평지리 991",
    "lat": "35.735048178106254",
    "lng": "127.36959654078564",
    "region": "전북특별자치도"
  },
  {
    "name": "중앙초등학교 운동장",
    "address": "전북특별자치도 남원시 도통동 374",
    "lat": "35.41249079335223",
    "lng": "127.3892626116828",
    "region": "전북특별자치도"
  },
  {
    "name": "전주상업정보고등학교(운동장)",
    "address": "전북특별자치도 전주시 완산구 중화산동2가 546",
    "lat": "35.80998959356401",
    "lng": "127.12542643484181",
    "region": "전북특별자치도"
  },
  {
    "name": "행안초등학교 운동장",
    "address": "전북특별자치도 부안군 행안면 진동리 199-1",
    "lat": "35.71847747796911",
    "lng": "126.71621203422197",
    "region": "전북특별자치도"
  },
  {
    "name": "부귀중학교 운동장",
    "address": "전북특별자치도 진안군 부귀면 거석리 475",
    "lat": "35.839903646555605",
    "lng": "127.36592623128",
    "region": "전북특별자치도"
  },
  {
    "name": "고수초등학교 운동장",
    "address": "전북특별자치도 고창군 고수면 황산리 215",
    "lat": "35.40420217297669",
    "lng": "126.68595256800542",
    "region": "전북특별자치도"
  },
  {
    "name": "우림초등학교(운동장)",
    "address": "전북특별자치도 전주시 완산구 효자동2가 1193-6",
    "lat": "35.80641181995864",
    "lng": "127.09827485960477",
    "region": "전북특별자치도"
  },
  {
    "name": "전주고등학교(운동장)",
    "address": "전북특별자치도 전주시 완산구 중노송동 449-1",
    "lat": "35.825912804452315",
    "lng": "127.15163691250112",
    "region": "전북특별자치도"
  },
  {
    "name": "오수의견공원",
    "address": "전북특별자치도 임실군 오수면 오수리 33",
    "lat": "35.54431737294928",
    "lng": "127.33257447857052",
    "region": "전북특별자치도"
  },
  {
    "name": "전주초등학교(운동장)",
    "address": "전북특별자치도 전주시 완산구 태평동 22-2",
    "lat": "35.822154249761155",
    "lng": "127.13987231254576",
    "region": "전북특별자치도"
  },
  {
    "name": "전주서신초등학교(운동장)",
    "address": "전북특별자치도 전주시 완산구 서신동 31-1",
    "lat": "35.82953275628634",
    "lng": "127.1249916701594",
    "region": "전북특별자치도"
  },
  {
    "name": "진안초등학교 운동장",
    "address": "전북특별자치도 진안군 진안읍 군하리 129",
    "lat": "35.79070279477248",
    "lng": "127.42417788307657",
    "region": "전북특별자치도"
  },
  {
    "name": "남관초등학교 운동장",
    "address": "전북특별자치도 완주군 상관면 용암리 410-2",
    "lat": "35.72298754661741",
    "lng": "127.2336065221427",
    "region": "전북특별자치도"
  },
  {
    "name": "정읍수성초등학교 운동장",
    "address": "전북특별자치도 정읍시 수성동 917-3",
    "lat": "35.58418816675888",
    "lng": "126.85667193228787",
    "region": "전북특별자치도"
  },
  {
    "name": "서원초등학교(운동장)",
    "address": "전북특별자치도 전주시 완산구 효자동1가 633",
    "lat": "35.80967918790285",
    "lng": "127.11914277633123",
    "region": "전북특별자치도"
  },
  {
    "name": "삼계초등학교 운동장",
    "address": "전북특별자치도 임실군 삼계면 삼계리 181-2",
    "lat": "35.507108397043595",
    "lng": "127.27715486928018",
    "region": "전북특별자치도"
  },
  {
    "name": "부안동초등학교",
    "address": "전북특별자치도 부안군 부안읍 봉덕리 446",
    "lat": "35.71663514540899",
    "lng": "126.73904836177823",
    "region": "전북특별자치도"
  },
  {
    "name": "전라중학교(운동장)",
    "address": "전북특별자치도 전주시 덕진구 송천동2가 1297",
    "lat": "35.87987169037155",
    "lng": "127.1315436031117",
    "region": "전북특별자치도"
  },
  {
    "name": "무주초등학교 운동장",
    "address": "전북특별자치도 무주군 무주읍 읍내리 343",
    "lat": "36.01076611727891",
    "lng": "127.6608109474182",
    "region": "전북특별자치도"
  },
  {
    "name": "무주중학교 운동장",
    "address": "전북특별자치도 무주군 무주읍 읍내리 355-5",
    "lat": "36.01081384970516",
    "lng": "127.66457676887512",
    "region": "전북특별자치도"
  },
  {
    "name": "전주온고을중학교(운동장)",
    "address": "전북특별자치도 전주시 덕진구 인후동1가 117",
    "lat": "35.82902225150568",
    "lng": "127.16601256993881",
    "region": "전북특별자치도"
  },
  {
    "name": "적상초등학교 운동장",
    "address": "전북특별자치도 무주군 적상면 사산리 1200",
    "lat": "35.932233220167035",
    "lng": "127.65570402145387",
    "region": "전북특별자치도"
  },
  {
    "name": "전주용소초,중등학교(운동장)",
    "address": "전북특별자치도 전주시 덕진구 송천동1가 842",
    "lat": "35.862336688574736",
    "lng": "127.11721065972985",
    "region": "전북특별자치도"
  },
  {
    "name": "전주홍산초등학교(운동장)",
    "address": "전북특별자치도 전주시 완산구 효자동3가 1685",
    "lat": "35.82042503262412",
    "lng": "127.09868262731158",
    "region": "전북특별자치도"
  },
  {
    "name": "전주동신초등학교(운동장)",
    "address": "전북특별자치도 전주시 덕진구 우아동3가 743-149",
    "lat": "35.8515198627479",
    "lng": "127.1564663739215",
    "region": "전북특별자치도"
  },
  {
    "name": "봉동초등학교 운동장",
    "address": "전북특별자치도 완주군 봉동읍 장기리 301",
    "lat": "35.93783494627402",
    "lng": "127.1631562106449",
    "region": "전북특별자치도"
  },
  {
    "name": "전주월드컵경기장",
    "address": "전북특별자치도 전주시 덕진구 여���동 1221-1",
    "lat": "35.868712857098124",
    "lng": "127.07104871148147",
    "region": "전북특별자치도"
  },
  {
    "name": "전주화정초등학교",
    "address": "전북특별자치도 전주시 덕진구 송천동2가 1310",
    "lat": "35.8727123323929",
    "lng": "127.13138602888515",
    "region": "전북특별자치도"
  },
  {
    "name": "전주에코시티 고등학교 예정부지",
    "address": "전북특별자치도 전주시 덕진구 송천동2가 1302",
    "lat": "35.878254881573405",
    "lng": "127.13464852278832",
    "region": "전북특별자치도"
  },
  {
    "name": "김제서고등학교",
    "address": "전북특별자치도 김제시 죽산면 죽산리 600-25",
    "lat": "35.77143037943467",
    "lng": "126.81464474917132",
    "region": "전북특별자치도"
  },
  {
    "name": "신덕초등학교 운동장",
    "address": "전북특별자치도 임실군 신덕면 수천리 840",
    "lat": "35.68209674594923",
    "lng": "127.17576194490472",
    "region": "전북특별자치도"
  },
  {
    "name": "백산초등학교 운동장",
    "address": "전북특별자치도 부안군 백산면 평교리 205",
    "lat": "35.701127648853024",
    "lng": "126.78777822896043",
    "region": "전북특별자치도"
  },
  {
    "name": "입암초등학교 운동장",
    "address": "전북특별자치도 정읍시 입암면 천원리 6",
    "lat": "35.50561844126179",
    "lng": "126.79698407649991",
    "region": "전북특별자치도"
  },
  {
    "name": "상전면 체련공원",
    "address": "전북특별자치도 진안군 상전면 주평리 1074-3",
    "lat": "35.8224629600322",
    "lng": "127.48347885349246",
    "region": "전북특별자치도"
  },
  {
    "name": "군산동초등학교 운동장",
    "address": "전북특별자치도 군산시 조촌동 757-1",
    "lat": "35.965076307482676",
    "lng": "126.73847744144275",
    "region": "전북특별자치도"
  },
  {
    "name": "김제중앙중학교",
    "address": "전북특별자치도 김제시 옥산동 59",
    "lat": "35.794505542429306",
    "lng": "126.88774002016292",
    "region": "전북특별자치도"
  },
  {
    "name": "김제봉남초등학교",
    "address": "전북특별자치도 김제시 봉남면 신호리 263",
    "lat": "35.76295218731981",
    "lng": "126.95171601333297",
    "region": "전북특별자치도"
  },
  {
    "name": "김제치문초등학교",
    "address": "전북특별자치도 김제시 백구면 유강리 130",
    "lat": "35.906411404602586",
    "lng": "126.93611586772369",
    "region": "전북특별자치도"
  },
  {
    "name": "삼기초등학교 운동장",
    "address": "전북특별자치도 익산시 삼기면 간촌리 43-2",
    "lat": "36.01984777573733",
    "lng": "126.98510348797133",
    "region": "전북특별자치도"
  },
  {
    "name": "성당초등학교 운동장",
    "address": "전북특별자치도 익산시 성당면 갈산리 615-1",
    "lat": "36.0999395835687",
    "lng": "126.92706883646845",
    "region": "전북특별자치도"
  },
  {
    "name": "이리서초등학교 운동장",
    "address": "전북특별자치도 익산시 남중동 458-7",
    "lat": "35.94573207473923",
    "lng": "126.94848060608254",
    "region": "전북특별자치도"
  },
  {
    "name": "익산어양초등학교 운동장",
    "address": "전북특별자치도 익산시 어양동 692",
    "lat": "35.961180395072766",
    "lng": "126.98336809873581",
    "region": "전북특별자치도"
  },
  {
    "name": "군산나운초등학교 운동장",
    "address": "전북특별자치도 군산시 나운동 771-1",
    "lat": "35.97228193748814",
    "lng": "126.69295893643339",
    "region": "전북특별자치도"
  },
  {
    "name": "이리신동초등학교 운동장",
    "address": "전북특별자치도 익산시 신동 626-2",
    "lat": "35.961280261945525",
    "lng": "126.96728289127346",
    "region": "전북특별자치도"
  },
  {
    "name": "이리신흥초등학교 운동장",
    "address": "전북특별자치도 익산시 금강동 349-1",
    "lat": "35.934224750208436",
    "lng": "126.97886466980376",
    "region": "전북특별자치도"
  },
  {
    "name": "이리중앙초등학교 운동장",
    "address": "전북특별자치도 익산시 갈산동 47",
    "lat": "35.93681275815943",
    "lng": "126.95154044934272",
    "region": "전북특별자치도"
  },
  {
    "name": " 함열여자중학교 운동장",
    "address": "전북특별자치도 익산시 함열읍 남당리 586-12",
    "lat": "36.08298593842758",
    "lng": "126.9698081139295",
    "region": "전북특별자치도"
  },
  {
    "name": "진안중앙초등학교 운동장",
    "address": "전북특별자치도 진안군 진안읍 군상리 222",
    "lat": "35.7952",
    "lng": "127.4355",
    "region": "전북특별자치도"
  },
  {
    "name": "미륵초등학교 운동장",
    "address": "전북특별자치도 익산시 금마면 용순리 645-1",
    "lat": "36.001755019318566",
    "lng": "127.02235132455817",
    "region": "전북특별자치도"
  },
  {
    "name": "오산초등학교 운동장",
    "address": "전북특별자치도 익산시 오산면 오산리 25-1",
    "lat": "35.941454212398256",
    "lng": "126.91551089286496",
    "region": "전북특별자치도"
  },
  {
    "name": "오산남초등학교 운동장",
    "address": "전북특별자치도 익산시 오산면 남전리 713-2",
    "lat": "35.92769251489334",
    "lng": "126.89278208091416",
    "region": "전북특별자치도"
  },
  {
    "name": "이리초등학교 운동장",
    "address": "전북특별자치도 익산시 마동 260-2",
    "lat": "35.93962139240061",
    "lng": "126.95921748876424",
    "region": "전북특별자치도"
  },
  {
    "name": "이리고현초등학교 운동장",
    "address": "전북특별자치도 익산시 모현동1가 73",
    "lat": "35.95179451645381",
    "lng": "126.94743990898132",
    "region": "전북특별자치도"
  },
  {
    "name": "원광보건고등학교 운동장",
    "address": "전북특별자치도 익산시 모현동1가 520",
    "lat": "35.95482990525642",
    "lng": "126.94509029388429",
    "region": "전북특별자치도"
  },
  {
    "name": "이리북일초등학교 운동장",
    "address": "전북특별자치도 익산시 신동 764-1",
    "lat": "35.963056134375094",
    "lng": "126.9593703746796",
    "region": "전북특별자치도"
  },
  {
    "name": "진성중학교 운동장",
    "address": "전북특별자치도 진안군 성수면 외궁리 780-1",
    "lat": "35.7042",
    "lng": "127.3217",
    "region": "전북특별자치도"
  },
  {
    "name": "이리영등초등학교 운동장",
    "address": "전북특별자치도 익산시 영등동 762",
    "lat": "35.952923128163995",
    "lng": "126.97222604540566",
    "region": "전북특별자치도"
  },
  {
    "name": "군산경포초등학교",
    "address": "전북특별자치도 군산시 조촌동 461",
    "lat": "35.976171",
    "lng": "126.734914",
    "region": "전북특별자치도"
  },
  {
    "name": "왕북초등학교 운동장",
    "address": "전북특별자치도 익산시 왕궁면 동용리 643",
    "lat": "35.99069121306916",
    "lng": "127.10381864577732",
    "region": "전북특별자치도"
  },
  {
    "name": "전북맹아학교 운동장",
    "address": "전북특별자치도 익산시 석암동 358-8",
    "lat": "35.94204903741861",
    "lng": "127.00581870538714",
    "region": "전북특별자치도"
  },
  {
    "name": "전북제일고등학교 운동장",
    "address": "전북특별자치도 익산시 평화동 169",
    "lat": "35.93467864698279",
    "lng": "126.94224715232849",
    "region": "전북특별자치도"
  },
  {
    "name": "이리백제초등학교 운동장",
    "address": "전북특별자치도 익산시 영등동 813",
    "lat": "35.962410229570764",
    "lng": "126.97452481969076",
    "region": "전북특별자치도"
  },
  {
    "name": " 함열고등학교 운동장",
    "address": "전북특별자치도 익산시 함열읍 와리 530-1",
    "lat": "36.08223705700194",
    "lng": "126.95939210615852",
    "region": "전북특별자치도"
  },
  {
    "name": "황등중학교 운동장",
    "address": "전북특별자치도 익산시 황등면 황등리 626-1",
    "lat": "36.007713140557655",
    "lng": "126.94618289922357",
    "region": "전북특별자치도"
  },
  {
    "name": "익산초등학교 운동장",
    "address": "전북특별자치도 익산시 어양동 593",
    "lat": "35.954238895604504",
    "lng": "126.97989529941633",
    "region": "전북특별자치도"
  },
  {
    "name": "익산가온초등학교 운동장",
    "address": "전북특별자치도 익산시 모현동2가 636",
    "lat": "35.95567449556151",
    "lng": "126.93768203258513",
    "region": "전북특별자치도"
  },
  {
    "name": "군산기계공업고등학교 운동장",
    "address": "전북특별자치도 군산시 송풍동 762",
    "lat": "35.97687736943587",
    "lng": "126.70018251340535",
    "region": "전북특별자치도"
  },
  {
    "name": "이리동초등학교 운동장",
    "address": "전북특별자치도 익산시 영등동 155",
    "lat": "35.95687991675833",
    "lng": "126.97773561287114",
    "region": "전북특별자치도"
  },
  {
    "name": "익산고등학교 운동장",
    "address": "전북특별자치도 익산시 금마면 동고도리 565",
    "lat": "35.994544097395334",
    "lng": "127.05625712871121",
    "region": "전북특별자치도"
  },
  {
    "name": "여산고등학교 운동장",
    "address": "전북특별자치도 익산시 여산면 두여리 716-1",
    "lat": "36.06633983269989",
    "lng": "127.08211638125523",
    "region": "전북특별자치도"
  },
  {
    "name": "이리팔봉초등학교 운동장",
    "address": "전북특별자치도 익산시 팔봉동 403-1",
    "lat": "35.96717869646729",
    "lng": "127.01272487640675",
    "region": "전북특별자치도"
  },
  {
    "name": "회현초등학교 운동장",
    "address": "전북특별자치도 군산시 회현면 대정리 139",
    "lat": "35.915394849384086",
    "lng": "126.75222999554276",
    "region": "전북특별자치도"
  },
  {
    "name": "나포중학교 운동장",
    "address": "전북특별자치도 군산시 나포면 옥곤리 445-5",
    "lat": "36.02788467312198",
    "lng": "126.83199961910191",
    "region": "전북특별자치도"
  },
  {
    "name": "옥구중학교 운동장",
    "address": "전북특별자치도 군산시 대야면 지경리 877-10",
    "lat": "35.94265529225043",
    "lng": "126.80521658989554",
    "region": "전북특별자치도"
  },
  {
    "name": "군산중앙중학교",
    "address": "전북특별자치도 군산시 성산면 도암리 608-8",
    "lat": "35.99996441264898",
    "lng": "126.78380964841993",
    "region": "전북특별자치도"
  },
  {
    "name": "웅포초등학교 운동장",
    "address": "전북특별자치도 익산시 웅포면 웅포리 871-1",
    "lat": "36.06454949414198",
    "lng": "126.8780773615735",
    "region": "전북특별자치도"
  },
  {
    "name": "이리남창초등학교 운동장",
    "address": "전북특별자치도 익산시 남중동 252-2",
    "lat": "35.94488954960543",
    "lng": "126.95394694804905",
    "region": "전북특별자치도"
  },
  {
    "name": "원광고등학교 운동장",
    "address": "전북특별자치도 익산시 부송동 9-4",
    "lat": "35.97299854538651",
    "lng": "127.0010170340538",
    "region": "전북특별자치도"
  },
  {
    "name": "이리공업고등학교 운동장",
    "address": "전북특별자치도 익산시 남중동 379-2",
    "lat": "35.95310161519755",
    "lng": "126.9536840915733",
    "region": "전북특별자치도"
  },
  {
    "name": " 함열초등학교",
    "address": "전북특별자치도 익산시 함열읍 와리 220-11",
    "lat": "36.078668781135605",
    "lng": "126.96545898914337",
    "region": "전북특별자치도"
  },
  {
    "name": "백운중학교 운동장",
    "address": "전북특별자치도 진안군 백운면 백암리 631",
    "lat": "35.6887",
    "lng": "127.3974",
    "region": "전북특별자치도"
  },
  {
    "name": "왕궁남초등학교 운동장",
    "address": "전북특별자치도 익산시 왕궁면 온수리 202-4",
    "lat": "35.92671462352123",
    "lng": "127.07576239133829",
    "region": "전북특별자치도"
  },
  {
    "name": "전북과학고 운동장",
    "address": "전북특별자치도 익산시 금마면 용순리 210",
    "lat": "36.01335230527639",
    "lng": "127.0354700088501",
    "region": "전북특별자치도"
  },
  {
    "name": "익산옥야초등학교 운동장",
    "address": "전북특별자치도 익산시 동산동 539-3",
    "lat": "35.92177710762548",
    "lng": "126.95965614142192",
    "region": "전북특별자치도"
  },
  {
    "name": "웅포중학교 운동장",
    "address": "전북특별자치도 익산시 웅포면 고창리 190",
    "lat": "36.08845074371006",
    "lng": "126.88520949951831",
    "region": "전북특별자치도"
  },
  {
    "name": "익산부천중학교 운동장",
    "address": "전북특별자치도 익산시 어양동 7-1",
    "lat": "35.95280415443002",
    "lng": "126.99052691459654",
    "region": "전북특별자치도"
  },
  {
    "name": "군산동고등학교",
    "address": "전북특별자치도 군산시 개정동 171",
    "lat": "35.970643167776146",
    "lng": "126.76734036834594",
    "region": "전북특별자치도"
  },
  {
    "name": "이리송학초등학교 운동장",
    "address": "전북특별자치도 익산시 송학동 111-1",
    "lat": "35.9365115816021",
    "lng": "126.94052249193193",
    "region": "전북특별자치도"
  },
  {
    "name": "왕궁중학교운동장",
    "address": "전북특별자치도 익산시 왕궁면 흥암리 91-1",
    "lat": "35.966611257166925",
    "lng": "127.09180503860796",
    "region": "전북특별자치도"
  },
  {
    "name": "춘포초등학교 운동장",
    "address": "전북특별자치도 익산시 춘포면 용연리 811",
    "lat": "35.90188061364554",
    "lng": "127.0115715265269",
    "region": "전북특별자치도"
  },
  {
    "name": "함라중학교 운동장",
    "address": "전북특별자치도 익산시 함라면 금성리 330",
    "lat": "36.06431239224353",
    "lng": "126.91796779632325",
    "region": "전북특별자치도"
  },
  {
    "name": "월락초등학교 운동장",
    "address": "전북특별자치도 남원시 월락동 162-4",
    "lat": "35.42361432221816",
    "lng": "127.4036449223379",
    "region": "전북특별자치도"
  },
  {
    "name": "노암초등학교 운동장",
    "address": "전북특별자치도 남원시 노암동 270",
    "lat": "35.39558335691892",
    "lng": "127.37614292636987",
    "region": "전북특별자치도"
  },
  {
    "name": "오동초등학교 운동장",
    "address": "전북특별자치도 남원시 이백면 척문리 425-1",
    "lat": "35.426862548172245",
    "lng": "127.4232150036794",
    "region": "전북특별자치도"
  },
  {
    "name": "서원초등학교 운동장",
    "address": "전북특별자치도 남원시 대산면 수덕리 20",
    "lat": "35.404813325428684",
    "lng": "127.34383648394447",
    "region": "전북특별자치도"
  },
  {
    "name": "금지초등학교 운동장",
    "address": "전북특별자치도 남원시 금지면 택내리 57",
    "lat": "35.33293221253408",
    "lng": "127.29360044002534",
    "region": "전북특별자치도"
  },
  {
    "name": "금지동초등학교 운동장",
    "address": "전북특별자치도 남원시 금지면 옹정리 815-1",
    "lat": "35.35663116187851",
    "lng": "127.29982954769164",
    "region": "전북특별자치도"
  },
  {
    "name": "수지초등학교 운동장",
    "address": "전북특별자치도 남원시 수지면 호곡리 800",
    "lat": "35.336653557780544",
    "lng": "127.37424975467941",
    "region": "전북특별자치도"
  },
  {
    "name": "아영초등학교 운동장",
    "address": "전북특별자치도 남원시 아영면 청계리 42-3",
    "lat": "35.5053542403236",
    "lng": "127.60973900556566",
    "region": "전북특별자치도"
  },
  {
    "name": "인월초등학교 운동장",
    "address": "전북특별자치도 남원시 인월면 서무리 688-14",
    "lat": "35.46338861202165",
    "lng": "127.60153828459639",
    "region": "전북특별자치도"
  },
  {
    "name": "보절중학교 운동장",
    "address": "전북특별자치도 남원시 덕과면 만도리 70",
    "lat": "35.51116427685808",
    "lng": "127.40056961774827",
    "region": "전북특별자치도"
  },
  {
    "name": "용성고등학교 운동장",
    "address": "전북특별자치도 남원시 도통동 220",
    "lat": "35.419586568460204",
    "lng": "127.39197805308144",
    "region": "전북특별자치도"
  },
  {
    "name": "남원여자고등학교 운동장",
    "address": "전북특별자치도 남원시 왕정동 100",
    "lat": "35.41013977904012",
    "lng": "127.3704114628029",
    "region": "전북특별자치도"
  },
  {
    "name": "남원국악예술고등학교 운동장",
    "address": "전북특별자치도 남원시 월락동 159",
    "lat": "35.424588120465074",
    "lng": "127.4050451489198",
    "region": "전북특별자치도"
  },
  {
    "name": "동북유치원 주차장",
    "address": "전북특별자치도 남원시 동충동 237",
    "lat": "35.41246417737702",
    "lng": "127.3839524802395",
    "region": "전북특별자치도"
  },
  {
    "name": "한울학교 운동장",
    "address": "전북특별자치도 남원시 이백면 서곡리 430-1",
    "lat": "35.42480146752276",
    "lng": "127.44149439443808",
    "region": "전북특별자치도"
  },
  {
    "name": "장수초등학교 운동장",
    "address": "전북특별자치도 장수군 장수읍 장수리 195",
    "lat": "35.64827715872592",
    "lng": "127.52194330456341",
    "region": "전북특별자치도"
  },
  {
    "name": "진안제일고등학교 운동장",
    "address": "전북특별자치도 진안군 진안읍 군하리 386",
    "lat": "35.7866",
    "lng": "127.4211",
    "region": "전북특별자치도"
  },
  {
    "name": "원광여중학교 운동장",
    "address": "전북특별자치도 익산시 모현동1가 520",
    "lat": "35.954751742200955",
    "lng": "126.94500982761384",
    "region": "전북특별자치도"
  },
  {
    "name": "오천초등학교 운동장",
    "address": "전북특별자치도 진안군 진안읍 죽산리 4",
    "lat": "35.776473912284835",
    "lng": "127.49306559562687",
    "region": "전북특별자치도"
  },
  {
    "name": "백운초등학교 운동장",
    "address": "전북특별자치도 진안군 백운면 백암리 537",
    "lat": "35.6918",
    "lng": "127.3984",
    "region": "전북특별자치도"
  },
  {
    "name": "부귀초등학교 운동장",
    "address": "전북특별자치도 진안군 부귀면 거석리 788",
    "lat": "35.8375",
    "lng": "127.3613",
    "region": "전북특별자치도"
  },
  {
    "name": "외궁초등학교 운동장",
    "address": "전북특별자치도 진안군 성수면 외궁리 687-5",
    "lat": "35.70730402971774",
    "lng": "127.32545315897346",
    "region": "전북특별자치도"
  },
  {
    "name": "장승초등학교 운동장",
    "address": "전북특별자치도 진안군 부귀면 신정리 749",
    "lat": "35.79935434711187",
    "lng": "127.3346972465515",
    "region": "전북특별자치도"
  },
  {
    "name": "주천초등학교 운동장",
    "address": "전북특별자치도 진안군 주천면 주양리 465-3",
    "lat": "35.97576493033289",
    "lng": "127.42642491583545",
    "region": "전북특별자치도"
  },
  {
    "name": "송풍초등학교 운동장",
    "address": "전북특별자치도 진안군 용담면 송풍리 1002",
    "lat": "35.9647",
    "lng": "127.5186",
    "region": "전북특별자치도"
  },
  {
    "name": "동향중학교 운동장",
    "address": "전북특별자치도 진안군 동향면 대량리 188",
    "lat": "35.8362",
    "lng": "127.5714",
    "region": "전북특별자치도"
  },
  {
    "name": "마령중학교 운동장",
    "address": "전북특별자치도 진안군 마령면 평지리 580-4",
    "lat": "35.7326",
    "lng": "127.3721",
    "region": "전북특별자치도"
  },
  {
    "name": "주천중학교 운동장",
    "address": "전북특별자치도 진안군 주천면 주양리 75",
    "lat": "35.9788",
    "lng": "127.4299",
    "region": "전북특별자치도"
  },
  {
    "name": "안천고등학교 운동장",
    "address": "전북특별자치도 진안군 안천면 백화리 875-1",
    "lat": "35.9000",
    "lng": "127.5600",
    "region": "전북특별자치도"
  },
  {
    "name": "한방고등학교 운동장",
    "address": "전북특별자치도 진안군 진안읍 연장리 998",
    "lat": "35.7706",
    "lng": "127.3769",
    "region": "전북특별자치도"
  },
  {
    "name": "금마초등학교 운동장",
    "address": "전북특별자치도 익산시 금마면 동고도리 155",
    "lat": "35.9911239412491",
    "lng": "127.0566594600664",
    "region": "전북특별자치도"
  },
  {
    "name": "낭산초등학교 운동장",
    "address": "전북특별자치도 익산시 낭산면 호암리 318-2",
    "lat": "36.06648921653322",
    "lng": "127.01478481292723",
    "region": "전북특별자치도"
  },
  {
    "name": "다송초등학교 운동장",
    "address": "전북특별자치도 익산시 함열읍 다송리 477-1",
    "lat": "36.04098797403249",
    "lng": "126.95544630289079",
    "region": "전북특별자치도"
  },
  {
    "name": "석불초등학교 운동장",
    "address": "전북특별자치도 익산시 삼기면 연동리 643-2",
    "lat": "36.02962902211029",
    "lng": "127.00651019811461",
    "region": "전북특별자치도"
  },
  {
    "name": "성북초등학교 운동장",
    "address": "전북특별자치도 익산시 망성면 신작리 868",
    "lat": "36.14634963244757",
    "lng": "127.00849401308491",
    "region": "전북특별자치도"
  },
  {
    "name": "여산초등학교 운동장",
    "address": "전북특별자치도 익산시 여산면 여산리 490",
    "lat": "36.05887098372044",
    "lng": "127.08683481932493",
    "region": "전북특별자치도"
  },
  {
    "name": "망성초등학교 운동장",
    "address": "전북특별자치도 익산시 망성면 장선리 136-1",
    "lat": "36.12069408831782",
    "lng": "127.02974323506344",
    "region": "전북특별자치도"
  },
  {
    "name": "왕궁초등학교운동장",
    "address": "전북특별자치도 익산시 왕궁면 흥암리 150",
    "lat": "35.96611890129651",
    "lng": "127.09037231130307",
    "region": "전북특별자치도"
  },
  {
    "name": "용남초등학교 운동장",
    "address": "전북특별자치도 익산시 용안면 동지산리 76",
    "lat": "36.09514656309481",
    "lng": "126.9623798131982",
    "region": "전북특별자치도"
  },
  {
    "name": "용북초등학교 운동장",
    "address": "전북특별자치도 익산시 용안면 석동리 321-1",
    "lat": "36.13425499391305",
    "lng": "126.94675594568255",
    "region": "전북특별자치도"
  },
  {
    "name": "용산초등학교 운동장",
    "address": "전북특별자치도 익산시 황등면 죽촌리 27-5",
    "lat": "36.04022020649526",
    "lng": "126.93754792213413",
    "region": "전북특별자치도"
  },
  {
    "name": "용성초등학교 운동장",
    "address": "전북특별자치도 익산시 낭산면 구평리 598-1",
    "lat": "36.05591674490016",
    "lng": "126.99937820434461",
    "region": "전북특별자치도"
  },
  {
    "name": "전북 혜화학교 운동장",
    "address": "전북특별자치도 익산시 덕기동 738-1",
    "lat": "35.966741054370026",
    "lng": "127.0309480821802",
    "region": "전북특별자치도"
  },
  {
    "name": "용안초등학교 운동장",
    "address": "전북특별자치도 익산시 용안면 교동리 225",
    "lat": "36.11992884467827",
    "lng": "126.95410304814409",
    "region": "전북특별자치도"
  },
  {
    "name": " 함열여자고등학교 운동장",
    "address": "전북특별자치도 익산시 함열읍 남당리 586",
    "lat": "36.08407710101095",
    "lng": "126.96846259836757",
    "region": "전북특별자치도"
  },
  {
    "name": "이리계문초등학교 운동장",
    "address": "전북특별자치도 익산시 신용동 670-2",
    "lat": "35.973252516341184",
    "lng": "126.94384038448335",
    "region": "전북특별자치도"
  },
  {
    "name": "진경여고등학교 운동장",
    "address": "전북특별자치도 익산시 황등면 황등리 955",
    "lat": "36.0042395206933",
    "lng": "126.94097042083742",
    "region": "전북특별자치도"
  },
  {
    "name": "이리남초등학교 운동장",
    "address": "전북특별자치도 익산시 목천동 444-3",
    "lat": "35.9139757031178",
    "lng": "126.92977410639821",
    "region": "전북특별자치도"
  },
  {
    "name": "이리동남초등학교 운동장",
    "address": "전북특별자치도 익산시 동산동 140-1",
    "lat": "35.93120388480143",
    "lng": "126.97058912284176",
    "region": "전북특별자치도"
  },
  {
    "name": "이리동북초등학교 운동장",
    "address": "전북특별자치도 익산시 영등동 260-5",
    "lat": "35.94937915680746",
    "lng": "126.968545865806",
    "region": "전북특별자치도"
  },
  {
    "name": "원광여고등학교 운동장",
    "address": "전북특별자치도 익산시 모현동1가 520",
    "lat": "35.954892869883764",
    "lng": "126.94514125585559",
    "region": "전북특별자치도"
  },
  {
    "name": "이리동산초등학교 운동장",
    "address": "전북특별자치도 익산시 동산동 220",
    "lat": "35.93178895680847",
    "lng": "126.96347234638938",
    "region": "전북특별자치도"
  },
  {
    "name": "이리마한초등학교 운동장",
    "address": "전북특별자치도 익산시 영등동 817",
    "lat": "35.96247014321957",
    "lng": "126.97937006408576",
    "region": "전북특별자치도"
  },
  {
    "name": "성일고등학교 운동장",
    "address": "전북특별자치도 익산시 황등면 황등리 626-1",
    "lat": "36.007663447578814",
    "lng": "126.94735407829283",
    "region": "전북특별자치도"
  },
  {
    "name": "이리모현초등학교 운동장",
    "address": "전북특별자치도 익산시 모현동1가 264-7",
    "lat": "35.94495035069034",
    "lng": "126.9396024942398",
    "region": "전북특별자치도"
  },
  {
    "name": "남성여자고등학교 운동장",
    "address": "전북특별자치도 익산시 영등동 337-5",
    "lat": "35.955490905244595",
    "lng": "126.96674464133142",
    "region": "전북특별자치도"
  },
  {
    "name": "이리부송초등학교 운동장",
    "address": "전북특별자치도 익산시 부송동 1047",
    "lat": "35.95555508102797",
    "lng": "126.99399769306184",
    "region": "전북특별자치도"
  },
  {
    "name": "이리부천초등학교 운동장",
    "address": "전북특별자치도 익산시 부송동 1070",
    "lat": "35.95614769134981",
    "lng": "126.98565830707513",
    "region": "전북특별자치도"
  },
  {
    "name": "이리여고등학교 운동장",
    "address": "전북특별자치도 익산시 남중동 201-5",
    "lat": "35.94556704475192",
    "lng": "126.9509375095353",
    "region": "전북특별자치도"
  },
  {
    "name": "이리북초등학교 운동장",
    "address": "전북특별자치도 익산시 남중동 7-4",
    "lat": "35.952324306594846",
    "lng": "126.96019113064058",
    "region": "전북특별자치도"
  },
  {
    "name": "이리삼성초등학교 운동장",
    "address": "전북특별자치도 익산시 임상동 227-1",
    "lat": "35.98782517301232",
    "lng": "126.97584986686707",
    "region": "전북특별자치도"
  },
  {
    "name": "이리고등학교 운동장",
    "address": "전북특별자치도 익산시 남중동 218-1",
    "lat": "35.948828494563024",
    "lng": "126.95577621460285",
    "region": "전북특별자치도"
  },
  {
    "name": "이리석암초등학교 운동장",
    "address": "전북특별자치도 익산시 석암동 215-1",
    "lat": "35.93574714010276",
    "lng": "127.00746238231658",
    "region": "전북특별자치도"
  },
  {
    "name": "전북기계공업고등학교 운동장",
    "address": "전북특별자치도 익산시 남중동 55-1",
    "lat": "35.948384206784084",
    "lng": "126.96027314913357",
    "region": "전북특별자치도"
  },
  {
    "name": "진경여중학교 운동장",
    "address": "전북특별자치도 익산시 황등면 동연리 620",
    "lat": "36.00046174569861",
    "lng": "126.93278431892395",
    "region": "전북특별자치도"
  },
  {
    "name": "익산궁동초등학교 운동장",
    "address": "전북특별자치도 익산시 부송동 1119",
    "lat": "35.96196976476632",
    "lng": "126.99401355482401",
    "region": "전북특별자치도"
  },
  {
    "name": "원광중학교 운동장",
    "address": "전북특별자치도 익산시 부송동 122-5",
    "lat": "35.97450278963276",
    "lng": "127.00124131902723",
    "region": "전북특별자치도"
  },
  {
    "name": "여산중학교 운동장",
    "address": "전북특별자치도 익산시 여산면 두여리 716",
    "lat": "36.066497993878116",
    "lng": "127.08092998326781",
    "region": "전북특별자치도"
  },
  {
    "name": "익산지원중학교 운동장",
    "address": "전북특별자치도 익산시 마동 291-3",
    "lat": "35.93968918297013",
    "lng": "126.96107959787841",
    "region": "전북특별자치도"
  },
  {
    "name": " 함열중학교 운동장",
    "address": "전북특별자치도 익산시 함열읍 와리 530-65",
    "lat": "36.08233225407025",
    "lng": "126.96029841899875",
    "region": "전북특별자치도"
  },
  {
    "name": "군산서해초등학교 운동장",
    "address": "전북특별자치도 군산시 나운동 155-3",
    "lat": "35.95952077151547",
    "lng": "126.69946884637281",
    "region": "전북특별자치도"
  },
  {
    "name": "흥왕초등학교 운동장",
    "address": "전북특별자치도 익산시 용동면 흥왕리 221",
    "lat": "36.10477976158424",
    "lng": "126.99694141745256",
    "region": "전북특별자치도"
  },
  {
    "name": "군산중앙초등학교 운동장",
    "address": "전북특별자치도 군산시 중앙로2가 145",
    "lat": "35.98196256350199",
    "lng": "126.71693620786495",
    "region": "전북특별자치도"
  },
  {
    "name": "군산지곡초등학교 운동장",
    "address": "전북특별자치도 군산시 지곡동 504",
    "lat": "35.95751173088649",
    "lng": "126.70640139143246",
    "region": "전북특별자치도"
  },
  {
    "name": "해성초등학교 운동장",
    "address": "전북특별자치도 군산시 산북동 2803",
    "lat": "35.95844539232737",
    "lng": "126.63029127952207",
    "region": "전북특별자치도"
  },
  {
    "name": "군산옥구초등학교 운동장",
    "address": "전북특별자치도 군산시 옥구읍 선제리 468",
    "lat": "35.92209470165403",
    "lng": "126.68063280349524",
    "region": "전북특별자치도"
  },
  {
    "name": "새만금초등학교 운동장",
    "address": "전북특별자치도 군산시 오식도동 805-5",
    "lat": "35.96717712902942",
    "lng": "126.56177126805527",
    "region": "전북특별자치도"
  },
  {
    "name": "개정초등학교 운동장",
    "address": "전북특별자치도 군산시 개정면 아동리 233-3",
    "lat": "35.96289548252283",
    "lng": "126.76862910389517",
    "region": "전북특별자치도"
  },
  {
    "name": "삼기중학교 운동장",
    "address": "전북특별자치도 익산시 삼기면 간촌리 80-2",
    "lat": "36.020992375214995",
    "lng": "126.98321470363486",
    "region": "전북특별자치도"
  },
  {
    "name": "용안중학교 운동장",
    "address": "전북특별자치도 익산시 용안면 교동리 397-2",
    "lat": "36.11616041688769",
    "lng": "126.9529894991984",
    "region": "전북특별자치도"
  },
  {
    "name": "문창초등학교 운동장",
    "address": "전북특별자치도 군산시 산북동 2701",
    "lat": "35.9562355604755",
    "lng": "126.65583029530383",
    "region": "전북특별자치도"
  },
  {
    "name": "미룡초등학교 운동장",
    "address": "전북특별자치도 군산시 미룡동 458-4",
    "lat": "35.950653991983124",
    "lng": "126.68487528417637",
    "region": "전북특별자치도"
  },
  {
    "name": "서수초등학교 운동장",
    "address": "전북특별자치도 군산시 서수면 서수리 760",
    "lat": "35.98303769850231",
    "lng": "126.8770125610614",
    "region": "전북특별자치도"
  },
  {
    "name": "회현중학교  운동장",
    "address": "전북특별자치도 군산시 회현면 대정리 102-1",
    "lat": "35.912853904753355",
    "lng": "126.75482511520384",
    "region": "전북특별자치도"
  },
  {
    "name": "금암초등학교 운동장",
    "address": "전북특별자치도 군산시 서수면 금암리 261",
    "lat": "36.0054949392503",
    "lng": "126.90802782213571",
    "region": "전북특별자치도"
  },
  {
    "name": "나포초등학교 운동장",
    "address": "전북특별자치도 군산시 나포면 옥곤리 261",
    "lat": "36.03094966424757",
    "lng": "126.8341587080859",
    "region": "전북특별자치도"
  },
  {
    "name": "당북초등학교 운동장",
    "address": "전북특별자치도 군산시 옥산면 당북리 869-7",
    "lat": "35.94640255109077",
    "lng": "126.71730355530788",
    "region": "전북특별자치도"
  },
  {
    "name": "마룡초등학교 운동장",
    "address": "전북특별자치도 군산시 서수면 마룡리 338",
    "lat": "36.00308429237324",
    "lng": "126.87778165445067",
    "region": "전북특별자치도"
  },
  {
    "name": "선유도중학교",
    "address": "전북특별자치도 군산시 옥도면 선유도리 234",
    "lat": "35.81198840317499",
    "lng": "126.41239191715515",
    "region": "전북특별자치도"
  },
  {
    "name": "술산초등학교 운동장",
    "address": "전북특별자치도 군산시 임피면 술산리 408-1",
    "lat": "35.95765068492304",
    "lng": "126.8616593875037",
    "region": "전북특별자치도"
  },
  {
    "name": "회현오봉초등학교 운동장",
    "address": "전북특별자치도 군산시 회현면 월연리 491-1",
    "lat": "35.8887307716087",
    "lng": "126.72595468214584",
    "region": "전북특별자치도"
  },
  {
    "name": "옥봉초등학교",
    "address": "전북특별자치도 군산시 옥서면 옥봉리 88",
    "lat": "35.92707217651867",
    "lng": "126.641071905691",
    "region": "전북특별자치도"
  },
  {
    "name": "옥산초등학교 운동장",
    "address": "전북특별자치도 군산시 옥산면 옥산리 30",
    "lat": "35.94065164877692",
    "lng": "126.7493134856775",
    "region": "전북특별자치도"
  },
  {
    "name": "전주교대군산부설초등학교 운동장",
    "address": "전북특별자치도 군산시 동흥남동 402-3",
    "lat": "35.97402017108636",
    "lng": "126.72199049135683",
    "region": "전북특별자치도"
  },
  {
    "name": "군산동원중학교 운동장",
    "address": "전북특별자치도 군산시 나운동 155-4",
    "lat": "35.95908357495062",
    "lng": "126.70049844510274",
    "region": "전북특별자치도"
  },
  {
    "name": "군산서흥중학교 운동장",
    "address": "전북특별자치도 군산시 서흥남동 853",
    "lat": "35.97103498539712",
    "lng": "126.70961287856441",
    "region": "전북특별자치도"
  },
  {
    "name": "군산남중학교 운동장",
    "address": "전북특별자치도 군산시 문화동 785-10",
    "lat": "35.97306647993106",
    "lng": "126.69940210309046",
    "region": "전북특별자치도"
  },
  {
    "name": "임피중학교 운동장",
    "address": "전북특별자치도 군산시 서수면 서수리 1085-1",
    "lat": "35.98401773410661",
    "lng": "126.86893444106599",
    "region": "전북특별자치도"
  },
  {
    "name": "군산금강중학교 운동장",
    "address": "전북특별자치도 군산시 미룡동 899",
    "lat": "35.94095497068776",
    "lng": "126.6887780687116",
    "region": "전북특별자치도"
  },
  {
    "name": "군산중학교 운동장",
    "address": "전북특별자치도 군산시 송풍동 925-8",
    "lat": "35.977450482047864",
    "lng": "126.70233235248296",
    "region": "전북특별자치도"
  },
  {
    "name": "산북중학교 운동장",
    "address": "전북특별자치도 군산시 산북동 3581",
    "lat": "35.96440259768209",
    "lng": "126.68260918128105",
    "region": "전북특별자치도"
  },
  {
    "name": "군산대성중학교",
    "address": "전북특별자치도 군산시 임피면 읍내리 535-4",
    "lat": "35.98861288760423",
    "lng": "126.84880493187087",
    "region": "전북특별자치도"
  },
  {
    "name": "익산한벌초등학교 운동장",
    "address": "전북특별자치도 익산시 부송동 1204",
    "lat": "35.95859900969607",
    "lng": "126.99414253234977",
    "region": "전북특별자치도"
  },
  {
    "name": "성당중학교 운동장",
    "address": "전북특별자치도 익산시 성당면 갈산리 406-2",
    "lat": "36.08810120093731",
    "lng": "126.92973711997637",
    "region": "전북특별자치도"
  },
  {
    "name": "이리북중학교 운동장",
    "address": "전북특별자치도 익산시 신동 426",
    "lat": "35.96329276961753",
    "lng": "126.95143103599548",
    "region": "전북특별자치도"
  },
  {
    "name": "옥산 외류마을",
    "address": "전북특별자치도 군산시 옥산면 금성리 256-1",
    "lat": "35.92711016757437",
    "lng": "126.73290404795563",
    "region": "전북특별자치도"
  },
  {
    "name": "군산고등학교 운동장",
    "address": "전북특별자치도 군산시 동흥남동 402-1",
    "lat": "35.97504617034654",
    "lng": "126.72067643664447",
    "region": "전북특별자치도"
  },
  {
    "name": "군산상일고등학교 운동장",
    "address": "전북특별자치도 군산시 문화동 785-3",
    "lat": "35.97436527061732",
    "lng": "126.70009392615192",
    "region": "전북특별자치도"
  },
  {
    "name": "군산여자고등학교",
    "address": "전북특별자치도 군산시 월명동 37-1",
    "lat": "35.98509435216879",
    "lng": "126.70354906048757",
    "region": "전북특별자치도"
  },
  {
    "name": "전북외국어고등학교 운동장",
    "address": "전북특별자치도 군산시 소룡동 1044-2",
    "lat": "35.98189358485139",
    "lng": "126.6847086834515",
    "region": "전북특별자치도"
  },
  {
    "name": "군산제일고등학교",
    "address": "전북특별자치도 군산시 조촌동 84",
    "lat": "35.97360817938836",
    "lng": "126.74716926806977",
    "region": "전북특별자치도"
  },
  {
    "name": "군산대학교 종합운동장",
    "address": "전북특별자치도 군산시 미룡동 290-2",
    "lat": "35.94694166779479",
    "lng": "126.68155655509929",
    "region": "전북특별자치도"
  },
  {
    "name": "군산간호대학교",
    "address": "전북특별자치도 군산시 개정동 413-11",
    "lat": "35.9710010014924",
    "lng": "126.76001198753741",
    "region": "전북특별자치도"
  },
  {
    "name": "황등초등학교 운동장",
    "address": "전북특별자치도 익산시 황등면 황등리 1739-54",
    "lat": "36.009208288595254",
    "lng": "126.94564282894136",
    "region": "전북특별자치도"
  },
  {
    "name": "이리남중학교 운동장",
    "address": "전북특별자치도 익산시 모현동1가 890",
    "lat": "35.94586236132858",
    "lng": "126.93676203489306",
    "region": "전북특별자치도"
  },
  {
    "name": "익산부송중학교 운동장",
    "address": "전북특별자치도 익산시 부송동 240-2",
    "lat": "35.95546172044835",
    "lng": "126.99591010808636",
    "region": "전북특별자치도"
  },
  {
    "name": "천서초등학교 운동장",
    "address": "전북특별자치도 익산시 춘포면 천서리 85-2",
    "lat": "35.94572075536427",
    "lng": "127.03592885301694",
    "region": "전북특별자치도"
  },
  {
    "name": "김제농생명마이스터고등학교",
    "address": "전북특별자치도 김제시 신풍동 436-1",
    "lat": "35.79511994497317",
    "lng": "126.89087559604742",
    "region": "전북특별자치도"
  },
  {
    "name": "김제금산초등학교",
    "address": "전북특별자치도 김제시 금산면 청도리 461-1",
    "lat": "35.720600448114844",
    "lng": "127.03205595466224",
    "region": "전북특별자치도"
  },
  {
    "name": "김제북초등학교",
    "address": "전북특별자치도 김제시 순동 195-8",
    "lat": "35.814940996440036",
    "lng": "126.93423802551986",
    "region": "전북특별자치도"
  },
  {
    "name": "한들중학교",
    "address": "전북특별자치도 김제시 요촌동 72-1",
    "lat": "35.804174240054635",
    "lng": "126.89164374434361",
    "region": "전북특별자치도"
  },
  {
    "name": "만경고등학교",
    "address": "전북특별자치도 김제시 만경읍 만경리 527",
    "lat": "35.84985682231188",
    "lng": "126.81795358657835",
    "region": "전북특별자치도"
  },
  {
    "name": "부용초등학교",
    "address": "전북특별자치도 김제시 백구면 월봉리 57-2",
    "lat": "35.876769389909214",
    "lng": "126.95240146025893",
    "region": "전북특별자치도"
  },
  {
    "name": "성덕초등학교",
    "address": "전북특별자치도 김제시 성덕면 석동리 168-2",
    "lat": "35.819777639519984",
    "lng": "126.80754321694707",
    "region": "전북특별자치도"
  },
  {
    "name": "심창초등학교",
    "address": "전북특별자치도 김제시 진봉면 심포리 357",
    "lat": "35.85817158768644",
    "lng": "126.7210721903956",
    "region": "전북특별자치도"
  },
  {
    "name": "김제용지초등학교",
    "address": "전북특별자치도 김제시 용지면 구암리 138-3",
    "lat": "35.85410050625842",
    "lng": "126.95764839649199",
    "region": "전북특별자치도"
  },
  {
    "name": "진봉초등학교",
    "address": "전북특별자치도 김제시 진봉면 상궐리 76-12",
    "lat": "35.8473688528709",
    "lng": "126.78274795919853",
    "region": "전북특별자치도"
  },
  {
    "name": "군산산북초등학교 운동장",
    "address": "전북특별자치도 군산시 산북동 3580",
    "lat": "35.96418342849903",
    "lng": "126.68095816351209",
    "region": "전북특별자치도"
  },
  {
    "name": "군산서초등학교 운동장",
    "address": "전북특별자치도 군산시 금동 20-3",
    "lat": "35.990294351851205",
    "lng": "126.70663419999545",
    "region": "전북특별자치도"
  },
  {
    "name": "전주화정중학교",
    "address": "전북특별자치도 전주시 덕진구 송천동2가 1340",
    "lat": "35.87109664898094",
    "lng": "127.13045705380556",
    "region": "전북특별자치도"
  },
  {
    "name": "사선대국민관광단지",
    "address": "전북특별자치도 임실군 관촌면 관촌리 222",
    "lat": "35.67163282439835",
    "lng": "127.27353397787267",
    "region": "전북특별자치도"
  },
  {
    "name": "이평초등학교 운동장",
    "address": "전북특별자치도 정읍시 이평면 두지리 249",
    "lat": "35.66258509776141",
    "lng": "126.83930928413263",
    "region": "전북특별자치도"
  },
  {
    "name": "군산아리울초등학교 운동장",
    "address": "전북특별자치도 군산시 수송동 830-2",
    "lat": "35.96754317184752",
    "lng": "126.72031576475437",
    "region": "전북특별자치도"
  },
  {
    "name": "지사초등학교 운동장",
    "address": "전북특별자치도 임실군 지사면 방계리 558",
    "lat": "35.5639326278882",
    "lng": "127.3565396888044",
    "region": "전북특별자치도"
  },
  {
    "name": "전주삼천남초등학교(운동장)",
    "address": "전북특별자치도 전주시 완산구 삼천동1가 635",
    "lat": "35.79594090549521",
    "lng": "127.12351054834309",
    "region": "전북특별자치도"
  },
  {
    "name": "전주용흥초등학교(운동장)",
    "address": "전북특별자치도 전주시 완산구 삼천동1가 765-2",
    "lat": "35.794412717617575",
    "lng": "127.11220347451524",
    "region": "전북특별자치도"
  },
  {
    "name": "군산남초등학교 운동장",
    "address": "전북특별자치도 군산시 미원동 343",
    "lat": "35.97884585181919",
    "lng": "126.71456594029533",
    "region": "전북특별자치도"
  },
  {
    "name": "군산진포초등학교 운동장",
    "address": "전북특별자치도 군산시 나운동 1522",
    "lat": "35.965337789598806",
    "lng": "126.70500040054316",
    "region": "전북특별자치도"
  },
  {
    "name": "청운초등학교",
    "address": "전북특별자치도 김제시 금구면 청운리 198",
    "lat": "35.81043040137756",
    "lng": "126.98319890365957",
    "region": "전북특별자치도"
  },
  {
    "name": "전북사대부설고등학교(운동장)",
    "address": "전북특별자치도 전주시 덕진구 금암동 663",
    "lat": "35.84598858581767",
    "lng": "127.13652610677406",
    "region": "전북특별자치도"
  },
  {
    "name": "방축마을 광장",
    "address": "전북특별자치도 고창군 성송면 산수리 448-4",
    "lat": "35.344763",
    "lng": "126.611336",
    "region": "전북특별자치도"
  },
  {
    "name": "비룡초등학교",
    "address": "전북특별자치도 김제시 용지면 신정리 140-82",
    "lat": "35.84400750761465",
    "lng": "126.98940411113733",
    "region": "전북특별자치도"
  },
  {
    "name": "초처초등학교",
    "address": "전북특별자치도 김제시 봉남면 신응리 123",
    "lat": "35.73883510956146",
    "lng": "126.9547833799587",
    "region": "전북특별자치도"
  },
  {
    "name": "전주사대부설고등학교(운동장)",
    "address": "전북특별자치도 전주시 완산구 효자동3가 1207-1",
    "lat": "35.81527953446543",
    "lng": "127.09374024366355",
    "region": "전북특별자치도"
  },
  {
    "name": "화산초등학교 운동장",
    "address": "전북특별자치도 완주군 화산면 화평리 589",
    "lat": "36.03478744422309",
    "lng": "127.2039713149423",
    "region": "전북특별자치도"
  },
  {
    "name": "삼례중학교 운동장",
    "address": "전북특별자치도 완주군 삼례읍 삼례리 1763",
    "lat": "35.91065980275323",
    "lng": "127.0790907740593",
    "region": "전북특별자치도"
  },
  {
    "name": "천천중학교 운동장",
    "address": "전북특별자치도 장수군 천천면 춘송리 432-1",
    "lat": "35.73570216157211",
    "lng": "127.53830038974354",
    "region": "전북특별자치도"
  },
  {
    "name": "강호항공고등학교",
    "address": "전북특별자치도 고창군 고창읍 덕산리 17",
    "lat": "35.42548536511627",
    "lng": "126.69902500840645",
    "region": "전북특별자치도"
  },
  {
    "name": "산악 자전거 공원",
    "address": "전북특별자치도 고창군 고창읍 석정리 696",
    "lat": "35.433429455675714",
    "lng": "126.73819710056692",
    "region": "전북특별자치도"
  },
  {
    "name": "소양중학교 운동장",
    "address": "전북특별자치도 완주군 소양면 황운리 750",
    "lat": "35.856228797041254",
    "lng": "127.23256033128827",
    "region": "전북특별자치도"
  },
  {
    "name": "번암중학교 운동장",
    "address": "전북특별자치도 장수군 번암면 노단리 1622-6",
    "lat": "35.53534531907495",
    "lng": "127.54801869392394",
    "region": "전북특별자치도"
  },
  {
    "name": "김제초등학교",
    "address": "전북특별자치도 김제시 요촌동 261-1",
    "lat": "35.802027463982135",
    "lng": "126.88684095429446",
    "region": "전북특별자치도"
  },
  {
    "name": "만경초등학교",
    "address": "전북특별자치도 김제시 만경읍 만경리 165",
    "lat": "35.85501849002281",
    "lng": "126.823113488803",
    "region": "전북특별자치도"
  },
  {
    "name": "만경여자고등학교",
    "address": "전북특별자치도 김제시 만경읍 만경리 404-2",
    "lat": "35.8540396353484",
    "lng": "126.81459009647367",
    "region": "전북특별자치도"
  },
  {
    "name": "청하중학교",
    "address": "전북특별자치도 김제시 청하면 관상리 440",
    "lat": "35.881674070296036",
    "lng": "126.85114208786678",
    "region": "전북특별자치도"
  },
  {
    "name": "전주온빛중학교(운동장)",
    "address": "전북특별자치도 전주시 덕진구 장동 1070",
    "lat": "35.843130362638746",
    "lng": "127.05854116174211",
    "region": "전북특별자치도"
  },
  {
    "name": "새마을 공원 체육시설",
    "address": "전북특별자치도 고창군 고창읍 석교리 9-56",
    "lat": "35.441940552167694",
    "lng": "126.69776916503724",
    "region": "전북특별자치도"
  },
  {
    "name": "월곡1공원",
    "address": "전북특별자치도 고창군 고창읍 월곡리 1009",
    "lat": "35.43352081808167",
    "lng": "126.71374660432124",
    "region": "전북특별자치도"
  },
  {
    "name": "고산고등학교 운동장",
    "address": "전북특별자치도 완주군 고산면 서봉리 689",
    "lat": "35.97949630801968",
    "lng": "127.20154556704848",
    "region": "전북특별자치도"
  },
  {
    "name": "어린이 11공원",
    "address": "전북특별자치도 군산시 산북동 3543-2",
    "lat": "35.96709837477798",
    "lng": "126.68192267417902",
    "region": "전북특별자치도"
  },
  {
    "name": "전주팔복초등학교(운동장)",
    "address": "전북특별자치도 전주시 덕진구 여의동2가 374-1",
    "lat": "35.86355666929252",
    "lng": "127.09488093852997",
    "region": "전북특별자치도"
  },
  {
    "name": "한별고등학교 운동장",
    "address": "전북특별자치도 완주군 삼례읍 삼례리 864-1",
    "lat": "35.908278637971215",
    "lng": "127.07247801211729",
    "region": "전북특별자치도"
  },
  {
    "name": "근린 3공원",
    "address": "전북특별자치도 군산시 미장동 542-2",
    "lat": "35.96012695450689",
    "lng": "126.7260495547296",
    "region": "전북특별자치도"
  },
  {
    "name": "어린이 10공원",
    "address": "전북특별자치도 군산시 산북동 3532",
    "lat": "35.969043243985546",
    "lng": "126.67752275200138",
    "region": "전북특별자치도"
  },
  {
    "name": "어린이32공원",
    "address": "전북특별자치도 군산시 조촌동 845",
    "lat": "35.97354979154286",
    "lng": "126.7349923508647",
    "region": "전북특별자치도"
  },
  {
    "name": "한옥마을1주차장",
    "address": "전북특별자치도 전주시 완산구 남노송동 100-1",
    "lat": "35.81859742986433",
    "lng": "127.15400816515816",
    "region": "전북특별자치도"
  },
  {
    "name": "생활야구경기장",
    "address": "전북특별자치도 고창군 고창읍 월암리 102",
    "lat": "35.428194438134604",
    "lng": "126.72568559646867",
    "region": "전북특별자치도"
  },
  {
    "name": "임리마을 광장",
    "address": "전북특별자치도 고창군 신림면 무림리 299",
    "lat": "35.488975",
    "lng": "126.714355",
    "region": "전북특별자치도"
  },
  {
    "name": "삼우중학교 운동장",
    "address": "전북특별자치도 완주군 이서면 상개리 580-2",
    "lat": "35.82393530012348",
    "lng": "127.02412952729095",
    "region": "전북특별자치도"
  },
  {
    "name": "태봉초등학교 운동장",
    "address": "전북특별자치도 완주군 구이면 평촌리 1111-1",
    "lat": "35.74517072899273",
    "lng": "127.14925883393899",
    "region": "전북특별자치도"
  },
  {
    "name": "비봉초등학교 운동장",
    "address": "전북특별자치도 완주군 비봉면 소농리 513-2",
    "lat": "35.99807004028726",
    "lng": "127.13893756163122",
    "region": "전북특별자치도"
  },
  {
    "name": "화산중학교 운동장",
    "address": "전북특별자치도 완주군 화산면 화평리 683-2",
    "lat": "36.034811309917245",
    "lng": "127.19823650517665",
    "region": "전북특별자치도"
  },
  {
    "name": "한국게임과학고등학교 운동장",
    "address": "전북특별자치도 완주군 운주면 장선리 121",
    "lat": "36.083028792868035",
    "lng": "127.28510152038787",
    "region": "전북특별자치도"
  },
  {
    "name": "운주중학교 운동장",
    "address": "전북특별자치도 완주군 운주면 장선리 179-1",
    "lat": "36.08839182719625",
    "lng": "127.28128733818609",
    "region": "전북특별자치도"
  },
  {
    "name": "수남초등학교 운동장",
    "address": "전북특별자치도 장수군 장수읍 개정리 346",
    "lat": "35.624702014832614",
    "lng": "127.50699059989199",
    "region": "전북특별자치도"
  },
  {
    "name": "유일여자고등학교(운동장)",
    "address": "전북특별자치도 전주시 덕진구 인후동1가 500-37",
    "lat": "35.83933908001215",
    "lng": "127.15935037164525",
    "region": "전북특별자치도"
  },
  {
    "name": "신자룡마을광장",
    "address": "전북특별자치도 고창군 상하면 자룡리 297-5",
    "lat": "35.43826675084089",
    "lng": "126.44800867584075",
    "region": "전북특별자치도"
  },
  {
    "name": "백화고 운동장",
    "address": "전북특별자치도 장수군 장계면 장계리 24",
    "lat": "35.72788024192853",
    "lng": "127.58711502832227",
    "region": "전북특별자치도"
  },
  {
    "name": "전주솔내고등학교(운동장)",
    "address": "전북특별자치도 전주시 덕진구 송천동1가 111-3",
    "lat": "35.86249028266403",
    "lng": "127.12251417089276",
    "region": "전북특별자치도"
  },
  {
    "name": "전주덕일초등학교(운동장)",
    "address": "전북특별자치도 전주시 덕진구 덕진동2가 99-1",
    "lat": "35.84848060981284",
    "lng": "127.11202567693326",
    "region": "전북특별자치도"
  },
  {
    "name": "전주인봉초등학교(운동장)",
    "address": "전북특별자치도 전주시 덕진구 인후동1가 917",
    "lat": "35.82698626716923",
    "lng": "127.16486760057161",
    "region": "전북특별자치도"
  },
  {
    "name": "전주만수초등학교(운동장)",
    "address": "전북특별자치도 전주시 덕진구 호성동1가 829-2",
    "lat": "35.86260772657151",
    "lng": "127.14783281930768",
    "region": "전북특별자치도"
  },
  {
    "name": "원평초등학교",
    "address": "전북특별자치도 김제시 금산면 성계리 680-2",
    "lat": "35.71854191008541",
    "lng": "126.99336570838409",
    "region": "전북특별자치도"
  },
  {
    "name": "전주호성중학교(운동장)",
    "address": "전북특별자치도 전주시 덕진구 호성동1가 210-5",
    "lat": "35.86413465311056",
    "lng": "127.15686735251852",
    "region": "전북특별자치도"
  },
  {
    "name": "석동마을광장",
    "address": "전북특별자치도 고창군 무장면 신촌리 508-1",
    "lat": "35.40001436243709",
    "lng": "126.5481444178178",
    "region": "전북특별자치도"
  },
  {
    "name": "조치마을광장",
    "address": "전북특별자치도 고창군 무장면 강남리 70-1",
    "lat": "35.41286707400263",
    "lng": "126.60516824693897",
    "region": "전북특별자치도"
  },
  {
    "name": "옥산마을광장",
    "address": "전북특별자치도 고창군 무장면 옥산리 376-6",
    "lat": "35.389743",
    "lng": "126.589711",
    "region": "전북특별자치도"
  },
  {
    "name": "사창마을 광장",
    "address": "전북특별자치도 고창군 부안면 사창리 385-1",
    "lat": "35.494525",
    "lng": "126.674801",
    "region": "전북특별자치도"
  },
  {
    "name": "인촌마을 광장",
    "address": "전북특별자치도 고창군 부안면 봉암��� 871-1",
    "lat": "35.553604",
    "lng": "126.625590",
    "region": "전북특별자치도"
  },
  {
    "name": "상갑마을 광장",
    "address": "전북특별자치도 고창군 아산면 상갑리 144-2",
    "lat": "35.437735",
    "lng": "126.638101",
    "region": "전북특별자치도"
  },
  {
    "name": "보건소 주차장",
    "address": "전북특별자치도 남원시 조산동 455",
    "lat": "35.39727814317123",
    "lng": "127.36397180620988",
    "region": "전북특별자치도"
  },
  {
    "name": "구��포마을광장",
    "address": "전북특별자치도 고창군 상하면 자룡리 470-1",
    "lat": "35.445218",
    "lng": "126.44319",
    "region": "전북특별자치도"
  },
  {
    "name": "구동호마을 광장",
    "address": "전북특별자치도 고창군 해리면 동호리 550",
    "lat": "35.518136",
    "lng": "126.486138",
    "region": "전북특별자치도"
  },
  {
    "name": "고수면사무소 광장",
    "address": "전북특별자치도 고창군 고수면 봉산리 359-5",
    "lat": "35.409925",
    "lng": "126.678659",
    "region": "전북특별자치도"
  },
  {
    "name": "해리고등학교",
    "address": "전북특별자치도 고창군 해리면 하련리 570",
    "lat": "35.46518559053572",
    "lng": "126.53763033030616",
    "region": "전북특별자치도"
  },
  {
    "name": "목동마을광장",
    "address": "전북특별자치도 고창군 해리면 금평리 294-3",
    "lat": "35.4896632729317",
    "lng": "126.5132191392069",
    "region": "전북특별자치도"
  },
  {
    "name": "보성초등학교 운동장",
    "address": "전북특별자치도 정읍시 북면 마정리 681",
    "lat": "35.6024108412775",
    "lng": "126.92819002890968",
    "region": "전북특별자치도"
  },
  {
    "name": "영선고등학교",
    "address": "전북특별자치도 고창군 무장면 무장리 431-1",
    "lat": "35.41379213125574",
    "lng": "126.55893675993347",
    "region": "전북특별자치도"
  },
  {
    "name": "영선중학교",
    "address": "전북특별자치도 고창군 무장면 무장리 431-1",
    "lat": "35.413935813073",
    "lng": "126.55874714257106",
    "region": "전북특별자치도"
  },
  {
    "name": "문화마을 광장",
    "address": "전북특별자치도 고창군 고수면 황산리 366",
    "lat": "35.406697",
    "lng": "126.683327",
    "region": "전북특별자치도"
  },
  {
    "name": "아산중학교",
    "address": "전북특별자치도 고창군 아산면 하갑리 370",
    "lat": "35.438971388400816",
    "lng": "126.6313538657255",
    "region": "전북특별자치도"
  },
  {
    "name": "지동마을 광장",
    "address": "전북특별자치도 고창군 부안면 수남리 157",
    "lat": "35.520957",
    "lng": "126.671419",
    "region": "전북특별자치도"
  },
  {
    "name": "청하초등학교",
    "address": "전북특별자치도 김제시 청하면 대청리 245-1",
    "lat": "35.89307872170089",
    "lng": "126.85846567153926",
    "region": "전북특별자치도"
  },
  {
    "name": "용산마을 광장",
    "address": "전북특별자치도 고창군 부안면 용산리 161-5",
    "lat": "35.501714",
    "lng": "126.637753",
    "region": "전북특별자치도"
  },
  {
    "name": "김제중학교",
    "address": "전북특별자치도 김제시 신풍동 215-1",
    "lat": "35.7938697262575",
    "lng": "126.89956588450993",
    "region": "전북특별자치도"
  },
  {
    "name": "소성중학교 운동장",
    "address": "전북특별자치도 정읍시 소성면 등계리 909",
    "lat": "35.556001676974546",
    "lng": "126.78540746276343",
    "region": "전북특별자치도"
  },
  {
    "name": "용진초등학교 운동장",
    "address": "전북특별자치도 완주군 용진읍 상삼리 1088",
    "lat": "35.85680940620138",
    "lng": "127.17694719124064",
    "region": "전북특별자치도"
  },
  {
    "name": "구이초등학교 운동장",
    "address": "전북특별자치도 완주군 구이면 항가리 86-1",
    "lat": "35.720757851211346",
    "lng": "127.11950888625441",
    "region": "전북특별자치도"
  },
  {
    "name": "상포마을 광장",
    "address": "전북특별자치도 고창군 부안면 상암리 797-1",
    "lat": "35.57113742919056",
    "lng": "126.63380652665835",
    "region": "전북특별자치도"
  },
  {
    "name": "용지중학교",
    "address": "전북특별자치도 김제시 용지면 구암리 258-1",
    "lat": "35.85064272725753",
    "lng": "126.9597228025857",
    "region": "전북특별자치도"
  },
  {
    "name": "정읍중학교 운동장",
    "address": "전북특별자치도 정읍시 시기동 58",
    "lat": "35.55456577079887",
    "lng": "126.86397879441557",
    "region": "전북특별자치도"
  },
  {
    "name": "완산생활체육공원(축구장,테니스장)",
    "address": "전북특별자치도 전주시 완산구 중인동 358",
    "lat": "35.76767461211548",
    "lng": "127.1015239058975",
    "region": "전북특별자치도"
  },
  {
    "name": "마사고 운동장",
    "address": "전북특별자치도 장수군 장계면 명덕리 1359",
    "lat": "35.724139226296565",
    "lng": "127.63447701931044",
    "region": "전북특별자치도"
  },
  {
    "name": "전주전라초등학교(운동장)",
    "address": "전북특별자치도 전주시 덕진구 인후동1가 575-1",
    "lat": "35.839433601121605",
    "lng": "127.1521665568267",
    "region": "전북특별자치도"
  },
  {
    "name": "신촌마을광장",
    "address": "전북특별자치도 고창군 무장면 신촌리 304",
    "lat": "35.39584659113902",
    "lng": "126.5436383704482",
    "region": "전북특별자치도"
  },
  {
    "name": "장호마을광장",
    "address": "전북특별자치도 고창군 상하면 장호리 1486-1",
    "lat": "35.47065025622066",
    "lng": "126.46680469742303",
    "region": "전북특별자치도"
  },
  {
    "name": "정읍초등학교 운동장",
    "address": "전북특별자치도 정읍시 수성동 171",
    "lat": "35.58761147434985",
    "lng": "126.86291556424693",
    "region": "전북특별자치도"
  },
  {
    "name": "전주원동초등학교(운동장)",
    "address": "전북특별자치도 전주시 덕진구 원동 361-1",
    "lat": "35.851248628867964",
    "lng": "127.03352077613286",
    "region": "전북특별자치도"
  },
  {
    "name": "전주교대부설초등학교(운동장)",
    "address": "전북특별자치도 전주시 완산구 서서학동 3-4",
    "lat": "35.80843253930818",
    "lng": "127.15106821713489",
    "region": "전북특별자치도"
  },
  {
    "name": "완주산업단지 제2테니스장",
    "address": "전북특별자치도 완주군 봉동읍 용암리 840",
    "lat": "35.9395258",
    "lng": "127.13193139999998",
    "region": "전북특별자치도"
  },
  {
    "name": "호남제일고등학교(운동장)",
    "address": "전북특별자치도 전주시 완산구 효자동3가 1233",
    "lat": "35.814421971428864",
    "lng": "127.09995009453641",
    "region": "전북특별자치도"
  },
  {
    "name": "완주고등학교 운동장",
    "address": "전북특별자치도 완주군 봉동읍 장기리 153",
    "lat": "35.940729513918534",
    "lng": "127.16733832841597",
    "region": "전북특별자치도"
  },
  {
    "name": "동상면행정복지센터 주차장",
    "address": "전북특별자치도 완주군 동상면 신월리 544",
    "lat": "35.93676176699142",
    "lng": "127.2967809233902",
    "region": "전북특별자치도"
  },
  {
    "name": "고산생활체육공원 운동장",
    "address": "전북특별자치도 완주군 고산면 읍내리 906",
    "lat": "35.9755082624663",
    "lng": "127.19997738343214",
    "region": "전북특별자치도"
  },
  {
    "name": "전주중산초등학교(운동장)",
    "address": "전북특별자치도 전주시 완산구 중화산동2가 614",
    "lat": "35.8173244830437",
    "lng": "127.1197796435329",
    "region": "전북특별자치도"
  },
  {
    "name": "전주기린초등학교(운동장)",
    "address": "전북특별자치도 전주시 덕진구 인후동1가 431-3",
    "lat": "35.834939133283385",
    "lng": "127.15933192965358",
    "region": "전북특별자치도"
  },
  {
    "name": "양사마을광장",
    "address": "전북특별자치도 고창군 성송면 하고리 667-1",
    "lat": "35.36415569942323",
    "lng": "126.60822894553354",
    "region": "전북특별자치도"
  },
  {
    "name": "봉동초등학교 양화분교 운동장",
    "address": "전북특별자치도 완주군 고산면 양야리 418-2",
    "lat": "35.945371229439374",
    "lng": "127.20506133365302",
    "region": "전북특별자치도"
  },
  {
    "name": "세인고등학교 운동장",
    "address": "전북특별자치도 완주군 화산면 운산리 110-1",
    "lat": "36.06869052336174",
    "lng": "127.15333102895907",
    "region": "전북특별자치도"
  },
  {
    "name": "장계중학교 운동장",
    "address": "전북특별자치도 장수군 장계면 장계리 301",
    "lat": "35.73250299060193",
    "lng": "127.58250549651706",
    "region": "전북특별자치도"
  },
  {
    "name": "경천면행정복지센터 주차장",
    "address": "전북특별자치도 완주군 경천면 경천리 215-13",
    "lat": "36.022707001511804",
    "lng": "127.25296497344969",
    "region": "전북특별자치도"
  },
  {
    "name": "완주산업단지 중앙공원",
    "address": "전북특별자치도 완주군 봉동읍 용암리 823",
    "lat": "35.9430283076768",
    "lng": "127.12759802465722",
    "region": "전북특별자치도"
  },
  {
    "name": "봉동생강골공원 운동장",
    "address": "전북특별자치도 완주군 봉동읍 낙평리 728",
    "lat": "35.930396833570754",
    "lng": "127.15694550524708",
    "region": "전북특별자치도"
  },
  {
    "name": "전주중앙여자고등학교(운동장)",
    "address": "전북특별자치도 전주시 덕진구 인후동1가 109-2",
    "lat": "35.82820193793434",
    "lng": "127.16853999658872",
    "region": "전북특별자치도"
  },
  {
    "name": "전주완산여자고등학교(운동장)",
    "address": "전북특별자치도 전주시 완산구 평화동1가 500-1",
    "lat": "35.7927885746986",
    "lng": "127.13996476531403",
    "region": "전북특별자치도"
  },
  {
    "name": "이서면행정복지센터 주차장",
    "address": "전북특별자치도 완주군 이서면 상개리 586",
    "lat": "35.82085127056438",
    "lng": "127.02281405467284",
    "region": "전북특별자치도"
  },
  {
    "name": "상관생활체육공원 운동장",
    "address": "전북특별자치도 완주군 상관면 신리 150",
    "lat": "35.764456653357925",
    "lng": "127.21144437789917",
    "region": "전북특별자치도"
  },
  {
    "name": "소양체련공원 운동장",
    "address": "전북특별자치도 완주군 소양면 해월리 422",
    "lat": "35.862842754632744",
    "lng": "127.2506534905202",
    "region": "전북특별자치도"
  },
  {
    "name": "전주성심여자중학교(운동장)",
    "address": "전북특별자치도 전주시 완산구 교동 280",
    "lat": "35.81318908248067",
    "lng": "127.15079139458135",
    "region": "전북특별자치도"
  },
  {
    "name": "봉서초등학교 운동장",
    "address": "전북특별자치도 완주군 봉동읍 둔산리 954",
    "lat": "35.96262916005277",
    "lng": "127.12515476116646",
    "region": "전북특별자치도"
  },
  {
    "name": "비봉면행정복지센터 주차장",
    "address": "전북특별자치도 완주군 비봉면 소농리 497-4",
    "lat": "35.9957807540636",
    "lng": "127.13991833135414",
    "region": "전북특별자치도"
  },
  {
    "name": "화산생활체육공원",
    "address": "전북특별자치도 완주군 화산면 화월리 485",
    "lat": "36.03055089998244",
    "lng": "127.19700872898102",
    "region": "전북특별자치도"
  },
  {
    "name": "전주온빛초등학교(운동장)",
    "address": "전북특별자치도 전주시 덕진구 장동 1066",
    "lat": "35.842438668735426",
    "lng": "127.05653205607851",
    "region": "전북특별자치도"
  },
  {
    "name": "문정초등학교(운동장)",
    "address": "전북특별자치도 전주시 완산구 평화동3가 226",
    "lat": "35.77512274981273",
    "lng": "127.1275935320181",
    "region": "전북특별자치도"
  },
  {
    "name": "시산초등학교 운동장",
    "address": "전북특별자치도 순창군 쌍치면 시산리 110",
    "lat": "35.4914267820657",
    "lng": "126.98058128356881",
    "region": "전북특별자치도"
  },
  {
    "name": "한국농어촌공사 무진장지사",
    "address": "전북특별자치도 장수군 장수읍 장수리 673-1",
    "lat": "35.64669295680793",
    "lng": "127.51507848687042",
    "region": "전북특별자치도"
  },
  {
    "name": "전주중인초등학교(운동장)",
    "address": "전북특별자치도 전주시 완산구 중인동 585-1",
    "lat": "35.77108011504281",
    "lng": "127.09770595380625",
    "region": "전북특별자치도"
  },
  {
    "name": "삼례동초등학교",
    "address": "전북특별자치도 완주군 삼례읍 수계리 1225-2",
    "lat": "35.92245510064354",
    "lng": "127.1177923679352",
    "region": "전북특별자치도"
  },
  {
    "name": "대리초등학교",
    "address": "전북특별자치도 임실군 신평면 대리 289",
    "lat": "35.659755013704356",
    "lng": "127.26998104225112",
    "region": "전북특별자치도"
  },
  {
    "name": "오수중학교 운동장",
    "address": "전북특별자치도 임실군 오수면 오수리 459-1",
    "lat": "35.547054268027125",
    "lng": "127.32874097650968",
    "region": "전북특별자치도"
  },
  {
    "name": "장계농공단지",
    "address": "전북특별자치도 장수군 장계면 송천리 948",
    "lat": "35.74259077676989",
    "lng": "127.59468309118462",
    "region": "전북특별자치도"
  },
  {
    "name": "고창고등학교",
    "address": "전북특별자치도 고창군 고창읍 교촌리 269",
    "lat": "35.4370018369566",
    "lng": "126.7014920711517",
    "region": "전북특별자치도"
  },
  {
    "name": "월곡 주차장",
    "address": "전북특별자치도 고창군 고창읍 월곡리 760",
    "lat": "35.435916315383274",
    "lng": "126.71282303209404",
    "region": "전북특별자치도"
  },
  {
    "name": "해암마을 광장",
    "address": "전북특별자치도 고창군 신림면 자포리 284",
    "lat": "35.47391574637401",
    "lng": "126.70007374509177",
    "region": "전북특별자치도"
  },
  {
    "name": "새마을공원 주차장",
    "address": "전북특별자치도 고창군 고창읍 석교리 6-4",
    "lat": "35.441505894286955",
    "lng": "126.6979936013091",
    "region": "전북특별자치도"
  },
  {
    "name": "청완초등학교 운동장",
    "address": "전북특별자치도 완주군 봉동읍 둔산리 864-14",
    "lat": "35.96296458013188",
    "lng": "127.12063897175514",
    "region": "전북특별자치도"
  },
  {
    "name": "고창자유중학교",
    "address": "전북특별자치도 고창군 고창읍 석교리 9-4",
    "lat": "35.441029972824644",
    "lng": "126.69619404977598",
    "region": "전북특별자치도"
  },
  {
    "name": "문화의 전당 주차장",
    "address": "전북특별자치도 고창군 고창읍 읍내리 182-6",
    "lat": "35.43321018408953",
    "lng": "126.70561462641052",
    "region": "전북특별자치도"
  },
  {
    "name": "중앙가구 앞 주차장",
    "address": "전북특별자치도 고창군 고창읍 읍내리 324-57",
    "lat": "35.433859012190204",
    "lng": "126.6973931855201",
    "region": "전북특별자치도"
  },
  {
    "name": "임실기림초등학교 운동장",
    "address": "전북특별자치도 임실군 임실읍 두곡리 58-1",
    "lat": "35.62867559535033",
    "lng": "127.29017603327797",
    "region": "전북특별자치도"
  },
  {
    "name": "지사중학교 운동장",
    "address": "전북특별자치도 임실군 지사면 금평리 47",
    "lat": "35.56680023314832",
    "lng": "127.35940309786075",
    "region": "전북특별자치도"
  },
  {
    "name": "전주덕진중학교(운동장)",
    "address": "전북특별자치도 전주시 덕진구 덕진동2가 234-1",
    "lat": "35.84410027944586",
    "lng": "127.11677617563957",
    "region": "전북특별자치도"
  },
  {
    "name": "송촌마을 광장",
    "address": "전북특별자치도 고창군 신림면 송용리 349-10",
    "lat": "35.476810",
    "lng": "126.713824",
    "region": "전북특별자치도"
  },
  {
    "name": "성수중학교 운동장",
    "address": "전북특별자치도 임실군 성수면 양지리 257",
    "lat": "35.62957862195814",
    "lng": "127.33598634505474",
    "region": "전북특별자치도"
  },
  {
    "name": "오수초등학교 운동장",
    "address": "전북특별자치도 임실군 오수면 오수리 400-17",
    "lat": "35.54290511037814",
    "lng": "127.328589934053",
    "region": "전북특별자치도"
  },
  {
    "name": "고창꿈푸른유치원",
    "address": "전북특별자치도 고창군 고창읍 읍내리 542-16",
    "lat": "35.43011598425548",
    "lng": "126.69823072888337",
    "region": "전북특별자치도"
  },
  {
    "name": "전주교육대학교(운동장)",
    "address": "전북특별자치도 전주시 완산구 동서학동 128",
    "lat": "35.808887837259384",
    "lng": "127.1555571877261",
    "region": "전북특별자치도"
  },
  {
    "name": "고창중학교",
    "address": "전북특별자치도 고창군 고창읍 덕산리 248",
    "lat": "35.428988723164736",
    "lng": "126.69412665171579",
    "region": "전북특별자치도"
  },
  {
    "name": "동호초등학교",
    "address": "전북특별자치도 고창군 해리면 동호리 103-4",
    "lat": "35.50731228452361",
    "lng": "126.49428489695681",
    "region": "전북특별자치도"
  },
  {
    "name": "천주교 앞 주차장",
    "address": "전북특별자치도 고창군 고창읍 읍내리 413-27",
    "lat": "35.430125952222376",
    "lng": "126.69976194609451",
    "region": "전북특별자치도"
  },
  {
    "name": "삼례중앙초등학교 운동장",
    "address": "전북특별자치도 완주군 삼례읍 삼례리 205",
    "lat": "35.919151237960484",
    "lng": "127.08079821360306",
    "region": "전북특별자치도"
  },
  {
    "name": "삼례초등학교 운동장",
    "address": "전북특별자치도 완주군 삼례읍 후정리 37-2",
    "lat": "35.90965274096002",
    "lng": "127.06914274615437",
    "region": "전북특별자치도"
  },
  {
    "name": "백석초등학교",
    "address": "전북특별자치도 김제시 흥사동 543-1",
    "lat": "35.829001447276156",
    "lng": "126.89414824460573",
    "region": "전북특별자치도"
  },
  {
    "name": "구이면행정복지센터 주차장",
    "address": "전북특별자치도 완주군 구이면 원기리 450",
    "lat": "35.731897876124656",
    "lng": "127.12029119097065",
    "region": "전북특별자치도"
  },
  {
    "name": "완주군 공설운동장",
    "address": "전북특별자치도 완주군 삼례읍 신금리 416-3",
    "lat": "35.9201069877411",
    "lng": "127.09453945918726",
    "region": "전북특별자치도"
  },
  {
    "name": "완주군 청소년수련관 운동장",
    "address": "전북특별자치도 완주군 삼례읍 삼례리 288",
    "lat": "35.91772511445107",
    "lng": "127.08289370565598",
    "region": "전북특별자치도"
  },
  {
    "name": "모악산 다목적운동장",
    "address": "전북특별자치도 완주군 구이면 원기리 1069-7",
    "lat": "35.728776",
    "lng": "127.108174",
    "region": "전북특별자치도"
  },
  {
    "name": "동상면민운동장",
    "address": "전북특별자치도 완주군 동상면 신월리 992-1",
    "lat": "35.938319994594906",
    "lng": "127.2933454331835",
    "region": "전북특별자치도"
  },
  {
    "name": "전주은화학교(운동장)",
    "address": "전북특별자치도 전주시 완산구 효자동3가 1059-7",
    "lat": "35.81900752870961",
    "lng": "127.086504982009",
    "region": "전북특별자치도"
  },
  {
    "name": "부안제2농공단지 주차장",
    "address": "전북특별자치도 부안군 행안면 역리 1140",
    "lat": "35.73498906021881",
    "lng": "126.72152012586955",
    "region": "전북특별자치도"
  },
  {
    "name": "사랑의 광장",
    "address": "전북특별자치도 남원시 어현동 37-19",
    "lat": "35.403135345527204",
    "lng": "127.38603685151429",
    "region": "전북특별자치도"
  },
  {
    "name": "전주화산초등학교(운동장)",
    "address": "전북특별자치도 전주시 완산구 중화산동2가 46-25",
    "lat": "35.809806444364455",
    "lng": "127.1294421891949",
    "region": "전북특별자치도"
  },
  {
    "name": "전주효문중학교(운동장)",
    "address": "전북특별자치도 전주시 완산구 삼천동1가 208-1",
    "lat": "35.7976836379815",
    "lng": "127.12051430049775",
    "region": "전북특별자치도"
  },
  {
    "name": "벽송마을 광장",
    "address": "전북특별자치도 고창군 신림면 벽송리 373-8",
    "lat": "35.47850029614751",
    "lng": "126.68454375446895",
    "region": "전북특별자치도"
  },
  {
    "name": "반룡마을 광장",
    "address": "전북특별자치도 고창군 신림면 반룡리 510-1",
    "lat": "35.46237974599522",
    "lng": "126.72287448686498",
    "region": "전북특별자치도"
  },
  {
    "name": "섬진중학교 운동장",
    "address": "전북특별자치도 임실군 강진면 회진리 39-1",
    "lat": "35.527018880608246",
    "lng": "127.15229992926665",
    "region": "전북특별자치도"
  },
  {
    "name": "줄포자동차공업고등학교 운동장",
    "address": "전북특별자치도 부안군 줄포면 우포리 138",
    "lat": "35.584874368593326",
    "lng": "126.67739510536606",
    "region": "전북특별자치도"
  },
  {
    "name": "임실초등학교 운동장",
    "address": "전북특별자치도 임실군 임실읍 성가리 205",
    "lat": "35.607581",
    "lng": "127.271788",
    "region": "전북특별자치도"
  },
  {
    "name": "삼계중학교 운동장",
    "address": "전북특별자치도 임실군 삼계면 삼계리 359",
    "lat": "35.51015905205958",
    "lng": "127.27468321851082",
    "region": "전북특별자치도"
  },
  {
    "name": "오수고등학교 운동장",
    "address": "전북특별자치도 임실군 오수면 오수리 455",
    "lat": "35.547735916771586",
    "lng": "127.32848623933509",
    "region": "전북특별자치도"
  },
  {
    "name": "사반마을광장",
    "address": "전북특별자치도 고창군 해리면 사반리 244-1",
    "lat": "35.48041267264473",
    "lng": "126.49090912010845",
    "region": "전북특별자치도"
  },
  {
    "name": "이성초등학교 운동장",
    "address": "전북특별자치도 완주군 이서면 이성리 336-2",
    "lat": "35.797296217942844",
    "lng": "127.04513853229702",
    "region": "전북특별자치도"
  },
  {
    "name": "만돌갯벌체험장",
    "address": "전북특별자치도 고창군 심원면 만돌리 960-27",
    "lat": "35.530100199497944",
    "lng": "126.51541382074106",
    "region": "전북특별자치도"
  },
  {
    "name": "백암초등학교 운동장",
    "address": "전북특별자치도 정읍시 칠보면 백암리 853",
    "lat": "35.61147545732002",
    "lng": "126.95092874200417",
    "region": "전북특별자치도"
  },
  {
    "name": "월곡 지하차도 주차장",
    "address": "전북특별자치도 고창군 고창읍 월곡리 425-4",
    "lat": "35.44021550843796",
    "lng": "126.7116169822403",
    "region": "전북특별자치도"
  },
  {
    "name": "봉성초등학교 운동장",
    "address": "전북특별자치도 완주군 봉동읍 성덕리 15-1",
    "lat": "35.92248258596862",
    "lng": "127.15480264831099",
    "region": "전북특별자치도"
  },
  {
    "name": "사등마을광장",
    "address": "전북특별자치도 고창군 심원면 월산리 1036-3",
    "lat": "35.53411428559971",
    "lng": "126.55602514743545",
    "region": "전북특별자치도"
  },
  {
    "name": "공음중학교",
    "address": "전북특별자치도 고창군 공음면 칠암리 570-1",
    "lat": "35.37885889668031",
    "lng": "126.51502649527306",
    "region": "전북특별자치도"
  },
  {
    "name": "흥덕시장 주차장",
    "address": "전북특별자치도 고창군 흥덕면 흥덕리 353-1",
    "lat": "35.5213070",
    "lng": "126.7006620",
    "region": "전북특별자치도"
  },
  {
    "name": "하전갯벌체험장",
    "address": "전북특별자치도 고창군 심원면 하전리 709-1",
    "lat": "35.539946",
    "lng": "126.564929",
    "region": "전북특별자치도"
  },
  {
    "name": "화룡마을 광장",
    "address": "전북특별자치도 고창군 신림면 외화리 62-2",
    "lat": "35.494109",
    "lng": "126.722790",
    "region": "전북특별자치도"
  },
  {
    "name": "임실고등학교 운동장",
    "address": "전북특별자치도 임실군 임실읍 이도리 137",
    "lat": "35.622037577307566",
    "lng": "127.28710229300344",
    "region": "전북특별자치도"
  },
  {
    "name": "전북베이커리고등학교 운동장",
    "address": "전북특별자치도 부안군 행��면 신기리 24",
    "lat": "35.72696994958179",
    "lng": "126.72338962554824",
    "region": "전북특별자치도"
  },
  {
    "name": "계화중학교 운동장",
    "address": "전북특별자치도 부안군 계화면 창북리 783",
    "lat": "35.75946379933427",
    "lng": "126.69414818286891",
    "region": "전북특별자치도"
  },
  {
    "name": "백산중고등학교 운동장",
    "address": "전북특별자치도 부안군 백산면 오곡리 547-5",
    "lat": "35.70740977585915",
    "lng": "126.78976356983182",
    "region": "전북특별자치도"
  },
  {
    "name": "전주비전대학교",
    "address": "전북특별자치도 전주시 완산구 효자동2가 1070",
    "lat": "35.80862634026783",
    "lng": "127.09094839878058",
    "region": "전북특별자치도"
  },
  {
    "name": "남양초등학교",
    "address": "전북특별자치도 김제시 황산면 남산리 362-19",
    "lat": "35.78350038559915",
    "lng": "126.97502516957952",
    "region": "전북특별자치도"
  },
  {
    "name": "전주송원초등학교(운동장)",
    "address": "전북특별자치도 전주시 덕진구 송천동1가 602",
    "lat": "35.86207314674521",
    "lng": "127.1114386361438",
    "region": "전북특별자치도"
  },
  {
    "name": "덕진체련공원(축구장)",
    "address": "전북특별자치도 전주시 덕진구 덕진동1가 640-10",
    "lat": "35.853156",
    "lng": "127.140809",
    "region": "전북특별자치도"
  },
  {
    "name": "고창남초등학교",
    "address": "전북특별자치도 고창군 고창읍 읍내리 542-2",
    "lat": "35.429205352887244",
    "lng": "126.69777411716767",
    "region": "전북특별자치도"
  },
  {
    "name": "고창북중학교",
    "address": "전북특별자치도 고창군 부안면 상등리 665",
    "lat": "35.50935120260167",
    "lng": "126.65968679194312",
    "region": "전북특별자치도"
  },
  {
    "name": "대아초등학교",
    "address": "전북특별자치도 고창군 아산면 하갑리 181",
    "lat": "35.43980594154647",
    "lng": "126.63367602661248",
    "region": "전북특별자치도"
  },
  {
    "name": "재래시장(동) 주차장",
    "address": "전북특별자치도 고창군 고창읍 읍내리 366-11",
    "lat": "35.43227043847475",
    "lng": "126.69941335916829",
    "region": "전북특별자치도"
  },
  {
    "name": "재래시장(서) 주차장",
    "address": "전북특별자치도 고창군 고창읍 읍내리 561",
    "lat": "35.43262448345738",
    "lng": "126.69793277978523",
    "region": "전북특별자치도"
  },
  {
    "name": "두어마을광장",
    "address": "전북특별자치도 고창군 심원면 두어리 611",
    "lat": "35.525789",
    "lng": "126.536760",
    "region": "전북특별자치도"
  },
  {
    "name": "관동마을광장",
    "address": "전북특별자치도 고창군 성내면 신성리 702-1",
    "lat": "35.558211",
    "lng": "126.730559",
    "region": "전북특별자치도"
  },
  {
    "name": "왕림마을 광장",
    "address": "전북특별자치도 고창군 신림면 도림리 290-4",
    "lat": "35.491667",
    "lng": "126.736941",
    "region": "전북특별자치도"
  },
  {
    "name": "어린이 40공원",
    "address": "전북특별자치도 군산시 조촌동 919-4",
    "lat": "35.9706489289705",
    "lng": "126.74216790913331",
    "region": "전북특별자치도"
  },
  {
    "name": "어린이 57공원",
    "address": "전북특별자치도 군산시 지곡동 156-5",
    "lat": "35.95438562695936",
    "lng": "126.70712020862011",
    "region": "전북특별자치도"
  },
  {
    "name": "어린이 82공원",
    "address": "전북특별자치도 군산시 수송동 870-4",
    "lat": "35.96176621154295",
    "lng": "126.71829859208529",
    "region": "전북특별자치도"
  },
  {
    "name": "미장택지 3공원",
    "address": "전북특별자치도 군산시 미장동 554-7",
    "lat": "35.96096372187031",
    "lng": "126.73181003482105",
    "region": "전북특별자치도"
  },
  {
    "name": "공설시장",
    "address": "전북특별자치도 군산시 금암동 73-51",
    "lat": "35.98514890023134",
    "lng": "126.72103479647363",
    "region": "전북특별자치도"
  },
  {
    "name": "전주여자고등학교(운동장)",
    "address": "전북특별자치도 전주시 덕진구 인후동2가 35-1",
    "lat": "35.83546652442316",
    "lng": "127.14612075025902",
    "region": "전북특별자치도"
  },
  {
    "name": "전주장동초등학교(운동장)",
    "address": "전북특별자치도 전주시 덕진구 장동 259-1",
    "lat": "35.848822537262755",
    "lng": "127.06034494946641",
    "region": "전북특별자치도"
  },
  {
    "name": "전주양지초등학교(운동장)",
    "address": "전북특별자치도 전주시 완산구 평화동2가 582",
    "lat": "35.79242943764382",
    "lng": "127.12554372161925",
    "region": "전북특별자치도"
  },
  {
    "name": "사내마을광장",
    "address": "전북특별자치도 고창군 성송면 사내리 60-1",
    "lat": "35.38712652635604",
    "lng": "126.65409770113531",
    "region": "전북특별자치도"
  },
  {
    "name": "어린이 81공원",
    "address": "전북특별자치도 군산시 수송동 838-5",
    "lat": "35.96582576078272",
    "lng": "126.71832084766531",
    "region": "전북특별자치도"
  },
  {
    "name": "구시청사거리",
    "address": "전북특별자치도 군산시 중앙로1가 11-1",
    "lat": "35.9875095205509",
    "lng": "126.71164106391366",
    "region": "전북특별자치도"
  },
  {
    "name": "군산교육문화회관",
    "address": "전북특별자치도 군산시 조촌동 853",
    "lat": "35.97073321962774",
    "lng": "126.73617774166426",
    "region": "전북특별자치도"
  },
  {
    "name": "대야시장",
    "address": "전북특별자치도 군산시 대야면 산월리 476",
    "lat": "35.94548452962696",
    "lng": "126.81891918182372",
    "region": "전북특별자치도"
  },
  {
    "name": "전주중앙중학교",
    "address": "전북특별자치도 전주시 덕진구 진북동 301-19",
    "lat": "35.82828214404824",
    "lng": "127.13871258681377",
    "region": "전북특별자치도"
  },
  {
    "name": "완산고등학교(운동장)",
    "address": "전북특별자치도 전주시 완산구 삼천동3가 417",
    "lat": "35.80217906142418",
    "lng": "127.08352919043097",
    "region": "전북특별자치도"
  },
  {
    "name": "어린이 2공원",
    "address": "전북특별자치도 군산시 문화동 886",
    "lat": "35.9766541273585",
    "lng": "126.70484634362357",
    "region": "전북특별자치도"
  },
  {
    "name": "어린이 47공원",
    "address": "전북특별자치도 군산시 지곡동 564-1",
    "lat": "35.95822065563829",
    "lng": "126.71235170445743",
    "region": "전북특별자치도"
  },
  {
    "name": "소룡시민체육공원",
    "address": "전북특별자치도 군산시 소룡동 237-1",
    "lat": "35.98297144846191",
    "lng": "126.67609366700889",
    "region": "전북특별자치도"
  },
  {
    "name": "공설운동장(사정금호2차부근)",
    "address": "전북특별자치도 군산시 사정동 159",
    "lat": "35.964450366086815",
    "lng": "126.74944404956914",
    "region": "전북특별자치도"
  },
  {
    "name": "전주중앙초등학교(운동장)",
    "address": "전북특별자치도 전주시 완산구 풍남동3가 67-3",
    "lat": "35.81508180416911",
    "lng": "127.15134616341113",
    "region": "전북특별자치도"
  },
  {
    "name": "전주송북초등학교(운동장)",
    "address": "전북특별자치도 전주시 덕진구 송천동1가 107-1",
    "lat": "35.86341670076328",
    "lng": "127.12409553932687",
    "region": "전북특별자치도"
  },
  {
    "name": "소양초등학교 운동장",
    "address": "전북특별자치도 완주군 소양면 황운리 636-2",
    "lat": "35.856593607995876",
    "lng": "127.23468515234981",
    "region": "전북특별자치도"
  },
  {
    "name": "월평마을광장",
    "address": "전북특별자치도 고창군 성송면 향산리 420-12",
    "lat": "35.383704570990616",
    "lng": "126.63611981641107",
    "region": "전북특별자치도"
  },
  {
    "name": "구암3.1기념관",
    "address": "전북특별자치도 군산시 구암동 334",
    "lat": "35.98497952461772",
    "lng": "126.74213973441228",
    "region": "전북특별자치도"
  },
  {
    "name": "삼학동 행정복지센터",
    "address": "전북특별자치도 군산시 오룡동 823-1",
    "lat": "35.976753759120456",
    "lng": "126.70754581689359",
    "region": "전북특별자치도"
  },
  {
    "name": "월하게이트볼장",
    "address": "전북특별자치도 군산시 임피면 월하리 901",
    "lat": "35.96082574734764",
    "lng": "126.86799144595923",
    "region": "전북특별자치도"
  },
  {
    "name": "옥서문화마을",
    "address": "전북특별자치도 군산시 옥서면 옥봉리 2067",
    "lat": "35.92931101071046",
    "lng": "126.63508054943556",
    "region": "전북특별자치도"
  },
  {
    "name": "임피면사무소",
    "address": "전북특별자치도 군산시 임피면 읍내리 216-1",
    "lat": "35.98246976439834",
    "lng": "126.85034328313132",
    "region": "전북특별자치도"
  },
  {
    "name": "전주풍남중학교(운동장)",
    "address": "전북특별자치도 전주시 완산구 효자동1가 504-5",
    "lat": "35.80012089659763",
    "lng": "127.11601337630104",
    "region": "전북특별자치도"
  },
  {
    "name": "산서고등학교 운동장",
    "address": "전북특별자치도 장수군 산서면 동화리 73",
    "lat": "35.58337209016758",
    "lng": "127.39818030632263",
    "region": "전북특별자치도"
  },
  {
    "name": "동북초등학교 운동장",
    "address": "전북특별자치도 부안군 동진면 안성리 979",
    "lat": "35.775446792710355",
    "lng": "126.7319646477699",
    "region": "전북특별자치도"
  },
  {
    "name": "변산초등학교 운동장",
    "address": "전북특별자치도 부안군 변산면 지서리 383-2",
    "lat": "35.66269865841401",
    "lng": "126.5284439921378",
    "region": "전북특별자치도"
  },
  {
    "name": "위도초등학교 운동장",
    "address": "전북특별자치도 부안군 위도면 치도리 66-2",
    "lat": "35.595411623895565",
    "lng": "126.29246592521632",
    "region": "전북특별자치도"
  },
  {
    "name": "(구)위도초등학교식도분교 운동장",
    "address": "전북특별자치도 부안군 위도면 식도리 산269",
    "lat": "35.6245034721844",
    "lng": "126.28506034612991",
    "region": "전북특별자치도"
  },
  {
    "name": "미산마을광장",
    "address": "전북특별자치도 고창군 해리면 사반리 676-1",
    "lat": "35.48176441387565",
    "lng": "126.48115779994117",
    "region": "전북특별자치도"
  },
  {
    "name": "대촌마을광장",
    "address": "전북특별자치도 고창군 대산면 해룡리 363-1",
    "lat": "35.3150209600675",
    "lng": "126.5350472454273",
    "region": "전북특별자치도"
  },
  {
    "name": "(구)계화초등학교 운동장",
    "address": "전북특별자치도 부안군 계화면 계화리 233",
    "lat": "35.7855225",
    "lng": "126.6381057",
    "region": "전북특별자치도"
  },
  {
    "name": "암치마을광장",
    "address": "전북특별자치도 고창군 성송면 암치리 114-1",
    "lat": "35.35142695444204",
    "lng": "126.64903130616055",
    "region": "전북특별자치도"
  },
  {
    "name": "관촌중학교 운동장",
    "address": "전북특별자치도 임실군 관촌면 관촌리 608",
    "lat": "35.678918566080014",
    "lng": "127.27062473979898",
    "region": "전북특별자치도"
  },
  {
    "name": "안현마을 광장",
    "address": "전북특별자치도 고창군 부안면 송현리 539",
    "lat": "35.539086",
    "lng": "126.611022",
    "region": "전북특별자치도"
  },
  {
    "name": "약산마을광장",
    "address": "전북특별자치도 고창군 대산면 춘산리 762-1",
    "lat": "35.3126400",
    "lng": "126.5680520",
    "region": "전북특별자치도"
  },
  {
    "name": "상부마을광장",
    "address": "전북특별자치도 고창군 해리면 광승리 869-1",
    "lat": "35.49532667735485",
    "lng": "126.47428240397373",
    "region": "전북특별자치도"
  },
  {
    "name": "도산마을 광장",
    "address": "전북특별자치도 고창군 고창읍 도산리 78-1",
    "lat": "35.43937508039909",
    "lng": "126.65944576263803",
    "region": "전북특별자치도"
  },
  {
    "name": "순창초등학교 운동장",
    "address": "전북특별자치도 순창군 순창읍 순화리 313",
    "lat": "35.375093623064394",
    "lng": "127.13853120803348",
    "region": "전북특별자치도"
  },
  {
    "name": "전라북도학생해양수련원 운동장",
    "address": "전북특별자치도 부안군 변산면 도청리 313-1",
    "lat": "35.592927477588056",
    "lng": "126.48914288542859",
    "region": "전북특별자치도"
  },
  {
    "name": "동산초등학교 운동장",
    "address": "전북특별자치도 순창군 복흥면 동산리 291-1",
    "lat": "35.45559911077787",
    "lng": "126.92095577717025",
    "region": "전북특별자치도"
  },
  {
    "name": "(구)주산중학교 운동장",
    "address": "전북특별자치도 부안군 주산면 갈촌리 357-11",
    "lat": "35.6705739664922",
    "lng": "126.7124317627063",
    "region": "전북특별자치도"
  },
  {
    "name": "격포초등학교 운동장",
    "address": "전북특별자치도 부안군 변산면 격포리 271-53",
    "lat": "35.62564590885829",
    "lng": "126.4740434288977",
    "region": "전북특별자치도"
  },
  {
    "name": "전주서중학교(운동장)",
    "address": "전북특별자치도 전주시 완산구 서신동 762",
    "lat": "35.831887855125096",
    "lng": "127.10957675948403",
    "region": "전북특별자치도"
  },
  {
    "name": "동계중학교 운동장",
    "address": "전북특별자치도 순창군 동계면 관전리 247",
    "lat": "35.44893290504618",
    "lng": "127.24038273095606",
    "region": "전북특별자치도"
  },
  {
    "name": "순창제일고등학교 운동장",
    "address": "전북특별자치도 순창군 순창읍 장덕리 100",
    "lat": "35.3791657484403",
    "lng": "127.15020149946508",
    "region": "전북특별자치도"
  },
  {
    "name": "주산초등학교 운동장",
    "address": "전북특별자치도 부안군 주산면 갈촌리 289-1",
    "lat": "35.665840997609166",
    "lng": "126.71425938605753",
    "region": "전북특별자치도"
  },
  {
    "name": "쌍치중학교 운동장",
    "address": "전북특별자치도 순창군 쌍치면 쌍계리 576-10",
    "lat": "35.49946226080327",
    "lng": "127.00285166512916",
    "region": "전북특별자치도"
  },
  {
    "name": "부안남초등학교",
    "address": "전북특별자치도 부안군 부안읍 연곡리 398-4",
    "lat": "35.70132210239993",
    "lng": "126.73445641994748",
    "region": "전북특별자치도"
  },
  {
    "name": "부안행안농공단지 주차장",
    "address": "전북특별자치도 부안군 행안면 역리 1119",
    "lat": "35.738888368510075",
    "lng": "126.71844363212693",
    "region": "전북특별자치도"
  },
  {
    "name": "옹동초등학교 운동장",
    "address": "전북특별자치도 정읍시 옹동면 칠석리 239",
    "lat": "35.6472152773563",
    "lng": "126.97709141155254",
    "region": "전북특별자치도"
  },
  {
    "name": "동진초등학교 운동장",
    "address": "전북특별자치도 부안군 동진면 동전리 1392",
    "lat": "35.75303835786527",
    "lng": "126.74344182014465",
    "region": "전북특별자치도"
  },
  {
    "name": "하서초등학교 운동장(구 장신초)",
    "address": "전북특별자치도 부안군 하서면 장신리 72-1",
    "lat": "35.71707286657674",
    "lng": "126.62641972303382",
    "region": "전북특별자치도"
  },
  {
    "name": "전주서곡중학교(운동장)",
    "address": "전북특별자치도 전주시 완산구 효자동3가 1407-4",
    "lat": "35.83581753360622",
    "lng": "127.10415828343913",
    "region": "전북특별자치도"
  },
  {
    "name": "해리초등학교",
    "address": "전북특별자치도 고창군 해리면 안산리 504",
    "lat": "35.46545474483158",
    "lng": "126.53567524156989",
    "region": "전북특별자치도"
  },
  {
    "name": "고부초등학교 운동장",
    "address": "전북특별자치도 정읍시 고부면 고부리 161",
    "lat": "35.621392211676934",
    "lng": "126.77167475223538",
    "region": "전북특별자치도"
  },
  {
    "name": "태인면사무소 공터주차장",
    "address": "전북특별자치도 정읍시 태인면 태창리 425",
    "lat": "35.65041961446776",
    "lng": "126.93252296047025",
    "region": "전북특별자치도"
  },
  {
    "name": "옹동전통문화생활관 공터주차장",
    "address": "전북특별자치도 정읍시 옹동면 칠석리 171-13",
    "lat": "35.64340089306728",
    "lng": "126.97517794300306",
    "region": "전북특별자치도"
  },
  {
    "name": "칠보초등학교 운동장",
    "address": "전북특별자치도 정읍시 칠보면 무성리 25-1",
    "lat": "35.607045843527",
    "lng": "126.9896748722803",
    "region": "전북특별자치도"
  },
  {
    "name": "위도중고등학교 운동장",
    "address": "전북특별자치도 부안군 위도면 진리 39-1",
    "lat": "35.604708819973254",
    "lng": "126.29587501287924",
    "region": "전북특별자치도"
  },
  {
    "name": "곰소초등학교 운동장",
    "address": "전북특별자치도 부안군 진서면 진서리 1047",
    "lat": "35.59561009749048",
    "lng": "126.59958958626268",
    "region": "전북특별자치도"
  },
  {
    "name": "하서중학교 운동장",
    "address": "전북특별자치도 부안군 하서면 석상리 378-1",
    "lat": "35.71371040943551",
    "lng": "126.63770377635949",
    "region": "전북특별자치도"
  },
  {
    "name": "부안중학교 운동장",
    "address": "전북특별자치도 부안군 행안면 신기리 27",
    "lat": "35.727035272782395",
    "lng": "126.72478973865506",
    "region": "전북특별자치도"
  },
  {
    "name": "상서초등학교 운동장",
    "address": "전북특별자치도 부안군 상서면 통정리 416-2",
    "lat": "35.70750778468922",
    "lng": "126.65931165218761",
    "region": "전북특별자치도"
  },
  {
    "name": "김제고등학교",
    "address": "전북특별자치도 김제시 신풍동 345-1",
    "lat": "35.791289993534676",
    "lng": "126.89535880196308",
    "region": "전북특별자치도"
  },
  {
    "name": "북부노인복지관 주차장",
    "address": "전북특별자치도 정읍시 신태인읍 신태인리 66-2",
    "lat": "35.68857250634507",
    "lng": "126.88959284146142",
    "region": "전북특별자치도"
  },
  {
    "name": "난산초등학교",
    "address": "전북특별자치도 김제시 백구면 영상리 343",
    "lat": "35.87706183289658",
    "lng": "126.99511811573267",
    "region": "전북특별자치도"
  },
  {
    "name": "전북도청 서편(다목적광장)",
    "address": "전북특별자치도 전주시 완산구 효자동3가 1",
    "lat": "35.819489175551524",
    "lng": "127.10678206213021",
    "region": "전북특별자치도"
  },
  {
    "name": "우석대학교 운동장",
    "address": "전북특별자치도 완주군 삼례읍 후정리 490",
    "lat": "35.911358564647365",
    "lng": "127.06475983572598",
    "region": "전북특별자치도"
  },
  {
    "name": "송동중학교 운동장",
    "address": "전북특별자치도 남원시 송동면 신평리 48-3",
    "lat": "35.363621838193794",
    "lng": "127.34287786503621",
    "region": "전북특별자치도"
  },
  {
    "name": "신태인초등학교 운동장",
    "address": "전북특별자치도 정읍시 신태인읍 신태인리 68",
    "lat": "35.6866248264826",
    "lng": "126.89014792442833",
    "region": "전북특별자치도"
  },
  {
    "name": "성내중학교",
    "address": "전북특별자치도 고창군 성내면 신성리 100-1",
    "lat": "35.54265794891748",
    "lng": "126.74453499147316",
    "region": "전북특별자치도"
  },
  {
    "name": "산내중학교 운동장",
    "address": "전북특별자치도 남원시 산내면 대정리 601",
    "lat": "35.422541129842294",
    "lng": "127.62735881524253",
    "region": "전북특별자치도"
  },
  {
    "name": "남원제일고등학교운동장",
    "address": "전북특별자치도 남원시 노암동 730",
    "lat": "35.39208156391356",
    "lng": "127.3747622896199",
    "region": "전북특별자치도"
  },
  {
    "name": "전북과학대학 운동장",
    "address": "전북특별자치도 정읍시 시기동 산9-28",
    "lat": "35.54883578044189",
    "lng": "126.86088777505901",
    "region": "전북특별자치도"
  },
  {
    "name": "감곡초등학교 운동장",
    "address": "전북특별자치도 정읍시 감곡면 방교리 494",
    "lat": "35.71828584252271",
    "lng": "126.92640066146852",
    "region": "전북특별자치도"
  },
  {
    "name": "군산명화학교",
    "address": "전북특별자치도 군산시 나운동 801",
    "lat": "35.96584495839144",
    "lng": "126.69052403462562",
    "region": "전북특별자치도"
  },
  {
    "name": "성내초등학교",
    "address": "전북특별자치도 고창군 성내면 양계리 479",
    "lat": "35.53744633707962",
    "lng": "126.74442913348832",
    "region": "전북특별자치도"
  },
  {
    "name": "신림중학교",
    "address": "전북특별자치도 고창군 신림면 무림리 16-1",
    "lat": "35.486999973848015",
    "lng": "126.71715617179866",
    "region": "전북특별자치도"
  },
  {
    "name": "덕천초등학교 운동장",
    "address": "전북특별자치도 정읍시 덕천면 우덕리 352",
    "lat": "35.620866752088986",
    "lng": "126.84474885463712",
    "region": "전북특별자치도"
  },
  {
    "name": "정읍어린이교통공원",
    "address": "전북특별자치도 정읍시 상동 271-9",
    "lat": "35.556165727576705",
    "lng": "126.86947049402079",
    "region": "전북특별자치도"
  },
  {
    "name": "가평초등학교",
    "address": "전북특별자치도 고창군 신림면 가평리 639",
    "lat": "35.47734728303529",
    "lng": "126.73835705876003",
    "region": "전북특별자치도"
  },
  {
    "name": "월산 테니스장",
    "address": "전북특별자치도 고창군 고창읍 월산리 502",
    "lat": "35.42527008033209",
    "lng": "126.73013855252404",
    "region": "전북특별자치도"
  },
  {
    "name": "자연마당 공원(고창읍성)",
    "address": "전북특별자치도 고창군 고창읍 노동리 421-1",
    "lat": "35.42648748341626",
    "lng": "126.70617520808702",
    "region": "전북특별자치도"
  },
  {
    "name": "한국경마축산고등학교 운동장",
    "address": "전북특별자치도 남원시 운봉읍 준향리 477-1",
    "lat": "35.44056798390382",
    "lng": "127.51562219074404",
    "region": "전북특별자치도"
  },
  {
    "name": "다솜학교 운동장",
    "address": "전북특별자치도 정읍시 과교동 408-5",
    "lat": "35.548713513174235",
    "lng": "126.83352144114644",
    "region": "전북특별자치도"
  },
  {
    "name": "전주금평초등학교(운동장)",
    "address": "전북특별자치도 전주시 덕진구 인후동2가 1536",
    "lat": "35.84393299666572",
    "lng": "127.1470177140578",
    "region": "전북특별자치도"
  },
  {
    "name": "금성중학교",
    "address": "전북특별자치도 김제시 신풍동 144-1",
    "lat": "35.79764052504844",
    "lng": "126.89868746782193",
    "region": "전북특별자치도"
  },
  {
    "name": "황강초등학교",
    "address": "전북특별자치도 김제시 공덕면 마현리 448",
    "lat": "35.87602859867508",
    "lng": "126.92454441956572",
    "region": "전북특별자치도"
  },
  {
    "name": "산외초등학교 운동장",
    "address": "전북특별자치도 정읍시 산외면 평사리 451",
    "lat": "35.620936632468705",
    "lng": "127.04122304872769",
    "region": "전북특별자치도"
  },
  {
    "name": "정읍동초등학교 운동장",
    "address": "전북특별자치도 정읍시 장명동 29",
    "lat": "35.56691137945429",
    "lng": "126.86145633459087",
    "region": "전북특별자치도"
  },
  {
    "name": "내장초등학교 운동장",
    "address": "전북특별자치도 정읍시 금붕동 98-1",
    "lat": "35.53520117305732",
    "lng": "126.89249052383623",
    "region": "전북특별자치도"
  },
  {
    "name": "공설운동장(사정금호1차부근)",
    "address": "전북특별자치도 군산시 사정동 146-2",
    "lat": "35.96320774916768",
    "lng": "126.74561323578936",
    "region": "전북특별자치도"
  },
  {
    "name": "동부시장앞",
    "address": "전북특별자치도 군산시 경암동 677-8",
    "lat": "35.976022620990165",
    "lng": "126.72823496299198",
    "region": "전북특별자치도"
  },
  {
    "name": "전주덕진초등학교(운동장)",
    "address": "전북특별자치도 전주시 덕진구 덕진동1가 1272-2",
    "lat": "35.841305437495045",
    "lng": "127.1245258353087",
    "region": "전북특별자치도"
  },
  {
    "name": "덕암고등학교",
    "address": "전북특별자치도 김제시 서암동 5",
    "lat": "35.813567172210675",
    "lng": "126.88508229254708",
    "region": "전북특별자치도"
  },
  {
    "name": "남원고등학교 운동장",
    "address": "전북특별자치도 남원시 향교동 412",
    "lat": "35.42034996045109",
    "lng": "127.3807819045294",
    "region": "전북특별자치도"
  },
  {
    "name": "어린이 30공원",
    "address": "전북특별자치도 군산시 나운동 869-7",
    "lat": "35.957167929078324",
    "lng": "126.68796535606363",
    "region": "전북특별자치도"
  },
  {
    "name": "미장택지 4공원",
    "address": "전북특별자치도 군산시 미장동 506",
    "lat": "35.967960903832775",
    "lng": "126.72988981727505",
    "region": "전북특별자치도"
  },
  {
    "name": "서수문화마을",
    "address": "전북특별자치도 군산시 서수면 서수리 2100-1",
    "lat": "35.98289978366351",
    "lng": "126.86644511296925",
    "region": "전북특별자치도"
  },
  {
    "name": "전일중학교(운동장)",
    "address": "전북특별자치도 전주시 덕진구 인후동2가 39-16",
    "lat": "35.83840678546574",
    "lng": "127.14509615181788",
    "region": "전북특별자치도"
  },
  {
    "name": "목우길마을광장",
    "address": "전북특별자치도 고창군 무장면 목우리 307-3",
    "lat": "35.415293073469265",
    "lng": "126.61487562734347",
    "region": "전북특별자치도"
  },
  {
    "name": "이일여자고등학교 운동장",
    "address": "전북특별자치도 익산시 인화동1가 2-42",
    "lat": "35.93506738903727",
    "lng": "126.94930672645567",
    "region": "전북특별자치도"
  },
  {
    "name": "황등남초등학교 운동장",
    "address": "전북특별자치도 익산시 황등면 황등리 963-3",
    "lat": "36.003556019386444",
    "lng": "126.93932354450224",
    "region": "전북특별자치도"
  },
  {
    "name": "군산내흥초등학교 운동장",
    "address": "전북특별자치도 군산시 내흥동 998",
    "lat": "36.005455213993585",
    "lng": "126.75896402046328",
    "region": "전북특별자치도"
  },
  {
    "name": "군산문화초등학교 운동장",
    "address": "전북특별자치도 군산시 문화동 895-1",
    "lat": "35.9745687046045",
    "lng": "126.70335094094933",
    "region": "전북특별자치도"
  },
  {
    "name": "전주신동초등학교(운동장)",
    "address": "전북특별자치도 전주시 덕진구 송천동2가 1269",
    "lat": "35.868844527650346",
    "lng": "127.12688315621729",
    "region": "전북특별자치도"
  },
  {
    "name": "전주전일초등학교(운동장)",
    "address": "전북특별자치도 전주시 덕진구 진북동 382-1",
    "lat": "35.829918929215005",
    "lng": "127.13703653840152",
    "region": "전북특별자치도"
  },
  {
    "name": "전주우아중학교(운동장)",
    "address": "전북특별자치도 전주시 덕진구 우아동3가 602-21",
    "lat": "35.85409822328451",
    "lng": "127.15357949434934",
    "region": "전북특별자치도"
  },
  {
    "name": "장수경찰서",
    "address": "전북특별자치도 장수군 장수읍 장수리 546",
    "lat": "35.64677580401289",
    "lng": "127.5165624030778",
    "region": "전북특별자치도"
  },
  {
    "name": "용진읍행정복지센터 주차장",
    "address": "전북특별자치도 완주군 용진읍 용흥리 819",
    "lat": "35.88350760008299",
    "lng": "127.15689171680202",
    "region": "전북특별자치도"
  },
  {
    "name": "상관면행정복지센터 주차장",
    "address": "전북특별자치도 완주군 상관면 신리 602-2",
    "lat": "35.77146260702061",
    "lng": "127.20693727038115",
    "region": "전북특별자치도"
  },
  {
    "name": "삼례 수도산 근린공원",
    "address": "전북특별자치도 완주군 삼례읍 후정리 115-1",
    "lat": "35.9032032",
    "lng": "127.06823340000005",
    "region": "전북특별자치도"
  },
  {
    "name": "지사울문화공원 운동장",
    "address": "전북특별자치도 완주군 이서면 용서리 777-1",
    "lat": "35.82925343511775",
    "lng": "127.02171513768954",
    "region": "전북특별자치도"
  },
  {
    "name": "요죽공원",
    "address": "전북특별자치도 군산시 오식도동 661",
    "lat": "35.96504810987504",
    "lng": "126.56994453220904",
    "region": "전북특별자치도"
  },
  {
    "name": "상서중학교 운동장",
    "address": "전북특별자치도 부안군 상서면 용서리 117",
    "lat": "35.687862229349186",
    "lng": "126.67668700218623",
    "region": "전북특별자치도"
  },
  {
    "name": "덕산공원",
    "address": "전북특별자치도 고창군 고창읍 읍내리 1180",
    "lat": "35.42719125146535",
    "lng": "126.6956582665447",
    "region": "전북특별자치도"
  },
  {
    "name": "무장초등학교",
    "address": "전북특별자치도 고창군 무장면 무장리 21-1",
    "lat": "35.4149355632389",
    "lng": "126.56422208470468",
    "region": "전북특별자치도"
  },
  {
    "name": "월성초등학교",
    "address": "전북특별자치도 김제시 월성동 139-7",
    "lat": "35.76019537049001",
    "lng": "126.91024672265205",
    "region": "전북특별자치도"
  },
  {
    "name": "황산초등학교",
    "address": "전북특별자치도 김제시 황산면 봉월리 524-2",
    "lat": "35.79643376608182",
    "lng": "126.94396147068653",
    "region": "전북특별자치도"
  },
  {
    "name": "덕암정보고등학교",
    "address": "전북특별자치도 김제시 서암동 5",
    "lat": "35.8132608257477",
    "lng": "126.88681629845776",
    "region": "전북특별자치도"
  },
  {
    "name": "한일장신대 운동장",
    "address": "전북특별자치도 완주군 상관면 신리 694-1",
    "lat": "35.76377325026096",
    "lng": "127.20652533983804",
    "region": "전북특별자치도"
  },
  {
    "name": "어린이 3공원",
    "address": "전북특별자치도 군산시 서흥남동 843-18",
    "lat": "35.97583673787983",
    "lng": "126.71652777293865",
    "region": "전북특별자치도"
  },
  {
    "name": "어린이 9공원",
    "address": "전북특별자치도 군산시 소룡동 1544",
    "lat": "35.96948999493106",
    "lng": "126.68355309556726",
    "region": "전북특별자치도"
  },
  {
    "name": "어린이 14공원",
    "address": "전북특별자치도 군산시 산북동 3615-6",
    "lat": "35.959860403671236",
    "lng": "126.67609155178064",
    "region": "전북특별자치도"
  },
  {
    "name": "어린이 17공원",
    "address": "전북특별자치도 군산시 나운동 735-3",
    "lat": "35.973931938895376",
    "lng": "126.69624567031856",
    "region": "전북특별자치도"
  },
  {
    "name": "어린이 19공원",
    "address": "전북특별자치도 군산시 나운동 747-5",
    "lat": "35.97131444333537",
    "lng": "126.69672487104411",
    "region": "전북특별자치도"
  },
  {
    "name": "임피문화마을",
    "address": "전북특별자치도 군산시 임피면 영창리 1228-1",
    "lat": "35.970153262590934",
    "lng": "126.87302225604286",
    "region": "전북특별자치도"
  },
  {
    "name": "나포원주곡마을",
    "address": "전북특별자치도 군산시 나포면 주곡리 1131-7",
    "lat": "36.00735381258167",
    "lng": "126.82366975670195",
    "region": "전북특별자치도"
  },
  {
    "name": "흥덕중학교",
    "address": "전북특별자치도 고창군 흥덕면 흥덕리 436",
    "lat": "35.52345644611566",
    "lng": "126.70160325655971",
    "region": "전북특별자치도"
  },
  {
    "name": "용진중학교 운동장",
    "address": "전북특별자치도 완주군 용진읍 상운리 121-1",
    "lat": "35.882204828703365",
    "lng": "127.1537232398987",
    "region": "전북특별자치도"
  },
  {
    "name": "동화분교 운동장",
    "address": "전북특별자치도 장수군 번암면 동화리 754",
    "lat": "35.567600248249825",
    "lng": "127.55727120766015",
    "region": "전북특별자치도"
  },
  {
    "name": "어린이 49공원",
    "address": "전북특별자치도 군산시 오식도동 806-4",
    "lat": "35.96694103555075",
    "lng": "126.56468525066029",
    "region": "전북특별자치도"
  },
  {
    "name": "나포문화마을",
    "address": "전북특별자치도 군산시 나포면 옥곤리 459-11",
    "lat": "36.02939692409046",
    "lng": "126.83298736810359",
    "region": "전북특별자치도"
  },
  {
    "name": "월곡공원",
    "address": "전북특별자치도 고창군 고창읍 월곡리 756",
    "lat": "35.436163306499964",
    "lng": "126.71403161164811",
    "region": "전북특별자치도"
  },
  {
    "name": "덕산 주차장",
    "address": "전북특별자치도 고창군 고창읍 읍내리 1177",
    "lat": "35.427014217220865",
    "lng": "126.6953873634338",
    "region": "전북특별자치도"
  },
  {
    "name": "전북체육중학교 운동장",
    "address": "전북특별자치도 완주군 소양면 해월리 377-19",
    "lat": "35.86586212793156",
    "lng": "127.24989817046725",
    "region": "전북특별자치도"
  },
  {
    "name": "어린이 13공원",
    "address": "전북특별자치도 군산시 산북동 3595",
    "lat": "35.96307567309168",
    "lng": "126.67699545621868",
    "region": "전북특별자치도"
  },
  {
    "name": "어린이 78공원",
    "address": "전북특별자치도 군산시 수송동 798-6",
    "lat": "35.965255252909984",
    "lng": "126.71364004477398",
    "region": "전북특별자치도"
  },
  {
    "name": "회현구율문화마을",
    "address": "전북특별자치도 군산시 회현면 원우리 558-1",
    "lat": "35.93628477803562",
    "lng": "126.77708510164013",
    "region": "전북특별자치도"
  },
  {
    "name": "용흥중학교(운동장)",
    "address": "전북특별자치도 전주시 완산구 삼천동1가 305-35",
    "lat": "35.791280544022385",
    "lng": "127.11377101576956",
    "region": "전북특별자치도"
  },
  {
    "name": "동상초등학교 운동장",
    "address": "전북특별자치도 완주군 동상면 신월리 286",
    "lat": "35.95755370202637",
    "lng": "127.29368257779475",
    "region": "전북특별자치도"
  },
  {
    "name": "상관중학교 운동장",
    "address": "전북특별자치도 완주군 상관면 신리 603-5",
    "lat": "35.771284701717704",
    "lng": "127.20575939273026",
    "region": "전북특별자치도"
  },
  {
    "name": "금구중학교",
    "address": "전북특별자치도 김제시 금구면 금구리 163-1",
    "lat": "35.77475310592533",
    "lng": "127.01181451259944",
    "region": "전북특별자치도"
  },
  {
    "name": "종정초등학교",
    "address": "전북특별자치도 김제시 백산면 상정리 815-2",
    "lat": "35.85215719231717",
    "lng": "126.9054362502728",
    "region": "전북특별자치도"
  },
  {
    "name": "청명초등학교 운동장",
    "address": "전북특별자치도 완주군 구이면 덕천리 196-1",
    "lat": "35.7513551480589",
    "lng": "127.1251321736206",
    "region": "전북특별자치도"
  },
  {
    "name": "전주예술고등학교 운동장",
    "address": "전북특별자치도 완주군 구이면 항가리 499-3",
    "lat": "35.72039326496593",
    "lng": "127.10957034593032",
    "region": "전북특별자치도"
  },
  {
    "name": "삼례읍행정복지센터 주차장",
    "address": "전북특별자치도 완주군 삼례읍 삼례리 1691-14",
    "lat": "35.91238857556441",
    "lng": "127.07772921733108",
    "region": "전북특별자치도"
  },
  {
    "name": "완주산업단지 테니스장",
    "address": "전북특별자치도 완주군 봉동읍 용암리 766-1",
    "lat": "35.9520271",
    "lng": "127.14075890000004",
    "region": "전북특별자치도"
  },
  {
    "name": "전주효문초등학교(운동장)",
    "address": "전북특별자치도 전주시 완산구 효자동1가 654-1",
    "lat": "35.802023562444575",
    "lng": "127.11607002959441",
    "region": "전북특별자치도"
  },
  {
    "name": "전주아중중학교(운동장)",
    "address": "전북특별자치도 전주시 덕진구 우아동2가 888-1",
    "lat": "35.83235639625238",
    "lng": "127.17050013070782",
    "region": "전북특별자치도"
  },
  {
    "name": "전주덕일중학교(운동장)",
    "address": "전북특별자치도 전주시 덕진구 덕진동2가 613",
    "lat": "35.848117842581075",
    "lng": "127.11125784246111",
    "region": "전북특별자치도"
  },
  {
    "name": "고창초등학교",
    "address": "전북특별자치도 고창군 고창읍 교촌리 281-1",
    "lat": "35.435757194700734",
    "lng": "126.70352101372293",
    "region": "전북특별자치도"
  },
  {
    "name": "교흥마을광장",
    "address": "전북특별자치도 고창군 무장면 교흥리 101-1",
    "lat": "35.42831584072572",
    "lng": "126.56680142628046",
    "region": "전북특별자치도"
  },
  {
    "name": "복흥중학교 운동장",
    "address": "전북특별자치도 순창군 복흥면 정산리 686",
    "lat": "35.432703159916144",
    "lng": "126.92595005035918",
    "region": "전북특별자치도"
  },
  {
    "name": "계남중학교 운동장",
    "address": "전북특별자치도 장수군 계남면 화양리 540-4",
    "lat": "35.703994805199166",
    "lng": "127.57271270648396",
    "region": "전북특별자치도"
  },
  {
    "name": "계북중학교 운동장",
    "address": "전북특별자치도 장수군 계북면 어전리 792",
    "lat": "35.78927758918787",
    "lng": "127.61466427201302",
    "region": "전북특별자치도"
  },
  {
    "name": "완주군청 공원",
    "address": "전북특별자치도 완주군 용진읍 운곡리 975-78",
    "lat": "35.90409137853282",
    "lng": "127.16242607024421",
    "region": "전북특별자치도"
  },
  {
    "name": "고창북고등학교",
    "address": "전북특별자치도 고창군 흥덕면 흥덕리 157-1",
    "lat": "35.515458225407365",
    "lng": "126.69810412393664",
    "region": "전북특별자치도"
  },
  {
    "name": "고창여자고등학교",
    "address": "전북특별자치도 고창군 고창읍 교촌리 295",
    "lat": "35.439886433086365",
    "lng": "126.69759750366704",
    "region": "전북특별자치도"
  },
  {
    "name": "부안초등학교",
    "address": "전북특별자치도 고창군 부안면 오산리 202-2",
    "lat": "35.512202582003674",
    "lng": "126.66305482148786",
    "region": "전북특별자치도"
  },
  {
    "name": "매산리 공원2",
    "address": "전북특별자치도 고창군 대산면 매산리 198-25",
    "lat": "35.33957527485468",
    "lng": "126.59790305043197",
    "region": "전북특별자치도"
  },
  {
    "name": "외정공원",
    "address": "전북특별자치도 고창군 고창읍 석정리 131-1",
    "lat": "35.43129599332145",
    "lng": "126.74245356764474",
    "region": "전북특별자치도"
  },
  {
    "name": "어린이 51공원",
    "address": "전북특별자치도 군산시 오식도동 634-5",
    "lat": "35.962605564724434",
    "lng": "126.56402374985825",
    "region": "전북특별자치도"
  },
  {
    "name": "어린이 60공원",
    "address": "전북특별자치도 군산시 지곡동 610",
    "lat": "35.95019474588295",
    "lng": "126.71396506852058",
    "region": "전북특별자치도"
  },
  {
    "name": "나운배수펌프장",
    "address": "전북특별자치도 군산시 나운동 135-1",
    "lat": "35.961903341538864",
    "lng": "126.70260250568386",
    "region": "전북특별자치도"
  },
  {
    "name": "나운 우수저류조",
    "address": "전북특별자치도 군산시 나운동 316-25",
    "lat": "35.962550297029324",
    "lng": "126.6990458965301",
    "region": "전북특별자치도"
  },
  {
    "name": "공음초등학교",
    "address": "전북특별자치도 고창군 공음면 칠암리 519",
    "lat": "35.37660271669289",
    "lng": "126.5116131167179",
    "region": "전북특별자치도"
  },
  {
    "name": "대성중학교",
    "address": "전북특별자치도 고창군 대산면 매산리 175-14",
    "lat": "35.33916966014232",
    "lng": "126.60336951574125",
    "region": "전북특별자치도"
  },
  {
    "name": "상하중학교",
    "address": "전북특별자치도 고창군 상하면 장산리 78-6",
    "lat": "35.445004937280956",
    "lng": "126.48792633028944",
    "region": "전북특별자치도"
  },
  {
    "name": "산서중학교 운동장",
    "address": "전북특별자치도 장수군 산서면 동화리 64",
    "lat": "35.58291472636376",
    "lng": "127.39933385186164",
    "region": "전북특별자치도"
  },
  {
    "name": "미장택지 6공원",
    "address": "전북특별자치도 군산시 미장동 529-4",
    "lat": "35.96311040679101",
    "lng": "126.73221471526281",
    "region": "전북특별자치도"
  },
  {
    "name": "금강노인복지관",
    "address": "전북특별자치도 군산시 구암동 307-9",
    "lat": "35.98026774735955",
    "lng": "126.75070782087073",
    "region": "전북특별자치도"
  },
  {
    "name": "전주초포초등학교(운동장)",
    "address": "전북특별자치도 전주시 덕진구 호성동2가 835",
    "lat": "35.87720935077552",
    "lng": "127.13972181514283",
    "region": "전북특별자치도"
  },
  {
    "name": "백제예술대학교 운동장",
    "address": "전북특별자치도 완주군 봉동읍 제내리 1234",
    "lat": "35.994860895759025",
    "lng": "127.12598696847446",
    "region": "전북특별자치도"
  },
  {
    "name": "어린이 20공원",
    "address": "전북특별자치도 군산시 나운동 816-1",
    "lat": "35.9691015678583",
    "lng": "126.70198103938846",
    "region": "전북특별자치도"
  },
  {
    "name": "은파호수공원 인라인스케이트장",
    "address": "전북특별자치도 군산시 미룡동 59-97",
    "lat": "35.94596025932988",
    "lng": "126.69314147211863",
    "region": "전북특별자치도"
  },
  {
    "name": "전주인후초등학교(운동장)",
    "address": "전북특별자치도 전주시 덕진구 인후동1가 844",
    "lat": "35.83166011204634",
    "lng": "127.16250662253398",
    "region": "전북특별자치도"
  },
  {
    "name": "생활축구경기장",
    "address": "전북특별자치도 고창군 고창읍 월암리 407-2",
    "lat": "35.429748522612",
    "lng": "126.726419964948",
    "region": "전북특별자치도"
  },
  {
    "name": "매산리 공원",
    "address": "전북특별자치도 고창군 대산면 매산리 198-41",
    "lat": "35.339529092830695",
    "lng": "126.59767084105282",
    "region": "전북특별자치도"
  },
  {
    "name": "순창새솔중학교",
    "address": "전북특별자치도 순창군 순창읍 순화리 514-2",
    "lat": "35.377582411541766",
    "lng": "127.13433623313766",
    "region": "전북특별자치도"
  },
  {
    "name": "남원하늘중학교운동장",
    "address": "전북특별자치도 남원시 하정동 36-4",
    "lat": "35.40846345",
    "lng": "127.3809429",
    "region": "전북특별자치도"
  },
  {
    "name": "무주 등나무 운동장",
    "address": "전북특별자치도 무주군 무주읍 당산리 1118",
    "lat": "36.00248193393364",
    "lng": "127.6614037156105",
    "region": "전북특별자치도"
  },
  {
    "name": "안성면 생활체육공원",
    "address": "전북특별자치도 무주군 안성면 장기리 1682-2",
    "lat": "35.87001229809448",
    "lng": "127.65000700950623",
    "region": "전북특별자치도"
  },
  {
    "name": "무풍면 생활체육공원",
    "address": "전북특별자치도 무주군 무풍면 현내리 617",
    "lat": "35.96680530845194",
    "lng": "127.8451806306839",
    "region": "전북특별자치도"
  },
  {
    "name": "설천면 생활체육공원",
    "address": "전북특별자치도 무주군 설천면 소천리 883-1",
    "lat": "36.008852457111885",
    "lng": "127.79112875461578",
    "region": "전북특별자치도"
  },
  {
    "name": "전주자연초등학교",
    "address": "전북특별자치도 전주시 덕진구 송천동2가 1305",
    "lat": "35.877403462332616",
    "lng": "127.13536884013513",
    "region": "전북특별자치도"
  },
  {
    "name": "어린이1공원",
    "address": "전북특별자치도 군산시 삼학동 813-10",
    "lat": "35.97585947009812",
    "lng": "126.70864552259583",
    "region": "전북특별자치도"
  },
  {
    "name": "공설시장옆(구역전부근)",
    "address": "전북특별자치도 군산시 대명동 138-3",
    "lat": "35.98107372723742",
    "lng": "126.72076981665705",
    "region": "전북특별자치도"
  },
  {
    "name": "군산시청",
    "address": "전북특별자치도 군산시 조촌동 888",
    "lat": "35.96716501086269",
    "lng": "126.73684356917266",
    "region": "전북특별자치도"
  },
  {
    "name": "개정통사문화마을",
    "address": "전북특별자치도 군산시 개정면 통사리 581-4",
    "lat": "35.95392234057002",
    "lng": "126.80062919855116",
    "region": "전북특별자치도"
  },
  {
    "name": "전주우전초등학교(운동장)",
    "address": "전북특별자치도 전주시 완산구 효자동2가 188",
    "lat": "35.8056203177793",
    "lng": "127.10701121042901",
    "region": "전북특별자치도"
  },
  {
    "name": "행산마을 광장",
    "address": "전북특별자치도 고창군 해리면 송산리 666",
    "lat": "35.453446",
    "lng": "126.530022",
    "region": "전북특별자치도"
  },
  {
    "name": "서진여자고등학교 운동장",
    "address": "전북특별자치도 남원시 월락동 173",
    "lat": "35.42507360421092",
    "lng": "127.4067599841971",
    "region": "전북특별자치도"
  },
  {
    "name": "서신초등학교 운동장",
    "address": "전북특별자치도 정읍시 상평동 695-14",
    "lat": "35.563194007056524",
    "lng": "126.82192430747516",
    "region": "전북특별자치도"
  },
  {
    "name": "미장택지 5공원",
    "address": "전북특별자치도 군산시 미장동 558-1",
    "lat": "35.96040478804223",
    "lng": "126.73533225119769",
    "region": "전북특별자치도"
  },
  {
    "name": "군산근대역사박물관",
    "address": "전북특별자치도 군산시 장미동 1-67",
    "lat": "35.9904781443841",
    "lng": "126.71209156429292",
    "region": "전북특별자치도"
  },
  {
    "name": "전주솔빛중학교(운동장)",
    "address": "전북특별자치도 전주시 덕진구 송천동1가 128-10",
    "lat": "35.859072403185614",
    "lng": "127.12411776223682",
    "region": "전북특별자치도"
  },
  {
    "name": "전주서신중학교(운동장)",
    "address": "전북특별자치도 전주시 완산구 서신동 833",
    "lat": "35.82904449361714",
    "lng": "127.11690599166673",
    "region": "전북특별자치도"
  },
  {
    "name": "전주아중초등학교(운동장)",
    "address": "전북특별자치도 전주시 덕진구 우아동1가 883-19",
    "lat": "35.82818987938161",
    "lng": "127.17483743074071",
    "region": "전북특별자치도"
  },
  {
    "name": "전주근영여자고등학교(운동장)",
    "address": "전북특별자치도 전주시 완산구 중화산동2가 254-4",
    "lat": "35.81986859247037",
    "lng": "127.1245934161251",
    "region": "전북특별자치도"
  },
  {
    "name": "전주송천초등학교(운동장)",
    "address": "전북특별자치도 전주시 덕진구 송천동1가 397",
    "lat": "35.85772223912064",
    "lng": "127.1199366128929",
    "region": "전북특별자치도"
  },
  {
    "name": "왕제산로마을광장",
    "address": "전북특별자치도 고창군 무장면 무장리 85-2",
    "lat": "35.41416180339457",
    "lng": "126.56002968549424",
    "region": "전북특별자치도"
  },
  {
    "name": "동신초등학교 운동장",
    "address": "전북특별자치도 정읍시 상동 280",
    "lat": "35.55851252208536",
    "lng": "126.86573629112388",
    "region": "전북특별자치도"
  },
  {
    "name": "군산수송공원(28공원)",
    "address": "전북특별자치도 군산시 수송동 851",
    "lat": "35.96581497103792",
    "lng": "126.72067468325909",
    "region": "전북특별자치도"
  },
  {
    "name": "어린이 5공원",
    "address": "전북특별자치도 군산시 경장동 494-18",
    "lat": "35.97239624313655",
    "lng": "126.73063654350214",
    "region": "전북특별자치도"
  },
  {
    "name": "어린이 16공원",
    "address": "전북특별자치도 군산시 미룡동 860",
    "lat": "35.95669082579494",
    "lng": "126.67720412902696",
    "region": "전북특별자치도"
  },
  {
    "name": "어린이 39공원",
    "address": "전북특별자치도 군산시 조촌동 949-5",
    "lat": "35.97395948031337",
    "lng": "126.74047784198245",
    "region": "전북특별자치도"
  },
  {
    "name": "어린이 52공원",
    "address": "전북특별자치도 군산시 오식도동 677-4",
    "lat": "35.96301535837309",
    "lng": "126.57093527272833",
    "region": "전북특별자치도"
  },
  {
    "name": "미장택지 2공원",
    "address": "전북특별자치도 군산시 미장동 538-5",
    "lat": "35.96266198762941",
    "lng": "126.72790152419691",
    "region": "전북특별자치도"
  },
  {
    "name": "전주동북초등학교(운동장)",
    "address": "전북특별자치도 전주시 덕진구 인후동2가 39-13",
    "lat": "35.8394364110963",
    "lng": "127.14509131665547",
    "region": "전북특별자치도"
  },
  {
    "name": "전주오송초등학교(운동장)",
    "address": "전북특별자치도 전주시 덕진구 송천동2가 179-23",
    "lat": "35.86587725184916",
    "lng": "127.13050949100776",
    "region": "전북특별자치도"
  },
  {
    "name": "감곡중학교 운동장",
    "address": "전북특별자치도 정읍시 감곡면 방교리 488",
    "lat": "35.71843421591934",
    "lng": "126.92432387702611",
    "region": "전북특별자치도"
  },
  {
    "name": "이평중학교 운동장",
    "address": "전북특별자치도 정읍시 이평면 창동리 473-2",
    "lat": "35.661256631241294",
    "lng": "126.81154147357809",
    "region": "전북특별자치도"
  },
  {
    "name": "학산고등학교 운동장",
    "address": "전북특별자치도 정읍시 상동 84",
    "lat": "35.56089092660743",
    "lng": "126.87395618743153",
    "region": "전북특별자치도"
  },
  {
    "name": "영산초등학교 운동장",
    "address": "전북특별자치도 정읍시 하북동 151-3",
    "lat": "35.59919395137927",
    "lng": "126.86301864772291",
    "region": "전북특별자치도"
  },
  {
    "name": "전주대학교(대운동장)",
    "address": "전북특별자치도 전주시 완산구 효자동2가 1080",
    "lat": "35.81393473667119",
    "lng": "127.09067561707867",
    "region": "전북특별자치도"
  },
  {
    "name": "내사마을 광장",
    "address": "전북특별자치도 고창군 흥덕면 사천리 123",
    "lat": "35.50806181267417",
    "lng": "126.69460976852105",
    "region": "전북특별자치도"
  },
  {
    "name": "전주생명과학고등학교(운동장)",
    "address": "전북특별자치도 전주시 덕진구 인후동2가 24",
    "lat": "35.838707826744454",
    "lng": "127.14857976925708",
    "region": "전북특별자치도"
  },
  {
    "name": "전주용덕초등학교(운동장)",
    "address": "전북특별자치도 전주시 덕진구 용정동 483",
    "lat": "35.87685127276603",
    "lng": "127.051481359046",
    "region": "전북특별자치도"
  },
  {
    "name": "대덕초등학교 운동장",
    "address": "전북특별자치도 완주군 구이면 계곡리 605-1",
    "lat": "35.660482031656834",
    "lng": "127.11030877045037",
    "region": "전북특별자치도"
  },
  {
    "name": "상굴마을 광장",
    "address": "전북특별자치도 고창군 부안면 상등리 592",
    "lat": "35.505581",
    "lng": "126.664678",
    "region": "전북특별자치도"
  },
  {
    "name": "한국폴리텍대학 김제캠퍼스",
    "address": "전북특별자치도 김제시 백학동 84",
    "lat": "35.810186142344634",
    "lng": "126.94035419968354",
    "region": "전북특별자치도"
  },
  {
    "name": "백구초등학교",
    "address": "전북특별자치도 김제시 백구면 석담리 424",
    "lat": "35.88641994480161",
    "lng": "126.9703216410281",
    "region": "전북특별자치도"
  },
  {
    "name": "교암초등학교 운동장",
    "address": "전북특별자치도 정읍시 교암동 323-3",
    "lat": "35.52701152648454",
    "lng": "126.84634163620997",
    "region": "전북특별자치도"
  },
  {
    "name": "한국농수산대학교",
    "address": "전북특별자치도 전주시 덕진구 중동 834",
    "lat": "35.82565393801173",
    "lng": "127.06334527139649",
    "region": "전북특별자치도"
  },
  {
    "name": "전주동암차돌학교(운동장)",
    "address": "전북특별자치도 전주시 완산구 효자동3가 1215-5",
    "lat": "35.81050969108346",
    "lng": "127.09277895715775",
    "region": "전북특별자치도"
  },
  {
    "name": "전주서천초등학교(운동장)",
    "address": "전북특별자치도 전주시 완산구 서신동 761-3",
    "lat": "35.83217154494299",
    "lng": "127.1082412040477",
    "region": "전북특별자치도"
  },
  {
    "name": "양현고등학교(운동장)",
    "address": "전북특별자치도 전주시 덕진구 장동 1072",
    "lat": "35.84204534074193",
    "lng": "127.05901297311772",
    "region": "전북특별자치도"
  },
  {
    "name": "판정마을광장",
    "address": "전북특별자치도 고창군 성송면 판정리 445-3",
    "lat": "35.36499142043228",
    "lng": "126.63226047495985",
    "region": "전북특별자치도"
  },
  {
    "name": "운암중학교 운동장",
    "address": "전북특별자치도 임실군 운암면 쌍암리 617-5",
    "lat": "35.66373162819717",
    "lng": "127.15722525529544",
    "region": "전북특별자치도"
  },
  {
    "name": "도학초등학교 운동장",
    "address": "전북특별자치도 정읍시 덕천면 하학리 243-1",
    "lat": "35.628709041144454",
    "lng": "126.81897014379499",
    "region": "전북특별자치도"
  },
  {
    "name": "정산중학교 운동장",
    "address": "전북특별자치도 정읍시 산내면 능교리 628-1",
    "lat": "35.57009497692999",
    "lng": "127.02006505549323",
    "region": "전북특별자치도"
  },
  {
    "name": "전주동암고등학교(운동장)",
    "address": "전북특별자치도 전주시 완산구 효자동2가 1200-2",
    "lat": "35.805984112748256",
    "lng": "127.10119573489945",
    "region": "전북특별자치도"
  },
  {
    "name": "전주제일고등학교(운동장)",
    "address": "전북특별자치도 전주시 완산구 남노송동 180-1",
    "lat": "35.821230498776416",
    "lng": "127.15834670819505",
    "region": "전북특별자치도"
  },
  {
    "name": "송광초등학교 운동장",
    "address": "전북특별자치도 완주군 소양면 대흥리 775-1",
    "lat": "35.88522243802401",
    "lng": "127.24531273365609",
    "region": "전북특별자치도"
  },
  {
    "name": "동양초등학교 운동장",
    "address": "전북특별자치도 완주군 소양면 화심리 543-4",
    "lat": "35.84386858178364",
    "lng": "127.27094613660617",
    "region": "전북특별자치도"
  },
  {
    "name": "진목마을 광장",
    "address": "전북특별자치도 고창군 부안면 사창리 109-1",
    "lat": "35.490949",
    "lng": "126.679512",
    "region": "전북특별자치도"
  },
  {
    "name": "동국대학교사업대학부속 금산고등학교",
    "address": "전북특별자치도 김제시 금산면 쌍용리 470",
    "lat": "35.71708750564229",
    "lng": "126.99927503264615",
    "region": "전북특별자치도"
  },
  {
    "name": "광활초등학교",
    "address": "전북특별자치도 김제시 광활면 옥포리 672-13",
    "lat": "35.834488195557135",
    "lng": "126.74084286325282",
    "region": "전북특별자치도"
  },
  {
    "name": "정주고등학교 운동장",
    "address": "전북특별자치도 정읍시 금붕동 415",
    "lat": "35.54355400897686",
    "lng": "126.88989879696993",
    "region": "전북특별자치도"
  },
  {
    "name": "기전대학교",
    "address": "전북특별자치도 전주시 완산구 중화산동1가 177",
    "lat": "35.81721583204597",
    "lng": "127.13569444987644",
    "region": "전북특별자치도"
  },
  {
    "name": "전주동초등학교(운동장)",
    "address": "전북특별자치도 전주시 완산구 중노송동 399-1",
    "lat": "35.829485361075896",
    "lng": "127.15261216830963",
    "region": "전북특별자치도"
  },
  {
    "name": "전주해성중학교(운동장)",
    "address": "전북특별자치도 전주시 완산구 삼천동2가 555",
    "lat": "35.78783738135423",
    "lng": "127.10264080593583",
    "region": "전북특별자치도"
  },
  {
    "name": "아중체련공원(운동장)",
    "address": "전북특별자치도 전주시 덕진구 우아동1가 1005-2",
    "lat": "35.823121390253654",
    "lng": "127.16935559008256",
    "region": "전북특별자치도"
  },
  {
    "name": "전주동중학교(운동장)",
    "address": "전북특별자치도 전주시 덕진구 인후동2가 24-1",
    "lat": "35.838267",
    "lng": "127.150100",
    "region": "전북특별자치도"
  },
  {
    "name": "고창남중학교",
    "address": "전북특별자치도 고창군 성송면 향산리 79-1",
    "lat": "35.373540386193035",
    "lng": "126.64793957267554",
    "region": "전북특별자치도"
  },
  {
    "name": "월곡2공원",
    "address": "전북특별자치도 고창군 고창읍 월곡리 984",
    "lat": "35.43223984192842",
    "lng": "126.71745389699704",
    "region": "전북특별자치도"
  },
  {
    "name": "매산초등학교",
    "address": "전북특별자치도 고창군 대산면 매산리 196-3",
    "lat": "35.3399694648739",
    "lng": "126.59461846630396",
    "region": "전북특별자치도"
  },
  {
    "name": "전주반월초등학교(운동장)",
    "address": "전북특별자치도 전주시 덕진구 반월동 238-6",
    "lat": "35.875562541772574",
    "lng": "127.07381118957362",
    "region": "전북특별자치도"
  },
  {
    "name": "전주만성초등학교(운동장)",
    "address": "전북특별자치도 전주시 덕진구 중동 803",
    "lat": "35.83663568233143",
    "lng": "127.065547229185",
    "region": "전북특별자치도"
  },
  {
    "name": "상관초등학교 운동장",
    "address": "전북특별자치도 완주군 상관면 신리 562",
    "lat": "35.7719737211849",
    "lng": "127.206227138116",
    "region": "전북특별자치도"
  },
  {
    "name": "청해마을 광장",
    "address": "전북특별자치도 고창군 해리면 하련리 628",
    "lat": "35.461118",
    "lng": "126.537790",
    "region": "전북특별자치도"
  },
  {
    "name": "석교마을 광장 주차장",
    "address": "전북특별자치도 고창군 고창읍 석교리 82-4",
    "lat": "35.44194492257526",
    "lng": "126.6895455121958",
    "region": "전북특별자치도"
  },
  {
    "name": "주진마을 광장",
    "address": "전북특별자치도 고창군 아산면 주진리 586",
    "lat": "35.430339",
    "lng": "126.615646",
    "region": "전북특별자치도"
  },
  {
    "name": "인상고등학교 운동장",
    "address": "전북특별자치도 정읍시 신태인읍 화호리 251-3",
    "lat": "35.718808483557865",
    "lng": "126.83897137641905",
    "region": "전북특별자치도"
  },
  {
    "name": "입암중학교 운동장",
    "address": "전북특별자치도 정읍시 입암면 단곡리 573-4",
    "lat": "35.51561376877815",
    "lng": "126.79413557052847",
    "region": "전북특별자치도"
  },
  {
    "name": "정읍제일고등학교 운동장",
    "address": "전북특별자치도 정읍시 수성동 443",
    "lat": "35.57075126869388",
    "lng": "126.85416340827938",
    "region": "전북특별자치도"
  },
  {
    "name": "전라고등학교(운동장)",
    "address": "전북특별자치도 전주시 덕진구 송천동1가 137-25",
    "lat": "35.859939261865975",
    "lng": "127.12509982686676",
    "region": "전북특별자치도"
  },
  {
    "name": "전주선화학교(운동장)",
    "address": "전북특별자치도 전주시 완산구 효자동3가 1130",
    "lat": "35.82056918340762",
    "lng": "127.09007965281158",
    "region": "전북특별자치도"
  },
  {
    "name": "정읍호남고등학교 운동장",
    "address": "전북특별자치도 정읍시 시기동 475",
    "lat": "35.55870469369619",
    "lng": "126.85185925654652",
    "region": "전북특별자치도"
  },
  {
    "name": "전주지곡초등학교(운동장)",
    "address": "전북특별자치도 전주시 완산구 평화동2가 897-3",
    "lat": "35.78401619634218",
    "lng": "127.13311887543887",
    "region": "전북특별자치도"
  },
  {
    "name": "간중초등학교 운동장",
    "address": "전북특별자치도 완주군 용진읍 간중리 616-1",
    "lat": "35.89064061316141",
    "lng": "127.18150083968975",
    "region": "전북특별자치도"
  },
  {
    "name": "복흥초등학교 운동장",
    "address": "전북특별자치도 순창군 복흥면 정산리 302",
    "lat": "35.43037561572132",
    "lng": "126.93225860595929",
    "region": "전북특별자치도"
  },
  {
    "name": "왕신여자고등학교 운동장",
    "address": "전북특별자치도 정읍시 신태인읍 신태인리 86-2",
    "lat": "35.68363580939134",
    "lng": "126.88956856727604",
    "region": "전북특별자치도"
  },
  {
    "name": "예수대학교",
    "address": "전북특별자치도 전주시 완산구 중화산동1가 168-1",
    "lat": "35.8158068259686",
    "lng": "127.13508254077895",
    "region": "전북특별자치도"
  },
  {
    "name": "전주새연초등학교(운동장)",
    "address": "전북특별자치도 전주시 완산구 효자동2가 1314-5",
    "lat": "35.811435",
    "lng": "127.100531",
    "region": "전북특별자치도"
  },
  {
    "name": "전일고등학교(운동장)",
    "address": "전북특별자치도 전주시 완산구 효자동2가 619",
    "lat": "35.81626159400991",
    "lng": "127.10069152239691",
    "region": "전북특별자치도"
  },
  {
    "name": "전주서일초등학교(운동장)",
    "address": "전북특별자치도 전주시 완산구 서신동 960-4",
    "lat": "35.836328078571796",
    "lng": "127.11508227006232",
    "region": "전북특별자치도"
  },
  {
    "name": "용봉초등학교 운동장",
    "address": "전북특별자치도 완주군 봉동읍 구만리 470-1",
    "lat": "35.90514905300174",
    "lng": "127.15595910997077",
    "region": "전북특별자치도"
  },
  {
    "name": "대흥초등학교 운동장",
    "address": "전북특별자치도 정읍시 입암면 대흥리 678",
    "lat": "35.52497916519635",
    "lng": "126.8077692389488",
    "region": "전북특별자치도"
  },
  {
    "name": "전북도청 동편(농구장)",
    "address": "전북특별자치도 전주시 완산구 효자동3가 1",
    "lat": "35.82014697091685",
    "lng": "127.11188332174724",
    "region": "전북특별자치도"
  },
  {
    "name": "전북대학교(대운동장)",
    "address": "전북특별자치도 전주시 덕진구 금암동 663",
    "lat": "35.84538859758296",
    "lng": "127.13142967780618",
    "region": "전북특별자치도"
  },
  {
    "name": "전주남초등학교(운동장)",
    "address": "전북특별자치도 전주시 완산구 서서학동 277",
    "lat": "35.80347150041398",
    "lng": "127.1507992533688",
    "region": "전북특별자치도"
  },
  {
    "name": "옥천초등학교 운동장",
    "address": "전북특별자치도 순창군 순창읍 남계리 362-2",
    "lat": "35.37274473119698",
    "lng": "127.14615136385103",
    "region": "전북특별자치도"
  },
  {
    "name": "순창중학교 운동장",
    "address": "전북특별자치도 순창군 순창읍 남계리 111",
    "lat": "35.376388327529796",
    "lng": "127.15136826038247",
    "region": "전북특별자치도"
  },
  {
    "name": "순창북중학교 운동장",
    "address": "전북특별자치도 순창군 순창읍 순화리 78",
    "lat": "35.378763356376375",
    "lng": "127.13958799839054",
    "region": "전북특별자치도"
  },
  {
    "name": "순창고등학교 운동장",
    "address": "전북특별자치도 순창군 순창읍 순화리 78",
    "lat": "35.37968623085845",
    "lng": "127.13954508304239",
    "region": "전북특별자치도"
  },
  {
    "name": "전주효림초등학교(운동장)",
    "address": "전북특별자치도 전주시 완산구 효자동1가 659-2",
    "lat": "35.80305837349368",
    "lng": "127.11299158363065",
    "region": "전북특별자치도"
  },
  {
    "name": "전주양지중학교(운동장)",
    "address": "전북특별자치도 전주시 완산구 평화동2가 581-15",
    "lat": "35.792325113525756",
    "lng": "127.12477063237797",
    "region": "전북특별자치도"
  },
  {
    "name": "전주신흥중학교(운동장)",
    "address": "전북특별자치도 전주시 완산구 중화산동1가 188",
    "lat": "35.81542858624764",
    "lng": "127.1363372926299",
    "region": "전북특별자치도"
  },
  {
    "name": "신림초등학교",
    "address": "전북특별자치도 고창군 신림면 법지리 13-1",
    "lat": "35.493989141315815",
    "lng": "126.69994872826886",
    "region": "전북특별자치도"
  },
  {
    "name": "김제검산초등학교",
    "address": "전북특별자치도 김제시 검산동 912-21",
    "lat": "35.80559482642693",
    "lng": "126.89945938078084",
    "region": "전북특별자치도"
  },
  {
    "name": "성송초등학교",
    "address": "전북특별자치도 고창군 성송면 암치리 389-1",
    "lat": "35.35602819286949",
    "lng": "126.64402605877869",
    "region": "전북특별자치도"
  },
  {
    "name": "심원중학교",
    "address": "전북특별자치도 고창군 심원면 연화리 664-9",
    "lat": "35.52060601768475",
    "lng": "126.54821605611879",
    "region": "전북특별자치도"
  },
  {
    "name": "심원초등학교",
    "address": "전북특별자치도 고창군 심원면 월산리 774",
    "lat": "35.52544049564489",
    "lng": "126.55238514253766",
    "region": "전북특별자치도"
  },
  {
    "name": "아산초등학교",
    "address": "전북특별자치도 고창군 아산면 반암리 1081",
    "lat": "35.48285289020484",
    "lng": "126.60612225092184",
    "region": "전북특별자치도"
  },
  {
    "name": "지평선고등학교",
    "address": "전북특별자치도 김제시 성덕면 묘라리 99-1",
    "lat": "35.82765617715888",
    "lng": "126.83068957978463",
    "region": "전북특별자치도"
  },
  {
    "name": "전주대성초등학교(운동장)",
    "address": "전북특별자치도 전주시 완산구 대성동 45",
    "lat": "35.79759026046074",
    "lng": "127.17782000705603",
    "region": "전북특별자치도"
  },
  {
    "name": "전주상산고등학교(운동장)",
    "address": "전북특별자치도 전주시 완산구 효자동1가 260",
    "lat": "35.804991766217384",
    "lng": "127.11837633297596",
    "region": "전북특별자치도"
  },
  {
    "name": "우석고등학교(운동장)",
    "address": "전북특별자치도 전주시 덕진구 여의동2가 658-90",
    "lat": "35.875159035427444",
    "lng": "127.07669824361805",
    "region": "전북특별자치도"
  },
  {
    "name": "선동초등학교",
    "address": "전북특별자치도 고창군 공음면 선동리 615-1",
    "lat": "35.36768160227852",
    "lng": "126.55618468133969",
    "region": "전북특별자치도"
  },
  {
    "name": "부송마을 광장",
    "address": "전북특별자치도 고창군 신림면 부송리 309-3",
    "lat": "35.472883",
    "lng": "126.692059",
    "region": "전북특별자치도"
  },
  {
    "name": "한국치즈과학고등학교 운동장",
    "address": "전북특별자치도 임실군 강진면 갈담리 333",
    "lat": "35.533108745571056",
    "lng": "127.16424464832446",
    "region": "전북특별자치도"
  },
  {
    "name": "해리중학교",
    "address": "전북특별자치도 고창군 해리면 하련리 245",
    "lat": "35.46250520056283",
    "lng": "126.53930678250474",
    "region": "전북특별자치도"
  },
  {
    "name": "임실동중학교 운동장",
    "address": "전북특별자치도 임실군 임실읍 이도리 751",
    "lat": "35.614574365492125",
    "lng": "127.27898698394577",
    "region": "전북특별자치도"
  },
  {
    "name": "전주대정초등학교(운동장)",
    "address": "전북특별자치도 전주시 완산구 평화동2가 459",
    "lat": "35.78556970252248",
    "lng": "127.12531134241392",
    "region": "전북특별자치도"
  },
  {
    "name": "부안낭주중학교",
    "address": "전북특별자치도 부안군 부안읍 봉덕리 658-2",
    "lat": "35.71459677039573",
    "lng": "126.73431694507235",
    "region": "전북특별자치도"
  },
  {
    "name": "줄포농공단지 주차장",
    "address": "전북특별자치도 부안군 보안면 영전리 298-13",
    "lat": "35.60175381140278",
    "lng": "126.67277634143701",
    "region": "전북특별자치도"
  },
  {
    "name": "전주우림중학교(운동장)",
    "address": "전북특별자치도 전주시 완산구 효자동2가 1199-3",
    "lat": "35.80509196149389",
    "lng": "127.0990765939545",
    "region": "전북특별자치도"
  },
  {
    "name": "전주공업고등학교(운동장)",
    "address": "전북특별자치도 전주시 덕진구 여의동 548-2",
    "lat": "35.86280422784191",
    "lng": "127.07529754840579",
    "region": "전북특별자치도"
  },
  {
    "name": "관촌초등학교",
    "address": "전북특별자치도 임실군 관촌면 관촌리 502",
    "lat": "35.67670286312444",
    "lng": "127.27094657067545",
    "region": "전북특별자치도"
  },
  {
    "name": "마암초등학교",
    "address": "전북특별자치도 임실군 운암면 마암리 700",
    "lat": "35.602708119553654",
    "lng": "127.10456317646087",
    "region": "전북특별자치도"
  },
  {
    "name": "부안자연마당 잔디광장",
    "address": "전북특별자치도 부안군 부안읍 선은리 5-8",
    "lat": "35.7253956443581",
    "lng": "126.74513965845107",
    "region": "전북특별자치도"
  },
  {
    "name": "전주문학초등학교(운동장)",
    "address": "전북특별자치도 전주시 완산구 효자동3가 1614",
    "lat": "35.82826454692479",
    "lng": "127.10258369905601",
    "region": "전북특별자치도"
  },
  {
    "name": "한일고등학교(운동장)",
    "address": "전북특별자치도 전주시 완산구 서신동 71-2",
    "lat": "35.831696549760075",
    "lng": "127.12377617482204",
    "region": "전북특별자치도"
  },
  {
    "name": "송산마을광장",
    "address": "전북특별자치도 고창군 성송면 무송리 258-1",
    "lat": "35.34615639186379",
    "lng": "126.63706162154368",
    "region": "전북특별자치도"
  },
  {
    "name": "청웅초등학교 운동장",
    "address": "전북특별자치도 임실군 청웅면 구고리 111",
    "lat": "35.57134215765147",
    "lng": "127.20458043725733",
    "region": "전북특별자치도"
  },
  {
    "name": "남일초중고등학교 운동장",
    "address": "전북특별자치도 정읍시 감곡면 통석리 826",
    "lat": "35.70769477543101",
    "lng": "126.96714656222144",
    "region": "전북특별자치도"
  },
  {
    "name": "부안고등학교",
    "address": "전북특별자치도 부안군 부안읍 봉덕리 726-10",
    "lat": "35.715476588226764",
    "lng": "126.72938168048856",
    "region": "전북특별자치도"
  },
  {
    "name": "남성중학교 운동장",
    "address": "전북특별자치도 익산시 신동 156-4",
    "lat": "35.95689529356908",
    "lng": "126.9660391740244",
    "region": "전북특별자치도"
  },
  {
    "name": "전주신성초등학교(운동장)",
    "address": "전북특별자치도 전주시 완산구 평화동2가 229",
    "lat": "35.79034856372343",
    "lng": "127.13437969210021",
    "region": "전북특별자치도"
  },
  {
    "name": "전주용와초등학교(운동장)",
    "address": "전북특별자치도 전주시 완산구 삼천동1가 305-43",
    "lat": "35.79118261552704",
    "lng": "127.11505737525324",
    "region": "전북특별자치도"
  },
  {
    "name": "전주기린중학교(운동장)",
    "address": "전북특별자치도 전주시 덕진구 우아동3가 743-10",
    "lat": "35.85424496734448",
    "lng": "127.15722416491732",
    "region": "전북특별자치도"
  },
  {
    "name": "전북여자고등학교(운동장)",
    "address": "전북특별자치도 전주시 덕진구 고랑동 721-1",
    "lat": "35.87351538233767",
    "lng": "127.08469279893161",
    "region": "전북특별자치도"
  },
  {
    "name": "전주영생고등학교(운동장)",
    "address": "전북특별자치도 전주시 완산구 효자동3가 1191-1",
    "lat": "35.816416822407795",
    "lng": "127.09363872437048",
    "region": "전북특별자치도"
  },
  {
    "name": "(구)백련초등학교 운동장",
    "address": "전북특별자치도 부안군 하서면 백련리 555-3",
    "lat": "35.70872961797732",
    "lng": "126.60108625888817",
    "region": "전북특별자치도"
  },
  {
    "name": "창북초등학교 운동장",
    "address": "전북특별자치도 부안군 계화면 창북리 857",
    "lat": "35.76255009046084",
    "lng": "126.69436812400812",
    "region": "전북특별자치도"
  },
  {
    "name": "정읍서초등학교 운동장",
    "address": "전북특별자치도 정읍시 연지동 49-18",
    "lat": "35.56974915130413",
    "lng": "126.84727973790721",
    "region": "전북특별자치도"
  },
  {
    "name": "해리시장 공영주차장",
    "address": "전북특별자치도 고창군 해리면 하련리 189-5",
    "lat": "35.4594330",
    "lng": "126.5414070",
    "region": "전북특별자치도"
  },
  {
    "name": "전북유니텍고 운동장",
    "address": "전북특별자치도 장수군 장계면 장계리 272",
    "lat": "35.73356732185805",
    "lng": "127.58223831653054",
    "region": "전북특별자치도"
  },
  {
    "name": "구암근린공원",
    "address": "전북특별자치도 군산시 구암동 613",
    "lat": "35.98807926067105",
    "lng": "126.74303539651328",
    "region": "전북특별자치도"
  },
  {
    "name": "정남초등학교 운동장",
    "address": "전북특별자치도 정읍시 정우면 대산리 68",
    "lat": "35.62228978878161",
    "lng": "126.86509305176438",
    "region": "전북특별자치도"
  },
  {
    "name": "정우중학교 운동장",
    "address": "전북특별자치도 정읍시 정우면 수금리 8-1",
    "lat": "35.64656910553783",
    "lng": "126.88339223108376",
    "region": "전북특별자치도"
  },
  {
    "name": "백룡초등학교 운동장",
    "address": "전북특별자치도 부안군 백산면 용계리 74-2",
    "lat": "35.718233578230645",
    "lng": "126.81072771549223",
    "region": "전북특별자치도"
  },
  {
    "name": "부안여자고등학교",
    "address": "전북특별자치도 부안군 부안읍 봉덕리 658-8",
    "lat": "35.71492779210139",
    "lng": "126.73535227775025",
    "region": "전북특별자치도"
  },
  {
    "name": "수성동 근린공원",
    "address": "전북특별자치도 정읍시 수성동 931",
    "lat": "35.58171139458452",
    "lng": "126.8535679578781",
    "region": "전북특별자치도"
  },
  {
    "name": "정읍남초등학교 운동장",
    "address": "전북특별자치도 정읍시 시기동 506-19",
    "lat": "35.560973538062285",
    "lng": "126.84959894185158",
    "region": "전북특별자치도"
  },
  {
    "name": "정읍시제2청사 공터주차장",
    "address": "전북특별자치도 정읍시 정우면 우산리 661",
    "lat": "35.62181604426909",
    "lng": "126.89643152528393",
    "region": "전북특별자치도"
  },
  {
    "name": "남원종합스포츠타운",
    "address": "전북특별자치도 남원시 월락동 248",
    "lat": "35.430139579315174",
    "lng": "127.40473508834839",
    "region": "전북특별자치도"
  },
  {
    "name": "태인고등학교 운동장",
    "address": "전북특별자치도 정읍시 태인면 태성리 627-5",
    "lat": "35.65273816581765",
    "lng": "126.93820272213459",
    "region": "전북특별자치도"
  },
  {
    "name": "신태인 축구장",
    "address": "전북특별자치도 정읍시 정우면 대사리 1714",
    "lat": "35.67907363884862",
    "lng": "126.88815236091612",
    "region": "전북특별자치도"
  },
  {
    "name": "정우초등학교 운동장",
    "address": "전북특별자치도 정읍시 정우면 수금리 116",
    "lat": "35.6518987829345",
    "lng": "126.87972176503068",
    "region": "전북특별자치도"
  },
  {
    "name": "정읍고등학교 운동장",
    "address": "전북특별자치도 정읍시 시기동 37-1",
    "lat": "35.55519925984407",
    "lng": "126.86630290285798",
    "region": "전북특별자치도"
  },
  {
    "name": "능교초등학교 운동장",
    "address": "전북특별자치도 정읍시 산내면 능교리 507-1",
    "lat": "35.56824682935208",
    "lng": "127.03147549049918",
    "region": "전북특별자치도"
  },
  {
    "name": "푸른꿈고등학교 운동장",
    "address": "전북특별자치도 무주군 안성면 진도리 865",
    "lat": "35.86422181898383",
    "lng": "127.61967658996583",
    "region": "전북특별자치도"
  },
  {
    "name": "적상중학교 운동장",
    "address": "전북특별자치도 무주군 적상면 사산리 1210-1",
    "lat": "35.93507892352123",
    "lng": "127.65709162391192",
    "region": "전북특별자치도"
  },
  {
    "name": "수곡초등학교 운동장",
    "address": "전북특별자치도 정읍시 칠보면 반곡리 1050",
    "lat": "35.568418875901976",
    "lng": "126.95927879935523",
    "region": "전북특별자치도"
  },
  {
    "name": "태인초등학교 운동장",
    "address": "전북특별자치도 정읍시 태인면 태성리 429",
    "lat": "35.654304512905746",
    "lng": "126.94691987564532",
    "region": "전북특별자치도"
  },
  {
    "name": "한솔초등학교 운동장",
    "address": "전북특별자치도 정읍시 상동 164-1",
    "lat": "35.56131900750592",
    "lng": "126.87254049339259",
    "region": "전북특별자치도"
  },
  {
    "name": "봉동읍행정복지센터 주차장",
    "address": "전북특별자치도 완주군 봉동읍 장기리 412",
    "lat": "35.941512214167545",
    "lng": "127.16619835718991",
    "region": "전북특별자치도"
  },
  {
    "name": "고산면행정복지센터 공원",
    "address": "전북특별자치도 완주군 고산면 읍내리 890",
    "lat": "35.97514099268387",
    "lng": "127.20383763313292",
    "region": "전북특별자치도"
  },
  {
    "name": "근로자종합복지관 주차장",
    "address": "전북특별자치도 완주군 봉동읍 둔산리 881",
    "lat": "35.96312422977094",
    "lng": "127.12726384606576",
    "region": "전북특별자치도"
  },
  {
    "name": "경천생활체육공원 운동장",
    "address": "전북특별자치도 완주군 경천면 경천리 680-3",
    "lat": "36.02061574186386",
    "lng": "127.25316882133484",
    "region": "전북특별자치도"
  },
  {
    "name": "신태인고등학교 운동장",
    "address": "전북특별자치도 정읍시 신태인읍 신태인리 9",
    "lat": "35.69239677792921",
    "lng": "126.89275392519403",
    "region": "전북특별자치도"
  },
  {
    "name": "전주중학교(운동장)",
    "address": "전북특별자치도 전주시 덕진구 송천동1가 395-26",
    "lat": "35.85779554958084",
    "lng": "127.12310415638633",
    "region": "전북특별자치도"
  },
  {
    "name": "성송주차장",
    "address": "전북특별자치도 고창군 성송면 계당리 545-7",
    "lat": "35.36479350580507",
    "lng": "126.64671022957911",
    "region": "전북특별자치도"
  },
  {
    "name": "칠암광장",
    "address": "전북특별자치도 고창군 공음면 칠암리 301",
    "lat": "35.3731430",
    "lng": "126.5203210",
    "region": "전북특별자치도"
  },
  {
    "name": "두암마을광장",
    "address": "전북특별자치도 고창군 공음면 두암리 713-1",
    "lat": "35.4145700",
    "lng": "126.5036330",
    "region": "전북특별자치도"
  },
  {
    "name": "운주면행정복지센터 주차장",
    "address": "전북특별자치도 완주군 운주면 장선리 573-7",
    "lat": "36.092524258831766",
    "lng": "127.27759695678765",
    "region": "전북특별자치도"
  },
  {
    "name": "비봉생활체육공원 운동장",
    "address": "전북특별자치도 완주군 비봉면 소농리 430",
    "lat": "35.99300396772022",
    "lng": "127.13876613358583",
    "region": "전북특별자치도"
  },
  {
    "name": "소성초등학교 운동장",
    "address": "전북특별자치도 정읍시 소성면 보화리 178-6",
    "lat": "35.555072852165225",
    "lng": "126.7779812468638",
    "region": "전북특별자치도"
  },
  {
    "name": "줄포중학교 운동장",
    "address": "전북특별자치도 부안군 줄포면 줄포리 272",
    "lat": "35.59290557978794",
    "lng": "126.67569458484739",
    "region": "전북특별자치도"
  },
  {
    "name": "송산마을광장",
    "address": "전북특별자치도 고창군 공음면 건동리 1514",
    "lat": "35.37232262327265",
    "lng": "126.56424611807222",
    "region": "전북특별자치도"
  },
  {
    "name": "낙산마을광장",
    "address": "전북특별자치도 고창군 성내면 산림리 298-5",
    "lat": "35.52473904048034",
    "lng": "126.7592588067069",
    "region": "전북특별자치도"
  },
  {
    "name": "소양면행정복지센터 주차장",
    "address": "전북특별자치도 완주군 소양면 황운리 883-6",
    "lat": "35.85391354545755",
    "lng": "127.22546964883806",
    "region": "전북특별자치도"
  },
  {
    "name": "부안초등학교 운동장",
    "address": "전북특별자치도 부안군 부안읍 동중리 173-3",
    "lat": "35.72833954805151",
    "lng": "126.73365980386728",
    "region": "전북특별자치도"
  },
  {
    "name": "(구)하서초등학교 운동장",
    "address": "전북특별자치도 부안군 하서면 청호리 598-1",
    "lat": "35.71994957123808",
    "lng": "126.649677157402",
    "region": "전북특별자치도"
  },
  {
    "name": "무주중앙초등학교 운동장",
    "address": "전북특별자치도 무주군 무주읍 읍내리 416",
    "lat": "36.012421716113224",
    "lng": "127.66426840559326",
    "region": "전북특별자치도"
  },
  {
    "name": "부당초등학교 운동장",
    "address": "전북특별자치도 무주군 부남면 가당리 448-2",
    "lat": "36.01519089696222",
    "lng": "127.58005463430857",
    "region": "전북특별자치도"
  },
  {
    "name": "화산면행정복지센터 주차장",
    "address": "전북특별자치도 완주군 화산면 화평리 585-1",
    "lat": "36.035502727651675",
    "lng": "127.20336983312137",
    "region": "전북특별자치도"
  },
  {
    "name": "삼남중학교 운동장",
    "address": "전북특별자치도 부안군 부안읍 선은리 135",
    "lat": "35.729382517415104",
    "lng": "126.74170643091202",
    "region": "전북특별자치도"
  },
  {
    "name": "영전초등학교 운동장",
    "address": "전북특별자치도 부안군 보안면 영전리 515",
    "lat": "35.61173279714446",
    "lng": "126.66902929544243",
    "region": "전북특별자치도"
  },
  {
    "name": "공음주차장",
    "address": "전북특별자치도 고창군 공음면 칠암리 604-23",
    "lat": "35.37851277927309",
    "lng": "126.51253805719385",
    "region": "전북특별자치도"
  },
  {
    "name": "전북푸른학교 주차장",
    "address": "전북특별자치도 완주군 고산면 삼기리 18-1",
    "lat": "35.99019836940552",
    "lng": "127.23881042644392",
    "region": "전북특별자치도"
  },
  {
    "name": "완주군 국민체육센터 주차장",
    "address": "전북특별자치도 완주군 용진읍 신지리 287",
    "lat": "35.937984362091186",
    "lng": "127.17435995953896",
    "region": "전북특별자치도"
  },
  {
    "name": "국민체육센터 축구장",
    "address": "전북특별자치도 정읍시 상평동 산19-6",
    "lat": "35.56180693535444",
    "lng": "126.83889889386133",
    "region": "전북특별자치도"
  },
  {
    "name": "운주생활체육공원 운동장",
    "address": "전북특별자치도 완주군 운주면 장선리 199",
    "lat": "36.087059480650844",
    "lng": "127.28005647282362",
    "region": "전북특별자치도"
  },
  {
    "name": "우덕초등학교 운동장",
    "address": "전북특별자치도 부안군 상서면 가오리 546-3",
    "lat": "35.68326108506342",
    "lng": "126.67652606964106",
    "region": "전북특별자치도"
  },
  {
    "name": "줄포초등학교 운동장",
    "address": "전북특별자치도 부안군 줄포면 줄포리 200",
    "lat": "35.59120866639297",
    "lng": "126.68107509612538",
    "region": "전북특별자치도"
  },
  {
    "name": "줄포만 노을빛 정원",
    "address": "전북특별자치도 부안군 줄포면 우포리 723",
    "lat": "35.58215639985611",
    "lng": "126.67425155639944",
    "region": "전북특별자치도"
  },
  {
    "name": "흥덕면장미주택 앞 주차장",
    "address": "전북특별자치도 고창군 흥덕면 흥덕리 272-2",
    "lat": "35.52003570437836",
    "lng": "126.70224633445278",
    "region": "전북특별자치도"
  },
  {
    "name": "신영장 뒤 주차장",
    "address": "전북특별자치도 고창군 고창읍 읍내리 647",
    "lat": "35.43542837732061",
    "lng": "126.69778257608208",
    "region": "전북특별자치도"
  },
  {
    "name": "익산종합운동장 야구장(보조구장)",
    "address": "전북특별자치도 익산시 부송동 180",
    "lat": "35.96678021724294",
    "lng": "127.0074310273685",
    "region": "전북특별자치도"
  },
  {
    "name": "배산체육공원 공터",
    "address": "전북특별자치도 익산시 현영동 169",
    "lat": "35.96101225724602",
    "lng": "126.94054650964743",
    "region": "전북특별자치도"
  },
  {
    "name": "중앙체육공원 공터",
    "address": "전북특별자치도 익산시 어양동 52",
    "lat": "35.94925572259241",
    "lng": "126.98690080489374",
    "region": "전북특별자치도"
  },
  {
    "name": "금마 축구공원 공터",
    "address": "전북특별자치도 익산시 금마면 기양리 396",
    "lat": "36.00808315471913",
    "lng": "127.01475220899471",
    "region": "전북특별자치도"
  },
  {
    "name": "아사달공원 축구장",
    "address": "전북특별자치도 익산시 함열읍 와리 154-7",
    "lat": "36.07296221260437",
    "lng": "126.96150956525268",
    "region": "전북특별자치도"
  },
  {
    "name": "영원초등학교",
    "address": "전북특별자치도 정읍시 영원면 은선리 713-2",
    "lat": "35.65531084129533",
    "lng": "126.78410142660137",
    "region": "전북특별자치도"
  },
  {
    "name": "서영여자고등학교 운동장",
    "address": "전북특별자치도 정읍시 수성동 310",
    "lat": "35.580249840256",
    "lng": "126.8523073196411",
    "region": "전북특별자치도"
  },
  {
    "name": "옥산전원마을",
    "address": "전북특별자치도 군산시 옥산면 남내리 790-1",
    "lat": "35.93676566989783",
    "lng": "126.76725715398445",
    "region": "전북특별자치도"
  },
  {
    "name": "용북중학교",
    "address": "전북특별자치도 남원시 사매면 오신리 387-2",
    "lat": "35.49203607698051",
    "lng": "127.36440539360046",
    "region": "전북특별자치도"
  },
  {
    "name": "군산동산중학교",
    "address": "전북특별자치도 군산시 지곡동 616",
    "lat": "35.9511583293387",
    "lng": "126.70614570379253",
    "region": "전북특별자치도"
  },
  {
    "name": "성산초등학교 운동장",
    "address": "전북특별자치도 군산시 성산면 고봉리 328",
    "lat": "35.990639645651136",
    "lng": "126.78565541880941",
    "region": "전북특별자치도"
  },
  {
    "name": "군산금광초등학교 운동장",
    "address": "전북특별자치도 군산시 금광동 168",
    "lat": "35.98202161045195",
    "lng": "126.70719444751735",
    "region": "전북특별자치도"
  },
  {
    "name": "정일초등학교 운동장",
    "address": "전북특별자치도 정읍시 용계동 332",
    "lat": "35.589934867146",
    "lng": "126.82074308395386",
    "region": "전북특별자치도"
  },
  {
    "name": "오산 영만초등학교 운동장",
    "address": "전북특별자치도 익산시 오산면 장신리 1129",
    "lat": "35.94739538406395",
    "lng": "126.9314056634903",
    "region": "전북특별자치도"
  },
  {
    "name": "정일중학교 운동장",
    "address": "전북특별자치도 정읍시 공평동 348",
    "lat": "35.581602324286955",
    "lng": "126.83035612106322",
    "region": "전북특별자치도"
  },
  {
    "name": "배영고등학교 운동장",
    "address": "전북특별자치도 정읍시 흑암동 520",
    "lat": "35.60121513756891",
    "lng": "126.81331872940059",
    "region": "전북특별자치도"
  },
  {
    "name": "정읍북초등학교 운동장",
    "address": "전북특별자치도 정읍시 농소동 14-1",
    "lat": "35.5793074507843",
    "lng": "126.8495553731918",
    "region": "전북특별자치도"
  },
  {
    "name": "어린이 24공원",
    "address": "전북특별자치도 군산시 나운동 791-5",
    "lat": "35.96624908155881",
    "lng": "126.69400485793194",
    "region": "전북특별자치도"
  },
  {
    "name": "전주서문초등학교",
    "address": "전북특별자치도 전주시 완산구 서신동 820",
    "lat": "35.829634477978644",
    "lng": "127.11237853091657",
    "region": "전북특별자치도"
  },
  {
    "name": "전주여울초등학교",
    "address": "전북특별자치도 전주시 완산구 서신동 923",
    "lat": "35.83727529224364",
    "lng": "127.11157354198807",
    "region": "전북특별자치도"
  },
  {
    "name": "대야면 행정복지센터",
    "address": "전북특별자치도 군산시 대야면 지경리 731-6",
    "lat": "35.946487842351736",
    "lng": "126.81134069930089",
    "region": "전북특별자치도"
  },
  {
    "name": "전주하가초등학교(운동장)",
    "address": "전북특별자치도 전주시 덕진구 덕진동2가 685",
    "lat": "35.84358738106876",
    "lng": "127.10720140312638",
    "region": "전북특별자치도"
  },
  {
    "name": "전주북초등학교(운동장)",
    "address": "전북특별자치도 전주시 덕진구 호성동1가 736",
    "lat": "35.85671073544044",
    "lng": "127.15133792529089",
    "region": "전북특별자치도"
  },
  {
    "name": "수락마을 광장",
    "address": "전북특별자치도 고창군 해리면 평지리 산1",
    "lat": "35.458788",
    "lng": "126.550433",
    "region": "전북특별자치도"
  },
  {
    "name": "소양서초등학교 운동장",
    "address": "전북특별자치도 완주군 소양면 명덕리 1002",
    "lat": "35.8590440070302",
    "lng": "127.21045432389666",
    "region": "전북특별자치도"
  },
  {
    "name": "벽량초등학교",
    "address": "전북특별자치도 김제시 부량면 대평리 66",
    "lat": "35.73053430948261",
    "lng": "126.84769077212071",
    "region": "전북특별자치도"
  },
  {
    "name": "전라북도립여성중고등학교(운동장)",
    "address": "전북특별자치도 전주시 덕진구 송천동1가 283-1",
    "lat": "35.85364776075307",
    "lng": "127.12049124783448",
    "region": "전북특별자치도"
  },
  {
    "name": "전주기전중. 여자고등학교(운동장)",
    "address": "전북특별자치도 전주시 완산구 효자동3가 393",
    "lat": "35.82701866069537",
    "lng": "127.1001159330344",
    "region": "전북특별자치도"
  },
  {
    "name": "월곡근린공원",
    "address": "전북특별자치도 고창군 고창읍 월곡리 587",
    "lat": "35.4380889069709",
    "lng": "126.71182061758958",
    "region": "전북특별자치도"
  },
  {
    "name": "월곡공원",
    "address": "전북특별자치도 고창군 고창읍 교촌리 459",
    "lat": "35.43638119821828",
    "lng": "126.70982301235237",
    "region": "전북특별자치도"
  },
  {
    "name": "상하초등학교",
    "address": "전북특별자치도 고창군 상하면 장산리 78",
    "lat": "35.44398817940673",
    "lng": "126.48761361389633",
    "region": "전북특별자치도"
  },
  {
    "name": "완주중학교 운동장",
    "address": "전북특별자치도 완주군 봉동읍 낙평리 889",
    "lat": "35.934548116191145",
    "lng": "127.15913009028536",
    "region": "전북특별자치도"
  },
  {
    "name": "고산중학교 운동장",
    "address": "전북특별자치도 완주군 고산면 읍내리 744-1",
    "lat": "35.97803498236348",
    "lng": "127.20885525468275",
    "region": "전북특별자치도"
  },
  {
    "name": "칠보중학교 운동장",
    "address": "전북특별자치도 정읍시 칠보면 와우리 711-1",
    "lat": "35.61254638422477",
    "lng": "126.99395766826318",
    "region": "전북특별자치도"
  },
  {
    "name": "구이중학교 운동장",
    "address": "전북특별자치도 완주군 구이면 두현리 554-1",
    "lat": "35.734412554321224",
    "lng": "127.11920353601464",
    "region": "전북특별자치도"
  },
  {
    "name": "전주예술중학교 운동장",
    "address": "전북특별자치도 완주군 구이면 항가리 499-3",
    "lat": "35.72041897635335",
    "lng": "127.109430247314",
    "region": "전북특별자치도"
  },
  {
    "name": "전북체육고등학교 운동장",
    "address": "전북특별자치도 완주군 소양면 해월리 377-19",
    "lat": "35.86540375750887",
    "lng": "127.24941971517173",
    "region": "전북특별자치도"
  },
  {
    "name": "구현마을 광장",
    "address": "전북특별자치도 고창군 부안면 상등리 278-7",
    "lat": "35.504160",
    "lng": "126.669520",
    "region": "전북특별자치도"
  },
  {
    "name": "진마마을 광장",
    "address": "전북특별자치도 고창군 부안면 선운리 514",
    "lat": "35.536500",
    "lng": "126.608262",
    "region": "전북특별자치도"
  },
  {
    "name": "용반마을 광장",
    "address": "전북특별자치도 고창군 해리면 왕촌리 1272-2",
    "lat": "35.472428",
    "lng": "126.499292",
    "region": "전북특별자치도"
  },
  {
    "name": "흥덕면사무소 광장",
    "address": "전북특별자치도 고창군 흥덕면 동사리 437-57",
    "lat": "35.518026",
    "lng": "126.703920",
    "region": "전북특별자치도"
  },
  {
    "name": "전북하이텍고등학교 운동장",
    "address": "전북특별자치도 완주군 삼례읍 후정리 69-3",
    "lat": "35.90641241762846",
    "lng": "127.06860300298958",
    "region": "전북특별자치도"
  },
  {
    "name": "변산서중학교 운동장",
    "address": "전북특별자치도 부안군 변산면 운산리 525-4",
    "lat": "35.66319769280164",
    "lng": "126.52103304862959",
    "region": "전북특별자치도"
  },
  {
    "name": "고산초등학교",
    "address": "전북특별자치도 완주군 고산면 읍내리 132",
    "lat": "35.974951545581305",
    "lng": "127.2140350758636",
    "region": "전북특별자치도"
  },
  {
    "name": "봉서중학교 운동장",
    "address": "전북특별자치도 완주군 봉동읍 둔산리 857-2",
    "lat": "35.96552184326908",
    "lng": "127.12532111162844",
    "region": "전북특별자치도"
  },
  {
    "name": "한국전통문화고등학교(운동장)",
    "address": "전북특별자치도 전주시 완산구 중인동 676-1",
    "lat": "35.77218165971073",
    "lng": "127.09782609278479",
    "region": "전북특별자치도"
  },
  {
    "name": "전주우전중학교(운동장)",
    "address": "전북특별자치도 전주시 완산구 효자동2가 188",
    "lat": "35.805285342516356",
    "lng": "127.10599456980309",
    "region": "전북특별자치도"
  },
  {
    "name": "남부공원",
    "address": "전북특별자치도 고창군 고창읍 덕산리 3-3",
    "lat": "35.42763906600804",
    "lng": "126.69872087672024",
    "region": "전북특별자치도"
  },
  {
    "name": "삼우초등학교 운동장",
    "address": "전북특별자치도 완주군 고산면 어우리 168-7",
    "lat": "35.967106456572786",
    "lng": "127.17999463563213",
    "region": "전북특별자치도"
  },
  {
    "name": "산외중학교 운동장",
    "address": "전북특별자치도 정읍시 산외면 정량리 1175-1",
    "lat": "35.61940264976699",
    "lng": "127.04477746980217",
    "region": "전북특별자치도"
  },
  {
    "name": "보안중학교 운동장",
    "address": "전북특별자치도 부안군 보안면 영전리 398-1",
    "lat": "35.60966775515778",
    "lng": "126.67315185069884",
    "region": "전북특별자치도"
  }
]