[
  {
    "name": "반곡고등학교 운동장",
    "address": "세종특별자치시 세종시 반곡동 1033",
    "lat": 36.49646283119938,
    "lng": 127.31730580329895,
    "region": "세종특별자치시"
  },
  {
    "name": "나성중학교 운동장",
    "address": "세종특별자치시 세종시 나성동 847",
    "lat": 36.49074434954869,
    "lng": 127.26340413093564,
    "region": "세종특별자치시"
  },
  {
    "name": "집현초등학교 운동장",
    "address": "세종특별자치시 세종시 집현동 883-106",
    "lat": 36.48875830748381,
    "lng": 127.32006579637526,
    "region": "세종특별자치시"
  },
  {
    "name": "집현중학교 운동장",
    "address": "세종특별자치시 세종시 집현동 883-58",
    "lat": 36.49096429895802,
    "lng": 127.32252538204192,
    "region": "세종특별자치시"
  },
  {
    "name": "반곡초등학교 운동장",
    "address": "세종특별자치시 세종시 반곡동 853",
    "lat": 36.49964102041671,
    "lng": 127.31060028076173,
    "region": "세종특별자치시"
  },
  {
    "name": "연양초등학교 운동장",
    "address": "세종특별자치시 세종시 어진동 515",
    "lat": 36.50294844109953,
    "lng": 127.25672006607059,
    "region": "세종특별자치시"
  },
  {
    "name": "금호중학교 운동장",
    "address": "세종특별자치시 세종시 대평동 711",
    "lat": 36.470044747079534,
    "lng": 127.28057026863101,
    "region": "세종특별자치시"
  },
  {
    "name": "전의중학교 운동장",
    "address": "세종특별자치시 세종시 전의면 읍내리 98-1",
    "lat": 36.68111120920677,
    "lng": 127.19723403453828,
    "region": "세종특별자치시"
  },
  {
    "name": "조치원명동초등학교 운동장",
    "address": "세종특별자치시 세종시 조치원읍 명리 19",
    "lat": 36.60074015972884,
    "lng": 127.30474233627316,
    "region": "세종특별자치시"
  },
  {
    "name": "금남초등학교 운동장",
    "address": "세종특별자치시 세종시 금남면 신촌리 134-1",
    "lat": 36.472482762471884,
    "lng": 127.28713495260196,
    "region": "세종특별자치시"
  },
  {
    "name": "세종중학교 운동장",
    "address": "세종특별자치시 세종시 조치원읍 교리 1-1",
    "lat": 36.60665290483581,
    "lng": 127.29763448238371,
    "region": "세종특별자치시"
  },
  {
    "name": "의랑초등학교 운동장",
    "address": "세종특별자치시 세종시 장군면 태산리 105",
    "lat": 36.55007029266166,
    "lng": 127.19088313855632,
    "region": "세종특별자치시"
  },
  {
    "name": "조치원신봉초등학교 운동장",
    "address": "세종특별자치시 세종시 조치원읍 침산리 59",
    "lat": 36.60339298416371,
    "lng": 127.28811800479887,
    "region": "세종특별자치시"
  },
  {
    "name": "수왕초등학교 운동장",
    "address": "세종특별자치시 세종시 연기면 눌왕리 324",
    "lat": 36.544005607125655,
    "lng": 127.25239634513856,
    "region": "세종특별자치시"
  },
  {
    "name": "한솔중학교 운동장",
    "address": "세종특별자치시 세종시 한솔동 975",
    "lat": 36.47545849234063,
    "lng": 127.25512683391572,
    "region": "세종특별자치시"
  },
  {
    "name": "연서초등학교 운동장",
    "address": "세종특별자치시 세종시 연서면 신대리 33-1",
    "lat": 36.58247497990168,
    "lng": 127.25407685216805,
    "region": "세종특별자치시"
  },
  {
    "name": "연봉초등학교 운동장",
    "address": "세종특별자치시 세종시 연서면 봉암리 210-2",
    "lat": 36.56386102158218,
    "lng": 127.28232310201626,
    "region": "세종특별자치시"
  },
  {
    "name": "감성초등학교 운동장",
    "address": "세종특별자치시 세종시 금남면 감성리 55-1",
    "lat": 36.443301504386845,
    "lng": 127.28880222077606,
    "region": "세종특별자치시"
  },
  {
    "name": "도담고등학교 운동장",
    "address": "세종특별자치시 세종시 도담동 642",
    "lat": 36.513714906258,
    "lng": 127.26354360580443,
    "region": "세종특별자치시"
  },
  {
    "name": "전동초등학교 운동장",
    "address": "세종특별자치시 세종시 전동면 노장리 595",
    "lat": 36.65612304552167,
    "lng": 127.26564642328174,
    "region": "세종특별자치시"
  },
  {
    "name": "부강초등학교 운동장",
    "address": "세종특별자치시 세종시 부강면 부강리 488-1",
    "lat": 36.527046761764524,
    "lng": 127.36678034614741,
    "region": "세종특별자치시"
  },
  {
    "name": "새롬중학교 운동장",
    "address": "세종특별자치시 세종시 새롬동 602",
    "lat": 36.48099263145853,
    "lng": 127.24951028823853,
    "region": "세종특별자치시"
  },
  {
    "name": "미르초등학교 운동장",
    "address": "세종특별자치시 세종시 한솔동 981",
    "lat": 36.471908325975946,
    "lng": 127.25409150123599,
    "region": "세종특별자치시"
  },
  {
    "name": "연서중학교 운동장",
    "address": "세종특별자치시 세종시 연서면 신대리 88",
    "lat": 36.58046866540265,
    "lng": 127.25767113601673,
    "region": "세종특별자치시"
  },
  {
    "name": "어진중학교 운동장",
    "address": "세종특별자치시 세종시 어진동 678",
    "lat": 36.49766670608732,
    "lng": 127.25478842859957,
    "region": "세종특별자치시"
  },
  {
    "name": "소정초등학교 운동장",
    "address": "세종특별자치시 세종시 소정면 소정리 40",
    "lat": 36.720788600675526,
    "lng": 127.15906289481461,
    "region": "세종특별자치시"
  },
  {
    "name": "연남초등학교 운동장",
    "address": "세종특별자치시 세종시 연기면 연기리 397",
    "lat": 36.54342930059266,
    "lng": 127.27800158457957,
    "region": "세종특별자치시"
  },
  {
    "name": "참샘초등학교 운동장",
    "address": "세종특별자치시 세종시 한솔동 952",
    "lat": 36.47895279895838,
    "lng": 127.25895805586721,
    "region": "세종특별자치시"
  },
  {
    "name": "장기초등학교 운동장",
    "address": "세종특별자치시 세종시 장군면 도계리 164-1",
    "lat": 36.49648256303185,
    "lng": 127.20683621972805,
    "region": "세종특별자치시"
  },
  {
    "name": "연세초등학교 운동장",
    "address": "세종특별자치시 세종시 어진동 606",
    "lat": 36.50535453320616,
    "lng": 127.27124154567717,
    "region": "세종특별자치시"
  },
  {
    "name": "조치원대동초등학교 운동장",
    "address": "세종특별자치시 세종시 조치원읍 신흥리 49-3",
    "lat": 36.59604581504514,
    "lng": 127.29378283023834,
    "region": "세종특별자치시"
  },
  {
    "name": "전의초등학교 운동장",
    "address": "세종특별자치시 세종시 전의면 읍내리 192-1",
    "lat": 36.6803596248965,
    "lng": 127.20295731022635,
    "region": "세종특별자치시"
  },
  {
    "name": "장기중학교 운동장",
    "address": "세종특별자치시 세종시 장군면 하봉리 37-1",
    "lat": 36.494423029099885,
    "lng": 127.20113396644594,
    "region": "세종특별자치시"
  },
  {
    "name": "아름중학교 운동장",
    "address": "세종특별자치시 세종시 아름동 1321",
    "lat": 36.51413311677826,
    "lng": 127.24468767642976,
    "region": "세종특별자치시"
  },
  {
    "name": "연동초등학교 운동장",
    "address": "세종특별자치시 세종시 연동면 내판리 2",
    "lat": 36.559686719298355,
    "lng": 127.32665700348015,
    "region": "세종특별자치시"
  },
  {
    "name": "부강중학교 운동장",
    "address": "세종특별자치시 세종시 부강면 부강리 500",
    "lat": 36.52691547169377,
    "lng": 127.36576795578003,
    "region": "세종특별자치시"
  },
  {
    "name": "아름초등학교 운동장",
    "address": "세종특별자치시 세종시 아름동 1275",
    "lat": 36.514181261121344,
    "lng": 127.25130155682564,
    "region": "세종특별자치시"
  },
  {
    "name": "도담중학교 운동장",
    "address": "세종특별자치시 세종시 도담동 644",
    "lat": 36.515287854709975,
    "lng": 127.26309254768242,
    "region": "세종특별자치시"
  },
  {
    "name": "세종고등학교 운동장",
    "address": "세종특별자치시 세종시 조치원읍 서창리 30-2",
    "lat": 36.610614800155254,
    "lng": 127.29959186031938,
    "region": "세종특별자치시"
  },
  {
    "name": "아름고등학교 운동장",
    "address": "세종특별자치시 세종시 아름동 1322",
    "lat": 36.51333980830189,
    "lng": 127.24468767642973,
    "region": "세종특별자치시"
  },
  {
    "name": "연동중학교 운동장",
    "address": "세종특별자치시 세종시 연동면 내판리 96-1",
    "lat": 36.553551163204816,
    "lng": 127.3307490348816,
    "region": "세종특별자치시"
  },
  {
    "name": "쌍류초등학교 운동장",
    "address": "세종특별자치시 세종시 연서면 쌍류리 365-3",
    "lat": 36.598931363492156,
    "lng": 127.21022665500641,
    "region": "세종특별자치시"
  },
  {
    "name": "조치원교동초등학교 운동장",
    "address": "세종특별자치시 세종시 조치원읍 교리 1-12",
    "lat": 36.605427614939956,
    "lng": 127.29865516283704,
    "region": "세종특별자치시"
  },
  {
    "name": "세종미래고등학교 운동장",
    "address": "세종특별자치시 세종시 부강면 문곡리 997-1",
    "lat": 36.5269672003741,
    "lng": 127.3827302455902,
    "region": "세종특별자치시"
  },
  {
    "name": "한솔고등학교 운동장",
    "address": "세종특별자치시 세종시 한솔동 972",
    "lat": 36.4778956327022,
    "lng": 127.25300252437593,
    "region": "세종특별자치시"
  },
  {
    "name": "고운중학교 운동장",
    "address": "세종특별자치시 세종시 고운동 1710",
    "lat": 36.50513,
    "lng": 127.2379,
    "region": "세종특별자치시"
  },
  {
    "name": "보람초등학교 운동장",
    "address": "세종특별자치시 세종시 보람동 772",
    "lat": 36.47939238711038,
    "lng": 127.29398667812347,
    "region": "세종특별자치시"
  },
  {
    "name": "세종과학예술영재학교 운동장",
    "address": "세종특별자치시 세종시 아름동 807",
    "lat": 36.5224925416104,
    "lng": 127.2481691837311,
    "region": "세종특별자치시"
  },
  {
    "name": "늘봄초등학교 운동장",
    "address": "세종특별자치시 세종시 도담동 688",
    "lat": 36.51353,
    "lng": 127.25481,
    "region": "세종특별자치시"
  },
  {
    "name": "나래초등학교 운동장",
    "address": "세종특별자치시 세종시 아름동 1354",
    "lat": 36.50888550081031,
    "lng": 127.24711400216668,
    "region": "세종특별자치시"
  },
  {
    "name": "두루초등학교 운동장",
    "address": "세종특별자치시 세종시 고운동 1384",
    "lat": 36.519147155585195,
    "lng": 127.23820745944975,
    "region": "세종특별자치시"
  },
  {
    "name": "으뜸초등학교 운동장",
    "address": "세종특별자치시 세종시 고운동 1413",
    "lat": 36.509377455646664,
    "lng": 127.23158776760104,
    "region": "세종특별자치시"
  },
  {
    "name": "세종대성고등학교 운동장",
    "address": "세종특별자치시 세종시 어진동 680",
    "lat": 36.496290334158545,
    "lng": 127.25603342056274,
    "region": "세종특별자치시"
  },
  {
    "name": "소담중학교 운동장",
    "address": "세종특별자치시 세종시 소담동 589",
    "lat": 36.481734512504595,
    "lng": 127.30191528797153,
    "region": "세종특별자치시"
  },
  {
    "name": "종촌고등학교 운동장",
    "address": "세종특별자치시 세종시 종촌동 678",
    "lat": 36.50424,
    "lng": 127.24565,
    "region": "세종특별자치시"
  },
  {
    "name": "세종국제고등학교 운동장",
    "address": "세종특별자치시 세종시 아름동 810",
    "lat": 36.52117983972413,
    "lng": 127.24655449390413,
    "region": "세종특별자치시"
  },
  {
    "name": "다빛초등학교 운동장",
    "address": "세종특별자치시 세종시 종촌동 687",
    "lat": 36.50007871194692,
    "lng": 127.24377349021778,
    "region": "세종특별자치시"
  },
  {
    "name": "양지중학교 운동장",
    "address": "세종특별자치시 세종시 도담동 896",
    "lat": 36.50816,
    "lng": 127.26887,
    "region": "세종특별자치시"
  },
  {
    "name": "세종도원초등학교 운동장",
    "address": "세종특별자치시 세종시 연서면 월하리 859",
    "lat": 36.58543295944818,
    "lng": 127.28688418865205,
    "region": "세종특별자치시"
  },
  {
    "name": "종촌중학교 운동장",
    "address": "세종특별자치시 세종시 종촌동 675",
    "lat": 36.5024,
    "lng": 127.24549,
    "region": "세종특별자치시"
  },
  {
    "name": "양지고등학교 운동장",
    "address": "세종특별자치시 세종시 도담동 895",
    "lat": 36.50926966302321,
    "lng": 127.26845741271974,
    "region": "세종특별자치시"
  },
  {
    "name": "고운고등학교 운동장",
    "address": "세종특별자치시 세종시 고운동 1415",
    "lat": 36.50979137792575,
    "lng": 127.23277866840364,
    "region": "세종특별자치시"
  },
  {
    "name": "종촌초등학교 운동장",
    "address": "세종특별자치시 세종시 종촌동 678",
    "lat": 36.504184797926946,
    "lng": 127.24567285418482,
    "region": "세종특별자치시"
  },
  {
    "name": "세종누리학교 운동장",
    "address": "세종특별자치시 세종시 고운동 470-5",
    "lat": 36.52554831263677,
    "lng": 127.24291353170983,
    "region": "세종특별자치시"
  },
  {
    "name": "두루고등학교 운동장",
    "address": "세종특별자치시 세종시 고운동 898",
    "lat": 36.51580162491579,
    "lng": 127.2274893522263,
    "region": "세종특별자치시"
  },
  {
    "name": "보람고등학교 운동장",
    "address": "세종특별자치시 세종시 보람동 729",
    "lat": 36.47721410382527,
    "lng": 127.28418588638307,
    "region": "세종특별자치시"
  },
  {
    "name": "고운초등학교 운동장",
    "address": "세종특별자치시 세종시 고운동 1711",
    "lat": 36.50379791226485,
    "lng": 127.23683416843413,
    "region": "세종특별자치시"
  },
  {
    "name": "가락초등학교 운동장",
    "address": "세종특별자치시 세종시 고운동 1366",
    "lat": 36.51543,
    "lng": 127.23041,
    "region": "세종특별자치시"
  },
  {
    "name": "소담초등학교 운동장",
    "address": "세종특별자치시 세종시 소담동 593",
    "lat": 36.48320962696894,
    "lng": 127.30213522911069,
    "region": "세종특별자치시"
  },
  {
    "name": "온빛초등학교 운동장",
    "address": "세종특별자치시 세종시 고운동 1398",
    "lat": 36.514529767967,
    "lng": 127.23997771739961,
    "region": "세종특별자치시"
  },
  {
    "name": "양지초등학교 운동장 ",
    "address": "세종특별자치시 세종시 도담동 583",
    "lat": 36.518276296836234,
    "lng": 127.2597938776016,
    "region": "세종특별자치시"
  },
  {
    "name": "제천뜰 근린공원",
    "address": "세종특별자치시 세종시 종촌동 676",
    "lat": 36.50367165244526,
    "lng": 127.24684772458455,
    "region": "세종특별자치시"
  },
  {
    "name": "도담 싱싱장터 주차장",
    "address": "세종특별자치시 세종시 도담동 654",
    "lat": 36.51572833203209,
    "lng": 127.25962221622467,
    "region": "세종특별자치시"
  },
  {
    "name": "어진뜰 근린공원",
    "address": "세종특별자치시 세종시 어진동 598",
    "lat": 36.49793982135928,
    "lng": 127.26247742772101,
    "region": "세종특별자치시"
  },
  {
    "name": "새움초등학교 운동장",
    "address": "세종특별자치시 세종시 다정동 928",
    "lat": 36.493616580892656,
    "lng": 127.2515219449997,
    "region": "세종특별자치시"
  },
  {
    "name": "글벗초등학교 운동장",
    "address": "세종특별자치시 세종시 소담동 537",
    "lat": 36.48714,
    "lng": 127.29786,
    "region": "세종특별자치시"
  },
  {
    "name": "새롬고등학교 운동장",
    "address": "세종특별자치시 세종시 새롬동 596",
    "lat": 36.48610801568836,
    "lng": 127.24921524524687,
    "region": "세종특별자치시"
  },
  {
    "name": "새뜸초등학교 운동장",
    "address": "세종특별자치시 세종시 새롬동 573",
    "lat": 36.485236785239394,
    "lng": 127.25386083126068,
    "region": "세종특별자치시"
  },
  {
    "name": "글벗중학교 운동장",
    "address": "세종특별자치시 세종시 소담동 533",
    "lat": 36.4879625825316,
    "lng": 127.2989594936371,
    "region": "세종특별자치시"
  },
  {
    "name": "보람중학교 운동장",
    "address": "세종특별자치시 세종시 보람동 780",
    "lat": 36.47723567128663,
    "lng": 127.29288160800935,
    "region": "세종특별자치시"
  },
  {
    "name": "소담고등학교 운동장",
    "address": "세종특별자치시 세종시 소담동 588",
    "lat": 36.48195,
    "lng": 127.30305,
    "region": "세종특별자치시"
  },
  {
    "name": "가득초등학교 운동장",
    "address": "세종특별자치시 세종시 새롬동 552",
    "lat": 36.4870568693875,
    "lng": 127.2441565990448,
    "region": "세종특별자치시"
  },
  {
    "name": "새뜸중학교 운동장",
    "address": "세종특별자치시 세종시 새롬동 572",
    "lat": 36.486405611963086,
    "lng": 127.25236952304843,
    "region": "세종특별자치시"
  },
  {
    "name": "여울초등학교 운동장",
    "address": "세종특별자치시 세종시 보람동 735",
    "lat": 36.47588,
    "lng": 127.2855,
    "region": "세종특별자치시"
  },
  {
    "name": "새롬초등학교 운동장",
    "address": "세종특별자치시 세종시 새롬동 595",
    "lat": 36.485055637083995,
    "lng": 127.24888801574706,
    "region": "세종특별자치시"
  },
  {
    "name": "새움중학교 운동장",
    "address": "세종특별자치시 세종시 다정동 963",
    "lat": 36.49086510616446,
    "lng": 127.24726796150206,
    "region": "세종특별자치시"
  },
  {
    "name": "아침뜰 근린공원(2)",
    "address": "세종특별자치시 세종시 한솔동 1246",
    "lat": 36.47739621570168,
    "lng": 127.25457248643916,
    "region": "세종특별자치시"
  },
  {
    "name": "조치원 문화정원",
    "address": "세종특별자치시 세종시 조치원읍 평리 9-3",
    "lat": 36.606655373380136,
    "lng": 127.29994123914027,
    "region": "세종특별자치시"
  },
  {
    "name": "한솔초등학교 운동장",
    "address": "세종특별자치시 세종시 한솔동 973",
    "lat": 36.47682588849437,
    "lng": 127.2525733709335,
    "region": "세종특별자치시"
  },
  {
    "name": "다정중학교 운동장",
    "address": "세종특별자치시 세종시 다정동 950",
    "lat": 36.4939055231943,
    "lng": 127.24561035633087,
    "region": "세종특별자치시"
  },
  {
    "name": "한결초등학교 운동장",
    "address": "세종특별자치시 세종시 다정동 917",
    "lat": 36.49646283119939,
    "lng": 127.24537432193753,
    "region": "세종특별자치시"
  },
  {
    "name": "두레뜰 근린공원",
    "address": "세종특별자치시 세종시 대평동 673",
    "lat": 36.473494,
    "lng": 127.274187,
    "region": "세종특별자치시"
  },
  {
    "name": "도란뜰 근린공원",
    "address": "세종특별자치시 세종시 다정동 947",
    "lat": 36.49452676725166,
    "lng": 127.24741899319112,
    "region": "세종특별자치시"
  },
  {
    "name": "호수 제2주차장",
    "address": "세종특별자치시 세종시 어진동 621",
    "lat": 36.50031,
    "lng": 127.26896,
    "region": "세종특별자치시"
  },
  {
    "name": "제3호 어린이공원",
    "address": "세종특별자치시 세종시 조치원읍 남리 425",
    "lat": 36.595049289165715,
    "lng": 127.30060043696285,
    "region": "세종특별자치시"
  },
  {
    "name": "조치원중학교 운동장",
    "address": "세종특별자치시 세종시 조치원읍 신흥리 231",
    "lat": 36.595442850992654,
    "lng": 127.28671252727507,
    "region": "세종특별자치시"
  },
  {
    "name": "반곡중학교 운동장",
    "address": "세종특별자치시 세종시 반곡동 854",
    "lat": 36.49994718915165,
    "lng": 127.31193065643312,
    "region": "세종특별자치시"
  },
  {
    "name": "나성초등학교 운동장",
    "address": "세종특별자치시 세종시 나성동 849",
    "lat": 36.48997236530621,
    "lng": 127.26369917392732,
    "region": "세종특별자치시"
  },
  {
    "name": "해밀초등학교 운동장",
    "address": "세종특별자치시 세종시 해밀동 331",
    "lat": 36.5255058518401,
    "lng": 127.26825892925261,
    "region": "세종특별자치시"
  },
  {
    "name": "빛가람 수변공원",
    "address": "세종특별자치시 세종시 나성동 828",
    "lat": 36.492804600301575,
    "lng": 127.2594272846586,
    "region": "세종특별자치시"
  },
  {
    "name": "6-4생활권 체육공원",
    "address": "세종특별자치시 세종시 해밀동 산10",
    "lat": 36.52655,
    "lng": 127.269415,
    "region": "세종특별자치시"
  },
  {
    "name": "초롱꽃 어린이공원",
    "address": "세종특별자치시 세종시 한솔동 945",
    "lat": 36.480219894682605,
    "lng": 127.2598080954913,
    "region": "세종특별자치시"
  },
  {
    "name": "솔빛초등학교 운동장",
    "address": "세종특별자치시 세종시 반곡동 42-25",
    "lat": 36.495633655811346,
    "lng": 127.31231233617463,
    "region": "세종특별자치시"
  },
  {
    "name": "대평초등학교 운동장",
    "address": "세종특별자치시 세종시 대평동 712",
    "lat": 36.469716890602186,
    "lng": 127.2795242071152,
    "region": "세종특별자치시"
  },
  {
    "name": "금강수변공원",
    "address": "세종특별자치시 세종시 보람동 623-3",
    "lat": 36.48238461467564,
    "lng": 127.29164591602078,
    "region": "세종특별자치시"
  },
  {
    "name": "도담초등학교 운동장",
    "address": "세종특별자치시 세종시 도담동 854",
    "lat": 36.511775443393596,
    "lng": 127.26308897148556,
    "region": "세종특별자치시"
  },
  {
    "name": "두루중학교 운동장",
    "address": "세종특별자치시 세종시 고운동 1385",
    "lat": 36.517970200591606,
    "lng": 127.23892092704773,
    "region": "세종특별자치시"
  },
  {
    "name": "새나루뜰 근린공원",
    "address": "세종특별자치시 세종시 집현동 785-97",
    "lat": 36.4907346580019,
    "lng": 127.32421362932163,
    "region": "세종특별자치시"
  },
  {
    "name": "달님뜰 근린공원",
    "address": "세종특별자치시 세종시 다정동 927",
    "lat": 36.494518849718624,
    "lng": 127.25225237566325,
    "region": "세종특별자치시"
  },
  {
    "name": "나루초등학교 운동장",
    "address": "세종특별자치시 세종시 집현동 927-1",
    "lat": 36.49538040590907,
    "lng": 127.32326835393906,
    "region": "세종특별자치시"
  },
  {
    "name": "대롱꽃 어린이공원",
    "address": "세종특별자치시 세종시 고운동 1623",
    "lat": 36.508185498023416,
    "lng": 127.23334812492418,
    "region": "세종특별자치시"
  },
  {
    "name": "가득뜰근린공원",
    "address": "세종특별자치시 세종시 새롬동 571",
    "lat": 36.48652088469602,
    "lng": 127.25411114649579,
    "region": "세종특별자치시"
  },
  {
    "name": "새롬뜰근린공원",
    "address": "세종특별자치시 세종시 새롬동 559",
    "lat": 36.48943757841489,
    "lng": 127.25265383720398,
    "region": "세종특별자치시"
  },
  {
    "name": "다정초등학교 운동장",
    "address": "세종특별자치시 세종시 다정동 959",
    "lat": 36.49361226831283,
    "lng": 127.24461793899535,
    "region": "세종특별자치시"
  },
  {
    "name": "아침뜰 근린공원(1)",
    "address": "세종특별자치시 세종시 한솔동 963",
    "lat": 36.47927693870312,
    "lng": 127.25168366355884,
    "region": "세종특별자치시"
  },
  {
    "name": "아울뜰 근린공원",
    "address": "세종특별자치시 세종시 보람동 733",
    "lat": 36.474508,
    "lng": 127.282675,
    "region": "세종특별자치시"
  },
  {
    "name": "조치원청사 주차장",
    "address": "세종특별자치시 세종시 조치원읍 신흥리 123-2",
    "lat": 36.59307175522388,
    "lng": 127.29307083954194,
    "region": "세종특별자치시"
  },
  {
    "name": "제1호 어린이공원",
    "address": "세종특별자치시 세종시 조치원읍 교리 20-1",
    "lat": 36.6031569135994,
    "lng": 127.30008531891414,
    "region": "세종특별자치시"
  },
  {
    "name": "대평전통시장 주차장",
    "address": "세종특별자치시 세종시 금남면 용포리 135-17",
    "lat": 36.465460517921876,
    "lng": 127.28144920218746,
    "region": "세종특별자치시"
  },
  {
    "name": "나리꽃 어린이공원",
    "address": "세종특별자치시 세종시 한솔동 985",
    "lat": 36.47563558707428,
    "lng": 127.25118079127907,
    "region": "세종특별자치시"
  },
  {
    "name": "숲바람 수변공원",
    "address": "세종특별자치시 세종시 소담동 547",
    "lat": 36.486033,
    "lng": 127.295344,
    "region": "세종특별자치시"
  },
  {
    "name": "대평뜰 근린공원",
    "address": "세종특별자치시 세종시 대평동 268-6",
    "lat": 36.46913385526345,
    "lng": 127.27531126336407,
    "region": "세종특별자치시"
  }
]