[
  {
    "name": "간절곶스포츠파크",
    "address": "울산광역시 울주군 서생면 서생리 21",
    "lat": 35.372340284698794,
    "lng": 129.33716883797482,
    "region": "울산광역시"
  },
  {
    "name": "삼동면민운동장",
    "address": "울산광역시 울주군 삼동면 보은리 615",
    "lat": 35.50414329416411,
    "lng": 129.1308771569364,
    "region": "울산광역시"
  },
  {
    "name": "연암중학교 운동장",
    "address": "울산광역시 북구 연암동 1128",
    "lat": 35.58514048898448,
    "lng": 129.36033904553386,
    "region": "울산광역시"
  },
  {
    "name": "연암초등학교 운동장",
    "address": "울산광역시 북구 연암동 354",
    "lat": 35.58591290608635,
    "lng": 129.3691764004489,
    "region": "울산광역시"
  },
  {
    "name": "삼산초등학교운동장",
    "address": "울산광역시 남구 삼산동 173",
    "lat": 35.54435526959635,
    "lng": 129.34944819541343,
    "region": "울산광역시"
  },
  {
    "name": "대현중학교운동장",
    "address": "울산광역시 남구 달동 1330-2",
    "lat": 35.54233217000608,
    "lng": 129.33357105210894,
    "region": "울산광역시"
  },
  {
    "name": "강남중학교운동장",
    "address": "울산광역시 남구 삼산동 1535-1",
    "lat": 35.545572142471904,
    "lng": 129.34113472103743,
    "region": "울산광역시"
  },
  {
    "name": "울산공업고등학교운동장",
    "address": "울산광역시 남구 신정동 167-8",
    "lat": 35.54101817960673,
    "lng": 129.3173162813924,
    "region": "울산광역시"
  },
  {
    "name": "화암중학교 운동장",
    "address": "울산광역시 동구 방어동 1109",
    "lat": 35.48846382470458,
    "lng": 129.41269437099908,
    "region": "울산광역시"
  },
  {
    "name": "효문운동장",
    "address": "울산광역시 북구 연암동 261-44",
    "lat": 35.5874251,
    "lng": 129.373099,
    "region": "울산광역시"
  },
  {
    "name": "상방공원",
    "address": "울산광역시 북구 연암동 378",
    "lat": 35.584392738128976,
    "lng": 129.3678096961584,
    "region": "울산광역시"
  },
  {
    "name": "다운고등학교운동장",
    "address": "울산광역시 중구 다운동 641",
    "lat": 35.56632927857643,
    "lng": 129.26992797169927,
    "region": "울산광역시"
  },
  {
    "name": "강남초등학교운동장",
    "address": "울산광역시 남구 달동 633-9",
    "lat": 35.537643467819294,
    "lng": 129.31865707568417,
    "region": "울산광역시"
  },
  {
    "name": "옥현초등학교운동장",
    "address": "울산광역시 남구 무거동 1218",
    "lat": 35.55029865092083,
    "lng": 129.27815393314762,
    "region": "울산광역시"
  },
  {
    "name": "용연초등학교운동장",
    "address": "울산광역시 남구 야음동 789-11",
    "lat": 35.52513627081865,
    "lng": 129.325150246846,
    "region": "울산광역시"
  },
  {
    "name": "야음중학교운동장",
    "address": "울산광역시 남구 야음동 789-11",
    "lat": 35.52599359845792,
    "lng": 129.32521215583714,
    "region": "울산광역시"
  },
  {
    "name": "학성고등학교운동장",
    "address": "울산광역시 남구 신정동 1674",
    "lat": 35.530593645366324,
    "lng": 129.30063228301333,
    "region": "울산광역시"
  },
  {
    "name": "울산대공원",
    "address": "울산광역시 남구 옥동 146-1",
    "lat": 35.5314684473392,
    "lng": 129.29329056082278,
    "region": "울산광역시"
  },
  {
    "name": "양정생활체육공원",
    "address": "울산광역시 북구 양정동 503-1",
    "lat": 35.5489066,
    "lng": 129.3861303,
    "region": "울산광역시"
  },
  {
    "name": "화봉공원",
    "address": "울산광역시 북구 화봉동 445-1",
    "lat": 35.5886961,
    "lng": 129.3645169,
    "region": "울산광역시"
  },
  {
    "name": "진장중학교 운동장",
    "address": "울산광역시 북구 진장동 695-4",
    "lat": 35.5632233,
    "lng": 129.3583851,
    "region": "울산광역시"
  },
  {
    "name": "매산초등학교 운동장",
    "address": "울산광역시 북구 매곡동 산90-6",
    "lat": 35.6438544,
    "lng": 129.360093,
    "region": "울산광역시"
  },
  {
    "name": "중산어린이공원",
    "address": "울산광역시 북구 중산동 569",
    "lat": 35.66164568112541,
    "lng": 129.33689656623855,
    "region": "울산광역시"
  },
  {
    "name": "방어진초등학교 운동장",
    "address": "울산광역시 동구 방어동 146",
    "lat": 35.48733718656533,
    "lng": 129.4246937534964,
    "region": "울산광역시"
  },
  {
    "name": "화암초등학교 운동장",
    "address": "울산광역시 동구 방어동 1150",
    "lat": 35.48383107638685,
    "lng": 129.41594379143902,
    "region": "울산광역시"
  },
  {
    "name": "명덕초등학교 운동장",
    "address": "울산광역시 동구 일산동 433",
    "lat": 35.505494105493334,
    "lng": 129.42458050475423,
    "region": "울산광역시"
  },
  {
    "name": "미포초등학교 운동장",
    "address": "울산광역시 동구 일산동 438",
    "lat": 35.50603269509149,
    "lng": 129.42177908632573,
    "region": "울산광역시"
  },
  {
    "name": "일산중학교 운동장",
    "address": "울산광역시 동구 일산동 437-3",
    "lat": 35.50575476415318,
    "lng": 129.42325224452412,
    "region": "울산광역시"
  },
  {
    "name": "남목고등학교 운동장",
    "address": "울산광역시 동구 서부동 728",
    "lat": 35.53740051792996,
    "lng": 129.41832201687316,
    "region": "울산광역시"
  },
  {
    "name": "화정초등학교 운동장",
    "address": "울산광역시 동구 화정동 153",
    "lat": 35.50178210601673,
    "lng": 129.42089693746524,
    "region": "울산광역시"
  },
  {
    "name": "현대청운고등학교 운동장",
    "address": "울산광역시 동구 서부동 290",
    "lat": 35.53679339458254,
    "lng": 129.42859416456045,
    "region": "울산광역시"
  },
  {
    "name": "방어진중학교 운동장",
    "address": "울산광역시 동구 화정동 207",
    "lat": 35.504587904588625,
    "lng": 129.4188162739307,
    "region": "울산광역시"
  },
  {
    "name": "방어진고등학교 운동장",
    "address": "울산광역시 동구 화정동 274-1",
    "lat": 35.50396080363204,
    "lng": 129.422822167691,
    "region": "울산광역시"
  },
  {
    "name": "울산생활과학고등학교 운동장",
    "address": "울산광역시 동구 화정동 300",
    "lat": 35.50493610344903,
    "lng": 129.42171948165705,
    "region": "울산광역시"
  },
  {
    "name": "전하초등학교 운동장",
    "address": "울산광역시 동구 전하동 549-5",
    "lat": 35.5149843986276,
    "lng": 129.42809717874354,
    "region": "울산광역시"
  },
  {
    "name": "명덕여자중학교 운동장",
    "address": "울산광역시 동구 일산동 450",
    "lat": 35.5039608036386,
    "lng": 129.42424075827287,
    "region": "울산광역시"
  },
  {
    "name": "선암초등학교운동장",
    "address": "울산광역시 남구 선암동 180",
    "lat": 35.51410388805037,
    "lng": 129.33802786055242,
    "region": "울산광역시"
  },
  {
    "name": "야음초등학교운동장",
    "address": "울산광역시 남구 야음동 865-4",
    "lat": 35.52098630309342,
    "lng": 129.32978116836264,
    "region": "울산광역시"
  },
  {
    "name": "개운초등학교운동장",
    "address": "울산광역시 남구 선암동 586-2",
    "lat": 35.51306943361829,
    "lng": 129.3114632445161,
    "region": "울산광역시"
  },
  {
    "name": "신복초등학교운동장",
    "address": "울산광역시 남구 무거동 810",
    "lat": 35.54985445628062,
    "lng": 129.25395285236416,
    "region": "울산광역시"
  },
  {
    "name": "옥동초등학교운동장",
    "address": "울산광역시 남구 신정동 1629-3",
    "lat": 35.53459361326067,
    "lng": 129.29681688303774,
    "region": "울산광역시"
  },
  {
    "name": "삼호중학교운동장",
    "address": "울산광역시 남구 무거동 1454-1",
    "lat": 35.54897446215373,
    "lng": 129.2677831551828,
    "region": "울산광역시"
  },
  {
    "name": "삼산고등학교운동장",
    "address": "울산광역시 남구 삼산동 1535-4",
    "lat": 35.54481904648257,
    "lng": 129.34159706355592,
    "region": "울산광역시"
  },
  {
    "name": "월평초등학교운동장",
    "address": "울산광역시 남구 신정동 791-9",
    "lat": 35.52900777987086,
    "lng": 129.3122392726774,
    "region": "울산광역시"
  },
  {
    "name": "옥현중학교운동장",
    "address": "울산광역시 남구 무거동 476",
    "lat": 35.53979563149518,
    "lng": 129.26297681822916,
    "region": "울산광역시"
  },
  {
    "name": "강남고등학교운동장",
    "address": "울산광역시 남구 신정동 341",
    "lat": 35.54909208917593,
    "lng": 129.31865344949136,
    "region": "울산광역시"
  },
  {
    "name": "울산여자고등학교운동장",
    "address": "울산광역시 남구 신정동 1234-2",
    "lat": 35.53471452898263,
    "lng": 129.30868919617345,
    "region": "울산광역시"
  },
  {
    "name": "울산체육공원",
    "address": "울산광역시 남구 옥동 1226",
    "lat": 35.53255694571798,
    "lng": 129.2606149590456,
    "region": "울산광역시"
  },
  {
    "name": "서여자중학교운동장",
    "address": "울산광역시 남구 신정동 1632-6",
    "lat": 35.53238516362861,
    "lng": 129.3004651299498,
    "region": "울산광역시"
  },
  {
    "name": "무거고등학교운동장",
    "address": "울산광역시 남구 무거동 1000",
    "lat": 35.536657112231936,
    "lng": 129.25116002353727,
    "region": "울산광역시"
  },
  {
    "name": "삼신초등학교운동장",
    "address": "울산광역시 남구 삼산동 1510-1",
    "lat": 35.54565606613196,
    "lng": 129.33083935151924,
    "region": "울산광역시"
  },
  {
    "name": "수암초등학교운동장",
    "address": "울산광역시 남구 신정동 951-1",
    "lat": 35.525684768940685,
    "lng": 129.31611712499804,
    "region": "울산광역시"
  },
  {
    "name": "월계초등학교운동장",
    "address": "울산광역시 남구 무거동 488-11",
    "lat": 35.53810802018413,
    "lng": 129.25835999185568,
    "region": "울산광역시"
  },
  {
    "name": "중앙중학교운동장",
    "address": "울산광역시 남구 신정동 859-3",
    "lat": 35.526448898639366,
    "lng": 129.31639410228382,
    "region": "울산광역시"
  },
  {
    "name": "농소중학교 운동장",
    "address": "울산광역시 북구 호계동 726",
    "lat": 35.625292714528335,
    "lng": 129.355427920821,
    "region": "울산광역시"
  },
  {
    "name": "호계초등학교 운동장",
    "address": "울산광역시 북구 호계동 266",
    "lat": 35.62982743670385,
    "lng": 129.35715526342713,
    "region": "울산광역시"
  },
  {
    "name": "이화초등학교 운동장",
    "address": "울산광역시 북구 중산동 710",
    "lat": 35.66097042341861,
    "lng": 129.34377517946908,
    "region": "울산광역시"
  },
  {
    "name": "달천운동장",
    "address": "울산광역시 북구 달천동 75-1",
    "lat": 35.62914530060972,
    "lng": 129.32227127100293,
    "region": "울산광역시"
  },
  {
    "name": "동천초등학교 운동장",
    "address": "울산광역시 북구 천곡동 1056-27",
    "lat": 35.6311446338436,
    "lng": 129.3416160012454,
    "region": "울산광역시"
  },
  {
    "name": "천곡중학교 운동장",
    "address": "울산광역시 북구 천곡동 369-2",
    "lat": 35.63249170192304,
    "lng": 129.34140883203233,
    "region": "울산광역시"
  },
  {
    "name": "천곡초등학교 운동장",
    "address": "울산광역시 북구 천곡동 1086-4",
    "lat": 35.63971136753746,
    "lng": 129.3302097916665,
    "region": "울산광역시"
  },
  {
    "name": "강동초등학교 운동장",
    "address": "울산광역시 북구 산하동 1007",
    "lat": 35.6312826,
    "lng": 129.4353064,
    "region": "울산광역시"
  },
  {
    "name": "화진초등학교 운동장",
    "address": "울산광역시 동구 방어동 79",
    "lat": 35.49092546451525,
    "lng": 129.42532984931046,
    "region": "울산광역시"
  },
  {
    "name": "일산해수욕장 중앙주차장",
    "address": "울산광역시 동구 일산동 963",
    "lat": 35.49411223740726,
    "lng": 129.42872878433698,
    "region": "울산광역시"
  },
  {
    "name": "대송중학교 운동장",
    "address": "울산광역시 동구 화정동 143-1",
    "lat": 35.504348984083556,
    "lng": 129.4202710887421,
    "region": "울산광역시"
  },
  {
    "name": "대송고등학교 운동장",
    "address": "울산광역시 동구 화정동 223",
    "lat": 35.50548127560471,
    "lng": 129.41978893223342,
    "region": "울산광역시"
  },
  {
    "name": "남목중학교 운동장",
    "address": "울산광역시 동구 서부동 568",
    "lat": 35.53890893041814,
    "lng": 129.4222320816285,
    "region": "울산광역시"
  },
  {
    "name": "현대청운중학교 운동장",
    "address": "울산광역시 동구 서부동 290-1",
    "lat": 35.535293426044156,
    "lng": 129.42908387314284,
    "region": "울산광역시"
  },
  {
    "name": "주전초등학교 운동장",
    "address": "울산광역시 동구 주전동 277",
    "lat": 35.55768597832626,
    "lng": 129.4568737774071,
    "region": "울산광역시"
  },
  {
    "name": "문현고등학교 운동장",
    "address": "울산광역시 동구 방어동 1008",
    "lat": 35.48218572864623,
    "lng": 129.40953629192262,
    "region": "울산광역시"
  },
  {
    "name": "일산초등학교 운동장",
    "address": "울산광역시 동구 일산동 452",
    "lat": 35.50496184737239,
    "lng": 129.42581615305588,
    "region": "울산광역시"
  },
  {
    "name": "양지초등학교 운동장",
    "address": "울산광역시 동구 화정동 853",
    "lat": 35.496885886115194,
    "lng": 129.42120688169697,
    "region": "울산광역시"
  },
  {
    "name": "울산과학대 동부캠퍼스 운동장",
    "address": "울산광역시 동구 화정동 산160-1",
    "lat": 35.49597854735587,
    "lng": 129.4150936605773,
    "region": "울산광역시"
  },
  {
    "name": "화진중학교 운동장",
    "address": "울산광역시 동구 화정동 828",
    "lat": 35.49673896939273,
    "lng": 129.42245824672352,
    "region": "울산광역시"
  },
  {
    "name": "동구청 광장",
    "address": "울산광역시 동구 화정동 222",
    "lat": 35.50551252865379,
    "lng": 129.41744328597457,
    "region": "울산광역시"
  },
  {
    "name": "서부초등학교 운동장",
    "address": "울산광역시 동구 서부동 238-13",
    "lat": 35.5260616843639,
    "lng": 129.4232969756943,
    "region": "울산광역시"
  },
  {
    "name": "현대중학교 운동장",
    "address": "울산광역시 동구 서부동 238-21",
    "lat": 35.52458904653914,
    "lng": 129.4234585670914,
    "region": "울산광역시"
  },
  {
    "name": "현대고등학교 운동장",
    "address": "울산광역시 동구 서부동 238-17",
    "lat": 35.524618507593765,
    "lng": 129.42187866855969,
    "region": "울산광역시"
  },
  {
    "name": "현대공업고등학교 운동장",
    "address": "울산광역시 동구 동부동 166-4",
    "lat": 35.53764788017491,
    "lng": 129.43185823201443,
    "region": "울산광역시"
  },
  {
    "name": "두동면 제2주민자치센터",
    "address": "울산광역시 울주군 두동면 봉계리 1030-3",
    "lat": 35.701864457825494,
    "lng": 129.20721709728483,
    "region": "울산광역시"
  },
  {
    "name": "삼정초등학교 운동장",
    "address": "울산광역시 울주군 청량읍 삼정리 786-1",
    "lat": 35.490863996845555,
    "lng": 129.23325409750157,
    "region": "울산광역시"
  },
  {
    "name": "청량운동장",
    "address": "울산광역시 울주군 청량읍 덕하리 606-1",
    "lat": 35.481544203314655,
    "lng": 129.29892182350557,
    "region": "울산광역시"
  },
  {
    "name": "웅촌면운동장",
    "address": "울산광역시 울주군 웅촌면 곡천리 233-3",
    "lat": 35.460536328342165,
    "lng": 129.20855509616158,
    "region": "울산광역시"
  },
  {
    "name": "남창고등학교 운동장",
    "address": "울산광역시 울주군 온양읍 운화리 63",
    "lat": 35.41514329301853,
    "lng": 129.27797108888473,
    "region": "울산광역시"
  },
  {
    "name": "옹기문화공원 주차장",
    "address": "울산광역시 울주군 온양읍 고산리 437",
    "lat": 35.43711984518871,
    "lng": 129.27956163883619,
    "region": "울산광역시"
  },
  {
    "name": "중앙���자고등학교운동장",
    "address": "울산광역시 중구 반구동 595",
    "lat": 35.55372744268238,
    "lng": 129.3438776701679,
    "region": "울산광역시"
  },
  {
    "name": "농소운동장",
    "address": "울산광역시 북구 창평동 391-1",
    "lat": 35.62132462162742,
    "lng": 129.359335899361,
    "region": "울산광역시"
  },
  {
    "name": "학성초등학교운동장",
    "address": "울산광역시 중구 반구동 270-1",
    "lat": 35.5600934,
    "lng": 129.3423322,
    "region": "울산광역시"
  },
  {
    "name": "가온중학교운동장",
    "address": "울산광역시 중구 반구동 50",
    "lat": 35.5639471,
    "lng": 129.3383679,
    "region": "울산광역시"
  },
  {
    "name": "농소초등학교 운동장",
    "address": "울산광역시 북구 호계동 858-1",
    "lat": 35.621472883588346,
    "lng": 129.35654908418755,
    "region": "울산광역시"
  },
  {
    "name": "매곡고등학교 운동장",
    "address": "울산광역시 북구 매곡동 620-1",
    "lat": 35.64440934425794,
    "lng": 129.35903967320414,
    "region": "울산광역시"
  },
  {
    "name": "내황초등학교운동장",
    "address": "울산광역시 중구 반구동 395",
    "lat": 35.551614218853665,
    "lng": 129.34884325895095,
    "region": "울산광역시"
  },
  {
    "name": "화암고등학교 운동장",
    "address": "울산광역시 동구 방어동 1053",
    "lat": 35.476431145426126,
    "lng": 129.40988795935274,
    "region": "울산광역시"
  },
  {
    "name": "상진초등학교 운동장",
    "address": "울산광역시 동구 화정동 894",
    "lat": 35.49180980688352,
    "lng": 129.41831009595768,
    "region": "울산광역시"
  },
  {
    "name": "남목초등학교 운동장",
    "address": "울산광역시 동구 서부동 370",
    "lat": 35.54184807052952,
    "lng": 129.4253017208266,
    "region": "울산광역시"
  },
  {
    "name": "녹수초등학교 운동장",
    "address": "울산광역시 동구 서부동 257-10",
    "lat": 35.530512805125646,
    "lng": 129.42902454439664,
    "region": "울산광역시"
  },
  {
    "name": "동부초등학교 운동장",
    "address": "울산광역시 동구 동부동 676",
    "lat": 35.54504780752501,
    "lng": 129.42780616058215,
    "region": "울산광역시"
  },
  {
    "name": "옥성초등학교운동장",
    "address": "울산광역시 중구 학성동 180-1",
    "lat": 35.55269887617706,
    "lng": 129.3345352504434,
    "region": "울산광역시"
  },
  {
    "name": "온누리공원",
    "address": "울산광역시 북구 매곡동 산90",
    "lat": 35.64497764754453,
    "lng": 129.36068505049266,
    "region": "울산광역시"
  },
  {
    "name": "호계고등학교 운동장",
    "address": "울산광역시 북구 호계동 262-4",
    "lat": 35.630727810072635,
    "lng": 129.35417264700024,
    "region": "울산광역시"
  },
  {
    "name": "매곡중학교 운동장",
    "address": "울산광역시 북구 매곡동 490-1",
    "lat": 35.644419647565556,
    "lng": 129.34882968664104,
    "region": "울산광역시"
  },
  {
    "name": "매곡초등학교 운동장",
    "address": "울산광역시 북구 매곡동 497",
    "lat": 35.64394290318066,
    "lng": 129.35039060129043,
    "region": "울산광역시"
  },
  {
    "name": "메아리학교 운동장",
    "address": "울산광역시 북구 중산동 492-2",
    "lat": 35.6657587,
    "lng": 129.3402092,
    "region": "울산광역시"
  },
  {
    "name": "속심이보주차장",
    "address": "울산광역시 북구 중산동 1166-132",
    "lat": 35.662779,
    "lng": 129.3361152,
    "region": "울산광역시"
  },
  {
    "name": "신천초등학교 운동장",
    "address": "울산광역시 북구 신천동 316-4",
    "lat": 35.63342450932779,
    "lng": 129.34667319060193,
    "region": "울산광역시"
  },
  {
    "name": "울산외국어고등학교 운동장",
    "address": "울산광역시 북구 중산동 203-5",
    "lat": 35.658191,
    "lng": 129.3542166,
    "region": "울산광역시"
  },
  {
    "name": "농서초등학교 운동장",
    "address": "울산광역시 북구 달천동 1-19",
    "lat": 35.631597888572365,
    "lng": 129.33097503913214,
    "region": "울산광역시"
  },
  {
    "name": "상안초등학교 운동장",
    "address": "울산광역시 북구 천곡동 434-1",
    "lat": 35.63390410678126,
    "lng": 129.33452010155412,
    "region": "울산광역시"
  },
  {
    "name": "동대초등학교 운동장",
    "address": "울산광역시 북구 신천동 125",
    "lat": 35.64080127185277,
    "lng": 129.34946805239258,
    "region": "울산광역시"
  },
  {
    "name": "약수초등학교 운동장",
    "address": "울산광역시 북구 중산동 1313-12",
    "lat": 35.65425600574795,
    "lng": 129.35316950083146,
    "region": "울산광역시"
  },
  {
    "name": "이화중학교 운동장",
    "address": "울산광역시 북구 중산동 803",
    "lat": 35.6577827,
    "lng": 129.3392833,
    "region": "울산광역시"
  },
  {
    "name": "달천고등학교 운동장",
    "address": "울산광역시 북구 달천동 1-17",
    "lat": 35.631235764421824,
    "lng": 129.3287372589179,
    "region": "울산광역시"
  },
  {
    "name": "달천중학교 운동장",
    "address": "울산광역시 북구 달천동 11-67",
    "lat": 35.63093297216183,
    "lng": 129.32976133955597,
    "region": "울산광역시"
  },
  {
    "name": "상안중학교 운동장",
    "address": "울산광역시 북구 상안동 838-1",
    "lat": 35.62759499023992,
    "lng": 129.33071136474862,
    "region": "울산광역시"
  },
  {
    "name": "동천고등학교 운동장",
    "address": "울산광역시 북구 천곡동 396-10",
    "lat": 35.631985699704025,
    "lng": 129.33970212936936,
    "region": "울산광역시"
  },
  {
    "name": "강동중학교 운동장",
    "address": "울산광역시 북구 산하동 1009",
    "lat": 35.6296452,
    "lng": 129.4351231,
    "region": "울산광역시"
  },
  {
    "name": "울산교육연수원 주차장",
    "address": "울산광역시 북구 정자동 715",
    "lat": 35.6133354,
    "lng": 129.4451787,
    "region": "울산광역시"
  },
  {
    "name": "울산스포츠과학중고등학교 운동장",
    "address": "울산광역시 북구 산하동 799",
    "lat": 35.6232267,
    "lng": 129.4307267,
    "region": "울산광역시"
  },
  {
    "name": "누리어린이공원",
    "address": "울산광역시 북구 화봉동 1457-3",
    "lat": 35.5911053,
    "lng": 129.3703249,
    "region": "울산광역시"
  },
  {
    "name": "송정초등학교 운동장",
    "address": "울산광역시 북구 화봉동 427",
    "lat": 35.5909181,
    "lng": 129.3657435,
    "region": "울산광역시"
  },
  {
    "name": "울산에너지고등학교 운동장",
    "address": "울산광역시 북구 화봉동 453",
    "lat": 35.59007010021641,
    "lng": 129.36878800392068,
    "region": "울산광역시"
  },
  {
    "name": "한솔근린공원",
    "address": "울산광역시 북구 화봉동 1469-1",
    "lat": 35.592255,
    "lng": 129.3656766,
    "region": "울산광역시"
  },
  {
    "name": "화동저수지주차장",
    "address": "울산광역시 북구 화봉동 365",
    "lat": 35.591269625739244,
    "lng": 129.3730347266317,
    "region": "울산광역시"
  },
  {
    "name": "문현초등학교 운동장",
    "address": "울산광역시 동구 방어동 999",
    "lat": 35.48046711743683,
    "lng": 129.41346361094887,
    "region": "울산광역시"
  },
  {
    "name": "상북초등학교 운동장",
    "address": "울산광역시 울주군 상북면 산전리 473-3",
    "lat": 35.59164925661413,
    "lng": 129.09344583749817,
    "region": "울산광역시"
  },
  {
    "name": "덕신소공원",
    "address": "울산광역시 울주군 온산읍 덕신리 269",
    "lat": 35.4335,
    "lng": 129.3111,
    "region": "울산광역시"
  },
  {
    "name": "경의고등학교 운동장",
    "address": "울산광역시 울주군 상북면 산전리 435",
    "lat": 35.588599973582795,
    "lng": 129.09419685602424,
    "region": "울산광역시"
  },
  {
    "name": "청량중학교 운동장",
    "address": "울산광역시 울주군 청량읍 상남리 776",
    "lat": 35.48786045788,
    "lng": 129.30456519127367,
    "region": "울산광역시"
  },
  {
    "name": "문수초등학교 운동장",
    "address": "울산광역시 울주군 청량읍 율리 390",
    "lat": 35.519006395241966,
    "lng": 129.24058377742494,
    "region": "울산광역시"
  },
  {
    "name": "세인고등학교 운동장",
    "address": "울산광역시 울주군 웅촌면 검단리 603-3",
    "lat": 35.457429981131696,
    "lng": 129.17763769627186,
    "region": "울산광역시"
  },
  {
    "name": "울산마을교육공동체거점센터 운동장",
    "address": "울산광역시 울주군 상북면 궁근정리 564-1",
    "lat": 35.61547895688055,
    "lng": 129.06753569841536,
    "region": "울산광역시"
  },
  {
    "name": "하동경로당 공터",
    "address": "울산광역시 울주군 두서면 미호리 11-2",
    "lat": 35.67381614368146,
    "lng": 129.17857646942355,
    "region": "울산광역시"
  },
  {
    "name": "구영근린공원",
    "address": "울산광역시 울주군 범서읍 구영리 801-13",
    "lat": 35.571388323426426,
    "lng": 129.2419463396099,
    "region": "울산광역시"
  },
  {
    "name": "웅촌중학교 운동장",
    "address": "울산광역시 울주군 웅촌면 곡천리 290-1",
    "lat": 35.4622909800707,
    "lng": 129.2096954584164,
    "region": "울산광역시"
  },
  {
    "name": "남산초등학교운동장",
    "address": "울산광역시 남구 옥동 1396",
    "lat": 35.536496921367856,
    "lng": 129.29543249963157,
    "region": "울산광역시"
  },
  {
    "name": "대현초등학교운동장",
    "address": "울산광역시 남구 야음동 687-2",
    "lat": 35.52785251050029,
    "lng": 129.32494362547325,
    "region": "울산광역시"
  },
  {
    "name": "여천초등학교운동장",
    "address": "울산광역시 남구 야음동 256",
    "lat": 35.524794778426966,
    "lng": 129.3369668146938,
    "region": "울산광역시"
  },
  {
    "name": "월봉초등학교운동장",
    "address": "울산광역시 남구 신정동 266",
    "lat": 35.54783221288459,
    "lng": 129.31917192592078,
    "region": "울산광역시"
  },
  {
    "name": "현대자동차문화회관주차장 및 운동장",
    "address": "울산광역시 북구 양정동 523",
    "lat": 35.54003136763698,
    "lng": 129.38891530037418,
    "region": "울산광역시"
  },
  {
    "name": "농수산물종합유통센터(옥외)",
    "address": "울산광역시 북구 진장동 282-1",
    "lat": 35.5785976,
    "lng": 129.3578143,
    "region": "울산광역시"
  },
  {
    "name": "울산종합운동장",
    "address": "울산광역시 중구 남외동 865",
    "lat": 35.56235115340275,
    "lng": 129.34786932484116,
    "region": "울산광역시"
  },
  {
    "name": "학성여자고등학교운동장",
    "address": "울산광역시 중구 약사동 707-5",
    "lat": 35.566326652900734,
    "lng": 129.335104823116,
    "region": "울산광역시"
  },
  {
    "name": "백양초등학교운동장",
    "address": "울산광역시 중구 성안동 463-3",
    "lat": 35.576874520560345,
    "lng": 129.3196666117553,
    "region": "울산광역시"
  },
  {
    "name": "유곡테니스장",
    "address": "울산광역시 중구 유곡동 891-1",
    "lat": 35.564251835856595,
    "lng": 129.28366319972784,
    "region": "울산광역시"
  },
  {
    "name": "태화중학교운동장",
    "address": "울산광역시 남구 야음동 10-1",
    "lat": 35.53229804556428,
    "lng": 129.33941916918207,
    "region": "울산광역시"
  },
  {
    "name": "학성여자중학교운동장",
    "address": "울산광역시 중구 태화동 747-1",
    "lat": 35.5547688091975,
    "lng": 129.2915105891196,
    "region": "울산광역시"
  },
  {
    "name": "화봉중학교 운동장",
    "address": "울산광역시 북구 화봉동 677-1",
    "lat": 35.588919365931666,
    "lng": 129.36063496883196,
    "region": "울산광역시"
  },
  {
    "name": "북구청임시주차장",
    "address": "울산광역시 북구 연암동 1084-1",
    "lat": 35.5835394,
    "lng": 129.3618085,
    "region": "울산광역시"
  },
  {
    "name": "양사초등학교운동장",
    "address": "울산광역시 중구 교동 281",
    "lat": 35.557167685700186,
    "lng": 129.31881205980005,
    "region": "울산광역시"
  },
  {
    "name": "삼일초등학교운동장",
    "address": "울산광역시 중구 서동 40",
    "lat": 35.58183361509021,
    "lng": 129.34553435192615,
    "region": "울산광역시"
  },
  {
    "name": "명촌둔치주차장",
    "address": "울산광역시 북구 명촌동 786-13",
    "lat": 35.5518971,
    "lng": 129.3526796,
    "region": "울산광역시"
  },
  {
    "name": "남부초등학교운동장",
    "address": "울산광역시 남구 야음동 762",
    "lat": 35.52302943425201,
    "lng": 129.3221248725205,
    "region": "울산광역시"
  },
  {
    "name": "무룡고등학교 운동장",
    "address": "울산광역시 북구 연암동 1331",
    "lat": 35.58549822319638,
    "lng": 129.3616801500366,
    "region": "울산광역시"
  },
  {
    "name": "신일중학교운동장",
    "address": "울산광역시 남구 신정동 906-7",
    "lat": 35.52734567245599,
    "lng": 129.31074760188625,
    "region": "울산광역시"
  },
  {
    "name": "월평중학교운동장",
    "address": "울산광역시 남구 신정동 592-3",
    "lat": 35.540388258712156,
    "lng": 129.315600477952,
    "region": "울산광역시"
  },
  {
    "name": "효정중학교 운동장",
    "address": "울산광역시 북구 양정동 222",
    "lat": 35.55862444598353,
    "lng": 129.37881410122498,
    "region": "울산광역시"
  },
  {
    "name": "문수고등학교운동장",
    "address": "울산광역시 남구 무거동 266-1",
    "lat": 35.555758390716214,
    "lng": 129.2646539872862,
    "region": "울산광역시"
  },
  {
    "name": "화봉초등학교 운동장",
    "address": "울산광역시 북구 화봉동 1339",
    "lat": 35.5956698,
    "lng": 129.3671896,
    "region": "울산광역시"
  },
  {
    "name": "명촌초등학교 운동장",
    "address": "울산광역시 북구 명촌동 895-6",
    "lat": 35.5527069,
    "lng": 129.3565706,
    "region": "울산광역시"
  },
  {
    "name": "울산양정초등학교 운동장",
    "address": "울산광역시 북구 양정동 470",
    "lat": 35.5454577,
    "lng": 129.38612,
    "region": "울산광역시"
  },
  {
    "name": "삼산체육공원",
    "address": "울산광역시 남구 삼산동 1019-15",
    "lat": 35.54656415132536,
    "lng": 129.33727709552275,
    "region": "울산광역시"
  },
  {
    "name": "울산초등학교운동장",
    "address": "울산광역시 중구 유곡동 263",
    "lat": 35.56159552889071,
    "lng": 129.2997380372635,
    "region": "울산광역시"
  },
  {
    "name": "다운중학교운동장",
    "address": "울산광역시 중구 다운동 676-1",
    "lat": 35.56736943932099,
    "lng": 129.2703475217155,
    "region": "울산광역시"
  },
  {
    "name": "외솔중학교운동장",
    "address": "울산광역시 중구 서동 622",
    "lat": 35.58404631486343,
    "lng": 129.34377448562665,
    "region": "울산광역시"
  },
  {
    "name": "약사초등학교운동장",
    "address": "울산광역시 중구 약사동 707-16",
    "lat": 35.56722300132685,
    "lng": 129.33405936593954,
    "region": "울산광역시"
  },
  {
    "name": "연암초등학교효문분교 운동장",
    "address": "울산광역시 북구 효문동 767",
    "lat": 35.566767380024444,
    "lng": 129.3680691719055,
    "region": "울산광역시"
  },
  {
    "name": "옥동중학교운동장",
    "address": "울산광역시 남구 옥동 648-1",
    "lat": 35.53782281028664,
    "lng": 129.28412449251493,
    "region": "울산광역시"
  },
  {
    "name": "문화공원",
    "address": "울산광역시 남구 달동 1229-18",
    "lat": 35.54488752766964,
    "lng": 129.32750714745504,
    "region": "울산광역시"
  },
  {
    "name": "동천보조운동장 ",
    "address": "울산광역시 중구 남외동 865",
    "lat": 35.562151862483155,
    "lng": 129.34643510661397,
    "region": "울산광역시"
  },
  {
    "name": "함월구민운동장",
    "address": "울산광역시 중구 성안동 924",
    "lat": 35.57807792858426,
    "lng": 129.30788696572512,
    "region": "울산광역시"
  },
  {
    "name": "십리대밭 축구장",
    "address": "울산광역시 중구 태화동 800",
    "lat": 35.551833671175224,
    "lng": 129.28547859192193,
    "region": "울산광역시"
  },
  {
    "name": "다전초등학교운동장",
    "address": "울산광역시 중구 다운동 686-1",
    "lat": 35.56759570909481,
    "lng": 129.26873257259024,
    "region": "울산광역시"
  },
  {
    "name": "남외중학교운동장",
    "address": "울산광역시 중구 남외동 502-1",
    "lat": 35.56649802426173,
    "lng": 129.34848100624646,
    "region": "울산광역시"
  },
  {
    "name": "무룡중학교운동장",
    "address": "울산광역시 중구 약사동 707-7",
    "lat": 35.56545913371148,
    "lng": 129.33579342341608,
    "region": "울산광역시"
  },
  {
    "name": "울산마이스터고등학교 운동장",
    "address": "울산광역시 북구 효문동 34-1",
    "lat": 35.5606355,
    "lng": 129.3773681,
    "region": "울산광역시"
  },
  {
    "name": "염포초등학교 운동장",
    "address": "울산광역시 북구 염포동 179",
    "lat": 35.5335384,
    "lng": 129.3914793,
    "region": "울산광역시"
  },
  {
    "name": "성안초등학교운동장",
    "address": "울산광역시 중구 성안동 797-1",
    "lat": 35.57604281752421,
    "lng": 129.3121184580144,
    "region": "울산광역시"
  },
  {
    "name": "애니원고등학교운동장",
    "address": "울산광역시 중구 성안동 480",
    "lat": 35.57833054528518,
    "lng": 129.3213600196339,
    "region": "울산광역시"
  },
  {
    "name": "함월고등학교운동장",
    "address": "울산광역시 중구 유곡동 501-3",
    "lat": 35.56142647872729,
    "lng": 129.29790616765737,
    "region": "울산광역시"
  },
  {
    "name": "다운초등학교운동장",
    "address": "울산광역시 중구 다운동 811",
    "lat": 35.561597052356326,
    "lng": 129.2674298388203,
    "region": "울산광역시"
  },
  {
    "name": "성안생활체육공원",
    "address": "울산광역시 중구 성안동 900-6",
    "lat": 35.57680090259493,
    "lng": 129.30448740721073,
    "region": "울산광역시"
  },
  {
    "name": "온양체육공원 주차장",
    "address": "울산광역시 울주군 온양읍 고산리 828-2",
    "lat": 35.42901184026434,
    "lng": 129.28103685379418,
    "region": "울산광역시"
  },
  {
    "name": "남부노인복지회관 주차장",
    "address": "울산광역시 울주군 온양읍 발리 279-2",
    "lat": 35.40705712343379,
    "lng": 129.2981198430093,
    "region": "울산광역시"
  },
  {
    "name": "명산초등학교 운동장",
    "address": "울산광역시 울주군 서생면 명산리 504",
    "lat": 35.35076593965855,
    "lng": 129.29562002421122,
    "region": "울산광역시"
  },
  {
    "name": "남창중학교 운동장",
    "address": "울산광역시 울주군 온양읍 동상리 859-1",
    "lat": 35.4186953548511,
    "lng": 129.28670704365152,
    "region": "울산광역시"
  },
  {
    "name": "온남초등학교 운동장",
    "address": "울산광역시 울주군 온양읍 대안리 250",
    "lat": 35.405710442717876,
    "lng": 129.2885255813673,
    "region": "울산광역시"
  },
  {
    "name": "고운중학교 운동장",
    "address": "울산광역시 울주군 두서면 구량리 1062-7",
    "lat": 35.61736114177577,
    "lng": 129.14689501621808,
    "region": "울산광역시"
  },
  {
    "name": "무룡초등학교운동장",
    "address": "울산광역시 중구 약사동 762",
    "lat": 35.56961873264322,
    "lng": 129.3348064394973,
    "region": "울산광역시"
  },
  {
    "name": "명촌근린공원",
    "address": "울산광역시 북구 명촌동 682-2",
    "lat": 35.55479706845901,
    "lng": 129.35596704482992,
    "region": "울산광역시"
  },
  {
    "name": "성안중학교운동장",
    "address": "울산광역시 중구 성안동 519-8",
    "lat": 35.5723942371529,
    "lng": 129.31794349833345,
    "region": "울산광역시"
  },
  {
    "name": "우정초등학교운동장",
    "address": "울산광역시 중구 우정동 707",
    "lat": 35.55965580449144,
    "lng": 129.3073203699306,
    "region": "울산광역시"
  },
  {
    "name": "유곡중학교운동장",
    "address": "울산광역시 중구 태화동 196",
    "lat": 35.55859826158449,
    "lng": 129.3002039194139,
    "region": "울산광역시"
  },
  {
    "name": "평산초등학교운동장",
    "address": "울산광역시 중구 약사동 612-8",
    "lat": 35.568911226370425,
    "lng": 129.3382372140068,
    "region": "울산광역시"
  },
  {
    "name": "격동초등학교운동장",
    "address": "울산광역시 남구 옥동 259",
    "lat": 35.53377947371692,
    "lng": 129.29002178714393,
    "region": "울산광역시"
  },
  {
    "name": "장생포초등학교 운동장",
    "address": "울산광역시 남구 장생포동 329-1",
    "lat": 35.50341833328551,
    "lng": 129.3683919000567,
    "region": "울산광역시"
  },
  {
    "name": "문수중학교운동장",
    "address": "울산광역시 남구 무거동 488-17",
    "lat": 35.537964605063344,
    "lng": 129.2576046674871,
    "region": "울산광역시"
  },
  {
    "name": "일산해수욕장 공용주차장",
    "address": "울산광역시 동구 일산동 948-4",
    "lat": 35.49812747359604,
    "lng": 129.43063972467732,
    "region": "울산광역시"
  },
  {
    "name": "태화강 둔치",
    "address": "울산광역시 중구 성남동 212",
    "lat": 35.55236613060085,
    "lng": 129.31516528129907,
    "region": "울산광역시"
  },
  {
    "name": "명정초등학교운동장",
    "address": "울산광역시 중구 태화동 733",
    "lat": 35.55241206531402,
    "lng": 129.28923071143478,
    "region": "울산광역시"
  },
  {
    "name": "제일중학교운동장",
    "address": "울산광역시 중구 태화동 871",
    "lat": 35.55434600390453,
    "lng": 129.28467078705262,
    "region": "울산광역시"
  },
  {
    "name": "울산중앙고등학교운동장",
    "address": "울산광역시 중구 태화동 359",
    "lat": 35.55563064059099,
    "lng": 129.28514599800414,
    "region": "울산광역시"
  },
  {
    "name": "남외초등학교운동장",
    "address": "울산광역시 중구 남외동 502-2",
    "lat": 35.56571754582615,
    "lng": 129.34841216480012,
    "region": "울산광역시"
  },
  {
    "name": "함월초등학교운동장",
    "address": "울산광역시 중구 복산동 504",
    "lat": 35.55903466716957,
    "lng": 129.3299281597172,
    "region": "울산광역시"
  },
  {
    "name": "동천강 둔치",
    "address": "울산광역시 중구 남외동 634-1",
    "lat": 35.56684714765437,
    "lng": 129.35154554809236,
    "region": "울산광역시"
  },
  {
    "name": "영남알프스복합문화공간 운동장",
    "address": "울산광역시 울주군 상북면 이천리 377",
    "lat": 35.54188868699665,
    "lng": 129.01330411434492,
    "region": "울산광역시"
  },
  {
    "name": "온산운동장",
    "address": "울산광역시 울주군 온산읍 덕신��� 985",
    "lat": 35.433566410366105,
    "lng": 129.30057406426278,
    "region": "울산광역시"
  },
  {
    "name": "두동면행정복지센터 앞 공터",
    "address": "울산광역시 울주군 두동면 구미리 647-6",
    "lat": 35.65433228564699,
    "lng": 129.20137256383916,
    "region": "울산광역시"
  },
  {
    "name": "큰나무놀이터 공터 및 주차장",
    "address": "울산광역시 울주군 상북면 길천리 401",
    "lat": 35.58531499368143,
    "lng": 129.08471792936797,
    "region": "울산광역시"
  },
  {
    "name": "상북초등학교 소호분교 운동장",
    "address": "울산광역시 울주군 상북면 소호리 376-3",
    "lat": 35.670382582739734,
    "lng": 129.08636426517765,
    "region": "울산광역시"
  },
  {
    "name": "상북면민 운동장",
    "address": "울산광역시 울주군 상북면 거리 1161-4",
    "lat": 35.5936864096078,
    "lng": 129.08116400241715,
    "region": "울산광역시"
  },
  {
    "name": "두동초등학교  운동장 ",
    "address": "울산광역시 울주군 두동면 구미리 650-1",
    "lat": 35.654473948118536,
    "lng": 129.2023515701322,
    "region": "울산광역시"
  },
  {
    "name": "두광중학교 운동장",
    "address": "울산광역시 울주군 두서면 인보리 97-1",
    "lat": 35.6555434816529,
    "lng": 129.16953077003245,
    "region": "울산광역시"
  },
  {
    "name": "정토마을수련원 공터",
    "address": "울산광역시 울주군 두서면 활천리 329-1",
    "lat": 35.706799940437854,
    "lng": 129.1912338137614,
    "region": "울산광역시"
  },
  {
    "name": "청량초등학교 운동장",
    "address": "울산광역시 울주군 청량읍 덕하리 412-2",
    "lat": 35.48637718101416,
    "lng": 129.29748522848007,
    "region": "울산광역시"
  },
  {
    "name": "삼남중학교 운동장",
    "address": "울산광역시 울주군 삼남읍 가천리 664-35",
    "lat": 35.52383467197502,
    "lng": 129.09687270612315,
    "region": "울산광역시"
  },
  {
    "name": "한솔그린빌주차장",
    "address": "울산광역시 울주군 웅촌면 대복리 244-4",
    "lat": 35.490808747017475,
    "lng": 129.21261906623866,
    "region": "울산광역시"
  },
  {
    "name": "서생체육공원",
    "address": "울산광역시 울주군 서생면 신암리 685-2",
    "lat": 35.34930893333199,
    "lng": 129.31933879853128,
    "region": "울산광역시"
  },
  {
    "name": "효정고등학교 운동장",
    "address": "울산광역시 북구 효문동 507",
    "lat": 35.563005848797275,
    "lng": 129.37545061111837,
    "region": "울산광역시"
  },
  {
    "name": "동백초등학교운동장",
    "address": "울산광역시 남구 달동 194-1",
    "lat": 35.53242865435061,
    "lng": 129.32412443141996,
    "region": "울산광역시"
  },
  {
    "name": "북구청광장",
    "address": "울산광역시 북구 연암동 1004-1",
    "lat": 35.58226110662402,
    "lng": 129.36107397079954,
    "region": "울산광역시"
  },
  {
    "name": "옥산초등학교운동장",
    "address": "울산광역시 남구 무거동 480",
    "lat": 35.541995974834485,
    "lng": 129.2622129329139,
    "region": "울산광역시"
  },
  {
    "name": "화봉고등학교 운동장",
    "address": "울산광역시 북구 화봉동 1441",
    "lat": 35.5953546,
    "lng": 129.3697014,
    "region": "울산광역시"
  },
  {
    "name": "신정고등학교운동장",
    "address": "울산광역시 남구 신정동 1650-1",
    "lat": 35.53160563159216,
    "lng": 129.30233749452063,
    "region": "울산광역시"
  },
  {
    "name": "학성중학교운동장",
    "address": "울산광역시 남구 신정동 1632-1",
    "lat": 35.532245828830995,
    "lng": 129.2988425087786,
    "region": "울산광역시"
  },
  {
    "name": "신정초등학교운동장",
    "address": "울산광역시 남구 신정동 1245",
    "lat": 35.53886727214534,
    "lng": 129.30435165741747,
    "region": "울산광역시"
  },
  {
    "name": "동평중학교운동장",
    "address": "울산광역시 남구 달동 119-8",
    "lat": 35.5336349720097,
    "lng": 129.32491473017467,
    "region": "울산광역시"
  },
  {
    "name": "무거중학교운동장",
    "address": "울산광역시 남구 무거동 996",
    "lat": 35.53730246553199,
    "lng": 129.25176839889343,
    "region": "울산광역시"
  },
  {
    "name": "울산여자상업고등학교운동장",
    "address": "울산광역시 남구 신정동 905",
    "lat": 35.52906650478861,
    "lng": 129.3108073980921,
    "region": "울산광역시"
  },
  {
    "name": "도산초등학교운동장",
    "address": "울산광역시 남구 야음동 540",
    "lat": 35.53042224392709,
    "lng": 129.33406560588165,
    "region": "울산광역시"
  },
  {
    "name": "동평초등학교운동장",
    "address": "울산광역시 남구 달동 119-9",
    "lat": 35.532750360152455,
    "lng": 129.32527083252054,
    "region": "울산광역시"
  },
  {
    "name": "백합초등학교운동장",
    "address": "울산광역시 남구 삼산동 1533",
    "lat": 35.54536195625744,
    "lng": 129.3430318515651,
    "region": "울산광역시"
  },
  {
    "name": "중앙초등학교운동장",
    "address": "울산광역시 남구 신정동 592-2",
    "lat": 35.54157411743845,
    "lng": 129.31528747204112,
    "region": "울산광역시"
  },
  {
    "name": "삼호초등학교운동장",
    "address": "울산광역시 남구 무거동 292-5",
    "lat": 35.55251475461926,
    "lng": 129.26506740664874,
    "region": "울산광역시"
  },
  {
    "name": "옥서초등학교운동장",
    "address": "울산광역시 남구 옥동 638",
    "lat": 35.53792837892828,
    "lng": 129.2855680268527,
    "region": "울산광역시"
  },
  {
    "name": "청솔초등학교운동장",
    "address": "울산광역시 남구 달동 813",
    "lat": 35.532796801527546,
    "lng": 129.31798370371533,
    "region": "울산광역시"
  },
  {
    "name": "서생중학교 운동장",
    "address": "울산광역시 울주군 서생면 신암리 8-1",
    "lat": 35.350179639974755,
    "lng": 129.33056384325107,
    "region": "울산광역시"
  },
  {
    "name": "두서초등학교 운동장",
    "address": "울산광역시 울주군 두서면 인보리 459-2",
    "lat": 35.642752163448975,
    "lng": 129.1583713889173,
    "region": "울산광역시"
  },
  {
    "name": "두서면행정복지센터 광장",
    "address": "울산광역시 울주군 두서면 인보리 285",
    "lat": 35.6477915646508,
    "lng": 129.16167855262964,
    "region": "울산광역시"
  },
  {
    "name": "삼동면행정복지센터 광장",
    "address": "울산광역시 울주군 삼동면 하잠리 966-1",
    "lat": 35.523647555425825,
    "lng": 129.15785640478342,
    "region": "울산광역시"
  },
  {
    "name": "울산산업고등학교 운동장",
    "address": "울산광역시 울주군 삼남읍 교동리 950",
    "lat": 35.55336162080455,
    "lng": 129.11564608356815,
    "region": "울산광역시"
  },
  {
    "name": "방기초등학교 운동장",
    "address": "울산광역시 울주군 삼남읍 방기리 117",
    "lat": 35.506659149777406,
    "lng": 129.09289707619467,
    "region": "울산광역시"
  },
  {
    "name": "화랑체육공원 주경기장",
    "address": "울산광역시 울주군 두서면 서하리 100",
    "lat": 35.627952534688525,
    "lng": 129.16208624839496,
    "region": "울산광역시"
  },
  {
    "name": "상북중학교 운동장",
    "address": "울산광역시 울주군 상북면 향산리 344",
    "lat": 35.58209750224328,
    "lng": 129.099676609041,
    "region": "울산광역시"
  },
  {
    "name": "울산학생교육원 내와수련장 ",
    "address": "울산광역시 울주군 두서면 내와리 972-1",
    "lat": 35.701677586055524,
    "lng": 129.11441346553207,
    "region": "울산광역시"
  },
  {
    "name": "외솔초등학교운동장",
    "address": "울산광역시 중구 서동 621",
    "lat": 35.58333858781542,
    "lng": 129.3433334112963,
    "region": "울산광역시"
  },
  {
    "name": "범서생활체육공원 운동장",
    "address": "울산광역시 울주군 범서읍 천상리 46-2",
    "lat": 35.564960819780744,
    "lng": 129.23293948173483,
    "region": "울산광역시"
  },
  {
    "name": "중남초등학교 운동장",
    "address": "울산광역시 울주군 삼남읍 신화리 1485-17",
    "lat": 35.53623213056818,
    "lng": 129.10853137495158,
    "region": "울산광역시"
  },
  {
    "name": "남창옹기종기시장 주차장",
    "address": "울산광역시 울주군 온양읍 남창리 125-2",
    "lat": 35.41539467484878,
    "lng": 129.28426623344725,
    "region": "울산광역시"
  },
  {
    "name": "성동초등학교 운동장",
    "address": "울산광역시 울주군 서생면 서생리 387",
    "lat": 35.385094238108515,
    "lng": 129.3413785099976,
    "region": "울산광역시"
  },
  {
    "name": "서생초등학교 운동장",
    "address": "울산광역시 울주군 서생면 신암리 178-4",
    "lat": 35.35419968437683,
    "lng": 129.32546578188982,
    "region": "울산광역시"
  },
  {
    "name": "언양고등학교(운동장)",
    "address": "울산광역시 울주군 언양읍 어음리 264-3",
    "lat": 35.56172723707493,
    "lng": 129.13332760334626,
    "region": "울산광역시"
  },
  {
    "name": "울주군민체육관 주차장",
    "address": "울산광역시 울주군 언양읍 반천리 107",
    "lat": 35.55516366669353,
    "lng": 129.1832649707835,
    "region": "울산광역시"
  },
  {
    "name": "언양중학교(운동장)",
    "address": "울산광역시 울주군 언양읍 동부리 15-1",
    "lat": 35.57236134930489,
    "lng": 129.12778615952254,
    "region": "울산광역시"
  },
  {
    "name": "신언중학교 운동장",
    "address": "울산광역시 울주군 언양읍 서부리 291-26",
    "lat": 35.5673302854036,
    "lng": 129.11447972059972,
    "region": "울산광역시"
  },
  {
    "name": "반천초등학교(운동장)",
    "address": "울산광역시 울주군 언양읍 반천리 438",
    "lat": 35.555761567367284,
    "lng": 129.18332397937752,
    "region": "울산광역시"
  },
  {
    "name": "반곡초등학교(운동장)",
    "address": "울산광역시 울주군 언양읍 반곡리 709",
    "lat": 35.602969726611704,
    "lng": 129.1411401916877,
    "region": "울산광역시"
  },
  {
    "name": "언양초등학교(운동장)",
    "address": "울산광역시 울주군 언양읍 동부리 407-4",
    "lat": 35.57197955805022,
    "lng": 129.1264182329251,
    "region": "울산광역시"
  },
  {
    "name": "영화초등학교 운동장",
    "address": "울산광역시 울주군 언양읍 서부리 300",
    "lat": 35.56665392574785,
    "lng": 129.11604881286257,
    "region": "울산광역시"
  }
]