[
  {
    "name": "사랑애 펜션 앞 도로",
    "address": "부산 기장군 기장읍 죽성리 957",
    "lat": 35.2376781,
    "lng": 129.2418417,
    "region": "부산광역시"
  },
  {
    "name": "월전마을 야산 사거리",
    "address": "부산 기장군 기장읍 죽성리 296-1",
    "lat": 35.239763,
    "lng": 129.243485,
    "region": "부산광역시"
  },
  {
    "name": "왜성주차장",
    "address": "부산광역시 기장군 기장읍 두호길 8-16 ",
    "lat": 35.24103,
    "lng": 129.243623,
    "region": "부산광역시"
  },
  {
    "name": "한국유리 본관  앞 사거리",
    "address": "부산 기장군 일광읍 이천리 937",
    "lat": 35.2671096,
    "lng": 129.2394546,
    "region": "부산광역시"
  },
  {
    "name": "다미원수산 앞 도로",
    "address": "부산광역시 기장군 일광읍 일역길 75-13",
    "lat": 35.2611462,
    "lng": 129.2321026,
    "region": "부산광역시"
  },
  {
    "name": "푸른솔유치원 앞 도로",
    "address": "부산 기장군 일광읍 이천리 산 36-50",
    "lat": 35.2702105,
    "lng": 129.2321804,
    "region": "부산광역시"
  },
  {
    "name": "부경대수산과학연구소 앞 야산",
    "address": "부산 기장군 일광읍 동백리 251-5",
    "lat": 35.285179,
    "lng": 129.2566073,
    "region": "부산광역시"
  },
  {
    "name": "장안어린이집(공터)",
    "address": "부산광역시 기장군 장안읍 해맞이로 167",
    "lat": 35.3170621,
    "lng": 129.2590213,
    "region": "부산광역시"
  },
  {
    "name": "임랑야산(대덕사) 입구",
    "address": "부산 기장군 장안읍 임랑리 97-10",
    "lat": 35.3187583,
    "lng": 129.2609659,
    "region": "부산광역시"
  },
  {
    "name": "묘관음사 앞 도로",
    "address": "부산 기장군 장안읍 임랑리 산 2-24",
    "lat": 35.3216755,
    "lng": 129.2661077,
    "region": "부산광역시"
  },
  {
    "name": "일광읍 공터",
    "address": "부산 기장군 일광읍 문동리 296-6",
    "lat": 35.3080381,
    "lng": 129.2568567,
    "region": "부산광역시"
  },
  {
    "name": "송도탑스빌 광장",
    "address": "부산광역시 서구 충무대로 56(암남동, 송도탑스빌)",
    "lat": 35.0778887,
    "lng": 129.0184861,
    "region": "부산광역시"
  },
  {
    "name": "서암마을 뒤 신도로",
    "address": "부산 기장군 기장읍 연화리 507",
    "lat": 35.2154544,
    "lng": 129.2222428,
    "region": "부산광역시"
  },
  {
    "name": "신암마을 뒤 신도로1",
    "address": "부산 기장군 기장읍 연화리 276-3",
    "lat": 35.216698,
    "lng": 129.223647,
    "region": "부산광역시"
  },
  {
    "name": "신암마을 뒤 신도로2",
    "address": "부산 기장군 기장읍 연화리 193",
    "lat": 35.21908,
    "lng": 129.22487,
    "region": "부산광역시"
  },
  {
    "name": "신암마을 교차로",
    "address": "부산 기장군 기장읍 연화리 산 1-11",
    "lat": 35.220273,
    "lng": 129.2264271,
    "region": "부산광역시"
  },
  {
    "name": "칠암초등학교",
    "address": "부산광역시 기장군 일광읍 박영준길 19",
    "lat": 35.2984635,
    "lng": 129.2554593,
    "region": "부산광역시"
  },
  {
    "name": "암남공원",
    "address": "부산 서구 암남동 620-36",
    "lat": 35.0624693,
    "lng": 129.0201706,
    "region": "부산광역시"
  },
  {
    "name": "BMC 아파트 테니스장",
    "address": "부산광역시 사하구 다대로 430",
    "lat": 35.0646119,
    "lng": 128.9787885,
    "region": "부산광역시"
  },
  {
    "name": "두송종합사회복지관 앞 주차장",
    "address": "부산광역시 사하구 다송로 59(다대동, 다대4지구도개공영구임대아파트)",
    "lat": 35.0623,
    "lng": 128.9848,
    "region": "부산광역시"
  },
  {
    "name": "수영구청",
    "address": "부산광역시 수영구 남천동로 100(남천동)",
    "lat": 35.1453222,
    "lng": 129.1128912,
    "region": "부산광역시"
  },
  {
    "name": "코오롱하늘채아파트",
    "address": "부산광역시 수영구 남천동로 33(남천동)",
    "lat": 35.1424342,
    "lng": 129.1123216,
    "region": "부산광역시"
  },
  {
    "name": "민락초등학교 운동장",
    "address": "부산광역시 수영구 광남로257번길 12(민락동)",
    "lat": 35.16081269276683,
    "lng": 129.1268676121317,
    "region": "부산광역시"
  },
  {
    "name": "민락동행정복지센터",
    "address": "부산광역시 수영구 광안해변로295번길 20(민락동)",
    "lat": 35.1573369,
    "lng": 129.125399,
    "region": "부산광역시"
  },
  {
    "name": "백산",
    "address": "부산광역시 수영구 광남로257번길 58(민락동)",
    "lat": 35.1621787,
    "lng": 129.1254473,
    "region": "부산광역시"
  },
  {
    "name": "송도해수욕장 공영주차장",
    "address": "부산광역시 서구 암남공원로 25(암남동)",
    "lat": 35.0739463,
    "lng": 129.0154874,
    "region": "부산광역시"
  },
  {
    "name": "송도초등학교 운동장",
    "address": "부산광역시 서구 충무대로 25(암남동)",
    "lat": 35.07831211029459,
    "lng": 129.01565182030984,
    "region": "부산광역시"
  },
  {
    "name": "국립수산과학원 정문 앞 도로",
    "address": "부산 기장군 기장읍 시랑리 170-14",
    "lat": 35.1946844,
    "lng": 129.2212906,
    "region": "부산광역시"
  },
  {
    "name": "힐튼호텔  앞 도로",
    "address": "부산 기장군 기장읍 시랑리 708",
    "lat": 35.1976062,
    "lng": 129.2251825,
    "region": "부산광역시"
  },
  {
    "name": "대항주차장",
    "address": "부산 강서구 대항동 산 13-26",
    "lat": 35.0118219,
    "lng": 128.8299644,
    "region": "부산광역시"
  },
  {
    "name": "대항마을진입로",
    "address": "부산 강서구 대항동 396-2",
    "lat": 35.0145042,
    "lng": 128.8275746,
    "region": "부산광역시"
  },
  {
    "name": "(구)외양포 가는길",
    "address": "부산 강서구 대항동 산 13-29",
    "lat": 35.0098118,
    "lng": 128.8250935,
    "region": "부산광역시"
  },
  {
    "name": "송림공원",
    "address": "부산광역시 서구 송도해변로 171(암남동)",
    "lat": 35.0767604,
    "lng": 129.0230513,
    "region": "부산광역시"
  },
  {
    "name": "암남동 주민센터 주차장",
    "address": "부산 서구 암남동 85-18",
    "lat": 35.079715,
    "lng": 129.0208572,
    "region": "부산광역시"
  },
  {
    "name": "대항교회",
    "address": "부산광역시 기장군 기장읍 대변로 149",
    "lat": 35.226286,
    "lng": 129.228664,
    "region": "부산광역시"
  },
  {
    "name": "대변항 입구 교차로",
    "address": "부산 기장군 기장읍 대변리 450",
    "lat": 35.223734,
    "lng": 129.22629,
    "region": "부산광역시"
  },
  {
    "name": "힐타운 앞 도로",
    "address": "부산 기장군 기장읍 대변리 266",
    "lat": 35.222954,
    "lng": 129.231306,
    "region": "부산광역시"
  },
  {
    "name": "고리스포츠문화센터",
    "address": "부산광역시 기장군 장안읍 해맞이로 454",
    "lat": 35.3298928,
    "lng": 129.2875385,
    "region": "부산광역시"
  },
  {
    "name": "기장문화예절학교",
    "address": "부산광역시 기장군 장안읍 해맞이로 311-31 ",
    "lat": 35.3256212,
    "lng": 129.2685592,
    "region": "부산광역시"
  },
  {
    "name": "월내야산(삼막골)",
    "address": "부산 기장군 장안읍 월내리 284",
    "lat": 35.3296915,
    "lng": 129.2777538,
    "region": "부산광역시"
  },
  {
    "name": "송도공원(식당)주차장",
    "address": "부산광역시 서구 암남공원로 75(암남동)",
    "lat": 35.0706447,
    "lng": 129.0180141,
    "region": "부산광역시"
  },
  {
    "name": "공수마을 뒷산(멍두산)",
    "address": "부산 기장군 기장읍 시랑리 689",
    "lat": 35.1841057,
    "lng": 129.2087057,
    "region": "부산광역시"
  },
  {
    "name": "당사마을 정자 앞 도로",
    "address": "부산 기장군 기장읍 당사리 507",
    "lat": 35.1860857,
    "lng": 129.20986,
    "region": "부산광역시"
  },
  {
    "name": "죽도공원",
    "address": "부산 해운대구 송정동 산 52-1",
    "lat": 35.1798417,
    "lng": 129.2056614,
    "region": "부산광역시"
  },
  {
    "name": "송정동 행정복지센터",
    "address": "부산광역시 해운대구 송정중앙로21번길 20(송정동)",
    "lat": 35.1835905,
    "lng": 129.2036819,
    "region": "부산광역시"
  },
  {
    "name": "몰운대공터",
    "address": "부산 사하구 다대동 산 144",
    "lat": 35.0431082,
    "lng": 128.9690431,
    "region": "부산광역시"
  },
  {
    "name": "중현초등학교 운동장",
    "address": "부산광역시 사하구 다대낙조2길 8(다대동)",
    "lat": 35.0505690103822,
    "lng": 128.96658539772676,
    "region": "부산광역시"
  },
  {
    "name": "한바다중학교 운동장",
    "address": "부산광역시 수영구 광안로21번가길 57",
    "lat": 35.1569729,
    "lng": 129.1180122,
    "region": "부산광역시"
  },
  {
    "name": "광안초등학교 운동장",
    "address": "부산광역시 수영구 광안로35번길 38(광안동)",
    "lat": 35.156861,
    "lng": 129.117096,
    "region": "부산광역시"
  },
  {
    "name": "문오성공원",
    "address": "부산 기장군 일광읍 신평리 112",
    "lat": 35.2967035,
    "lng": 129.2539358,
    "region": "부산광역시"
  },
  {
    "name": "동생말 언덕",
    "address": "부산 남구 용호동 산 6-1",
    "lat": 35.1285486,
    "lng": 129.118334,
    "region": "부산광역시"
  },
  {
    "name": "학리마을 뒷산",
    "address": "부산 기장군 일광읍 학리 160-4",
    "lat": 35.2569652,
    "lng": 129.2432955,
    "region": "부산광역시"
  },
  {
    "name": "이동마을 뒷산",
    "address": "부산 기장군 일광읍 이천리 226",
    "lat": 35.2735128,
    "lng": 129.2435932,
    "region": "부산광역시"
  },
  {
    "name": "동백공원 정상",
    "address": "부산 해운대구 우동 719-2",
    "lat": 35.154811,
    "lng": 129.152049,
    "region": "부산광역시"
  },
  {
    "name": "달맞이 고개",
    "address": "부산광역시 해운대구 달맞이길 64(중동)",
    "lat": 35.1606218,
    "lng": 129.1718736,
    "region": "부산광역시"
  },
  {
    "name": "해운대구청",
    "address": "부산광역시 해운대구 중동2로 11(중동)",
    "lat": 35.1631,
    "lng": 129.1637,
    "region": "부산광역시"
  },
  {
    "name": "해운대구관광시설관리사업소",
    "address": "부산 해운대구 우동 649-8",
    "lat": 35.1591087,
    "lng": 129.1574621,
    "region": "부산광역시"
  }
]