[
  {
    "name": "낙산사 야산",
    "address": "강원특별자치도 양양군 강현면 전진리 산 8-2",
    "lat": 38.1224306,
    "lng": 128.6304586,
    "region": "강원특별자치도"
  },
  {
    "name": "주청리 야산",
    "address": "강원특별자치도 양양군 강현면 주청리 산 6-2",
    "lat": 38.1154,
    "lng": 128.6277,
    "region": "강원특별자치도"
  },
  {
    "name": "(구)측후소 고지대",
    "address": "강원특별자치도 속초시 중앙동 469-20",
    "lat": 38.206561954225194,
    "lng": 128.59151861038842,
    "region": "강원특별자치도"
  },
  {
    "name": "설악대교",
    "address": "강원특별자치도 속초시 설악금강대교로 115(청호동)",
    "lat": 38.2004539,
    "lng": 128.5937677,
    "region": "강원특별자치도"
  },
  {
    "name": "금강대교",
    "address": "강원특별자치도 속초시 아바이마을길 27-2 (청호동)",
    "lat": 38.2040875,
    "lng": 128.593419,
    "region": "강원특별자치도"
  },
  {
    "name": "갈남전망대",
    "address": "강원특별자치도 삼척시 원덕읍 갈남리 102-6",
    "lat": 37.2807032,
    "lng": 129.3233557,
    "region": "강원특별자치도"
  },
  {
    "name": "갈남마을회관뒤공터",
    "address": "강원특별자치도 삼척시 원덕읍 갈남길 108",
    "lat": 37.2780773,
    "lng": 129.3260851,
    "region": "강원특별자치도"
  },
  {
    "name": "동명동성당 고지대",
    "address": "강원특별자치도 속초시 영랑로7길 10-5 (영랑동)",
    "lat": 38.213186,
    "lng": 128.5954363,
    "region": "강원특별자치도"
  },
  {
    "name": "물치리 야산 ",
    "address": "강원특별자치도 양양군 강현면 물치리 산 12",
    "lat": 38.1563818,
    "lng": 128.6081685,
    "region": "강원특별자치도"
  },
  {
    "name": "옥계역",
    "address": "강원특별자치도 강릉시 옥계면 동해대로 241-6 ",
    "lat": 37.6167058,
    "lng": 129.0499677,
    "region": "강원특별자치도"
  },
  {
    "name": "한국여성수련원",
    "address": "강원특별자치도 강릉시 옥계면 금진솔밭길 148-19 ",
    "lat": 37.629553,
    "lng": 129.0461183,
    "region": "강원특별자치도"
  },
  {
    "name": "기마봉야산",
    "address": "강원특별자치도 강릉시 옥계면 금진리 산 96",
    "lat": 37.6388056,
    "lng": 129.0414405,
    "region": "강원특별자치도"
  },
  {
    "name": " 기곡마을 입구",
    "address": "강원특별자치도 동해시 망상동 409-16",
    "lat": 37.5961376,
    "lng": 129.0805176,
    "region": "강원특별자치도"
  },
  {
    "name": "어달마을내 도로",
    "address": "강원특별자치도 동해시 어달동 134-5",
    "lat": 37.5671315,
    "lng": 129.1177091,
    "region": "강원특별자치도"
  },
  {
    "name": "어달 소공원",
    "address": "강원특별자치도 동해시 어달동 47",
    "lat": 37.5654795,
    "lng": 129.1187793,
    "region": "강원특별자치도"
  },
  {
    "name": "리즈카페 뒤",
    "address": "강원특별자치도 동해시 어달동 38-15",
    "lat": 37.5634597,
    "lng": 129.1192192,
    "region": "강원특별자치도"
  },
  {
    "name": "도시어부 뒤",
    "address": "강원특별자치도 동해시 일출로 211-5 (어달동)",
    "lat": 37.5608509,
    "lng": 129.1196617,
    "region": "강원특별자치도"
  },
  {
    "name": "강릉교회",
    "address": "강원특별자치도 강릉시 해안로 333(강문동)",
    "lat": 37.79355,
    "lng": 128.9162028,
    "region": "강원특별자치도"
  },
  {
    "name": "강릉고등학교  체육관",
    "address": "강원특별자치도 강릉시 강릉대로587번길 68(초당동)",
    "lat": 37.7880136,
    "lng": 128.9168358,
    "region": "강원특별자치도"
  },
  {
    "name": "경포산장콘도 공터",
    "address": "강원특별자치도 강릉시 하남길 345-18 (안현동)",
    "lat": 37.8096017,
    "lng": 128.9002812,
    "region": "강원특별자치도"
  },
  {
    "name": "씨마크호텔 ",
    "address": "강원특별자치도 강릉시 해안로406번길 2(강문동)",
    "lat": 37.797115,
    "lng": 128.9152157,
    "region": "강원특별자치도"
  },
  {
    "name": "현대아파트 앞 야산",
    "address": "강원특별자치도 강릉시 저동 산 10",
    "lat": 37.8016123,
    "lng": 128.8999164,
    "region": "강원특별자치도"
  },
  {
    "name": "강릉원주대학해양생물",
    "address": "강원특별자치도 강릉시 사천면 해안로 1166",
    "lat": 37.8509955,
    "lng": 128.8616687,
    "region": "강원특별자치도"
  },
  {
    "name": "어촌민속전시관공터",
    "address": "강원특별자치도 삼척시 원덕읍 삼척로 1852-6 ",
    "lat": 37.2676964,
    "lng": 129.3273103,
    "region": "강원특별자치도"
  },
  {
    "name": "돌기해삼종묘배양장",
    "address": "강원특별자치도 삼척시 원덕읍 신남길 27",
    "lat": 37.2659994,
    "lng": 129.3238503,
    "region": "강원특별자치도"
  },
  {
    "name": "동산리 야산",
    "address": "강원특별자치도 양양군 현남면 동산리 58-1",
    "lat": 37.98,
    "lng": 128.7591,
    "region": "강원특별자치도"
  },
  {
    "name": "곰두리연수원 공터",
    "address": "강원특별자치도 강릉시 강동면 헌화로 740-40 ",
    "lat": 37.6671585,
    "lng": 129.0508574,
    "region": "강원특별자치도"
  },
  {
    "name": "정라마을회관뒤공터",
    "address": "강원특별자치도 삼척시 정하동 산 3-4",
    "lat": 37.4422055,
    "lng": 129.1877089,
    "region": "강원특별자치도"
  },
  {
    "name": "척주동해비",
    "address": "강원특별자치도 삼척시 허목길 13-7 (정상동)",
    "lat": 37.4355741,
    "lng": 129.1847724,
    "region": "강원특별자치도"
  },
  {
    "name": "감로사공터",
    "address": "강원특별자치도 삼척시 영진안길 72(정상동)",
    "lat": 37.4407075,
    "lng": 129.1844473,
    "region": "강원특별자치도"
  },
  {
    "name": "남초등학교뒷산",
    "address": "강원특별자치도 삼척시 오분동 산 55",
    "lat": 37.4253939,
    "lng": 129.186253,
    "region": "강원특별자치도"
  },
  {
    "name": "오분마을회관뒤공터",
    "address": "강원특별자치도 삼척시 오분동 산 14-10",
    "lat": 37.4280011,
    "lng": 129.1895328,
    "region": "강원특별자치도"
  },
  {
    "name": "오분파출소뒷산",
    "address": "강원특별자치도 삼척시 오분1길 72-56 (오분동)",
    "lat": 37.4304113,
    "lng": 129.1888762,
    "region": "강원특별자치도"
  },
  {
    "name": "노실분교운동장",
    "address": "강원특별자치도 삼척시 원덕읍 노실길 81-21 ",
    "lat": 37.2021481,
    "lng": 129.3417299,
    "region": "강원특별자치도"
  },
  {
    "name": "하광정리 야산",
    "address": "강원특별자치도 양양군 현북면 조준길 40",
    "lat": 38.0201,
    "lng": 128.7281,
    "region": "강원특별자치도"
  },
  {
    "name": "노인요양원앞공터",
    "address": "강원특별자치도 삼척시 근덕면 덕산리 2-1",
    "lat": 37.3800729,
    "lng": 129.2492065,
    "region": "강원특별자치도"
  },
  {
    "name": "솔바람민박앞공터",
    "address": "강원특별자치도 삼척시 근덕면 덕산리 448",
    "lat": 37.3807445,
    "lng": 129.2427486,
    "region": "강원특별자치도"
  },
  {
    "name": "육군 2191부대",
    "address": "강원특별자치도 강릉시 연곡면 영진리 137",
    "lat": 37.8668,
    "lng": 128.8466,
    "region": "강원특별자치도"
  },
  {
    "name": "아남프라자",
    "address": "강원특별자치도 속초시 동해대로 4236(교동)",
    "lat": 38.1972412,
    "lng": 128.5776946,
    "region": "강원특별자치도"
  },
  {
    "name": "공양왕릉앞공터",
    "address": "강원특별자치도 삼척시 근덕면 궁촌리 178",
    "lat": 37.3261388,
    "lng": 129.2661774,
    "region": "강원특별자치도"
  },
  {
    "name": "궁촌침례교회공터",
    "address": "강원특별자치도 삼척시 근덕면 궁촌길 40",
    "lat": 37.3212757,
    "lng": 129.2653003,
    "region": "강원특별자치도"
  },
  {
    "name": "금메달주유소뒷산",
    "address": "강원특별자치도 삼척시 근덕면 매원리 35-4",
    "lat": 37.3165424,
    "lng": 129.2715338,
    "region": "강원특별자치도"
  },
  {
    "name": "장호중학교뒤공터",
    "address": "강원특별자치도 삼척시 근덕면 삼척로 2101",
    "lat": 37.2835659,
    "lng": 129.3116612,
    "region": "강원특별자치도"
  },
  {
    "name": "장호마을주차장",
    "address": "강원특별자치도 삼척시 근덕면 장호항길 49",
    "lat": 37.2853329,
    "lng": 129.3187981,
    "region": "강원특별자치도"
  },
  {
    "name": "월천마을공터",
    "address": "강원특별자치도 삼척시 원덕읍 고포월천길 257",
    "lat": 37.1567296,
    "lng": 129.355672,
    "region": "강원특별자치도"
  },
  {
    "name": "용호리 야산",
    "address": "강원특별자치도 양양군 강현면 용호리 산 1-3",
    "lat": 38.1344721,
    "lng": 128.6201967,
    "region": "강원특별자치도"
  },
  {
    "name": "수산리 야산2",
    "address": "강원특별자치도 양양군 손양면 수산2길 7",
    "lat": 38.07890159758433,
    "lng": 128.67065152158412,
    "region": "강원특별자치도"
  },
  {
    "name": "인구야산",
    "address": "강원특별자치도 양양군 현남면 인구항길 24",
    "lat": 37.9716,
    "lng": 128.7626,
    "region": "강원특별자치도"
  },
  {
    "name": "천주교 야산",
    "address": "강원특별자치도 양양군 현남면 인구중앙길 71",
    "lat": 37.9704,
    "lng": 128.7597,
    "region": "강원특별자치도"
  },
  {
    "name": "휴휴암 야산",
    "address": "강원특별자치도 양양군 현남면 광진리 44",
    "lat": 37.9591,
    "lng": 128.7681,
    "region": "강원특별자치도"
  },
  {
    "name": "대진동 공터",
    "address": "강원특별자치도 동해시 대진동 196-4",
    "lat": 37.5798228,
    "lng": 129.112578,
    "region": "강원특별자치도"
  },
  {
    "name": "단병골 입구",
    "address": "강원특별자치도 동해시 대진동 143-9",
    "lat": 37.5769233,
    "lng": 129.1139513,
    "region": "강원특별자치도"
  },
  {
    "name": " 속초시하수처리사업소 고지대",
    "address": "강원특별자치도 속초시 해오름로 99(대포동)",
    "lat": 38.1828791,
    "lng": 128.6045108,
    "region": "강원특별자치도"
  },
  {
    "name": "이사부공원",
    "address": "강원특별자치도 삼척시 수로부인길 333(증산동)",
    "lat": 37.4746239,
    "lng": 129.1590661,
    "region": "강원특별자치도"
  },
  {
    "name": "쏠비치주차장1",
    "address": "강원특별자치도 삼척시 수로부인길 453(갈천동)",
    "lat": 37.4708,
    "lng": 129.1637,
    "region": "강원특별자치도"
  },
  {
    "name": "심심사앞공터",
    "address": "강원특별자치도 삼척시 수로부인길 453(갈천동)",
    "lat": 37.4728997,
    "lng": 129.1606405,
    "region": "강원특별자치도"
  },
  {
    "name": "속초조양동선사유적 고지대",
    "address": "강원특별자치도 속초시 조양동 1529",
    "lat": 38.18818090251858,
    "lng": 128.59052230695005,
    "region": "강원특별자치도"
  },
  {
    "name": "속초ES아뜨리움아파트 주차장",
    "address": "강원특별자치도 속초시 조양로 40(조양동, 속초조양동 E.S 아뜨리움)",
    "lat": 38.18759827745782,
    "lng": 128.59720832234396,
    "region": "강원특별자치도"
  },
  {
    "name": "속초등대전망대 고지대",
    "address": "강원특별자치도 속초시 영랑동 1-2",
    "lat": 38.21363831900522,
    "lng": 128.60023822789705,
    "region": "강원특별자치도"
  },
  {
    "name": "황영조기념관",
    "address": "강원특별자치도 삼척시 근덕면 초곡리 64",
    "lat": 37.3076329,
    "lng": 129.294214,
    "region": "강원특별자치도"
  },
  {
    "name": "초곡마을입구공터",
    "address": "강원특별자치도 삼척시 근덕면 초곡리 406-11",
    "lat": 37.3106674,
    "lng": 129.2847941,
    "region": "강원특별자치도"
  },
  {
    "name": "남화산공원",
    "address": "강원특별자치도 삼척시 원덕읍 임원리 45",
    "lat": 37.2312748,
    "lng": 129.3469072,
    "region": "강원특별자치도"
  },
  {
    "name": "국도옆공터",
    "address": "강원특별자치도 삼척시 원덕읍 임원리 412-3",
    "lat": 37.2308687,
    "lng": 129.3420517,
    "region": "강원특별자치도"
  },
  {
    "name": "임원마을회관옆공터",
    "address": "강원특별자치도 삼척시 원덕읍 임원중앙로 19-75 ",
    "lat": 37.2334015,
    "lng": 129.345147,
    "region": "강원특별자치도"
  },
  {
    "name": "동호리 야산1",
    "address": "강원특별자치도 양양군 손양면 동호리 산 44",
    "lat": 38.058,
    "lng": 128.6801,
    "region": "강원특별자치도"
  },
  {
    "name": "동호리 야산2(공항도로)",
    "address": "강원특별자치도 양양군 손양면 동호리 563-8",
    "lat": 38.05423354373853,
    "lng": 128.68026768819172,
    "region": "강원특별자치도"
  },
  {
    "name": "원포야산",
    "address": "강원특별자치도 양양군 현남면 원포리 8",
    "lat": 37.9298,
    "lng": 128.7912,
    "region": "강원특별자치도"
  },
  {
    "name": "지경야산",
    "address": "강원특별자치도 양양군 현남면 지경리 산 1-1",
    "lat": 37.9196,
    "lng": 128.7969,
    "region": "강원특별자치도"
  },
  {
    "name": "노봉해수욕장 내 야산",
    "address": "강원특별자치도 동해시 망상동 170-1",
    "lat": 37.5882803,
    "lng": 129.0982175,
    "region": "강원특별자치도"
  },
  {
    "name": "목재유통센터",
    "address": "강원특별자치도 동해시 동해대로 6100(망상동)",
    "lat": 37.5816572,
    "lng": 129.0995264,
    "region": "강원특별자치도"
  },
  {
    "name": "노봉택지",
    "address": "강원특별자치도 동해시 망상동 14-5",
    "lat": 37.58218646675659,
    "lng": 129.10551846027545,
    "region": "강원특별자치도"
  },
  {
    "name": "세인트컨벤션 웨딩홀",
    "address": "강원특별자치도 강릉시 공항길127번길 19(남항진동)",
    "lat": 37.7651426,
    "lng": 128.9496768,
    "region": "강원특별자치도"
  },
  {
    "name": "천진리뒷산",
    "address": "강원특별자치도 고성군 토성면 천진리 산 32",
    "lat": 38.255495,
    "lng": 128.553032,
    "region": "강원특별자치도"
  },
  {
    "name": "백촌복지회관",
    "address": "강원특별자치도 고성군 토성면 백촌2길 4",
    "lat": 38.291983,
    "lng": 128.540417,
    "region": "강원특별자치도"
  },
  {
    "name": "롯데리조트속초 버스주차장",
    "address": "강원특별자치도 속초시 대포항길 186(대포동)",
    "lat": 38.1805831,
    "lng": 128.613204,
    "region": "강원특별자치도"
  },
  {
    "name": "청봉초등학교 운동장",
    "address": "강원특별자치도 속초시 조양로118번길 9(조양동)",
    "lat": 38.18780679632142,
    "lng": 128.58686632992143,
    "region": "강원특별자치도"
  },
  {
    "name": "속초농협하나로마트 엑스포점 옥상",
    "address": "강원특별자치도 속초시 동해대로 4202(교동)",
    "lat": 38.1943778,
    "lng": 128.5790019,
    "region": "강원특별자치도"
  },
  {
    "name": "경동대학교",
    "address": "강원특별자치도 고성군 토성면 봉포4길 46",
    "lat": 38.250808,
    "lng": 128.556357,
    "region": "강원특별자치도"
  },
  {
    "name": "속초기상대",
    "address": "강원특별자치도 고성군 토성면 봉포5길 9",
    "lat": 38.250728,
    "lng": 128.564404,
    "region": "강원특별자치도"
  },
  {
    "name": "문암군부대앞산",
    "address": "강원특별자치도 고성군 죽왕면 문암진리 산 1-8",
    "lat": 38.30344,
    "lng": 128.548043,
    "region": "강원특별자치도"
  },
  {
    "name": "문암진리앞산",
    "address": "강원특별자치도 고성군 죽왕면 동해대로 5540-8 ",
    "lat": 38.30018,
    "lng": 128.543018,
    "region": "강원특별자치도"
  },
  {
    "name": "오호초등학교뒷산",
    "address": "강원특별자치도 고성군 죽왕면 삼포리 215-5",
    "lat": 38.314178,
    "lng": 128.53121,
    "region": "강원특별자치도"
  },
  {
    "name": "동해비치호텔 위 마을 주차장",
    "address": "강원특별자치도 동해시 녹등길 8",
    "lat": 37.5578232,
    "lng": 129.1208902,
    "region": "강원특별자치도"
  },
  {
    "name": "속초감리교회 고지대",
    "address": "강원특별자치도 속초시 영랑로7길 10-8 (동명동)",
    "lat": 38.2123698,
    "lng": 128.5942618,
    "region": "강원특별자치도"
  },
  {
    "name": "맹방초등학교",
    "address": "강원특별자치도 삼척시 근덕면 삼척로 3874-47 ",
    "lat": 37.3986833,
    "lng": 129.2140932,
    "region": "강원특별자치도"
  },
  {
    "name": "초도항뒷산",
    "address": "강원특별자치도 고성군 현내면 초도리 84-14",
    "lat": 38.483667,
    "lng": 128.436931,
    "region": "강원특별자치도"
  },
  {
    "name": "대진중고등학교 운동장",
    "address": "강원특별자치도 고성군 현내면 화진포길 476",
    "lat": 38.484369971505934,
    "lng": 128.4330111514376,
    "region": "강원특별자치도"
  },
  {
    "name": "초도2리마을주차장",
    "address": "강원특별자치도 고성군 현내면 초도리 222-29",
    "lat": 38.488511,
    "lng": 128.430651,
    "region": "강원특별자치도"
  },
  {
    "name": "이승만별장",
    "address": "강원특별자치도 고성군 현내면 이승만별장길 33",
    "lat": 38.470895,
    "lng": 128.436434,
    "region": "강원특별자치도"
  },
  {
    "name": "금호생모리츠아파트 지상주차장",
    "address": "강원특별자치도 속초시 수복로 174",
    "lat": 38.2033049,
    "lng": 128.5882824,
    "region": "강원특별자치도"
  },
  {
    "name": "가진교회",
    "address": "강원특별자치도 고성군 죽왕면 가진해변길 65",
    "lat": 38.37254,
    "lng": 128.507909,
    "region": "강원특별자치도"
  },
  {
    "name": "가진항뒷산",
    "address": "강원특별자치도 고성군 죽왕면 가진리 46-14",
    "lat": 38.368111,
    "lng": 128.510808,
    "region": "강원특별자치도"
  },
  {
    "name": "동호리뒷산",
    "address": "강원특별자치도 고성군 간성읍 동호리 산 10-3",
    "lat": 38.391802,
    "lng": 128.476095,
    "region": "강원특별자치도"
  },
  {
    "name": "쏠비치주차장2",
    "address": "강원특별자치도 삼척시 수로부인길 453(갈천동)",
    "lat": 37.4721,
    "lng": 129.1632,
    "region": "강원특별자치도"
  },
  {
    "name": "동광초등학교 운동장",
    "address": "강원특별자치도 고성군 토성면 교암1길 15",
    "lat": 38.28835018579581,
    "lng": 128.5441602643492,
    "region": "강원특별자치도"
  },
  {
    "name": "천학정야산",
    "address": "강원특별자치도 고성군 토성면 교암리 177-6",
    "lat": 38.288391,
    "lng": 128.547534,
    "region": "강원특별자치도"
  },
  {
    "name": "강원도립대학교 중앙도서관",
    "address": "강원특별자치도 강릉시 주문진읍 연주로 270",
    "lat": 37.8770722,
    "lng": 128.8314503,
    "region": "강원특별자치도"
  },
  {
    "name": "강원도립대학교 청솔관",
    "address": "강원특별자치도 강릉시 주문진읍 연주로 270",
    "lat": 37.8780334,
    "lng": 128.8292831,
    "region": "강원특별자치도"
  },
  {
    "name": "강원특별자치도청 제2청사 글로벌관",
    "address": "강원특별자치도 강릉시 주문진읍 연주로 270",
    "lat": 37.8774406,
    "lng": 128.8294601,
    "region": "강원특별자치도"
  },
  {
    "name": "죽왕초등학교뒷산",
    "address": "강원특별자치도 고성군 죽왕면 오호리 산 39-1",
    "lat": 38.331667,
    "lng": 128.5227978,
    "region": "강원특별자치도"
  },
  {
    "name": "오호교회",
    "address": "강원특별자치도 고성군 죽왕면 오호2길 4-3 ",
    "lat": 38.32926,
    "lng": 128.5254881,
    "region": "강원특별자치도"
  },
  {
    "name": "삼포마을뒷산",
    "address": "강원특별자치도 고성군 죽왕면 삼포리 산 55-1",
    "lat": 38.315042,
    "lng": 128.529296,
    "region": "강원특별자치도"
  },
  {
    "name": "거진중학교 운동장",
    "address": "강원특별자치도 고성군 거진읍 거평로 69",
    "lat": 38.446750378929,
    "lng": 128.44848300786694,
    "region": "강원특별자치도"
  },
  {
    "name": "거진고등학교 고지대",
    "address": "강원특별자치도 고성군 거진읍 거탄진로 39-7 ",
    "lat": 38.4403293,
    "lng": 128.4506679,
    "region": "강원특별자치도"
  },
  {
    "name": "거성초등학교 운동장",
    "address": "강원특별자치도 고성군 거진읍 거성길 38",
    "lat": 38.45221938218686,
    "lng": 128.45757507202129,
    "region": "강원특별자치도"
  },
  {
    "name": "거진성황당 고지대",
    "address": "강원특별자치도 고성군 거진읍 빨래골길 14-3 ",
    "lat": 38.450475,
    "lng": 128.462411,
    "region": "강원특별자치도"
  },
  {
    "name": "하평 주차장",
    "address": "강원특별자치도 동해시 평릉동 84-1",
    "lat": 37.533873,
    "lng": 129.1157806,
    "region": "강원특별자치도"
  },
  {
    "name": "반암초소",
    "address": "강원특별자치도 고성군 거진읍 자산천로 82",
    "lat": 38.4231759,
    "lng": 128.4611928,
    "region": "강원특별자치도"
  },
  {
    "name": "반암리대피소",
    "address": "강원특별자치도 고성군 거진읍 자산천로 79-22 ",
    "lat": 38.423952,
    "lng": 128.459149,
    "region": "강원특별자치도"
  },
  {
    "name": "공현진초등학교 운동장",
    "address": "강원특별자치도 고성군 죽왕면 공현진한옥길 49",
    "lat": 38.35371762050836,
    "lng": 128.50758054864556,
    "region": "강원특별자치도"
  },
  {
    "name": "공현진교회",
    "address": "강원특별자치도 고성군 죽왕면 공현진1길 20",
    "lat": 38.355317,
    "lng": 128.509234,
    "region": "강원특별자치도"
  },
  {
    "name": "송지호오토캠핑장뒷산",
    "address": "강원특별자치도 고성군 죽왕면 오봉리 12-2",
    "lat": 38.3417992,
    "lng": 128.5118866,
    "region": "강원특별자치도"
  },
  {
    "name": "동해대로 공터",
    "address": "강원특별자치도 속초시 동해대로 4162-10",
    "lat": 38.19090623607523,
    "lng": 128.58101898146427,
    "region": "강원특별자치도"
  },
  {
    "name": "속초아이파크아파트 중앙공원",
    "address": "강원특별자치도 속초시 청호로 22(청호동, 속초청호아이파크)",
    "lat": 38.19267015771683,
    "lng": 128.5994877427321,
    "region": "강원특별자치도"
  },
  {
    "name": "리센오션파크호텔 옥상",
    "address": "강원특별자치도 속초시 해오름로 167(조양동)",
    "lat": 38.1890871,
    "lng": 128.6032228,
    "region": "강원특별자치도"
  },
  {
    "name": "현내면공설운동장",
    "address": "강원특별자치도 고성군 현내면 동해대로 8299",
    "lat": 38.500797,
    "lng": 128.41861,
    "region": "강원특별자치도"
  },
  {
    "name": "대진초등학교 운동장",
    "address": "강원특별자치도 고성군 현내면 대진3길 15",
    "lat": 38.49660732828902,
    "lng": 128.42367057170668,
    "region": "강원특별자치도"
  },
  {
    "name": "대진감리교회",
    "address": "강원특별자치도 고성군 현내면 한나루로 81",
    "lat": 38.495172,
    "lng": 128.426748,
    "region": "강원특별자치도"
  },
  {
    "name": "명파교회",
    "address": "강원특별자치도 고성군 현내면 금강산로 799-11 ",
    "lat": 38.53826,
    "lng": 128.401411,
    "region": "강원특별자치도"
  },
  {
    "name": "아야진초등학교 운동장",
    "address": "강원특별자치도 고성군 토성면 아야진길 15",
    "lat": 38.27315877414786,
    "lng": 128.5496219576076,
    "region": "강원특별자치도"
  },
  {
    "name": "아야진침례교회",
    "address": "강원특별자치도 고성군 토성면 아야진해변1길 6",
    "lat": 38.272221,
    "lng": 128.555158,
    "region": "강원특별자치도"
  },
  {
    "name": "씨크루즈호텔속초 옥상",
    "address": "강원특별자치도 속초시 청초호반로 273(청학동)",
    "lat": 38.20130798688603,
    "lng": 128.58705395162434,
    "region": "강원특별자치도"
  },
  {
    "name": "속초시청직원전용주차장 고지대",
    "address": "강원특별자치도 속초시 중앙로 183",
    "lat": 38.207659836046375,
    "lng": 128.59162833709397,
    "region": "강원특별자치도"
  },
  {
    "name": "천주교교동교회 주차장",
    "address": "강원특별자치도 속초시 수복로 75(교동)",
    "lat": 38.20012075604814,
    "lng": 128.57793253605672,
    "region": "강원특별자치도"
  },
  {
    "name": "낙산사 야산",
    "address": "강원특별자치도 양양군 강현면 전진리 58-1",
    "lat": 38.12775864001962,
    "lng": 128.62428027081316,
    "region": "강원특별자치도"
  },
  {
    "name": "양우아파트 고지대",
    "address": "강원특별자치도 속초시 영랑로4길 10(영랑동, 양우비치타워맨션)",
    "lat": 38.215955595265676,
    "lng": 128.59266807404856,
    "region": "강원특별자치도"
  },
  {
    "name": "삼척MBC공터",
    "address": "강원특별자치도 삼척시 새천년도로 629-59 (갈천동)",
    "lat": 37.4636818,
    "lng": 129.163484,
    "region": "강원특별자치도"
  },
  {
    "name": "삼척복합체육공원축구장",
    "address": "강원특별자치도 삼척시 교동 798",
    "lat": 37.4602626,
    "lng": 129.1738129,
    "region": "강원특별자치도"
  },
  {
    "name": "가세마을 야산",
    "address": "강원특별자치도 동해시 천곡동 1-4",
    "lat": 37.5290851,
    "lng": 129.1212603,
    "region": "강원특별자치도"
  },
  {
    "name": "법원삼거리 옆 산책로",
    "address": "강원특별자치도 동해시 천곡동 1090-14",
    "lat": 37.5225035,
    "lng": 129.1200078,
    "region": "강원특별자치도"
  },
  {
    "name": "고성산",
    "address": "강원특별자치도 강릉시 강동면 정동1길 13-2 ",
    "lat": 37.6897531,
    "lng": 129.0337777,
    "region": "강원특별자치도"
  },
  {
    "name": "정동초등학교  체육관",
    "address": "강원특별자치도 강릉시 강동면 헌화로 1055",
    "lat": 37.6872551,
    "lng": 129.0338343,
    "region": "강원특별자치도"
  },
  {
    "name": "바다부채길  대형버스",
    "address": "강원특별자치도 강릉시 강동면 헌화로 923",
    "lat": 37.6810427,
    "lng": 129.0415173,
    "region": "강원특별자치도"
  },
  {
    "name": " 해군전적비",
    "address": "강원특별자치도 동해시 망상동 396-38",
    "lat": 37.594261,
    "lng": 129.0846455,
    "region": "강원특별자치도"
  },
  {
    "name": " 망상초등학교 옆",
    "address": "강원특별자치도 동해시 망상동 360-5",
    "lat": 37.5911198,
    "lng": 129.0898356,
    "region": "강원특별자치도"
  },
  {
    "name": "일출공원",
    "address": "강원특별자치도 동해시 묵호진동 2-126",
    "lat": 37.5554374,
    "lng": 129.1204959,
    "region": "강원특별자치도"
  },
  {
    "name": "논골도로",
    "address": "강원특별자치도 동해시 묵호진동 102-9",
    "lat": 37.5541425,
    "lng": 129.1163009,
    "region": "강원특별자치도"
  },
  {
    "name": "산제골도로",
    "address": "강원특별자치도 동해시 묵호시장길 9-12 (묵호진동)",
    "lat": 37.5537958585943,
    "lng": 129.11372333765206,
    "region": "강원특별자치도"
  },
  {
    "name": "묵호대교",
    "address": "강원특별자치도 동해시 발한동 80-303",
    "lat": 37.5416531,
    "lng": 129.1111913,
    "region": "강원특별자치도"
  },
  {
    "name": "감추사 해안도로 주차",
    "address": "강원특별자치도 동해시 용정동 505",
    "lat": 37.51507246674662,
    "lng": 129.1246291995067,
    "region": "강원특별자치도"
  },
  {
    "name": "만경대",
    "address": "강원특별자치도 동해시 구미동 산 53",
    "lat": 37.4871437,
    "lng": 129.1368815,
    "region": "강원특별자치도"
  },
  {
    "name": "하수종말처리장",
    "address": "강원특별자치도 동해시 구미동 산 5-9",
    "lat": 37.490136,
    "lng": 129.1436541,
    "region": "강원특별자치도"
  },
  {
    "name": "할미바위 옆 쉼터",
    "address": "강원특별자치도 동해시 구미동 산 5-1",
    "lat": 37.4906596,
    "lng": 129.1456068,
    "region": "강원특별자치도"
  },
  {
    "name": "추암 조각공원",
    "address": "강원특별자치도 동해시 추암동 477",
    "lat": 37.4795027,
    "lng": 129.1577518,
    "region": "강원특별자치도"
  },
  {
    "name": "북평공단 소공원",
    "address": "강원특별자치도 동해시 추암동 513-2",
    "lat": 37.4792366,
    "lng": 129.1560245,
    "region": "강원특별자치도"
  },
  {
    "name": "추암택지",
    "address": "강원특별자치도 동해시 추암동 24-2",
    "lat": 37.4758138,
    "lng": 129.1561666,
    "region": "강원특별자치도"
  },
  {
    "name": "대포초등학교 운동장",
    "address": "강원특별자치도 속초시 동해대로 3797(대포동)",
    "lat": 38.1738318918052,
    "lng": 128.60373395920158,
    "region": "강원특별자치도"
  },
  {
    "name": "대포항전망대",
    "address": "강원특별자치도 속초시 대포항1길 16-8 (대포동)",
    "lat": 38.176207,
    "lng": 128.6076543,
    "region": "강원특별자치도"
  },
  {
    "name": "마레몬스호텔 고지대",
    "address": "강원특별자치도 속초시 동해대로 3705(대포동)",
    "lat": 38.16701280378578,
    "lng": 128.6060342376102,
    "region": "강원특별자치도"
  },
  {
    "name": "관덕정",
    "address": "강원특별자치도 삼척시 근덕면 교가리 692-18",
    "lat": 37.3800554,
    "lng": 129.222569,
    "region": "강원특별자치도"
  },
  {
    "name": "맹방산림욕장입구공터",
    "address": "강원특별자치도 삼척시 근덕면 하맹방리 221-7",
    "lat": 37.3920753,
    "lng": 129.2281351,
    "region": "강원특별자치도"
  },
  {
    "name": "성황당옆대로",
    "address": "강원특별자치도 삼척시 근덕면 용화리 298-1",
    "lat": 37.2885951,
    "lng": 129.2983282,
    "region": "강원특별자치도"
  },
  {
    "name": "해상케이블카(용화역)",
    "address": "강원특별자치도 삼척시 근덕면 삼척로 2154-31 ",
    "lat": 37.2891246,
    "lng": 129.308228,
    "region": "강원특별자치도"
  },
  {
    "name": "장호용화관광랜드",
    "address": "강원특별자치도 삼척시 근덕면 삼척로 2154",
    "lat": 37.2862996,
    "lng": 129.3090863,
    "region": "강원특별자치도"
  },
  {
    "name": "해망정",
    "address": "강원특별자치도 삼척시 근덕면 용화리 192-2",
    "lat": 37.2885561,
    "lng": 129.3034451,
    "region": "강원특별자치도"
  },
  {
    "name": "빗물펌프장뒤공터",
    "address": "강원특별자치도 삼척시 원덕읍 호산리 299-8",
    "lat": 37.1734316,
    "lng": 129.3427598,
    "region": "강원특별자치도"
  },
  {
    "name": "호산파출소뒤공터",
    "address": "강원특별자치도 삼척시 원덕읍 호산리 산 16-7",
    "lat": 37.174917,
    "lng": 129.3385488,
    "region": "강원특별자치도"
  },
  {
    "name": "호산항뒷산공터",
    "address": "강원특별자치도 삼척시 원덕읍 삼척로 412-12 ",
    "lat": 37.1747909,
    "lng": 129.3414617,
    "region": "강원특별자치도"
  },
  {
    "name": "소돌휴게소 주차장",
    "address": "강원특별자치도 강릉시 주문진읍 주문북로 228",
    "lat": 37.9108372,
    "lng": 128.8160223,
    "region": "강원특별자치도"
  },
  {
    "name": "우일해변아파트야산",
    "address": "강원특별자치도 강릉시 주문진읍 소돌길 13",
    "lat": 37.9051656,
    "lng": 128.8249218,
    "region": "강원특별자치도"
  },
  {
    "name": "국도굴다리옆도로변",
    "address": "강원특별자치도 삼척시 근덕면 상맹방리 250-4",
    "lat": 37.4048564,
    "lng": 129.2037329,
    "region": "강원특별자치도"
  },
  {
    "name": "기사문리 야산",
    "address": "강원특별자치도 양양군 현북면 기사문리 산 55-5",
    "lat": 38.0088,
    "lng": 128.7281,
    "region": "강원특별자치도"
  },
  {
    "name": "오산리 야산",
    "address": "강원특별자치도 양양군 손양면 오산길 16-16 ",
    "lat": 38.0886,
    "lng": 128.6634,
    "region": "강원특별자치도"
  },
  {
    "name": "남애리 야산1",
    "address": "강원특별자치도 양양군 현남면 남애리 123",
    "lat": 37.9399,
    "lng": 128.7862,
    "region": "강원특별자치도"
  },
  {
    "name": "남애리 야산2",
    "address": "강원특별자치도 양양군 현남면 남애리 46-2",
    "lat": 37.9416,
    "lng": 128.786,
    "region": "강원특별자치도"
  },
  {
    "name": "남애리 야산3",
    "address": "강원특별자치도 양양군 현남면 남애리 1-11",
    "lat": 37.9453,
    "lng": 128.7867,
    "region": "강원특별자치도"
  },
  {
    "name": "평릉공원",
    "address": "강원특별자치도 동해시 평원로 135(평릉동)",
    "lat": 37.53572772818949,
    "lng": 129.11194235086617,
    "region": "강원특별자치도"
  },
  {
    "name": "장구바위 야산",
    "address": "강원특별자치도 강릉시 사천면 공회당길 13-10 ",
    "lat": 37.8406398,
    "lng": 128.8753152,
    "region": "강원특별자치도"
  },
  {
    "name": "강릉성결교회부설 진리수양관 공터",
    "address": "강원특별자치도 강릉시 사천면 사천진리 209-2",
    "lat": 37.8415824,
    "lng": 128.8686204,
    "region": "강원특별자치도"
  },
  {
    "name": "봉화산",
    "address": "강원특별자치도 강릉시 강동면 갯목길 38-1 ",
    "lat": 37.7370807,
    "lng": 128.9883059,
    "region": "강원특별자치도"
  },
  {
    "name": "안인천주교회 공터",
    "address": "강원특별자치도 강릉시 강동면 율곡로 1867-20 ",
    "lat": 37.7309512,
    "lng": 128.9860711,
    "region": "강원특별자치도"
  },
  {
    "name": "강인교회 주차장",
    "address": "강원특별자치도 강릉시 강동면 율곡로 1925-25 ",
    "lat": 37.7278467,
    "lng": 128.9826438,
    "region": "강원특별자치도"
  },
  {
    "name": "하시동2리 마을회관",
    "address": "강원특별자치도 강릉시 강동면 원장봉길 30-8 ",
    "lat": 37.7372546,
    "lng": 128.9726901,
    "region": "강원특별자치도"
  },
  {
    "name": "주영초등학교 운동장",
    "address": "강원특별자치도 강릉시 주문진읍 약수동길 15-12 ",
    "lat": 37.8978351,
    "lng": 128.8268066,
    "region": "강원특별자치도"
  },
  {
    "name": "주문진감리교회 주차",
    "address": "강원특별자치도 강릉시 주문진읍 항구로 43",
    "lat": 37.8938117,
    "lng": 128.8265874,
    "region": "강원특별자치도"
  },
  {
    "name": "주문진성당 주차장",
    "address": "강원특별자치도 강릉시 주문진읍 교항안길 51",
    "lat": 37.8851281,
    "lng": 128.8214971,
    "region": "강원특별자치도"
  },
  {
    "name": "청학연립주차장 고지대",
    "address": "강원특별자치도 속초시 수복로143번길 60(청학동, 청학연립)",
    "lat": 38.2031701,
    "lng": 128.5851081,
    "region": "강원특별자치도"
  },
  {
    "name": "정암리 야산",
    "address": "강원특별자치도 양양군 강현면 정암리 62-2",
    "lat": 38.1405701,
    "lng": 128.6128584,
    "region": "강원특별자치도"
  },
  {
    "name": "송정해변 신도브래뉴",
    "address": "강원특별자치도 강릉시 경강로2539번길 22(견소동, 송정해변신도브래뉴아파트)",
    "lat": 37.77476,
    "lng": 128.9399672,
    "region": "강원특별자치도"
  },
  {
    "name": "죽도봉",
    "address": "강원특별자치도 강릉시 견소동 11-1",
    "lat": 37.769731,
    "lng": 128.9515892,
    "region": "강원특별자치도"
  },
  {
    "name": "해양경찰충혼탑 고지대",
    "address": "강원특별자치도 속초시 장사동 507-1",
    "lat": 38.22765220715636,
    "lng": 128.58571284716191,
    "region": "강원특별자치도"
  }
]