[
  {
    "name": "강동중앙3공원",
    "address": "울산광역시 북구 산하중앙1로 73",
    "lat": 35.6308216,
    "lng": 129.4383404,
    "region": "울산광역시"
  },
  {
    "name": "컴온비치호텔  주차장",
    "address": "울산광역시 북구 동해안로 1517(정자동)",
    "lat": 35.6212379,
    "lng": 129.4458717,
    "region": "울산광역시"
  },
  {
    "name": "벽산블루밍 APT  주차장",
    "address": "울산광역시 북구 동해안로 1500(정자동)",
    "lat": 35.6198891,
    "lng": 129.4475292,
    "region": "울산광역시"
  },
  {
    "name": "강동동행정복지센터 주차장",
    "address": "울산광역시 북구 무룡로 1096(정자동)",
    "lat": 35.6129906,
    "lng": 129.4454321,
    "region": "울산광역시"
  },
  {
    "name": "울산교육연수원 주차장",
    "address": "울산광역시 북구 무룡로 1093(정자동)",
    "lat": 35.6133983,
    "lng": 129.4447838,
    "region": "울산광역시"
  },
  {
    "name": "정자오피스텔 주차장",
    "address": "울산광역시 북구 동해안로 1350(구유동)",
    "lat": 35.6112653,
    "lng": 129.4566927,
    "region": "울산광역시"
  },
  {
    "name": "복성마을 야산",
    "address": "울산 북구 구유동 산 64",
    "lat": 35.607877,
    "lng": 129.4551749,
    "region": "울산광역시"
  },
  {
    "name": "제전마을 야산",
    "address": "울산 북구 구유동 82-3",
    "lat": 35.6051618,
    "lng": 129.4575298,
    "region": "울산광역시"
  },
  {
    "name": "우가경로당 주차장",
    "address": "울산광역시 북구 동해안로 1114(당사동)",
    "lat": 35.5957108,
    "lng": 129.4628376,
    "region": "울산광역시"
  },
  {
    "name": "강동축구장 주차장",
    "address": "울산 북구 당사동 214",
    "lat": 35.5875703,
    "lng": 129.456445,
    "region": "울산광역시"
  },
  {
    "name": "진하회관(건물)",
    "address": "울산광역시 울주군 서생면 나루터길 29",
    "lat": 35.3866,
    "lng": 129.3425,
    "region": "울산광역시"
  },
  {
    "name": "장생포초등학교 운동장",
    "address": "울산광역시 남구 장생포고래로125번길 5(장생포동)",
    "lat": 35.50341833328551,
    "lng": 129.3683919000567,
    "region": "울산광역시"
  },
  {
    "name": "장생포항 야산",
    "address": "울산광역시 남구 장생포고래로155번길 22(장생포동)",
    "lat": 35.502628,
    "lng": 129.371241,
    "region": "울산광역시"
  },
  {
    "name": "태영인더스트리사택 앞 주차장",
    "address": "울산 남구 장생포동 267-7",
    "lat": 35.505316,
    "lng": 129.374499,
    "region": "울산광역시"
  },
  {
    "name": "장생포복지문화센터 옥상",
    "address": "울산광역시 남구 장생포고래로 215(장생포동)",
    "lat": 35.503057,
    "lng": 129.377628,
    "region": "울산광역시"
  },
  {
    "name": "고래문화마을",
    "address": "울산 남구 매암동 662-56",
    "lat": 35.5052953,
    "lng": 129.3794203,
    "region": "울산광역시"
  },
  {
    "name": "울산항만공사",
    "address": "울산광역시 남구 장생포고래로 271(매암동)",
    "lat": 35.5047429,
    "lng": 129.3828428,
    "region": "울산광역시"
  },
  {
    "name": "어물보건진료소 주차장",
    "address": "울산광역시 북구 아름1길 21(어물동)",
    "lat": 35.58015,
    "lng": 129.4504085,
    "region": "울산광역시"
  },
  {
    "name": "어물동 야산",
    "address": "울산 북구 어물동 산 372",
    "lat": 35.575376,
    "lng": 129.4494479,
    "region": "울산광역시"
  },
  {
    "name": "지경IC",
    "address": "울산광역시 북구 동해안로 1911",
    "lat": 35.6513833,
    "lng": 129.4476653,
    "region": "울산광역시"
  },
  {
    "name": "신명동 야산",
    "address": "울산 북구 신명동 134-2",
    "lat": 35.6443947,
    "lng": 129.4391879,
    "region": "울산광역시"
  },
  {
    "name": "울산교육수련원 주차장",
    "address": "울산광역시 북구 동해안로 1769(신명동)",
    "lat": 35.6412162,
    "lng": 129.4396034,
    "region": "울산광역시"
  },
  {
    "name": "송정회관 마당",
    "address": "울산광역시 울주군 서생면 해맞이로 1326",
    "lat": 35.3662423,
    "lng": 129.3533143,
    "region": "울산광역시"
  },
  {
    "name": "간절곶 임시 공영주차장",
    "address": "울산 울주군 서생면 대송리 189-1",
    "lat": 35.3584968,
    "lng": 129.3576568,
    "region": "울산광역시"
  },
  {
    "name": "송정공원",
    "address": "울산광역시 울주군 서생면 송정1길 96",
    "lat": 35.3699846,
    "lng": 129.354355,
    "region": "울산광역시"
  },
  {
    "name": "고늘마을  현대주차장 옆 공터",
    "address": "울산 동구 일산동 305-9",
    "lat": 35.5014916,
    "lng": 129.4351459,
    "region": "울산광역시"
  },
  {
    "name": "일산해수욕장 중앙주차장",
    "address": "울산 동구 일산동 963",
    "lat": 35.49411062741365,
    "lng": 129.4287522712032,
    "region": "울산광역시"
  },
  {
    "name": "대왕암 앞 공영주차장",
    "address": "울산광역시 동구 해수욕장10길 101(일산동)",
    "lat": 35.49058,
    "lng": 129.4339797,
    "region": "울산광역시"
  },
  {
    "name": "문현초등학교 운동장",
    "address": "울산광역시 동구 꽃바위6길 25(방어동)",
    "lat": 35.48046711743683,
    "lng": 129.41346361094887,
    "region": "울산광역시"
  },
  {
    "name": "성끝마을  수협위판장 뒤 야산",
    "address": "울산 동구 방어동 18-32",
    "lat": 35.4840945,
    "lng": 129.4320774,
    "region": "울산광역시"
  },
  {
    "name": "방어진초등학교 운동장",
    "address": "울산광역시 동구 꽃바위로 341(방어동)",
    "lat": 35.48733718656533,
    "lng": 129.4246937534964,
    "region": "울산광역시"
  },
  {
    "name": "화암초등학교 운동장",
    "address": "울산광역시 동구 화문로 55(방어동)",
    "lat": 35.48383107638685,
    "lng": 129.41594379143902,
    "region": "울산광역시"
  },
  {
    "name": "평동회관 마당",
    "address": "울산광역시 울주군 서생면 평동길 14",
    "lat": 35.3566659,
    "lng": 129.3533894,
    "region": "울산광역시"
  },
  {
    "name": "평동어촌계회관 마당",
    "address": "울산광역시 울주군 서생면 평동2길 9",
    "lat": 35.356159,
    "lng": 129.353323,
    "region": "울산광역시"
  },
  {
    "name": "국도31호 소공원 (맞은편 버스정류장)",
    "address": "울산 울주군 서생면 나사리 산 15-6",
    "lat": 35.3567,
    "lng": 129.3435,
    "region": "울산광역시"
  },
  {
    "name": "서생중학교 운동장",
    "address": "울산광역시 울주군 서생면 당물길 1",
    "lat": 35.350179639974755,
    "lng": 129.33056384325107,
    "region": "울산광역시"
  },
  {
    "name": "성동초등학교 운동장",
    "address": "울산광역시 울주군 서생면 진하길 7",
    "lat": 35.385094238108515,
    "lng": 129.3413785099976,
    "region": "울산광역시"
  },
  {
    "name": "주전 카페 컵넛 뒤 야산",
    "address": "울산 동구 주전동 14",
    "lat": 35.5666523,
    "lng": 129.4529972,
    "region": "울산광역시"
  },
  {
    "name": "주전초등학교 운동장",
    "address": "울산광역시 동구 동해안로 575(주전동)",
    "lat": 35.55768597832626,
    "lng": 129.4568737774071,
    "region": "울산광역시"
  },
  {
    "name": "서생면사무소 주차장",
    "address": "울산광역시 울주군 서생면 해맞이로 894",
    "lat": 35.3499412,
    "lng": 129.3262964,
    "region": "울산광역시"
  },
  {
    "name": "신암회관 마당",
    "address": "울산광역시 울주군 서생면 해맞이로 877-2 ",
    "lat": 35.3491367,
    "lng": 129.3239141,
    "region": "울산광역시"
  },
  {
    "name": "소망교회 주차장",
    "address": "울산광역시 울주군 서생면 신리길 97",
    "lat": 35.3451325,
    "lng": 129.3201783,
    "region": "울산광역시"
  },
  {
    "name": "만포횟집 마당",
    "address": "울산광역시 울주군 온산읍 강양길 143",
    "lat": 35.3913022,
    "lng": 129.3472472,
    "region": "울산광역시"
  },
  {
    "name": "야산 공터",
    "address": "울산광역시 울주군 온산읍 강양길 97-15 ",
    "lat": 35.3936702,
    "lng": 129.3453884,
    "region": "울산광역시"
  }
]