[
  {
    "name": "신성미소시티 지하1층~5층",
    "address": "대구광역시 중구 달구벌대로 2051 (계산동2가, 신성미소시티아파트)",
    "lat": 35.86672716040076,
    "lng": 128.58819757248716,
    "region": "대구광역시"
  },
  {
    "name": "대현프리몰 지하상가 지하1층",
    "address": "대구광역시 중구 국채보상로 지하 580 (동성로2가, 대현프리몰)",
    "lat": 35.87084977334846,
    "lng": 128.59413114129663,
    "region": "대구광역시"
  },
  {
    "name": "청운맨션아파트 전체 동 지하1층",
    "address": "대구광역시 중구 동덕로 33 (대봉동, 청운맨션아파트)",
    "lat": 35.85815392927296,
    "lng": 128.6049923542796,
    "region": "대구광역시"
  },
  {
    "name": "삼성생명빌딩 지하1층~2층",
    "address": "대구광역시 중구 국채보상로 528 (하서동, 삼성생명빌딩)",
    "lat": 35.86998195016383,
    "lng": 128.5884056141813,
    "region": "대구광역시"
  },
  {
    "name": "대신지하상가 지하1층~2층",
    "address": "대구광역시 중구 국채보상로 지하470, 대신지하상가 (대신동)",
    "lat": 35.870461349972615,
    "lng": 128.5818552396124,
    "region": "대구광역시"
  },
  {
    "name": "MS재건병원 지하1층",
    "address": "대구광역시 중구 동덕로 194, MS재건병원 (동인동1가)",
    "lat": 35.87185888194824,
    "lng": 128.60471470572315,
    "region": "대구광역시"
  },
  {
    "name": "드림상호저축은행 지하1층",
    "address": "대구광역시 중구 국채보상로 645 (동인동2가, 드림상호저축은행)",
    "lat": 35.87001786547299,
    "lng": 128.60133219784817,
    "region": "대구광역시"
  },
  {
    "name": "대백프라자 지하주차장 2층~5층",
    "address": "대구광역시 중구 명덕로 333 (대봉동, 대백프라자)",
    "lat": 35.85533074760023,
    "lng": 128.60640732954477,
    "region": "대구광역시"
  },
  {
    "name": "진석타워 지하2층~5층",
    "address": "대구광역시 중구 동덕로 115 (삼덕동2가, 진석타워)",
    "lat": 35.86508510308494,
    "lng": 128.60272975371672,
    "region": "대구광역시"
  },
  {
    "name": "KT대구지사 지하1층",
    "address": "대구광역시 중구 동덕로 167 (동인동2가, KT 대구지사(동인동우체국))",
    "lat": 35.86966908847067,
    "lng": 128.60389591819816,
    "region": "대구광역시"
  },
  {
    "name": "보성황실아파트 지하주차장 1층",
    "address": "대구광역시 중구 남산로13길 17 (남산동, 보성황실아파트)",
    "lat": 35.8616757803895,
    "lng": 128.581379958693,
    "region": "대구광역시"
  },
  {
    "name": "보성송림맨션 지하주차장 1층",
    "address": "대구광역시 중구 남산로4길 91 (남산동, 보성송림아파트)",
    "lat": 35.860939305652565,
    "lng": 128.58552068740298,
    "region": "대구광역시"
  },
  {
    "name": "중앙로 지하철역 지하1층~2층",
    "address": "대구광역시 중구 중앙대로 지하 424 (남일동, 중앙로역)",
    "lat": 35.86992094735782,
    "lng": 128.59391374457095,
    "region": "대구광역시"
  },
  {
    "name": "대구지하철반월당역 지하1층~4층",
    "address": "대구광역시 중구 달구벌대로 지하 2100 (남산동, 하나은행)",
    "lat": 35.86500866122716,
    "lng": 128.59372016803346,
    "region": "대구광역시"
  },
  {
    "name": "대구광역시 중구청 지하1층~2층",
    "address": "대구광역시 중구 국채보상로139길 1 (동인동2가, 중구청)",
    "lat": 35.86920305997673,
    "lng": 128.60628994687752,
    "region": "대구광역시"
  },
  {
    "name": "명덕지하철역 지하1층~2층",
    "address": "대구광역시 중구 명덕로 지하 185 (남산동, 명덕역)",
    "lat": 35.857382501073616,
    "lng": 128.5904103444397,
    "region": "대구광역시"
  },
  {
    "name": "대구광역시청 지하1층",
    "address": "대구광역시 중구 공평로 88 (동인동1가, 대구광역시청)",
    "lat": 35.8715107037978,
    "lng": 128.60088728392893,
    "region": "대구광역시"
  },
  {
    "name": "삼성금융프라자 지하1층",
    "address": "대구광역시 중구 달구벌대로 2095 (덕산동, 삼성생명)",
    "lat": 35.8661435182005,
    "lng": 128.59268245204692,
    "region": "대구광역시"
  },
  {
    "name": "메트로센터 지하1층",
    "address": "대구광역시 중구 달구벌대로 지하2100, 반월당역 (덕산동)",
    "lat": 35.86500866122716,
    "lng": 128.59372016803346,
    "region": "대구광역시"
  },
  {
    "name": "메트로프라자 지하상가 지하1층",
    "address": "대구광역시 중구 달구벌대로 지하 2160 (봉산동, 메트로프라자)",
    "lat": 35.8635743010813,
    "lng": 128.59989156685378,
    "region": "대구광역시"
  },
  {
    "name": "경대병원역 지하1층~3층",
    "address": "대구광역시 중구 달구벌대로 지하 2190 (삼덕동2가, 경대병원역)",
    "lat": 35.86293684334344,
    "lng": 128.60308070846378,
    "region": "대구광역시"
  },
  {
    "name": "남산휴먼시아1단지 지하주차장 1층~2층",
    "address": "대구광역시 중구 달구벌대로 1960 (남산동, 남산휴먼시아1단지아파트)",
    "lat": 35.8624736331211,
    "lng": 128.578262038273,
    "region": "대구광역시"
  },
  {
    "name": "남산그린타운 지하주차장 1층~2층",
    "address": "대구광역시 중구 달구벌대로 1950 (남산동, 남산그린타운)",
    "lat": 35.862403251554,
    "lng": 128.578043688028,
    "region": "대구광역시"
  },
  {
    "name": "청라언덕역 지하1층~4층",
    "address": "대구광역시 중구 달구벌대로 2000 (남산동)",
    "lat": 35.86477072436662,
    "lng": 128.5827794480681,
    "region": "대구광역시"
  },
  {
    "name": "대봉화성파크드림아파트(전 동 지하1층~2층)",
    "address": "대구광역시 중구 명덕로55길 25 (대봉동, 대봉화성파크드림아파트)",
    "lat": 35.85666617927495,
    "lng": 128.59957962920905,
    "region": "대구광역시"
  },
  {
    "name": "태왕아너스스카이 지하1층~2층",
    "address": "대구광역시 중구 달구벌대로 1975 (대신동, 태왕아너스스카이아파트)",
    "lat": 35.8642323277104,
    "lng": 128.57949353762496,
    "region": "대구광역시"
  },
  {
    "name": "책임크레텍 지하1층",
    "address": "대구광역시 중구 달성로 100, 크레텍책임(주) 101동 지하1층 (인교동)",
    "lat": 35.874027955864534,
    "lng": 128.58254867159306,
    "region": "대구광역시"
  },
  {
    "name": "청라 센트럴파크 지하주차장 1층~2층",
    "address": "대구광역시 중구 달구벌대로 1970(남산동, 청라 센트럴파크)",
    "lat": 35.8638241581714,
    "lng": 128.579772907876,
    "region": "대구광역시"
  },
  {
    "name": "동인삼정그린코아 지하1층~2층",
    "address": "대구광역시 중구 동덕로30길 53 (동인동4가, 동인동삼정그린코아아파트)",
    "lat": 35.86773649840585,
    "lng": 128.60741314160643,
    "region": "대구광역시"
  },
  {
    "name": "센트로팰리스 지하주차장 1층~3층",
    "address": "대구광역시 중구 대봉로 260 (대봉동, 센트로팰리스아파트)",
    "lat": 35.861975237555555,
    "lng": 128.60028246540577,
    "region": "대구광역시"
  },
  {
    "name": "삼승슈퍼타워 지하1층",
    "address": "대구광역시 중구 신암로 6 (동인동1가, 삼승슈퍼타워아파트)",
    "lat": 35.873022313913175,
    "lng": 128.60495656029053,
    "region": "대구광역시"
  },
  {
    "name": "봉산문화회관 지하주차장 1층",
    "address": "대구광역시 중구 봉산문화길 77 (봉산동, 봉산문화회관)",
    "lat": 35.86346260029221,
    "lng": 128.5967994959471,
    "region": "대구광역시"
  },
  {
    "name": "패션주얼리 전문타운 지하주차장 1층",
    "address": "대구광역시 중구 경상감영길 176 (동문동, 패션쥬얼리 전문타운)",
    "lat": 35.87193609202588,
    "lng": 128.59688343417122,
    "region": "대구광역시"
  },
  {
    "name": "극동스타클래스남산 지하주차장 1층",
    "address": "대구광역시 중구 남산로 30 (남산동, 극동 스타클래스 남산)",
    "lat": 35.85901373245754,
    "lng": 128.58356734420417,
    "region": "대구광역시"
  },
  {
    "name": "대봉태왕아너스 지하주차장 1층~2층",
    "address": "대구광역시 중구 동덕로 55 (대봉동, 대봉태왕아너스)",
    "lat": 35.86007559064338,
    "lng": 128.60308063951817,
    "region": "대구광역시"
  },
  {
    "name": "경북대학교병원(외래진료동 지하식당 1층)",
    "address": "대구광역시 중구 동덕로 130-0 (삼덕동2가, 경북대학교병원)",
    "lat": 35.86565910007564,
    "lng": 128.60391594477383,
    "region": "대구광역시"
  },
  {
    "name": "삼덕교회기념관 지하1층~2층",
    "address": "대구광역시 중구 공평로 22 (삼덕동2가)",
    "lat": 35.86603175077345,
    "lng": 128.60012531690816,
    "region": "대구광역시"
  },
  {
    "name": "국채보상공원 지하주차장 1층~3층",
    "address": "대구광역시 중구 공평로10길 25-0 (동인동2가)",
    "lat": 35.868329695583725,
    "lng": 128.60144635042082,
    "region": "대구광역시"
  },
  {
    "name": "대구역센트럴자이 지하1층~2층",
    "address": "대구광역시 중구 서성로 99, 지하1층 (수창동, 대구역센트럴자이)",
    "lat": 35.875784681735176,
    "lng": 128.58772767946854,
    "region": "대구광역시"
  },
  {
    "name": "동성로 중앙지하주차장 1층",
    "address": "대구광역시 중구 동성로2길 80 (공평동, 2.28 기념중앙공원)",
    "lat": 35.869292463572016,
    "lng": 128.59715630179434,
    "region": "대구광역시"
  },
  {
    "name": "강변1차아파트 지하주차장1층~2층",
    "address": "대구광역시 동구 동촌로54길 13 (방촌동, 강변아파트)",
    "lat": 35.878800104975,
    "lng": 128.668275595902,
    "region": "대구광역시"
  },
  {
    "name": "강변2차아파트 지하주차장1층~2층",
    "address": "대구광역시 동구 동촌로56길 36 (방촌동, 강변아파트)",
    "lat": 35.87791518961007,
    "lng": 128.66941027688495,
    "region": "대구광역시"
  },
  {
    "name": "백자맨션아파트 지하주차장 1층",
    "address": "대구광역시 동구 동촌로 346(용계동, 우방백자아파트)",
    "lat": 35.87743626374438,
    "lng": 128.67707754033228,
    "region": "대구광역시"
  },
  {
    "name": "청호아파트 지하주차장1층",
    "address": "대구광역시 동구 팔공로25길 46 (불로동, 청호아파트)",
    "lat": 35.911122388769286,
    "lng": 128.63630407966372,
    "region": "대구광역시"
  },
  {
    "name": "불로우방맨션아파트 101동 지하1층주차장",
    "address": "대구광역시 동구 공항로 150, 101동 지하1층 (불로동, 불로우방맨션)",
    "lat": 35.90067054790216,
    "lng": 128.63092088063573,
    "region": "대구광역시"
  },
  {
    "name": "반야월지하철역건물 지하1층",
    "address": "대구광역시 동구 안심로 지하 261 (동호동)",
    "lat": 35.866132969658835,
    "lng": 128.71332822920786,
    "region": "대구광역시"
  },
  {
    "name": "각산지하철역건물 지하1층",
    "address": "대구광역시 동구 안심로 지하 363 (신서동)",
    "lat": 35.868104751689415,
    "lng": 128.72408866602063,
    "region": "대구광역시"
  },
  {
    "name": "불로강변아파트 지하주차장1층",
    "address": "대구광역시 동구 방천로3길 30 (불로동, 불로강변아파트)",
    "lat": 35.89703022029676,
    "lng": 128.63142817750074,
    "region": "대구광역시"
  },
  {
    "name": "안심주공1단지아파트 지하주차장1층",
    "address": "대구광역시 동구 안심로22길 3 (율하동, 안심주공1단지임대아파트)",
    "lat": 35.86647464215228,
    "lng": 128.69665514583605,
    "region": "대구광역시"
  },
  {
    "name": "대구일마이스터고등학교건물 지하1층",
    "address": "대구광역시 동구 효동로 48 (효목동, 대구일마이스터고등학교)",
    "lat": 35.882016135016826,
    "lng": 128.6463018564681,
    "region": "대구광역시"
  },
  {
    "name": "해안지하철역건물 지하1층~3층",
    "address": "대구광역시 동구 동촌로 지하 167 (방촌동, 해안역)",
    "lat": 35.88370552496025,
    "lng": 128.6594342648892,
    "region": "대구광역시"
  },
  {
    "name": "우방강촌아파트 113동, 114동지하주차장1층~2층",
    "address": "대구광역시 동구 화랑로80길 33 (방촌동, 우방강촌마을)",
    "lat": 35.8753858948915,
    "lng": 128.66712467987483,
    "region": "대구광역시"
  },
  {
    "name": "동신우방타운아파트 지하주차장 1층",
    "address": "대구광역시 동구 송라로11길 86 (신천동, 동신우방아파트)",
    "lat": 35.87113077639337,
    "lng": 128.61428581525203,
    "region": "대구광역시"
  },
  {
    "name": "아양교지하철역건물 지하1~4층",
    "address": "대구광역시 동구 아양로 지하 245 (신암동, 아양교역)",
    "lat": 35.88727066429667,
    "lng": 128.63962550462978,
    "region": "대구광역시"
  },
  {
    "name": "청구아파트 지하주차장1층~2층",
    "address": "대구광역시 동구 팔공로24길 131-0 (도동, 도동청구맨션)",
    "lat": 35.9093925629646,
    "lng": 128.648677458018,
    "region": "대구광역시"
  },
  {
    "name": "보성강남아파트 지하주차장1층~2층",
    "address": "대구광역시 동구 화랑로88길 30 (방촌동, 보성강남타운)",
    "lat": 35.874719312195225,
    "lng": 128.66941024698045,
    "region": "대구광역시"
  },
  {
    "name": "대동병원건물 지하1층",
    "address": "대구광역시 동구 화랑로 169 (효목동, 대동병원)",
    "lat": 35.87626789456196,
    "lng": 128.6440325903217,
    "region": "대구광역시"
  },
  {
    "name": "율하지하철역건물 지하1층",
    "address": "대구광역시 동구 안심로 지하 57 (율하동, 율하역)",
    "lat": 35.870182286987664,
    "lng": 128.69257692839392,
    "region": "대구광역시"
  },
  {
    "name": "신기지하철역건물 지하1층",
    "address": "대구광역시 동구 안심로 지하 159 (신기동, 신기역)",
    "lat": 35.86687141973674,
    "lng": 128.7021060569623,
    "region": "대구광역시"
  },
  {
    "name": "제림햇빛촌아파트 지하주차장1층",
    "address": "대구광역시 동구 공항로52길 28 (지저동, 제림햇빛촌아파트)",
    "lat": 35.89297106154229,
    "lng": 128.6392263135392,
    "region": "대구광역시"
  },
  {
    "name": "용계지하철역건물 지하1층",
    "address": "대구광역시 동구 동촌로 지하383, 용계역 (용계동)",
    "lat": 35.8765205919089,
    "lng": 128.68119548551326,
    "region": "대구광역시"
  },
  {
    "name": "정동고등학교건물 지하1층",
    "address": "대구광역시 동구 용계로1길 49, 정동고등학교 (용계동)",
    "lat": 35.876390476023616,
    "lng": 128.6927829136185,
    "region": "대구광역시"
  },
  {
    "name": "허병원건물 지하1층",
    "address": "대구광역시 동구 화랑로 81 (효목동, 동부허병원)",
    "lat": 35.87240474721868,
    "lng": 128.63578183498936,
    "region": "대구광역시"
  },
  {
    "name": "화성명산타운아파트 지하주차장1층",
    "address": "대구광역시 동구 파계로22길 7 (지묘동, 화성명산타운)",
    "lat": 35.94379380053569,
    "lng": 128.6384189335118,
    "region": "대구광역시"
  },
  {
    "name": "팔공1차보성타운아파트 지하주차장1층",
    "address": "대구광역시 동구 팔공로 489 (지묘동, 팔공보성아파트)",
    "lat": 35.94189226071136,
    "lng": 128.64618133855507,
    "region": "대구광역시"
  },
  {
    "name": "팔공2차보성타운아파트 지하주차장1층",
    "address": "대구광역시 동구 팔공로101길 55 (지묘동, 팔공2차보성아파트)",
    "lat": 35.94116592516407,
    "lng": 128.64150686616497,
    "region": "대구광역시"
  },
  {
    "name": "왕산우방타운아파트 지하주차장1층",
    "address": "대구광역시 동구 파계로6길 30 (지묘동, 왕산우방타운)",
    "lat": 35.93997363248682,
    "lng": 128.64012443478194,
    "region": "대구광역시"
  },
  {
    "name": "태왕그린힐즈아파트 지하주차장1층",
    "address": "대구광역시 동구 파계로 46 (지묘동, 태왕그린힐즈)",
    "lat": 35.938542848962456,
    "lng": 128.63985595087104,
    "region": "대구광역시"
  },
  {
    "name": "안심지하철역건물 지하1층",
    "address": "대구광역시 동구 안심로 지하 455 (괴전동)",
    "lat": 35.87136803112177,
    "lng": 128.73349580053792,
    "region": "대구광역시"
  },
  {
    "name": "동대구지하철역건물 지하1층",
    "address": "대구광역시 동구 동대구로 지하530, 동대구역지하철 (신천동)",
    "lat": 35.87695004998794,
    "lng": 128.62694862186467,
    "region": "대구광역시"
  },
  {
    "name": "동촌화성타운아파트 지하주차장1층",
    "address": "대구광역시 동구 동촌로6길 3 (입석동, 동촌화성타운)",
    "lat": 35.889783043974454,
    "lng": 128.645906893613,
    "region": "대구광역시"
  },
  {
    "name": "KT 동촌빌딩건물 지하1층",
    "address": "대구광역시 동구 동촌로 63 (입석동, KT)",
    "lat": 35.88898927147528,
    "lng": 128.6495467089137,
    "region": "대구광역시"
  },
  {
    "name": "동구청역지하철건물 지하1층",
    "address": "대구광역시 동구 신암남로 지하 169 (신암동, 큰고개역)",
    "lat": 35.88430058719288,
    "lng": 128.6319649026473,
    "region": "대구광역시"
  },
  {
    "name": "팔공정보문화센터건물 지하1층",
    "address": "대구광역시 동구 효신로 34 (효목동, 팔공정보문화센터)",
    "lat": 35.8750213811707,
    "lng": 128.63450070490853,
    "region": "대구광역시"
  },
  {
    "name": "한전동대구지점건물 지하1층",
    "address": "대구광역시 동구 화랑로 135 (효목동, 한국전력공사)",
    "lat": 35.874543791974205,
    "lng": 128.6410130728192,
    "region": "대구광역시"
  },
  {
    "name": "방촌지하철역건물 지하1층",
    "address": "대구광역시 동구 동촌로 지하 275 (방촌동, 방촌역)",
    "lat": 35.87985789984008,
    "lng": 128.66989395660693,
    "region": "대구광역시"
  },
  {
    "name": "영남네오빌아파트 지하주차장1층~2층",
    "address": "대구광역시 동구 동촌로 190 (방촌동, 영남네오빌)",
    "lat": 35.88298173830526,
    "lng": 128.66157761801756,
    "region": "대구광역시"
  },
  {
    "name": "부민스위트빌아파트 지하주차장1층",
    "address": "대구광역시 동구 해동로2길 37 (지저동, 부민스위트빌)",
    "lat": 35.89635722435752,
    "lng": 128.6363608634172,
    "region": "대구광역시"
  },
  {
    "name": "봉무청구새들마을아파트 지하주차장1층",
    "address": "대구광역시 동구 팔공로 322-5 (봉무동, 봉무청구새들마을(전동 지하))",
    "lat": 35.92883511226957,
    "lng": 128.64213737034464,
    "region": "대구광역시"
  },
  {
    "name": "성호그린빌라트 지하주차장1층",
    "address": "대구광역시 동구 방촌로1길 109 (방촌동)",
    "lat": 35.88346550716621,
    "lng": 128.6665609321267,
    "region": "대구광역시"
  },
  {
    "name": "동화해오름타운아파트 지하주차장1층",
    "address": "대구광역시 동구 동호로 89-0 (신서동)",
    "lat": 35.86674493209129,
    "lng": 128.72661836595415,
    "region": "대구광역시"
  },
  {
    "name": "대경넥스빌아파트 지하주차장1층",
    "address": "대구광역시 동구 안심로 400-0 (신서동)",
    "lat": 35.86829856308688,
    "lng": 128.72813605081325,
    "region": "대구광역시"
  },
  {
    "name": "아름다운나날1단지아파트 지하주차장1층",
    "address": "대구광역시 동구 안심로 402-0 (신서동)",
    "lat": 35.86843744815581,
    "lng": 128.72844266896158,
    "region": "대구광역시"
  },
  {
    "name": "아름다운나날2단지아파트 지하주차장1층",
    "address": "대구광역시 동구 동호로 88-0 (신서동)",
    "lat": 35.866543001695234,
    "lng": 128.72681153316591,
    "region": "대구광역시"
  },
  {
    "name": "아름다운나날3단지아파트 지하주차장1층",
    "address": "대구광역시 동구 동호로 132-0 (신서동)",
    "lat": 35.86727148211503,
    "lng": 128.7313687944348,
    "region": "대구광역시"
  },
  {
    "name": "신암그린타운아파트 지하주차장1층",
    "address": "대구광역시 동구 신성로 30(신암동, 신암그린타운)",
    "lat": 35.878182001523264,
    "lng": 128.6104564095545,
    "region": "대구광역시"
  },
  {
    "name": "신천아이파크아파트 지하주차장1층",
    "address": "대구광역시 동구 동부로30길 78(신천동)",
    "lat": 35.87008641003127,
    "lng": 128.6289465870531,
    "region": "대구광역시"
  },
  {
    "name": "신천가람타운아파트 지하주차장1층",
    "address": "대구광역시 동구 신암로16길 16(신천동, 가람타운)",
    "lat": 35.87738566418142,
    "lng": 128.61038950656032,
    "region": "대구광역시"
  },
  {
    "name": "강변동서마을아파트 지하주차장1층",
    "address": "대구광역시 동구 화랑로100길 17(용계동, 강변동서마을)",
    "lat": 35.873539029927464,
    "lng": 128.67859806525573,
    "region": "대구광역시"
  },
  {
    "name": "용계삼산타운아파트 지하주차장1층",
    "address": "대구광역시 동구 반야월로6길 20(용계동, 용계삼산타운)",
    "lat": 35.873270375517265,
    "lng": 128.69255633452542,
    "region": "대구광역시"
  },
  {
    "name": "신천주공2아파트 지하주차장1층",
    "address": "대구광역시 동구 국채보상로155길 54 (신천동, 신천주공2차아파트)",
    "lat": 35.87282385606811,
    "lng": 128.6132131048758,
    "region": "대구광역시"
  },
  {
    "name": "우방푸른타운아파트 지하주차장1층",
    "address": "대구광역시 동구 국채보상로159길 41 (신천동, 우방푸른타운)",
    "lat": 35.869928345843675,
    "lng": 128.61613090992734,
    "region": "대구광역시"
  },
  {
    "name": "신서롯데캐슬레전드아파트 지하주차장1층",
    "address": "대구광역시 동구 안심로73길 22-0 (신서동)",
    "lat": 35.87033388275794,
    "lng": 128.7252367519248,
    "region": "대구광역시"
  },
  {
    "name": "신일해피트리아파트 지하주차장1층",
    "address": "대구광역시 동구 반야월로 370-0 (신서동)",
    "lat": 35.87068419203028,
    "lng": 128.72920272709788,
    "region": "대구광역시"
  },
  {
    "name": "신암건영캐스빌아파트 지하주차장1층",
    "address": "대구광역시 동구 신암남로 50(신암동, 신암건영캐스빌)",
    "lat": 35.878565343501585,
    "lng": 128.62193738686284,
    "region": "대구광역시"
  },
  {
    "name": "큰고개웰그린아파트 지하주차장1층",
    "address": "대구광역시 동구 아양로 124 (신암동, 큰고개웰그린101)",
    "lat": 35.88472036815471,
    "lng": 128.62706771886045,
    "region": "대구광역시"
  },
  {
    "name": "에스디아이프라임아파트 지하주차장1층",
    "address": "대구광역시 동구 아양로24길 13 (신암동, 에스디아이프라임)",
    "lat": 35.88449696764978,
    "lng": 128.62774346264064,
    "region": "대구광역시"
  },
  {
    "name": "신천청아람아파트 지하주차장1층~2층",
    "address": "대구광역시 동구 송라로14길 132 (신천동, 신천청아람)",
    "lat": 35.873085658121155,
    "lng": 128.62200252533273,
    "region": "대구광역시"
  },
  {
    "name": "신암청아람아파트 지하주차장1층",
    "address": "대구광역시 동구 신암로20길 39 (신암동, 신암청아람)",
    "lat": 35.87858021483293,
    "lng": 128.61233485264884,
    "region": "대구광역시"
  },
  {
    "name": "율하휴먼시아5단지아파트 지하주차장1층",
    "address": "대구광역시 동구 율하서로 59 (율하동, 율하휴먼시아5단지)",
    "lat": 35.864154812327804,
    "lng": 128.69092544168893,
    "region": "대구광역시"
  },
  {
    "name": "신암뜨란채아파트 지하주차장1층",
    "address": "대구광역시 동구 아양로7길 12 (신암동, 신암뜨란채)",
    "lat": 35.88290445687171,
    "lng": 128.6170134359465,
    "region": "대구광역시"
  },
  {
    "name": "태왕메트로시티아파트 지하주차장1층",
    "address": "대구광역시 동구 동북로 500 (효목동, 태왕메트로시티)",
    "lat": 35.880808744999584,
    "lng": 128.64026790968276,
    "region": "대구광역시"
  },
  {
    "name": "금사리하이빌아파트 지하주차장1층",
    "address": "대구광역시 동구 해동로 254 (검사동, 금사리하이빌)",
    "lat": 35.88383738926679,
    "lng": 128.6560089547472,
    "region": "대구광역시"
  },
  {
    "name": "현대방촌맨션아파트 지하주차장1층~2층",
    "address": "대구광역시 동구 화랑로91길 7 (방촌동, 현대주택방촌맨션)",
    "lat": 35.87649017584855,
    "lng": 128.6740445461282,
    "region": "대구광역시"
  },
  {
    "name": "유선아덴힐즈아파트 지하주차장1층",
    "address": "대구광역시 동구 동촌로25길 69 (방촌동)",
    "lat": 35.883733474156514,
    "lng": 128.66171192831223,
    "region": "대구광역시"
  },
  {
    "name": "팔공3차보성타운아파트 지하주차장1층",
    "address": "대구광역시 동구 파계로 71 (지묘동, 팔공3차보성타운)",
    "lat": 35.94082632999834,
    "lng": 128.63608583442573,
    "region": "대구광역시"
  },
  {
    "name": "큰고개오거리지하도건물 지하1층",
    "address": "대구광역시 동구 아양로 지하 189-1 (신암동)",
    "lat": 35.88589333519976,
    "lng": 128.63394485314922,
    "region": "대구광역시"
  },
  {
    "name": "신천역더뷰파크아파트 지하주차장1층",
    "address": "대구광역시 동구 동부로 20 (신천동, 신천주공그린빌3단지)",
    "lat": 35.87356791466567,
    "lng": 128.61466410996684,
    "region": "대구광역시"
  },
  {
    "name": "화성파크드림 이스트밸리 지하주차장1층",
    "address": "대구광역시 동구 송라로10길 34 (신천동, 화성파크드림이스트밸리)",
    "lat": 35.87182517757712,
    "lng": 128.62240941872287,
    "region": "대구광역시"
  },
  {
    "name": "동촌강나루타운아파트 2주차장지하1층~2층",
    "address": "대구광역시 동구 효동로 108 (효목동, 동촌강나루타운)",
    "lat": 35.88594085484469,
    "lng": 128.64251121073016,
    "region": "대구광역시"
  },
  {
    "name": "율하휴먼시아6단지아파트 지하주차장1층",
    "address": "대구광역시 동구 안심로16길 45 (율하동, 율하휴먼시아6단지)",
    "lat": 35.86396350818077,
    "lng": 128.69430938789395,
    "region": "대구광역시"
  },
  {
    "name": "율하센트럴파크8단지 지하주차장1층",
    "address": "대구광역시 동구 안심로22길 75 (율하동, 율하휴먼시아8단지)",
    "lat": 35.86338625412698,
    "lng": 128.69999118056992,
    "region": "대구광역시"
  },
  {
    "name": "율하휴먼시아10단지아파트 지하주차장1층",
    "address": "대구광역시 동구 율하동로8길 16 (율하동, 율하휴먼시아10단지)",
    "lat": 35.8616920699394,
    "lng": 128.7031719226439,
    "region": "대구광역시"
  },
  {
    "name": "율하리버파크아파트 지하주차장1층",
    "address": "대구광역시 동구 율하동로 19 (율하동, 율하휴먼시아11단지)",
    "lat": 35.86120129851383,
    "lng": 128.7009602048449,
    "region": "대구광역시"
  },
  {
    "name": "율하휴먼시아15단지아파트 지하주차장1층",
    "address": "대구광역시 동구 금호강변로3길 9 (율하동, 율하휴먼시아15단지)",
    "lat": 35.869298688462386,
    "lng": 128.69042700117365,
    "region": "대구광역시"
  },
  {
    "name": "롯데마트대구율하점건물 지하1층",
    "address": "대구광역시 동구 안심로 80 (율하동, 롯데쇼핑프라자)",
    "lat": 35.86846235182064,
    "lng": 128.69372726201718,
    "region": "대구광역시"
  },
  {
    "name": "각산푸르지오1단지아파트 지하주차장1층",
    "address": "대구광역시 동구 경안로 824-0 (각산동)",
    "lat": 35.875488041131995,
    "lng": 128.7163510643139,
    "region": "대구광역시"
  },
  {
    "name": "각산푸르지오2단지아파트 지하주차장1층",
    "address": "대구광역시 동구 경안로 822-0 (각산동)",
    "lat": 35.87521037246509,
    "lng": 128.71617454127824,
    "region": "대구광역시"
  },
  {
    "name": "신서동퀸덤아파트 지하주차장1층",
    "address": "대구광역시 동구 신서로 72-0 (신서동)",
    "lat": 35.87438512802046,
    "lng": 128.7255223784519,
    "region": "대구광역시"
  },
  {
    "name": "각산태영데시앙아파트 지하주차장1층",
    "address": "대구광역시 동구 반야월북로 123-0 (각산동)",
    "lat": 35.87336083310509,
    "lng": 128.71064869533484,
    "region": "대구광역시"
  },
  {
    "name": "신서화성파크드림아파트 지하주차장1층",
    "address": "대구광역시 동구 반야월북로 221-0 (신서동)",
    "lat": 35.87295472001323,
    "lng": 128.72194813548188,
    "region": "대구광역시"
  },
  {
    "name": "홈플러스동촌점건물 지하1층",
    "address": "대구광역시 동구 동촌로 127 (검사동, 홈플러스)",
    "lat": 35.885824997134094,
    "lng": 128.65557683133574,
    "region": "대구광역시"
  },
  {
    "name": "동촌동지하철역건물 지하1층~2층",
    "address": "대구광역시 동구 해동로 지하 197 (검사동, 동촌역)",
    "lat": 35.88615739166168,
    "lng": 128.65021987851568,
    "region": "대구광역시"
  },
  {
    "name": "동대구우체국건물 지하1층~2층",
    "address": "대구광역시 동구 동촌로 1 (입석동, 동대구우체국)",
    "lat": 35.89202668195762,
    "lng": 128.64414020814198,
    "region": "대구광역시"
  },
  {
    "name": "대구교육팔공산수련원건물 지하1층",
    "address": "대구광역시 동구 용천로 538 (신무동)",
    "lat": 35.994335749673006,
    "lng": 128.66426770457056,
    "region": "대구광역시"
  },
  {
    "name": "동구청건물 지하1층",
    "address": "대구광역시 동구 아양로 207 (신암동, 동구청)",
    "lat": 35.88621242718769,
    "lng": 128.63582496677665,
    "region": "대구광역시"
  },
  {
    "name": "신천지하철역 건물 지하1층",
    "address": "대구광역시 동구 동부로 지하41, 신천역 (신천동)",
    "lat": 35.8745503450097,
    "lng": 128.61712576501563,
    "region": "대구광역시"
  },
  {
    "name": "동구보건소건물 지하1층",
    "address": "대구광역시 동구 동촌로 79 (검사동, 동구보건소)",
    "lat": 35.88814988566966,
    "lng": 128.6510394046258,
    "region": "대구광역시"
  },
  {
    "name": "진로아파트201동 지하주차장1층~2층",
    "address": "대구광역시 동구 아양로 218 (효목동, 진로이스트타운)",
    "lat": 35.88576180812036,
    "lng": 128.63707406502752,
    "region": "대구광역시"
  },
  {
    "name": "제일안과병원건물 지하1층",
    "address": "대구광역시 동구 아양로 1 (신암동)",
    "lat": 35.881732035073895,
    "lng": 128.61449303300492,
    "region": "대구광역시"
  },
  {
    "name": "이시아폴리스더샵1차아파트 지하주차장1층",
    "address": "대구광역시 동구 팔공로53길 10 (봉무동, 이시아폴리스더샵1차(전동지하))",
    "lat": 35.92524574652147,
    "lng": 128.6396007677473,
    "region": "대구광역시"
  },
  {
    "name": "한국장학재단본사건물 지하1층",
    "address": "대구광역시 동구 신암로 125(신암동)",
    "lat": 35.881115445867,
    "lng": 128.6130227573125,
    "region": "대구광역시"
  },
  {
    "name": "대구혁신에듀포레아파트 지하주차장1층",
    "address": "대구광역시 동구 과학로 45(각산동, 대구혁신에듀포레)",
    "lat": 35.88287163210703,
    "lng": 128.71679002273146,
    "region": "대구광역시"
  },
  {
    "name": "동대구유성푸르나임아파트 지하주차장1층",
    "address": "대구광역시 동구 동부로22길 48, 유성푸르나임 (신천동)",
    "lat": 35.872349715587625,
    "lng": 128.62675521458684,
    "region": "대구광역시"
  },
  {
    "name": "방촌우방맨션아파트 지하주차장1층~2층",
    "address": "대구광역시 동구 화랑로 407 (방촌동, 방촌우방맨션)",
    "lat": 35.87732686883509,
    "lng": 128.66860952392142,
    "region": "대구광역시"
  },
  {
    "name": "율하휴먼시아7단지아파트 지하주차장1층",
    "address": "대구광역시 동구 안심로22길 55 (율하동, 율하휴먼시아7단지)",
    "lat": 35.86357649815871,
    "lng": 128.69809508217182,
    "region": "대구광역시"
  },
  {
    "name": "이시아폴리스더샵2차아파트 지하주차장1층",
    "address": "대구광역시 동구 팔공로 274 (봉무동, 이시아폴리스더샵2차)",
    "lat": 35.92378113533781,
    "lng": 128.64318293685858,
    "region": "대구광역시"
  },
  {
    "name": "대구혁신LH3단지아파트 지하주차장1층",
    "address": "대구광역시 동구 과학로13길 30(각산동, 대구혁신엘에이치천년나무3단지)",
    "lat": 35.886592374638454,
    "lng": 128.7168042923511,
    "region": "대구광역시"
  },
  {
    "name": "대구혁신LH13단지아파트 지하주차장1층",
    "address": "대구광역시 동구 초례로 66(숙천동, 대구신서혁신엘에이치천년나무13단지)",
    "lat": 35.88080402634115,
    "lng": 128.75237571882022,
    "region": "대구광역시"
  },
  {
    "name": "대구혁신LH14단지아파트 지하주차장1층",
    "address": "대구광역시 동구 초례로16길 3(숙천동, 대구신서혁신엘에이치천년나무14단지)",
    "lat": 35.88237157334244,
    "lng": 128.75207872495324,
    "region": "대구광역시"
  },
  {
    "name": "LH뉴웰시티아파트 지하주차장1층",
    "address": "대구광역시 동구 동화천로77길 30(지묘동, LH뉴웰시티)",
    "lat": 35.94141232371655,
    "lng": 128.63305843284962,
    "region": "대구광역시"
  },
  {
    "name": "동대구에일린의뜰아파트 지하주차장2층",
    "address": "대구광역시 동구 아양로9길 35 (신암동, 동대구 에일린의 뜰)",
    "lat": 35.8852802138997,
    "lng": 128.618184120383,
    "region": "대구광역시"
  },
  {
    "name": "대구혁신센텀힐즈아파트 지하주차장1층",
    "address": "대구광역시 동구 혁신대로 450 (대림동, 대구혁신센텀힐즈)",
    "lat": 35.873697748083,
    "lng": 128.745400401042,
    "region": "대구광역시"
  },
  {
    "name": "동대구더센트로데시앙아파트지하 1층",
    "address": "대구광역시 동구 신암로20길 63 (신암동, 동대구더센트로데시앙)",
    "lat": 35.8775172220385,
    "lng": 128.613313974993,
    "region": "대구광역시"
  },
  {
    "name": "신천자이아파트 지하주차장 1층",
    "address": "대구광역시 동구 신암로16길 25 (신천동, 신천자이아파트)",
    "lat": 35.8766109699018,
    "lng": 128.611148952827,
    "region": "대구광역시"
  },
  {
    "name": "더샵디어엘로아파트 지하주차장2층~3층",
    "address": "대구광역시 동구 화랑로 33 (신천동)",
    "lat": 35.8693748922946,
    "lng": 128.631763247271,
    "region": "대구광역시"
  },
  {
    "name": "트레이더스 홀세일 클럽 비산점 지하 1~2층",
    "address": "대구광역시 서구 팔달로 54 (비산동)",
    "lat": 35.89037662874629,
    "lng": 128.5559027797508,
    "region": "대구광역시"
  },
  {
    "name": "대구의료원 본관 지하1층, 라파엘웰빙센터 지하1층",
    "address": "대구광역시 서구 평리로 157 (중리동, 대구의료원)",
    "lat": 35.85924911931973,
    "lng": 128.541521652089,
    "region": "대구광역시"
  },
  {
    "name": "한전서대구지점 지하주차장 1층",
    "address": "대구광역시 서구 달서로 85 (비산동, 한국전력서대구점)",
    "lat": 35.869834706207044,
    "lng": 128.5706320491358,
    "region": "대구광역시"
  },
  {
    "name": "IBK기업은행 평리동지점 지하주차장 1층",
    "address": "대구광역시 서구 서대구로 206 (평리동)",
    "lat": 35.876404122034295,
    "lng": 128.55514685389574,
    "region": "대구광역시"
  },
  {
    "name": "서구청 지하 1층",
    "address": "대구광역시 서구 국채보상로 257 (평리동, 서구청)",
    "lat": 35.87142581380109,
    "lng": 128.55923339642263,
    "region": "대구광역시"
  },
  {
    "name": "홍실2차 아파트 지하주차장 1층",
    "address": "대구광역시 서구 통학로 39 (내당동, 보성2차홍실타운)",
    "lat": 35.86378901719271,
    "lng": 128.56399125362395,
    "region": "대구광역시"
  },
  {
    "name": "황제맨션1 지하주차장 1층",
    "address": "대구광역시 서구 통학로 46 (내당동, 황제맨션)",
    "lat": 35.864344513199164,
    "lng": 128.56411457506763,
    "region": "대구광역시"
  },
  {
    "name": "황제맨션2 지하주차장 1층",
    "address": "대구광역시 서구 통학로 46 (내당동, 황제맨션)",
    "lat": 35.864344513199164,
    "lng": 128.56411457506763,
    "region": "대구광역시"
  },
  {
    "name": "서구제일종합사회복지관 지하1층",
    "address": "대구광역시 서구 옥산로6길 9 (원대동3가)",
    "lat": 35.88577822744541,
    "lng": 128.57877368556308,
    "region": "대구광역시"
  },
  {
    "name": "제일고등학교 지하1층",
    "address": "대구광역시 서구 국채보상로 384 (비산동, 경상여중.제일고교)",
    "lat": 35.87187354741617,
    "lng": 128.5729041725648,
    "region": "대구광역시"
  },
  {
    "name": "서구청 구민홀 지하1층",
    "address": "대구광역시 서구 국채보상로 257 (평리동, 서구청)",
    "lat": 35.87142581380109,
    "lng": 128.55923339642263,
    "region": "대구광역시"
  },
  {
    "name": "평리청구타운 지하주차장 1층",
    "address": "대구광역시 서구 서대구로 77 (평리동, 평리청구타운)",
    "lat": 35.86486722330663,
    "lng": 128.55571772141766,
    "region": "대구광역시"
  },
  {
    "name": "신애보육원 지하1층",
    "address": "대구광역시 서구 북비산로33길 9-2, 신애어린이집 지하1층 (평리동)",
    "lat": 35.87998808940194,
    "lng": 128.55143950473578,
    "region": "대구광역시"
  },
  {
    "name": "내당역 대합실 지하1층",
    "address": "대구광역시 서구 달구벌대로 지하 1827 (내당동)",
    "lat": 35.86029837355075,
    "lng": 128.56450606594905,
    "region": "대구광역시"
  },
  {
    "name": "중리롯데캐슬 지하주차장 1~2층",
    "address": "대구광역시 서구 국채보상로34길 12 (중리동, 중리롯데캐슬)",
    "lat": 35.8672372501655,
    "lng": 128.54944750621095,
    "region": "대구광역시"
  },
  {
    "name": "아주조은요양병원 지하1층",
    "address": "대구광역시 서구 서대구로 194 (평리동)",
    "lat": 35.875313292459104,
    "lng": 128.55517681979995,
    "region": "대구광역시"
  },
  {
    "name": "열린큰병원 지하주차장 1층",
    "address": "대구광역시 서구 달구벌대로 1877 (내당동, 열린큰병원)",
    "lat": 35.86173449713119,
    "lng": 128.5696576294034,
    "region": "대구광역시"
  },
  {
    "name": "웰니스1004 병원 지하주차장 1층",
    "address": "대구광역시 서구 달구벌대로 1889 (내당동)",
    "lat": 35.8620814241165,
    "lng": 128.5709241393633,
    "region": "대구광역시"
  },
  {
    "name": "한신휴플러스 지하1,2층주차장",
    "address": "대구광역시 서구 달서로17길 17 (비산동, 한신휴플러스 아파트)",
    "lat": 35.870724223436994,
    "lng": 128.56906545470872,
    "region": "대구광역시"
  },
  {
    "name": "평리롯데캐슬 지하주차장 1층",
    "address": "대구광역시 서구 국채보상로 316 (평리동, 평리롯데캐슬)",
    "lat": 35.8718720319952,
    "lng": 128.5655635848488,
    "region": "대구광역시"
  },
  {
    "name": "서대구신협지하주차장 1층",
    "address": "대구광역시 서구 달서로26길 2 (비산동)",
    "lat": 35.873116773585465,
    "lng": 128.5715961520404,
    "region": "대구광역시"
  },
  {
    "name": "평리푸르지오 지하주차장 1~2층",
    "address": "대구광역시 서구 국채보상로50길 20 (평리동, 평리 푸르지오)",
    "lat": 35.869286068507535,
    "lng": 128.55913179577644,
    "region": "대구광역시"
  },
  {
    "name": "서부도서관 지하1층",
    "address": "대구광역시 서구 국채보상로49길 12 (평리동, 서부도서관)",
    "lat": 35.87220636316506,
    "lng": 128.55754608436877,
    "region": "대구광역시"
  },
  {
    "name": "서구보건소 지하1층",
    "address": "대구광역시 서구 국채보상로 257 (평리동, 서구청)",
    "lat": 35.87142581380109,
    "lng": 128.55923339642263,
    "region": "대구광역시"
  },
  {
    "name": "원대금류타운 아파트 지하주차장 1층",
    "address": "대구광역시 서구 원대로13길 2 (원대동2가, 원대금류타운)",
    "lat": 35.8828904338,
    "lng": 128.58066921594838,
    "region": "대구광역시"
  },
  {
    "name": "한국섬유개발연구원 지하 1층",
    "address": "대구광역시 서구 국채보상로 136 (중리동, 한국섬유개발연구원)",
    "lat": 35.868635644490965,
    "lng": 128.54617727734677,
    "region": "대구광역시"
  },
  {
    "name": "한마음정형외과 지하1층",
    "address": "대구광역시 서구 달서로 129 (비산동)",
    "lat": 35.87381791998788,
    "lng": 128.57094684414284,
    "region": "대구광역시"
  },
  {
    "name": "반고개역 대합실 지하1층",
    "address": "대구광역시 서구 달구벌대로 1903 (내당동)",
    "lat": 35.86023588091545,
    "lng": 128.56415749169844,
    "region": "대구광역시"
  },
  {
    "name": "비산초등학교 지하1층",
    "address": "대구광역시 서구 통학로 202 (평리동)",
    "lat": 35.87839452610604,
    "lng": 128.56318626798543,
    "region": "대구광역시"
  },
  {
    "name": "한국폴리텍대학 대구캠퍼스 산학협력관 지하1층",
    "address": "대구광역시 서구 국채보상로43길 15-0 (평리동, 한국폴리텍대학대구캠퍼스)",
    "lat": 35.87255001233708,
    "lng": 128.55384012813494,
    "region": "대구광역시"
  },
  {
    "name": "비산1동행정복지센터 지하1층",
    "address": "대구광역시 서구 북비산로65길 18 (비산동, 비산1동 주민센터)",
    "lat": 35.88120318437648,
    "lng": 128.56892694695807,
    "region": "대구광역시"
  },
  {
    "name": "두류역 대합실 지하1층",
    "address": "대구광역시 서구 달구벌대로 지하 1760",
    "lat": 35.85657243511946,
    "lng": 128.5535650771389,
    "region": "대구광역시"
  },
  {
    "name": "양지아파트 지하 1층",
    "address": "대구광역시 서구 달서천로61길 34 (비산동, 양지아파트)",
    "lat": 35.88739550663794,
    "lng": 128.5695623527378,
    "region": "대구광역시"
  },
  {
    "name": "수정 아파트 지하 1층",
    "address": "대구광역시 서구 고성로 22 (비산동, 수정아파트)",
    "lat": 35.88720824569868,
    "lng": 128.57021002060645,
    "region": "대구광역시"
  },
  {
    "name": "인동촌건강나눔센터 지하1층 주차장",
    "address": "대구광역시 서구 북비산로75길 6, 인동촌건강나눔센터 (비산동)",
    "lat": 35.87971453686448,
    "lng": 128.57424522158257,
    "region": "대구광역시"
  },
  {
    "name": "평리헤리티지 지하1층 주차장",
    "address": "대구광역시 서구 국채보상로 303 (평리동)",
    "lat": 35.87215674971184,
    "lng": 128.56417609790017,
    "region": "대구광역시"
  },
  {
    "name": "비봉초등학교 지하주차장 1층",
    "address": "대구광역시 서구 달서로45길 30, 비봉초등학교 (비산동)",
    "lat": 35.8826486361758,
    "lng": 128.569129009318,
    "region": "대구광역시"
  },
  {
    "name": "M플라자 지하주차장 1~2층",
    "address": "대구광역시 서구 달구벌대로 1691, M플라자 (내당동)",
    "lat": 35.8557188026316,
    "lng": 128.55071051209,
    "region": "대구광역시"
  },
  {
    "name": "서대구역 서한이다음더퍼스트 지하주차장 1,2층",
    "address": "대구광역시 서구 국채보상로37길 38 (평리동, 서대구역서한이다음더퍼스트)",
    "lat": 35.8732717880067,
    "lng": 128.551416067295,
    "region": "대구광역시"
  },
  {
    "name": "서대구역 화성파크드림 지하주차장 1,2층",
    "address": "대구광역시 서구 서대구로29길 30 (평리동, 서대구역화성파크드림)",
    "lat": 35.871153149382,
    "lng": 128.549219712956,
    "region": "대구광역시"
  },
  {
    "name": "e편한세상두류역 지하주차장 1~3층",
    "address": "대구광역시 서구 달구벌대로361길 41 (내당동, e편한세상두류역)",
    "lat": 35.8631062285242,
    "lng": 128.560807259925,
    "region": "대구광역시"
  },
  {
    "name": "서대구KTX영무예다음 지하주차장 1,2층",
    "address": "대구광역시 서구 당산로 446 (평리동, 서대구영무예다음)",
    "lat": 35.8762635594701,
    "lng": 128.547211921723,
    "region": "대구광역시"
  },
  {
    "name": "서대구센트럴자이 지하주차장 1,2층",
    "address": "대구광역시 서구 고성로 33 (원대동3가, 서대구센트럴자이)",
    "lat": 35.8859834465785,
    "lng": 128.572625860786,
    "region": "대구광역시"
  },
  {
    "name": "서대구역반도유보라센텀 지하주차장1,2층",
    "address": "대구광역시 서구 문화로 230 (평리동, 서대구역반도유보라센텀)",
    "lat": 35.8755161225535,
    "lng": 128.557671209236,
    "region": "대구광역시"
  },
  {
    "name": "KT&G대구본부 지하1층",
    "address": "대구광역시 남구 대명로 124 (대명동)",
    "lat": 35.83915791010429,
    "lng": 128.57102971536537,
    "region": "대구광역시"
  },
  {
    "name": "영남이공대학 천마체육관 지하 1층",
    "address": "대구광역시 남구 현충로 170 (대명동, 영남대학교(병원),영남이공대학교)",
    "lat": 35.84774706852129,
    "lng": 128.58036413864505,
    "region": "대구광역시"
  },
  {
    "name": "가톨릭대학병원 스텔라관 지하1층",
    "address": "대구광역시 남구 두류공원로17길 33, 대구가톨릭의과대학병원 (대명동)",
    "lat": 35.843965409370654,
    "lng": 128.56854225269552,
    "region": "대구광역시"
  },
  {
    "name": "가톨릭대학병원 라파엘관 북문 지하1층",
    "address": "대구광역시 남구 두류공원로17길 33, 대구가톨릭의과대학병원 (대명동)",
    "lat": 35.843965409370654,
    "lng": 128.56854225269552,
    "region": "대구광역시"
  },
  {
    "name": "대구대학교 대강당 지하 1층",
    "address": "대구광역시 남구 성당로50길 33 (대명동, 대구대학교)",
    "lat": 35.85515456918021,
    "lng": 128.57522308630905,
    "region": "대구광역시"
  },
  {
    "name": "대구대학교 간호학과 지하 1층",
    "address": "대구광역시 남구 명덕로12길 55 (대명동, 대구대학교재활대학원)",
    "lat": 35.85534920877455,
    "lng": 128.5764180505983,
    "region": "대구광역시"
  },
  {
    "name": "대구대학교 중앙도서관 지하 1층",
    "address": "대구광역시 남구 성당로50길 33 (대명동, 대구대학교)",
    "lat": 35.85515456918021,
    "lng": 128.57522308630905,
    "region": "대구광역시"
  },
  {
    "name": "대구대학교 재활의원 지하 1층",
    "address": "대구광역시 남구 명덕로8길 70, 대구대학교 재활의원 (대명동)",
    "lat": 35.85636140223983,
    "lng": 128.5749425082127,
    "region": "대구광역시"
  },
  {
    "name": "남구청 지하1층",
    "address": "대구광역시 남구 이천로 51 (봉덕동, 남구청,남구의회,봉덕1동주민센터)",
    "lat": 35.84574797486469,
    "lng": 128.5982000336121,
    "region": "대구광역시"
  },
  {
    "name": "서동해피플러스 지하1층",
    "address": "대구광역시 남구 현충로 127 (대명동, 서동해피플러스)",
    "lat": 35.844213422707654,
    "lng": 128.57984923724754,
    "region": "대구광역시"
  },
  {
    "name": "상아맨션 101동 지하주차장 1층",
    "address": "대구광역시 남구 명덕로 236 (이천동, 보성상아맨션)",
    "lat": 35.85581091593598,
    "lng": 128.59566156066495,
    "region": "대구광역시"
  },
  {
    "name": "상아맨션 102동 지하주차장 1층",
    "address": "대구광역시 남구 명덕로 236 (이천동, 보성상아맨션)",
    "lat": 35.85581091593598,
    "lng": 128.59566156066495,
    "region": "대구광역시"
  },
  {
    "name": "상아맨션 105동 지하주차장 1층",
    "address": "대구광역시 남구 명덕로 236 (이천동, 보성상아맨션)",
    "lat": 35.85581091593598,
    "lng": 128.59566156066495,
    "region": "대구광역시"
  },
  {
    "name": "효성타운 전체 동의 지하1층",
    "address": "대구광역시 남구 효성중앙길 37 (봉덕동, 효성타운)",
    "lat": 35.83607225003909,
    "lng": 128.6021881358129,
    "region": "대구광역시"
  },
  {
    "name": "동아대덕아파트 지하1층",
    "address": "대구광역시 남구 현충서길 29 (대명동, 동아대덕아파트)",
    "lat": 35.84546178369726,
    "lng": 128.5780316107339,
    "region": "대구광역시"
  },
  {
    "name": "대구고등학교 지하1층",
    "address": "대구광역시 남구 중앙대로 171, 대구고등학교 지하1층 (대명동)",
    "lat": 35.84833379821104,
    "lng": 128.59022146106318,
    "region": "대구광역시"
  },
  {
    "name": "대덕1차맨션 101동 지하1층",
    "address": "대구광역시 남구 앞산순환로 657 (봉덕동, 대덕1차맨션)",
    "lat": 35.833707437977445,
    "lng": 128.5966661755956,
    "region": "대구광역시"
  },
  {
    "name": "대덕1차맨션 102동 지하1층",
    "address": "대구광역시 남구 앞산순환로 657 (봉덕동, 대덕1차맨션)",
    "lat": 35.833707437977445,
    "lng": 128.5966661755956,
    "region": "대구광역시"
  },
  {
    "name": "대덕1차맨션 103동 지하1층",
    "address": "대구광역시 남구 앞산순환로 657 (봉덕동, 대덕1차맨션)",
    "lat": 35.833707437977445,
    "lng": 128.5966661755956,
    "region": "대구광역시"
  },
  {
    "name": "대덕1차맨션 106동 지하1층",
    "address": "대구광역시 남구 앞산순환로 657(봉덕동, 보성대덕아파트)",
    "lat": 35.833707437977445,
    "lng": 128.5966661755956,
    "region": "대구광역시"
  },
  {
    "name": "대덕1차맨션 지하1층 주차장",
    "address": "대구광역시 남구 앞산순환로 657(봉덕동, 보성대덕아파트)",
    "lat": 35.833707437977445,
    "lng": 128.5966661755956,
    "region": "대구광역시"
  },
  {
    "name": "대덕2차맨션 203동 지하1층",
    "address": "대구광역시 남구 앞산순환로 655(봉덕동, 보성대덕2차아파트)",
    "lat": 35.83357995251281,
    "lng": 128.59641358497538,
    "region": "대구광역시"
  },
  {
    "name": "대덕2차맨션 201동 지하1층",
    "address": "대구광역시 남구 앞산순환로 655(봉덕동, 보성대덕2차아파트)",
    "lat": 35.83357995251281,
    "lng": 128.59641358497538,
    "region": "대구광역시"
  },
  {
    "name": "대덕2차맨션 202동 지하1층",
    "address": "대구광역시 남구 앞산순환로 655 (봉덕동, 대덕2차맨션)",
    "lat": 35.83357995251281,
    "lng": 128.59641358497538,
    "region": "대구광역시"
  },
  {
    "name": "대덕2차맨션 205동 지하1층",
    "address": "대구광역시 남구 앞산순환로 655 (봉덕동, 대덕2차맨션)",
    "lat": 35.83357995251281,
    "lng": 128.59641358497538,
    "region": "대구광역시"
  },
  {
    "name": "대덕2차맨션 206동 지하1층",
    "address": "대구광역시 남구 앞산순환로 655 (봉덕동, 대덕2차맨션)",
    "lat": 35.83357995251281,
    "lng": 128.59641358497538,
    "region": "대구광역시"
  },
  {
    "name": "대덕2차맨션 207동 지하1층",
    "address": "대구광역시 남구 앞산순환로 655 (봉덕동, 대덕2차맨션)",
    "lat": 35.83357995251281,
    "lng": 128.59641358497538,
    "region": "대구광역시"
  },
  {
    "name": "대덕2차맨션 지하1층 주차장",
    "address": "대구광역시 남구 앞산순환로 655 (봉덕동, 대덕2차맨션)",
    "lat": 35.83357995251281,
    "lng": 128.59641358497538,
    "region": "대구광역시"
  },
  {
    "name": "남부경찰서 지하1층",
    "address": "대구광역시 남구 대명로 249, 대구남부경찰서 지하1층 (대명동)",
    "lat": 35.84230923065306,
    "lng": 128.58381701779254,
    "region": "대구광역시"
  },
  {
    "name": "주식회사KT 지하1층",
    "address": "대구광역시 남구 봉덕로 61 (봉덕동)",
    "lat": 35.845115047187775,
    "lng": 128.59742581943092,
    "region": "대구광역시"
  },
  {
    "name": "강변아파트 104동 지하주차장 1층",
    "address": "대구광역시 남구 명덕로68길 19 (이천동, 강변타운)",
    "lat": 35.85400641829478,
    "lng": 128.6061460956612,
    "region": "대구광역시"
  },
  {
    "name": "강변아파트 107동 지하주차장 1층",
    "address": "대구광역시 남구 명덕로68길 19 (이천동, 강변타운)",
    "lat": 35.85400641829478,
    "lng": 128.6061460956612,
    "region": "대구광역시"
  },
  {
    "name": "태성맨션 지하1층 주차장",
    "address": "대구광역시 남구 효서2길 7 (봉덕동, 태성맨션)",
    "lat": 35.83864767338984,
    "lng": 128.5960754438314,
    "region": "대구광역시"
  },
  {
    "name": "굿모닝병원 지하1층",
    "address": "대구광역시 남구 성당로 224 (대명동, 굿모닝병원)",
    "lat": 35.85290912934251,
    "lng": 128.57399633149404,
    "region": "대구광역시"
  },
  {
    "name": "지하철 영대병원역 지하1~2층",
    "address": "대구광역시 남구 대명로 지하292, 영대병원역 지하1~2층 (대명동)",
    "lat": 35.84393678152511,
    "lng": 128.58767541867684,
    "region": "대구광역시"
  },
  {
    "name": "세광그린타운 지하1층",
    "address": "대구광역시 남구 현충로26길 67, 지하1층 (대명동, 대명세광그린타운)",
    "lat": 35.84424238142021,
    "lng": 128.5838106128563,
    "region": "대구광역시"
  },
  {
    "name": "지하철대명역 지하1층",
    "address": "대구광역시 남구 대명로 지하 71 (대명동, 대명역)",
    "lat": 35.839374993372246,
    "lng": 128.56530160539367,
    "region": "대구광역시"
  },
  {
    "name": "지하철 안지랑역 지하 1층",
    "address": "대구광역시 남구 대명로 지하141, 안지랑역 (대명동)",
    "lat": 35.83931917569469,
    "lng": 128.57322206428353,
    "region": "대구광역시"
  },
  {
    "name": "지하철 현충로역 지하 1층",
    "address": "대구광역시 남구 대명로 지하222, 현충로역 (대명동)",
    "lat": 35.84111287267056,
    "lng": 128.58192339190023,
    "region": "대구광역시"
  },
  {
    "name": "지하철 서부정류장역 지하1층",
    "address": "대구광역시 남구 월배로 지하 501 (대명동)",
    "lat": 35.837075276243546,
    "lng": 128.55703529507426,
    "region": "대구광역시"
  },
  {
    "name": "KT달서지사 남대구지점 지하 1층 주차장",
    "address": "대구광역시 남구 안지랑로 82 (대명동, KT남대구지사)",
    "lat": 35.838837851946366,
    "lng": 128.57154201948484,
    "region": "대구광역시"
  },
  {
    "name": "보성청록타운주차장 서편 지하1층",
    "address": "대구광역시 남구 큰골길 198(대명동)",
    "lat": 35.83467019735467,
    "lng": 128.58597661787653,
    "region": "대구광역시"
  },
  {
    "name": "보성청록타운주차장 동편 지하1층",
    "address": "대구광역시 남구 큰골길 198(대명동)",
    "lat": 35.83467019735467,
    "lng": 128.58597661787653,
    "region": "대구광역시"
  },
  {
    "name": "이천주공1단지 지하주차장 2층",
    "address": "대구광역시 남구 명덕로68길 77 (이천동, 대구이천주공1아파트)",
    "lat": 35.85216193440083,
    "lng": 128.60575527069292,
    "region": "대구광역시"
  },
  {
    "name": "대구미래교육연구원 지하 1층",
    "address": "대구광역시 남구 중앙대로31길 150 (대명동, 대구광역시교육연구정보원)",
    "lat": 35.851737439551,
    "lng": 128.58582199423498,
    "region": "대구광역시"
  },
  {
    "name": "경북예술고등학교 지하1층",
    "address": "대구광역시 남구 중앙대로47길 30 (대명동, 경북예술고등학교)",
    "lat": 35.854200683772845,
    "lng": 128.58836869515406,
    "region": "대구광역시"
  },
  {
    "name": "교대역정거장 지하1층~지하3층",
    "address": "대구광역시 남구 중앙대로 지하 194 (대명동, 교대역)",
    "lat": 35.85012859841767,
    "lng": 128.59066526663554,
    "region": "대구광역시"
  },
  {
    "name": "이천주공2단지 지하주차장 1층",
    "address": "대구광역시 남구 희망로 57 (이천동, 이천주공2단지)",
    "lat": 35.84766997810342,
    "lng": 128.60477392976068,
    "region": "대구광역시"
  },
  {
    "name": "현대요양병원 지하1층",
    "address": "대구광역시 남구 대명로 24 (대명동)",
    "lat": 35.83799536327783,
    "lng": 128.56013164620347,
    "region": "대구광역시"
  },
  {
    "name": "대구서남노회회관 지하1층",
    "address": "대구광역시 남구 앞산순환로 329 (대명동)",
    "lat": 35.82955610315975,
    "lng": 128.56299341244528,
    "region": "대구광역시"
  },
  {
    "name": "그린빌라 지하 1층 주차장",
    "address": "대구광역시 남구 큰골7길 40(대명동, 그린빌라)",
    "lat": 35.83414264950068,
    "lng": 128.5833058636673,
    "region": "대구광역시"
  },
  {
    "name": "대덕문화전당 지하 1층",
    "address": "대구광역시 남구 앞산순환로 478, 대덕문화전당 (대명동)",
    "lat": 35.831309024915015,
    "lng": 128.57701615688055,
    "region": "대구광역시"
  },
  {
    "name": "희망교대성유니드 지하주차장 1층",
    "address": "대구광역시 남구 희망로5길 12 (이천동, 대성유니드아파트)",
    "lat": 35.84845995457124,
    "lng": 128.60080651546676,
    "region": "대구광역시"
  },
  {
    "name": "대구교육대학교 학생생활관 지하주차장 1층",
    "address": "대구광역시 남구 도촌길 37 (대명동, 대구교육대학교학생생활관)",
    "lat": 35.84076912924831,
    "lng": 128.57090869207371,
    "region": "대구광역시"
  },
  {
    "name": "대구광역시시설관리공단 지하주차장 1층",
    "address": "대구광역시 남구 대명로 29 (대명동, 대구광역시 시설관리공단)",
    "lat": 35.83882360693879,
    "lng": 128.5611343441173,
    "region": "대구광역시"
  },
  {
    "name": "앞산힐스테이트 지하주차장 1층",
    "address": "대구광역시 남구 대덕로 166 (봉덕동, 앞산힐스테이트)",
    "lat": 35.840203033592424,
    "lng": 128.60111159136312,
    "region": "대구광역시"
  },
  {
    "name": "우체국보험 대구회관 지하1층~지하5층",
    "address": "대구광역시 남구 중앙대로 200 (대명동, 남대구우체국)",
    "lat": 35.85065694547353,
    "lng": 128.59085807323854,
    "region": "대구광역시"
  },
  {
    "name": "강변코오롱하늘채 아파트 지하1층",
    "address": "대구광역시 남구 봉덕로 134 (봉덕동, 강변코오롱하늘채)",
    "lat": 35.844226874672415,
    "lng": 128.6051538699811,
    "region": "대구광역시"
  },
  {
    "name": "월드메르디앙 지하주차장 2층",
    "address": "대구광역시 남구 이천로19길 68 (이천동, 교대역월드메르디앙)",
    "lat": 35.85052451163132,
    "lng": 128.59528053084753,
    "region": "대구광역시"
  },
  {
    "name": "이천뜨란채3단지 지하주차장 1층",
    "address": "대구광역시 남구 대봉로26길 38 (이천동, 이천뜨란채3단지)",
    "lat": 35.85006124201979,
    "lng": 128.60566352343614,
    "region": "대구광역시"
  },
  {
    "name": "이천뜨란채4단지 지하주차장 1층",
    "address": "대구광역시 남구 대봉로26길 37 (이천동, 이천뜨란채4단지)",
    "lat": 35.850414311545734,
    "lng": 128.605825379906,
    "region": "대구광역시"
  },
  {
    "name": "가톨릭대학병원 라파엘관 동문 지하1층",
    "address": "대구광역시 남구 두류공원로17길 33, 대구가톨릭의과대학병원 (대명동)",
    "lat": 35.843965409370654,
    "lng": 128.56854225269552,
    "region": "대구광역시"
  },
  {
    "name": "가톨릭대학병원 장례식장 지하1층",
    "address": "대구광역시 남구 두류공원로17길 33, 대구가톨릭의과대학병원 (대명동)",
    "lat": 35.843965409370654,
    "lng": 128.56854225269552,
    "region": "대구광역시"
  },
  {
    "name": "앞산클래식명가 지하1층",
    "address": "대구광역시 남구 현충로 107 (대명동, 앞산클래식명가)",
    "lat": 35.842450883108256,
    "lng": 128.57980983727205,
    "region": "대구광역시"
  },
  {
    "name": "영남이공대학교 천마스퀘어 지하 1층",
    "address": "대구광역시 남구 현충로 170 (대명동, 영남대학교(병원),영남이공대학교)",
    "lat": 35.84774706852129,
    "lng": 128.58036413864505,
    "region": "대구광역시"
  },
  {
    "name": "나나바루아 아파트 지하주차장 1층",
    "address": "대구광역시 남구 대명복개로4길 104 (대명동)",
    "lat": 35.83990373688068,
    "lng": 128.5655675680311,
    "region": "대구광역시"
  },
  {
    "name": "봉덕한라하우젠트아파트 지하1층",
    "address": "대구광역시 남구 봉덕로21길 53-16(봉덕동, 봉덕한라하우젠트퍼스트아파트)",
    "lat": 35.84692716792522,
    "lng": 128.59967779465475,
    "region": "대구광역시"
  },
  {
    "name": "교대역 동서프라임36.5 아파트 지하주차장 지하1층",
    "address": "대구광역시 남구 이천로19길 81 (대명동, 교대역동서프라임36.5)",
    "lat": 35.85109415112763,
    "lng": 128.5950577388553,
    "region": "대구광역시"
  },
  {
    "name": "앞산태왕아너스 지하주차장 B2~B3층",
    "address": "대구광역시 남구 효서길 53(봉덕동, 앞산태왕아너스)",
    "lat": 35.83790528961776,
    "lng": 128.5959885589653,
    "region": "대구광역시"
  },
  {
    "name": "대명역센트럴엘리프\n 지하1-2층",
    "address": "대구광역시 남구 대명로14길 60 (대명동, 대명역센트럴엘리프)",
    "lat": 35.83639503846805,
    "lng": 128.56448352933614,
    "region": "대구광역시"
  },
  {
    "name": "현대자동차서비스 지하 1층",
    "address": "대구광역시 북구 노원로 6 (노원동3가)",
    "lat": 35.890406335498895,
    "lng": 128.56393300330942,
    "region": "대구광역시"
  },
  {
    "name": "북구청 민방위교육장 지하 1층",
    "address": "대구광역시 북구 옥산로 65 (침산동, 북구청)",
    "lat": 35.885106206184524,
    "lng": 128.58278095759454,
    "region": "대구광역시"
  },
  {
    "name": "한전대경본부 구내식당 지하1층",
    "address": "대구광역시 북구 원대로 110 (침산동)",
    "lat": 35.887162360265904,
    "lng": 128.58271670588564,
    "region": "대구광역시"
  },
  {
    "name": "삼성빌딩 지하주차장 1층",
    "address": "대구광역시 북구 동북로 279 (복현동)",
    "lat": 35.89330755536288,
    "lng": 128.62077936250196,
    "region": "대구광역시"
  },
  {
    "name": "복현현대맨션 지하주차장 1층",
    "address": "대구광역시 북구 복현로 115 (복현동, 복현현대맨션)",
    "lat": 35.90025295850961,
    "lng": 128.61938771127262,
    "region": "대구광역시"
  },
  {
    "name": "영진전문대 구내식당 지하1층",
    "address": "대구광역시 북구 복현로 35 (복현동, 영진전문대학)",
    "lat": 35.89523785011597,
    "lng": 128.62361217760764,
    "region": "대구광역시"
  },
  {
    "name": "강병원 지하 1층",
    "address": "대구광역시 북구 노원로 70 (노원동3가)",
    "lat": 35.89373045285449,
    "lng": 128.56968529905168,
    "region": "대구광역시"
  },
  {
    "name": "산격주공아파트 101동 지하 1층",
    "address": "대구광역시 북구 연암로 183, 지하1층 (산격동, 산격주공아파트)",
    "lat": 35.900941187692894,
    "lng": 128.59616377958332,
    "region": "대구광역시"
  },
  {
    "name": "산격주공아파트 102동 지하 1층",
    "address": "대구광역시 북구 연암로 183, 지하1층 (산격동, 산격주공아파트)",
    "lat": 35.900941187692894,
    "lng": 128.59616377958332,
    "region": "대구광역시"
  },
  {
    "name": "산격주공아파트 103동 지하 1층",
    "address": "대구광역시 북구 연암로 183, 지하1층 (산격동, 산격주공아파트)",
    "lat": 35.900941187692894,
    "lng": 128.59616377958332,
    "region": "대구광역시"
  },
  {
    "name": "산격주공아파트 104동 지하 1층",
    "address": "대구광역시 북구 연암로 183, 지하1층 (산격동, 산격주공아파트)",
    "lat": 35.900941187692894,
    "lng": 128.59616377958332,
    "region": "대구광역시"
  },
  {
    "name": "산격주공아파트 105동 지하 1층",
    "address": "대구광역시 북구 연암로 183, 지하1층 (산격동, 산격주공아파트)",
    "lat": 35.900941187692894,
    "lng": 128.59616377958332,
    "region": "대구광역시"
  },
  {
    "name": "산격주공아파트 106동 지하 1층",
    "address": "대구광역시 북구 연암로 183, 지하1층 (산격동, 산격주공아파트)",
    "lat": 35.900941187692894,
    "lng": 128.59616377958332,
    "region": "대구광역시"
  },
  {
    "name": "산격주공아파트 107동 지하 1층",
    "address": "대구광역시 북구 연암로 183, 지하1층 (산격동, 산격주공아파트)",
    "lat": 35.900941187692894,
    "lng": 128.59616377958332,
    "region": "대구광역시"
  },
  {
    "name": "산격주공아파트 108동 지하 1층",
    "address": "대구광역시 북구 연암로 183, 지하1층 (산격동, 산격주공아파트)",
    "lat": 35.900941187692894,
    "lng": 128.59616377958332,
    "region": "대구광역시"
  },
  {
    "name": "성광우방아파트 지하주차장1층",
    "address": "대구광역시 북구 호암로 20 (칠성동2가, 성광우방타운)",
    "lat": 35.881719432453345,
    "lng": 128.59314720733454,
    "region": "대구광역시"
  },
  {
    "name": "삼성아파트 지하주차장1층",
    "address": "대구광역시 북구 호암로 40 (칠성동2가, 삼성아파트)",
    "lat": 35.88166833107664,
    "lng": 128.593632378461,
    "region": "대구광역시"
  },
  {
    "name": "대구도시공사지하주차장(지하1~2층)",
    "address": "대구광역시 북구 침산로 73 (고성동3가, 도시개발공사 사옥)",
    "lat": 35.88314291679104,
    "lng": 128.58947694302398,
    "region": "대구광역시"
  },
  {
    "name": "민들레아파트 지하주차장 1층",
    "address": "대구광역시 북구 검단로 255 (검단동, 민들레아파트)",
    "lat": 35.91610231275146,
    "lng": 128.62985768358604,
    "region": "대구광역시"
  },
  {
    "name": "유성청구아파트 지하헬스장 1층",
    "address": "대구광역시 북구 검단로 115 (검단동, 유성청구아파트)",
    "lat": 35.9072251203988,
    "lng": 128.61983457623734,
    "region": "대구광역시"
  },
  {
    "name": "칠곡서한맨션 지하주차장 1층",
    "address": "대구광역시 북구 관음중앙로 6 (관음동, 칠곡서한맨션)",
    "lat": 35.934421231558616,
    "lng": 128.54450020661452,
    "region": "대구광역시"
  },
  {
    "name": "한양수정아파트 204동 지하주차장 1층",
    "address": "대구광역시 북구 구암로 17 (관음동, 칠곡2차(수정)한양아파트)",
    "lat": 35.93401731453954,
    "lng": 128.54284237252375,
    "region": "대구광역시"
  },
  {
    "name": "한양수정아파트 210동 지하주차장 1층",
    "address": "대구광역시 북구 구암로 17 (관음동, 칠곡2차(수정)한양아파트)",
    "lat": 35.93401731453954,
    "lng": 128.54284237252375,
    "region": "대구광역시"
  },
  {
    "name": "한양수정아파트 212동 지하주차장 1층",
    "address": "대구광역시 북구 구암로 17 (관음동, 칠곡2차(수정)한양아파트)",
    "lat": 35.93401731453954,
    "lng": 128.54284237252375,
    "region": "대구광역시"
  },
  {
    "name": "한신아파트 지하주차장 1층",
    "address": "대구광역시 북구 관음로 50 (관음동, 한신아파트)",
    "lat": 35.93490907809214,
    "lng": 128.54119681682488,
    "region": "대구광역시"
  },
  {
    "name": "삼주빌딩 지하1층",
    "address": "대구광역시 북구 대현로 102 (대현동)",
    "lat": 35.88220405156591,
    "lng": 128.610064056394,
    "region": "대구광역시"
  },
  {
    "name": "대구고성동우체국지하주차장(지하1층)",
    "address": "대구광역시 북구 원대로 60 (고성동3가, 고성동 우체국)",
    "lat": 35.8827084114326,
    "lng": 128.58134455664222,
    "region": "대구광역시"
  },
  {
    "name": "산격초등학교 서관 지하 1층",
    "address": "대구광역시 북구 산격로10길 14 (산격동, 대구산격초등학교)",
    "lat": 35.894910131072905,
    "lng": 128.6068377464605,
    "region": "대구광역시"
  },
  {
    "name": "복현보성타운 전체동 지하주차장 1층",
    "address": "대구광역시 북구 검단로 64 (복현동, 복현보성타운)",
    "lat": 35.90323829617092,
    "lng": 128.61673284107414,
    "region": "대구광역시"
  },
  {
    "name": "기아자동차 지하 1층, 세미나실",
    "address": "대구광역시 북구 팔달로 53 (노원동3가)",
    "lat": 35.89078950955102,
    "lng": 128.5560819058163,
    "region": "대구광역시"
  },
  {
    "name": "남영타운 지하주차장(지하1~2층)",
    "address": "대구광역시 북구 침산남로9길 167 (침산동, 침산남영타운)",
    "lat": 35.8996169265899,
    "lng": 128.58718432470704,
    "region": "대구광역시"
  },
  {
    "name": "침산동화타운 지하주차장(지하1~2층)",
    "address": "대구광역시 북구 침산남로7길 50-21 (침산동, 침산동화타운)",
    "lat": 35.893359467016055,
    "lng": 128.57994065030593,
    "region": "대구광역시"
  },
  {
    "name": "산격동화타운 지하주차장 1층",
    "address": "대구광역시 북구 연암로31길 19 (산격동, 산격동화타운)",
    "lat": 35.89828420610326,
    "lng": 128.59406419099267,
    "region": "대구광역시"
  },
  {
    "name": "복현서한1차아파트 전체동 지하주차장 1~2층",
    "address": "대구광역시 북구 검단로 50 (복현동, 복현서한타운)",
    "lat": 35.90205411751363,
    "lng": 128.6163180692862,
    "region": "대구광역시"
  },
  {
    "name": "삼우그린타운 지하주차장 1,2층",
    "address": "대구광역시 북구 매천로8길 35 (매천동, 삼우그린타운)",
    "lat": 35.89988165287731,
    "lng": 128.54630884076184,
    "region": "대구광역시"
  },
  {
    "name": "청구장미마을 지하주차장 1층",
    "address": "대구광역시 북구 칠곡중앙대로 45 (매천동, 청구장미마을)",
    "lat": 35.90075475985256,
    "lng": 128.54547103502347,
    "region": "대구광역시"
  },
  {
    "name": "건영화물 사무실 지하1층",
    "address": "대구광역시 북구 노원로 125 (노원동3가)",
    "lat": 35.896878272579464,
    "lng": 128.57435877528366,
    "region": "대구광역시"
  },
  {
    "name": "두산위브2001 지하주차장 1층",
    "address": "대구광역시 북구 매천로2길 19 (팔달동, 두산위브2001)",
    "lat": 35.89846779655126,
    "lng": 128.54407581211913,
    "region": "대구광역시"
  },
  {
    "name": "복현2차서한아파트 전체동 지하주차장 1층",
    "address": "대구광역시 북구 공항로15길 8 (복현동, 복현2차서한타운)",
    "lat": 35.90011115549634,
    "lng": 128.62356279942097,
    "region": "대구광역시"
  },
  {
    "name": "복현화성타운 지하주차장 1~2층",
    "address": "대구광역시 북구 복현로 173 (복현동, 복현화성타운)",
    "lat": 35.90497563619673,
    "lng": 128.618863519947,
    "region": "대구광역시"
  },
  {
    "name": "지하철1호선 대구역 지하2~3층",
    "address": "대구광역시 북구 칠성남로30길 지하 24 (칠성동2가)",
    "lat": 35.876398309866744,
    "lng": 128.59747435478616,
    "region": "대구광역시"
  },
  {
    "name": "경북대 농과대1호관 지하 1층",
    "address": "대구광역시 북구 대학로 80 (산격동, 경북대학교)",
    "lat": 35.892366792735906,
    "lng": 128.6093788655512,
    "region": "대구광역시"
  },
  {
    "name": "경북대 인문대 지하 1층",
    "address": "대구광역시 북구 대학로 80 (산격동, 경북대학교)",
    "lat": 35.892366792735906,
    "lng": 128.6093788655512,
    "region": "대구광역시"
  },
  {
    "name": "경북대 도서관 신관 지하 1층",
    "address": "대구광역시 북구 대학로 80 (산격동, 경북대학교)",
    "lat": 35.892366792735906,
    "lng": 128.6093788655512,
    "region": "대구광역시"
  },
  {
    "name": "경북대 복현회관 지하 1층",
    "address": "대구광역시 북구 대학로 80 (산격동, 경북대학교)",
    "lat": 35.892366792735906,
    "lng": 128.6093788655512,
    "region": "대구광역시"
  },
  {
    "name": "삼진목화아파트 지하주차장 1층",
    "address": "대구광역시 북구 대천로9길 15 (읍내동, 삼진목화아파트)",
    "lat": 35.93866442969443,
    "lng": 128.55472737688953,
    "region": "대구광역시"
  },
  {
    "name": "공작한양아파트 104, 106동 지하주차장 1층",
    "address": "대구광역시 북구 구암로21길 38, 104동 (읍내동, 칠곡1차(공작)한양아파트)",
    "lat": 35.93562798723326,
    "lng": 128.55310054753414,
    "region": "대구광역시"
  },
  {
    "name": "산호한양아파트 303, 307동 지하주차장 1층",
    "address": "대구광역시 북구 대천로7길 40, 302동 (읍내동, 칠곡산호한양아파트)",
    "lat": 35.94100040784419,
    "lng": 128.55438957931003,
    "region": "대구광역시"
  },
  {
    "name": "북부도서관 지하 1층",
    "address": "대구광역시 북구 옥산로 75 (침산동, 북부도서관)",
    "lat": 35.88486547814465,
    "lng": 128.5839295387341,
    "region": "대구광역시"
  },
  {
    "name": "성지무궁화아파트 지하주차장 1층",
    "address": "대구광역시 북구 경대로7길 60 (대현동, 성지무궁화아파트)",
    "lat": 35.886093970180106,
    "lng": 128.607976616766,
    "region": "대구광역시"
  },
  {
    "name": "신화아파트 지하주차장 1층",
    "address": "대구광역시 북구 경대로5길 25 (대현동, 대현신화맨션)",
    "lat": 35.884630046588406,
    "lng": 128.6107731671246,
    "region": "대구광역시"
  },
  {
    "name": "대현신화빌라 지하주차장 1층",
    "address": "대구광역시 북구 대현로19길 23 (대현동, 대현동아파트)",
    "lat": 35.8846577762715,
    "lng": 128.60982231845526,
    "region": "대구광역시"
  },
  {
    "name": "협화아파트 전동 지하주차장 1층",
    "address": "대구광역시 북구 칠곡중앙대로51길 6 (태전동, 협화맨션)",
    "lat": 35.919150428838314,
    "lng": 128.5464947094865,
    "region": "대구광역시"
  },
  {
    "name": "은마아파트 A동 지하1층",
    "address": "대구광역시 북구 태전로 51 (태전동, 제림은마아파트)",
    "lat": 35.92457665624507,
    "lng": 128.54372639153723,
    "region": "대구광역시"
  },
  {
    "name": "우방1차아파트 전동 지하주차장 1층",
    "address": "대구광역시 북구 매천로 220 (태전동, 태전우방타운)",
    "lat": 35.91665437340427,
    "lng": 128.54225879893448,
    "region": "대구광역시"
  },
  {
    "name": "두성1차아파트 지하주차장 1층",
    "address": "대구광역시 북구 태전로7길 10-17 (태전동, 1차 두성타운 아파트)",
    "lat": 35.92383881925876,
    "lng": 128.5431288403873,
    "region": "대구광역시"
  },
  {
    "name": "한신중앙아파트 전동 지하주차장 1층",
    "address": "대구광역시 북구 영송로 85 (태전동, 한신중앙아파트)",
    "lat": 35.93303819367414,
    "lng": 128.54431496137758,
    "region": "대구광역시"
  },
  {
    "name": "대백1차아파트 전동 지하주차장 1층",
    "address": "대구광역시 북구 관음로 24 (태전동, 칠곡대백맨션)",
    "lat": 35.93265382574529,
    "lng": 128.5402991891515,
    "region": "대구광역시"
  },
  {
    "name": "롯데아파트 전동 지하주차장 1층",
    "address": "대구광역시 북구 구암로 12 (태전동, 롯데아파트)",
    "lat": 35.933740209587725,
    "lng": 128.54216099748444,
    "region": "대구광역시"
  },
  {
    "name": "관음타운 전동 지하주차장 1~3층",
    "address": "대구광역시 북구 영송로 63 (태전동, 칠곡관음타운)",
    "lat": 35.931010491615694,
    "lng": 128.54437689817746,
    "region": "대구광역시"
  },
  {
    "name": "태전대백2차아파트 지하주차장 1층",
    "address": "대구광역시 북구 관음로 18 (태전동, 태전대백맨션)",
    "lat": 35.932154571351305,
    "lng": 128.54002562022723,
    "region": "대구광역시"
  },
  {
    "name": "동서영남타운 지하1층 주차장",
    "address": "대구광역시 북구 구암로 180(구암동, 칠곡동서영남아파트)",
    "lat": 35.93004744024455,
    "lng": 128.55951071678572,
    "region": "대구광역시"
  },
  {
    "name": "청구타운 지하1층~2층 주차장",
    "address": "대구광역시 북구 학정로 271(구암동, 칠곡청구타운)",
    "lat": 35.929365342732524,
    "lng": 128.5596880204632,
    "region": "대구광역시"
  },
  {
    "name": "칠곡미래타운 지하1층 주차장",
    "address": "대구광역시 북구 팔거천동로 52(구암동, 칠곡미래타운)",
    "lat": 35.9291792913294,
    "lng": 128.55350743660557,
    "region": "대구광역시"
  },
  {
    "name": "칠곡금빛타운 지하1층 주차장",
    "address": "대구광역시 북구 팔거천동로 70(구암동, 칠곡금빛타운)",
    "lat": 35.93027330677648,
    "lng": 128.55422942626043,
    "region": "대구광역시"
  },
  {
    "name": "서한아파트 지하1층~2층 주차장",
    "address": "대구광역시 북구 구암로32길 14(구암동, 칠곡3차서한타운)",
    "lat": 35.93016815020491,
    "lng": 128.55771311004546,
    "region": "대구광역시"
  },
  {
    "name": "동서2차아파트 지하1층 주차장",
    "address": "대구광역시 북구 구암로32길 22 (구암동, 칠곡2차동서타운)",
    "lat": 35.92975151003531,
    "lng": 128.55729430213992,
    "region": "대구광역시"
  },
  {
    "name": "한라아파트 지하1층~2층 주차장",
    "address": "대구광역시 북구 구암로 170(구암동, 칠곡2차한라타운)",
    "lat": 35.93011328934958,
    "lng": 128.55930407749054,
    "region": "대구광역시"
  },
  {
    "name": "전원아파트 지하주차장 1층",
    "address": "대구광역시 북구 칠곡중앙대로46길 25(태전동, 현대전원맨션)",
    "lat": 35.91846895166965,
    "lng": 128.5499161666172,
    "region": "대구광역시"
  },
  {
    "name": "에덴아파트 전체동 지하주차장 1층",
    "address": "대구광역시 북구 구암로22길 14 (태전동, 칠곡에덴타운)",
    "lat": 35.93114477881346,
    "lng": 128.5515706412697,
    "region": "대구광역시"
  },
  {
    "name": "두성파크 전체동 지하주차장 1층",
    "address": "대구광역시 북구 학정로13길 16 (태전동, 두성2차파크아파트)",
    "lat": 35.915105599040146,
    "lng": 128.5494796393383,
    "region": "대구광역시"
  },
  {
    "name": "우방미진아파트 지하주차장 1층",
    "address": "대구광역시 북구 칠곡중앙대로52길 46 (태전동, 태전미진타운)",
    "lat": 35.92271459844009,
    "lng": 128.5492047110195,
    "region": "대구광역시"
  },
  {
    "name": "태전동삼성아파트 전체동 지하주차장 1층",
    "address": "대구광역시 북구 칠곡중앙대로52길 20 (태전동, 삼성아파트)",
    "lat": 35.92023877128324,
    "lng": 128.54836317094652,
    "region": "대구광역시"
  },
  {
    "name": "중석타운 전체동 지하주차장 1층",
    "address": "대구광역시 북구 학정로7길 3 (태전동, 태전중석타운)",
    "lat": 35.91399475184467,
    "lng": 128.54644670087168,
    "region": "대구광역시"
  },
  {
    "name": "태전3차우방아파트 지하주차장 1층~2층",
    "address": "대구광역시 북구 학정로 126 (태전동, 태전3차우방타운)",
    "lat": 35.919188199965795,
    "lng": 128.55153449003964,
    "region": "대구광역시"
  },
  {
    "name": "지하철1호선  칠성시장역 지하1~3층",
    "address": "대구광역시 북구 칠성남로 지하 222 (칠성동1가)",
    "lat": 35.876212826563815,
    "lng": 128.60449016526172,
    "region": "대구광역시"
  },
  {
    "name": "영남2차아파트 지하주차장 1층",
    "address": "대구광역시 북구 팔거천동로24길 40 (동천동, 칠곡2차영남타운)",
    "lat": 35.933573972461936,
    "lng": 128.56026639994454,
    "region": "대구광역시"
  },
  {
    "name": "옥석타운 지하주차장 1층",
    "address": "대구광역시 북구 침산남로31길 11(침산동, 옥석타운)",
    "lat": 35.889376585401685,
    "lng": 128.59276116261202,
    "region": "대구광역시"
  },
  {
    "name": "침산한라스카이빌 지하주차장 1층",
    "address": "대구광역시 북구 침산로22길 5(침산동, 침산한라스카이빌)",
    "lat": 35.88559654775047,
    "lng": 128.59161047167473,
    "region": "대구광역시"
  },
  {
    "name": "침산2차화성타운 지하주차장 1~2층",
    "address": "대구광역시 북구 침산남로37길 24(침산동, 침산2차화성아파트)",
    "lat": 35.88879147183196,
    "lng": 128.59517279859543,
    "region": "대구광역시"
  },
  {
    "name": "대구일중학교 본관 지하 1층",
    "address": "대구광역시 북구 옥산로17길 21 (침산동, 대구일중학교)",
    "lat": 35.8864428788504,
    "lng": 128.58554006994328,
    "region": "대구광역시"
  },
  {
    "name": "북대구세무서 후생관 지하 1층",
    "address": "대구광역시 북구 원대로 118 (침산동)",
    "lat": 35.88780884192349,
    "lng": 128.5834163636963,
    "region": "대구광역시"
  },
  {
    "name": "침산2지구아파트 지하주차장 1층",
    "address": "대구광역시 북구 성북로 8 (침산동, 침산2지구아파트)",
    "lat": 35.889848582888995,
    "lng": 128.58487595560518,
    "region": "대구광역시"
  },
  {
    "name": "선학맨션 지하주차장 1층",
    "address": "대구광역시 북구 성북로 50 (침산동, 선학맨션)",
    "lat": 35.8913004300077,
    "lng": 128.5884024619235,
    "region": "대구광역시"
  },
  {
    "name": "청구1차아파트 지하주차장 1~2층",
    "address": "대구광역시 북구 침산남로19길 9 (침산동, 침산청구타운)",
    "lat": 35.89011016373042,
    "lng": 128.5866697810701,
    "region": "대구광역시"
  },
  {
    "name": "현대아파트 지하주차장 1~2층",
    "address": "대구광역시 북구 침산로 163 (침산동, 현대아파트)",
    "lat": 35.89076373086129,
    "lng": 128.59015843956485,
    "region": "대구광역시"
  },
  {
    "name": "연합통신 지하주차장 1~2층",
    "address": "대구광역시 북구 원대로 128 (침산동)",
    "lat": 35.88840063075348,
    "lng": 128.58428706656716,
    "region": "대구광역시"
  },
  {
    "name": "청구2차아파트 지하주차장 1층",
    "address": "대구광역시 북구 침산남로19길 8 (침산동, 침산2차청구타운)",
    "lat": 35.88991655845242,
    "lng": 128.5869063552914,
    "region": "대구광역시"
  },
  {
    "name": "동서타운 지하주차장 1층",
    "address": "대구광역시 북구 침산남로 116 (침산동, 침산동서타운)",
    "lat": 35.88873598961916,
    "lng": 128.5883745482355,
    "region": "대구광역시"
  },
  {
    "name": "대구동서변그린빌 지하주차장 1층",
    "address": "대구광역시 북구 동변로 55(동변동, 대구동서변그린빌)",
    "lat": 35.91824512452082,
    "lng": 128.6035661631948,
    "region": "대구광역시"
  },
  {
    "name": "유니버시아드선수촌1단지 지하주차장 1층",
    "address": "대구광역시 북구 동변로 50 (동변동, 유니버시아드선수촌)",
    "lat": 35.91771659900256,
    "lng": 128.60387725063714,
    "region": "대구광역시"
  },
  {
    "name": "화성리버파크2단지아파트 지하주차장 1층",
    "address": "대구광역시 북구 서변로 50 (서변동, 화성리버파크2단지)",
    "lat": 35.920354119377656,
    "lng": 128.59673586034862,
    "region": "대구광역시"
  },
  {
    "name": "동서리치모아아파트 지하주차장 1층",
    "address": "대구광역시 북구 서변로 88 (서변동, 동서리치모아)",
    "lat": 35.9236110681936,
    "lng": 128.59687240496336,
    "region": "대구광역시"
  },
  {
    "name": "대구역 민자역사 지하1층",
    "address": "대구광역시 북구 태평로 161 (칠성동2가, 롯데백화점대구역)",
    "lat": 35.87541965495126,
    "lng": 128.59594510622753,
    "region": "대구광역시"
  },
  {
    "name": "대구오페라하우스 지하주차장1-2층",
    "address": "대구광역시 북구 호암로 15 (칠성동2가, 대구오페라하우스)",
    "lat": 35.88316257125916,
    "lng": 128.5923322610036,
    "region": "대구광역시"
  },
  {
    "name": "스펙트럼시티 지하주차장2~5층",
    "address": "대구광역시 북구 침산로 93 (칠성동2가, 스펙트럼시티)",
    "lat": 35.884887852452344,
    "lng": 128.59005082175844,
    "region": "대구광역시"
  },
  {
    "name": "전시컨벤션센터 지하주차장 1 ~ 4층",
    "address": "대구광역시 북구 엑스코로 10, 대구전시컨벤션센터 (산격동)",
    "lat": 35.90701230614667,
    "lng": 128.61263713261795,
    "region": "대구광역시"
  },
  {
    "name": "대구종합유통단지산업용재관 전동 지하주차장 1층",
    "address": "대구광역시 북구 유통단지로 16 (산격동, 유통단지산업용재관)",
    "lat": 35.90466751956108,
    "lng": 128.6050021002371,
    "region": "대구광역시"
  },
  {
    "name": "네오시티프라자 지하주차장 1층~5층",
    "address": "대구광역시 북구 칠곡중앙대로 412 (태전동, 네오시티프라자)",
    "lat": 35.932506182205096,
    "lng": 128.54880376838736,
    "region": "대구광역시"
  },
  {
    "name": "동아아울렛강북점 본관 지하주차장 1~4층",
    "address": "대구광역시 북구 칠곡중앙대로 416 (읍내동, 동아아울렛 강북점)",
    "lat": 35.93293537419124,
    "lng": 128.54879062784815,
    "region": "대구광역시"
  },
  {
    "name": "KT북대구지사지하주차장 지하1층",
    "address": "대구광역시 북구 고성로 141 (고성동3가, KT북대구지사)",
    "lat": 35.881443379327614,
    "lng": 128.5812964834763,
    "region": "대구광역시"
  },
  {
    "name": "홈플러스 칠곡점 지하주차장 1층",
    "address": "대구광역시 북구 동암로12길 8 (동천동, 칠곡홈플러스)",
    "lat": 35.944586556583786,
    "lng": 128.55672560910287,
    "region": "대구광역시"
  },
  {
    "name": "칠곡1차한라하우젠트 지하주차장 1층",
    "address": "대구광역시 북구 학남로 10(학정동, 칠곡1차 한라하우젠트)",
    "lat": 35.94852114632561,
    "lng": 128.56578613848197,
    "region": "대구광역시"
  },
  {
    "name": "학정청아람 지하주차장 1~2층",
    "address": "대구광역시 북구 학정로110길 29(학정동, 학정청아람)",
    "lat": 35.95267874222449,
    "lng": 128.56743495793822,
    "region": "대구광역시"
  },
  {
    "name": "태전휴먼시아1단지아파트 지하주차장 1층",
    "address": "대구광역시 북구 매전로 73 (태전동, 태전휴먼시아1단지)",
    "lat": 35.91218658068904,
    "lng": 128.5461989065045,
    "region": "대구광역시"
  },
  {
    "name": "칠곡현대아파트 지하주차장 1층",
    "address": "대구광역시 북구 구리로 254(국우동, 칠곡현대아파트)",
    "lat": 35.94803756000693,
    "lng": 128.5798431981226,
    "region": "대구광역시"
  },
  {
    "name": "강북화성파크드림 전체동 지하주차장 1층",
    "address": "대구광역시 북구 칠곡중앙대로 312 (태전동, 강북 화성파크드림)",
    "lat": 35.923543260256324,
    "lng": 128.54719425581033,
    "region": "대구광역시"
  },
  {
    "name": "대구보건대아트센터 지하주차장 1~2층",
    "address": "대구광역시 북구 영송로 15 (태전동, 대구보건대학교)",
    "lat": 35.92681884720683,
    "lng": 128.54414358773045,
    "region": "대구광역시"
  },
  {
    "name": "대구보건대 지하주차장 1~2층",
    "address": "대구광역시 북구 영송로 15 (태전동, 대구보건대학교)",
    "lat": 35.92681884720683,
    "lng": 128.54414358773045,
    "region": "대구광역시"
  },
  {
    "name": "노원동화타운 지하주차장 1~2층",
    "address": "대구광역시 북구 오봉로 39 (노원동2가, 노원동화타운)",
    "lat": 35.89139378011858,
    "lng": 128.57674885143774,
    "region": "대구광역시"
  },
  {
    "name": "산격대우아파트 전동 지하주차장 1층, 2층",
    "address": "대구광역시 북구 동북로 163 (산격동, 산격대우아파트)",
    "lat": 35.89966881141324,
    "lng": 128.61064706141954,
    "region": "대구광역시"
  },
  {
    "name": "양우내안애아파트 전동 지하주차장 1층, 2층",
    "address": "대구광역시 북구 동북로 131 (산격동, 양우내안애아파트)",
    "lat": 35.90138619544864,
    "lng": 128.60797273279118,
    "region": "대구광역시"
  },
  {
    "name": "산격2차 청구맨션 전체동의 지하주차장 1,2층",
    "address": "대구광역시 북구 대구체육관로4길 2 (산격동, 산격2차청구맨션)",
    "lat": 35.89109241755093,
    "lng": 128.6024109909167,
    "region": "대구광역시"
  },
  {
    "name": "산격1차청구맨션 전체동의 지하주차장 1층",
    "address": "대구광역시 북구 대구체육관로 12 (산격동, 산격청구맨션)",
    "lat": 35.890630781895005,
    "lng": 128.60142994692703,
    "region": "대구광역시"
  },
  {
    "name": "대현e편한세상아파트 104동, 105동 지하1~2층",
    "address": "대구광역시 북구 대현로10길 82 (대현동, 대현e-편한세상)",
    "lat": 35.88152754076799,
    "lng": 128.60410146505302,
    "region": "대구광역시"
  },
  {
    "name": "대현뜨란채아파트 101동 지하1층",
    "address": "대구광역시 북구 대현남로 28 (대현동, 대현뜨란채)",
    "lat": 35.8808992259374,
    "lng": 128.60640838350187,
    "region": "대구광역시"
  },
  {
    "name": "대현한신휴플러스아파트 전동 지하1층",
    "address": "대구광역시 북구 대현남로 25(대현동, 대현한신휴플러스)",
    "lat": 35.8811236604848,
    "lng": 128.60614994796393,
    "region": "대구광역시"
  },
  {
    "name": "칠곡e편한세상 지하주차장 1~2층",
    "address": "대구광역시 북구 칠곡중앙대로 598 (읍내동, 칠곡e-편한세상)",
    "lat": 35.947856658231,
    "lng": 128.55374144915376,
    "region": "대구광역시"
  },
  {
    "name": "대구시티병원 지하 1층",
    "address": "대구광역시 북구 동북로 270 (복현동)",
    "lat": 35.89347833877473,
    "lng": 128.61970564263407,
    "region": "대구광역시"
  },
  {
    "name": "칠곡3차보성타운 101동,103동 지하주차장 1층",
    "address": "대구광역시 북구 칠곡중앙대로126길 7-12, 102동 (읍내동, 칠곡3차보성타운)",
    "lat": 35.95120045589508,
    "lng": 128.5544655089556,
    "region": "대구광역시"
  },
  {
    "name": "화성그랜드파크 지하1층~2층주차장",
    "address": "대구광역시 북구 구암로65길 9(구암동, 화성그랜드파크)",
    "lat": 35.94077267245116,
    "lng": 128.5684840436124,
    "region": "대구광역시"
  },
  {
    "name": "산격거평타운 전동 지하주차장 1층",
    "address": "대구광역시 북구 유통단지로3길 7 (산격동, 산격거평아파트)",
    "lat": 35.90554341736611,
    "lng": 128.60407121309407,
    "region": "대구광역시"
  },
  {
    "name": "서변청아람 지하주차장 1층",
    "address": "대구광역시 북구 호국로57길 20 (서변동, 서변청아람)",
    "lat": 35.92757289780688,
    "lng": 128.59651625563478,
    "region": "대구광역시"
  },
  {
    "name": "강변일성트루엘 지하주차장 1~3층",
    "address": "대구광역시 북구 침산남로 215(침산동, 강변일성트루엘)",
    "lat": 35.88710578499266,
    "lng": 128.59970227870244,
    "region": "대구광역시"
  },
  {
    "name": "고성아파트지하주차장 지하1층",
    "address": "대구광역시 북구 고성북로 3 (고성동2가, 고성아파트)",
    "lat": 35.88018251741643,
    "lng": 128.58231615215686,
    "region": "대구광역시"
  },
  {
    "name": "금호천년나무1단지 지하주차장 1층",
    "address": "대구광역시 북구 한강로 55 (사수동, 대구금호엘에이치천년나무1단지)",
    "lat": 35.89741878626456,
    "lng": 128.5156590403901,
    "region": "대구광역시"
  },
  {
    "name": "그린빌3단지아파트 지하1층~2층 주차장",
    "address": "대구광역시 북구 구암서로 41(구암동, 그린빌3차)",
    "lat": 35.94008817144946,
    "lng": 128.56577411893537,
    "region": "대구광역시"
  },
  {
    "name": "동화훼밀리타운 지하주차장 1층",
    "address": "대구광역시 북구 칠곡중앙대로95길 11 (관음동, 동화훼밀리타운)",
    "lat": 35.93858410893475,
    "lng": 128.5480850473378,
    "region": "대구광역시"
  },
  {
    "name": "명문세가2단지 전체동 지하주차장 1층",
    "address": "대구광역시 북구 복현로 50 (복현동, 복현블루밍브라운스톤명문세가아파트)",
    "lat": 35.89650609954512,
    "lng": 128.62456600241532,
    "region": "대구광역시"
  },
  {
    "name": "침산코오롱 하늘채2단지 지하주차장 1층",
    "address": "대구광역시 북구 중앙대로 591(침산동, 침산동코오롱하늘채아파트)",
    "lat": 35.88608121270567,
    "lng": 128.59501262533513,
    "region": "대구광역시"
  },
  {
    "name": "칠곡시장 지하주차장 1층",
    "address": "대구광역시 북구 칠곡중앙대로 526 (읍내동)",
    "lat": 35.94253641062631,
    "lng": 128.55091762099372,
    "region": "대구광역시"
  },
  {
    "name": "대구역서희스타힐스 지하주차장1~2층",
    "address": "대구광역시 북구 칠성남로 101 (칠성동2가, 대구역 서희스타힐스)",
    "lat": 35.8787023501339,
    "lng": 128.59117757740736,
    "region": "대구광역시"
  },
  {
    "name": "오페라코오롱하늘채 지하주차장1~2층",
    "address": "대구광역시 북구 중앙대로 540 (칠성동2가, 오페라코오롱하늘채)",
    "lat": 35.88015641966927,
    "lng": 128.59678055951414,
    "region": "대구광역시"
  },
  {
    "name": "협성휴포레강북 지하주차장 1층~2층",
    "address": "대구광역시 북구 태암남로 60 (태전동, 협성휴포레강북아파트)",
    "lat": 35.92471211806263,
    "lng": 128.55372556266008,
    "region": "대구광역시"
  },
  {
    "name": "복현3차서한이다음 전체동 지하주차장 1층",
    "address": "대구광역시 북구 복현로 130 (복현동, 복현3차서한이다음)",
    "lat": 35.901440465065264,
    "lng": 128.61845364958336,
    "region": "대구광역시"
  },
  {
    "name": "금호천년나무8단지 지하주차장 1층",
    "address": "대구광역시 북구 내곡로 15 (사수동, 대구금호엘에이치천년나무8단지)",
    "lat": 35.897071415661415,
    "lng": 128.50928495454855,
    "region": "대구광역시"
  },
  {
    "name": "금호천년나무5단지 지하주차장 1층",
    "address": "대구광역시 북구 내곡로 69 (사수동, 대구금호엘에이치천년나무5단지)",
    "lat": 35.902116518626336,
    "lng": 128.51040512609927,
    "region": "대구광역시"
  },
  {
    "name": "효성해링턴 플레이스 102동 지하주차장 1층",
    "address": "대구광역시 북구 관음로 295 (읍내동, 학정역효성해링턴플레이스)",
    "lat": 35.95406496822373,
    "lng": 128.55180316661347,
    "region": "대구광역시"
  },
  {
    "name": "침산화성파크드림 지하주차장 1~2층",
    "address": "대구광역시 북구 성북로 70(침산동, 침산화성파크드림)",
    "lat": 35.89102297679719,
    "lng": 128.59206802625133,
    "region": "대구광역시"
  },
  {
    "name": "대구연경 LH천년나무1단지 지하주차장 1층",
    "address": "대구광역시 북구 동화천로 280 (연경동, 대구연경엘에이치천년나무1단지)",
    "lat": 35.94107231301468,
    "lng": 128.6223389229395,
    "region": "대구광역시"
  },
  {
    "name": "대구연경 연경숲 지하주차장 1층",
    "address": "대구광역시 북구 연경중앙로 55 (연경동, 대구연경 연경숲)",
    "lat": 35.94713850419729,
    "lng": 128.6171922591235,
    "region": "대구광역시"
  },
  {
    "name": "노원한신더휴 지하주차장 1~2층",
    "address": "대구광역시 북구 노원로10길 40 (노원동3가, 대구노원한신더휴)",
    "lat": 35.89170127253668,
    "lng": 128.56964371853118,
    "region": "대구광역시"
  },
  {
    "name": "복현건영아파트 전체동 지하주차장 1층",
    "address": "대구광역시 북구 검단로 28 (복현동, 복현건영아파트)",
    "lat": 35.90013829065007,
    "lng": 128.61566339192242,
    "region": "대구광역시"
  },
  {
    "name": "복현자이아파트 전체동 지하주차장 1층",
    "address": "대구광역시 북구 공항로 16 (복현동)",
    "lat": 35.897545600282044,
    "lng": 128.61694824259783,
    "region": "대구광역시"
  },
  {
    "name": "오페라트루엘시민의숲지하주차장(지하1~2층)",
    "address": "대구광역시 북구 고성북로 34(고성동3가, 오페라트루엘 시민의 숲)",
    "lat": 35.88295429804735,
    "lng": 128.5834326471077,
    "region": "대구광역시"
  },
  {
    "name": "힐스테이트데시앙 도남1단지 지하주차장 1층",
    "address": "대구광역시 북구 도남길 76(국우동, 힐스테이트 데시앙 도남1단지)",
    "lat": 35.95451873896052,
    "lng": 128.5822972718527,
    "region": "대구광역시"
  },
  {
    "name": "복현푸르지오 전체동 지하주차장 1~2층",
    "address": "대구광역시 북구 동북로 345 (복현동, 복현푸르지오)",
    "lat": 35.8919564735593,
    "lng": 128.626517021635,
    "region": "대구광역시"
  },
  {
    "name": "산장맨션 전체 동의 지하주차장 1층",
    "address": "대구광역시 수성구 교학로 111, 전체동 주차장지하1층 (만촌동, 산장맨션)",
    "lat": 35.847908795179094,
    "lng": 128.64975184680458,
    "region": "대구광역시"
  },
  {
    "name": "전원타운 지하1층 1~4지하주차장",
    "address": "대구광역시 수성구 시지로 45, 1~4지하주차장지하층 (시지동, 전원타운)",
    "lat": 35.84008644702916,
    "lng": 128.69557889251402,
    "region": "대구광역시"
  },
  {
    "name": "녹원아파트 전체 동의 지하주차장 1층",
    "address": "대구광역시 수성구 무학로 189, 전체동의지하주차장1층 (지산동, 녹원아파트)",
    "lat": 35.830880327479285,
    "lng": 128.6294446693038,
    "region": "대구광역시"
  },
  {
    "name": "동서아파트 지하주차장 1층",
    "address": "대구광역시 수성구 지산로 56, 전체동의지하주차장1층 (지산동, 동서아파트)",
    "lat": 35.82619267565725,
    "lng": 128.63383909442484,
    "region": "대구광역시"
  },
  {
    "name": "청산맨션 지하주차장 1층",
    "address": "대구광역시 수성구 지범로21길 15, 전체동의지하주차장1층 (지산동, 청산맨션)",
    "lat": 35.8251671362124,
    "lng": 128.6357809832143,
    "region": "대구광역시"
  },
  {
    "name": "지산청구 지하주차장 1층",
    "address": "대구광역시 수성구 지산로 48, 전체동의자하주차장1층 (지산동, 지산청구)",
    "lat": 35.82527478347387,
    "lng": 128.63356243518243,
    "region": "대구광역시"
  },
  {
    "name": "지산1동보성맨션 지하주차장 1층",
    "address": "대구광역시 수성구 지범로21길 3, 전체동의지하주차장1층 (지산동, 지산보성맨션)",
    "lat": 35.82399362078723,
    "lng": 128.63624963842193,
    "region": "대구광역시"
  },
  {
    "name": "지산타운 지하주차장 1층",
    "address": "대구광역시 수성구 용학로 303, 전체동의지하주차장1층 (지산동, 지산타운)",
    "lat": 35.82228495617613,
    "lng": 128.64094120018183,
    "region": "대구광역시"
  },
  {
    "name": "지산서한이다음아파트 지하주차장 1층",
    "address": "대구광역시 수성구 용학로 313, 전체동의지하주차장1층 (지산동, 지산서한이다음아파트)",
    "lat": 35.8233029137554,
    "lng": 128.64139056635574,
    "region": "대구광역시"
  },
  {
    "name": "지산5단지아파트 지하주차장 1층",
    "address": "대구광역시 수성구 용학로 325, 전체동의지하주차장1층 (지산동, 지산5단지아파트)",
    "lat": 35.82359415855893,
    "lng": 128.6426336878994,
    "region": "대구광역시"
  },
  {
    "name": "대구경찰청 지하주차장 1층",
    "address": "대구광역시 수성구 무학로 227, 대구광역시경찰청 지하주차장 지하1층 (지산동)",
    "lat": 35.82919336494259,
    "lng": 128.63315221373904,
    "region": "대구광역시"
  },
  {
    "name": "지산한라타운 지하주차장 1층",
    "address": "대구광역시 수성구 지범로22길 9, 주차장 지하 1층 (지산동, 지산한라타운)",
    "lat": 35.822533761327136,
    "lng": 128.63575819963395,
    "region": "대구광역시"
  },
  {
    "name": "지산협화맨션 지하주차장 1층",
    "address": "대구광역시 수성구 지범로22길 23, 주차장 지하1층 (지산동, 지산협화맨션)",
    "lat": 35.821341922644244,
    "lng": 128.63520350360417,
    "region": "대구광역시"
  },
  {
    "name": "지산현대맨션 지하주차장 1층",
    "address": "대구광역시 수성구 지범로22길 20, 주차장 지하1층 (지산동, 지산현대맨션)",
    "lat": 35.8217983746532,
    "lng": 128.63523981061888,
    "region": "대구광역시"
  },
  {
    "name": "에덴아파트 지하주차장 지하1층",
    "address": "대구광역시 수성구 용학로 223, 주차장 지하1층 (지산동, 지산에덴아파트)",
    "lat": 35.82109762541855,
    "lng": 128.6330156330396,
    "region": "대구광역시"
  },
  {
    "name": "지산우방타운 지하주차장 1층",
    "address": "대구광역시 수성구 지산로 32, 주차장 지하1층 (지산동, 지산우방타운)",
    "lat": 35.82405120861926,
    "lng": 128.63298677118323,
    "region": "대구광역시"
  },
  {
    "name": "지산영남맨션 지하주차장 1층",
    "address": "대구광역시 수성구 지산로 31, 주차장 지하1층 (지산동, 지산영남맨션)",
    "lat": 35.82418771130988,
    "lng": 128.63269256322374,
    "region": "대구광역시"
  },
  {
    "name": "화성맨션 지하주차장 1층",
    "address": "대구광역시 수성구 용학로35길 62, 주차장 지하1층 (지산동, 화성맨션)",
    "lat": 35.8249840166489,
    "lng": 128.6297891421703,
    "region": "대구광역시"
  },
  {
    "name": "지산리더스 지하주차장 1층",
    "address": "대구광역시 수성구 지산로 5, 주차장 지하1층 (지산동, 지산리더스)",
    "lat": 35.82197505972085,
    "lng": 128.63170148191995,
    "region": "대구광역시"
  },
  {
    "name": "지산2동보성맨션 지하주차장 1층",
    "address": "대구광역시 수성구 지범로22길 10, 주차장 지하1층 (지산동, 지산보성맨션)",
    "lat": 35.82264701431411,
    "lng": 128.63560764353707,
    "region": "대구광역시"
  },
  {
    "name": "범물용지아파트 전체 동의 지하주차장 1층",
    "address": "대구광역시 수성구 범안로 77, 범물용지아파트 지하1층 지하주차장 (범물동, 범물용지아파트)",
    "lat": 35.818850034889486,
    "lng": 128.6459677068012,
    "region": "대구광역시"
  },
  {
    "name": "범물보성맨션 전체 동의 지하주차장 1층",
    "address": "대구광역시 수성구 용학로 316, 지하주차장지하층 (범물동, 범물영남보성아파트)",
    "lat": 35.822837533271226,
    "lng": 128.64205467595343,
    "region": "대구광역시"
  },
  {
    "name": "범물영남타운 전체 동의 지하주차장 1층",
    "address": "대구광역시 수성구 용학로 316, 범물영남보성아파트 지하주차장 지하1층 (범물동, 범물영남보성아파트)",
    "lat": 35.822837533271226,
    "lng": 128.64205467595343,
    "region": "대구광역시"
  },
  {
    "name": "범물하이츠 전체 동의 지하주차장 1층",
    "address": "대구광역시 수성구 용학로 336, 지하주차장 지하1층 (범물동, 범물 하이츠)",
    "lat": 35.824375259584265,
    "lng": 128.6433391699972,
    "region": "대구광역시"
  },
  {
    "name": "수성구청 대강당 지하 1층",
    "address": "대구광역시 수성구 달구벌대로 2450, 수성구청 대강당 지하1층 (범어동)",
    "lat": 35.8585455552015,
    "lng": 128.63060984456868,
    "region": "대구광역시"
  },
  {
    "name": "신화에덴 전체동의 지하주차장 1층",
    "address": "대구광역시 수성구 지범로40길 6, 지하주차장 지하1층 (범물동, 신화에덴아파트)",
    "lat": 35.81973530761463,
    "lng": 128.64074073459108,
    "region": "대구광역시"
  },
  {
    "name": "서한화성 전체 동의 지하주차장 1층",
    "address": "대구광역시 수성구 지범로40길 11, 지하주차장 지하1층 (범물동, 서한화성아파트)",
    "lat": 35.818980414835885,
    "lng": 128.64103955402956,
    "region": "대구광역시"
  },
  {
    "name": "범물청아타운 전체 동의 지하주차장 1층",
    "address": "대구광역시 수성구 범안로 40, 지하주차장 지하1층 (범물동, 범물청아타운)",
    "lat": 35.817312651698344,
    "lng": 128.64154822180748,
    "region": "대구광역시"
  },
  {
    "name": "범물삼주타운 전체 동의 지하주차장 1층",
    "address": "대구광역시 수성구 범안로8길 35, 지하주차장 지하1층 (범물동, 범물삼주타운)",
    "lat": 35.81590308052105,
    "lng": 128.6410336888419,
    "region": "대구광역시"
  },
  {
    "name": "우방청솔맨션 전체 동의 지하주차장 1층",
    "address": "대구광역시 수성구 청호로 422, 지하1층 (범어동, 우방청솔맨션)",
    "lat": 35.8541994430715,
    "lng": 128.63976810933485,
    "region": "대구광역시"
  },
  {
    "name": "사월보성타운 지하주차장 1~2층",
    "address": "대구광역시 수성구 욱수천로 133, 지하주차장 1~2층 (사월동, 시지2차사월보성타운)",
    "lat": 35.83935855592782,
    "lng": 128.71526582707972,
    "region": "대구광역시"
  },
  {
    "name": "사월보성타운 103동앞 지하주차장1-2층 민방위대피시설",
    "address": "대구광역시 수성구 욱수천로 133, 지하주차장 1~2층 (사월동, 시지2차사월보성타운)",
    "lat": 35.8393585561907,
    "lng": 128.715265827085,
    "region": "대구광역시"
  },
  {
    "name": "사월보성타운 105동앞 지하주차장1-2층 민방위대피시설",
    "address": "대구광역시 수성구 욱수천로 133, 지하주차장 1~2층 (사월동, 시지2차사월보성타운)",
    "lat": 35.8393585561907,
    "lng": 128.715265827085,
    "region": "대구광역시"
  },
  {
    "name": "사월보성타운 107동앞 지하주차장1-2층 민방위대피시설",
    "address": "대구광역시 수성구 욱수천로 133, 지하주차장 1~2층 (사월동, 시지2차사월보성타운)",
    "lat": 35.8393585561907,
    "lng": 128.715265827085,
    "region": "대구광역시"
  },
  {
    "name": "사월보성타운 108동앞 지하주차장1-2층 민방위대피시설",
    "address": "대구광역시 수성구 욱수천로 133, 지하주차장 1~2층 (사월동, 시지2차사월보성타운)",
    "lat": 35.8393585561907,
    "lng": 128.715265827085,
    "region": "대구광역시"
  },
  {
    "name": "범물두성타운 전체동의 지하주차장 1층",
    "address": "대구광역시 수성구 지범로 300, 지하주차장 지하1층 (범물동, 범물두성타운아파트)",
    "lat": 35.81449712676649,
    "lng": 128.64927926569462,
    "region": "대구광역시"
  },
  {
    "name": "하나타운 지하주차장 1층",
    "address": "대구광역시 수성구 고산로 123, 지하주차장 1층 (매호동, 하나타운)",
    "lat": 35.84198665264195,
    "lng": 128.70429255413953,
    "region": "대구광역시"
  },
  {
    "name": "만촌2차우방타운 전체 동의 지하주차장 1층",
    "address": "대구광역시 수성구 교학로11길 91, 전체동 지하주차장1층 (만촌동, 만촌2차우방타운)",
    "lat": 35.84965071730879,
    "lng": 128.6569097804703,
    "region": "대구광역시"
  },
  {
    "name": "만촌1차우방타운 전체 동의 지하주차장 1~2층",
    "address": "대구광역시 수성구 교학로11길 46, 전체동 지하주차장1~2층 (만촌동, 만촌1차우방타운)",
    "lat": 35.850411207639446,
    "lng": 128.65449262434154,
    "region": "대구광역시"
  },
  {
    "name": "동서무학아파트 지하주차장 지하1층",
    "address": "대구광역시 수성구 지산로14길 83, 전체동의지하주차장1층 (지산동, 동서무학아파트)",
    "lat": 35.82628280448297,
    "lng": 128.6382068052258,
    "region": "대구광역시"
  },
  {
    "name": "하나타운 102동 근처 지하주차장 1층 민방위대피시설",
    "address": "대구광역시 수성구 고산로 123, 지하주차장 1층 (매호동, 하나타운)",
    "lat": 35.841986652909,
    "lng": 128.704292554152,
    "region": "대구광역시"
  },
  {
    "name": "하나타운 103동 근처 지하주차장 1층 민방위대피시설",
    "address": "대구광역시 수성구 고산로 123, 지하주차장 1층 (매호동, 하나타운)",
    "lat": 35.841986652909,
    "lng": 128.704292554152,
    "region": "대구광역시"
  },
  {
    "name": "하나타운 106동 근처 지하주차장 1층 민방위대피시설",
    "address": "대구광역시 수성구 고산로 123, 지하주차장 1층 (매호동, 하나타운)",
    "lat": 35.841986652909,
    "lng": 128.704292554152,
    "region": "대구광역시"
  },
  {
    "name": "하나타운 107동 근처 지하주차장 1층 민방위대피시설",
    "address": "대구광역시 수성구 고산로 123, 지하주차장 1층 (매호동, 하나타운)",
    "lat": 35.841986652909,
    "lng": 128.704292554152,
    "region": "대구광역시"
  },
  {
    "name": "천마타운225,227,231,233동근처 지하주차장1층",
    "address": "대구광역시 수성구 신매로 71, 지하주차장 1층 (신매동, 시지천마타운)",
    "lat": 35.83601602927316,
    "lng": 128.70822513640016,
    "region": "대구광역시"
  },
  {
    "name": "황금미진아파트 지하주차장 지하1층",
    "address": "대구광역시 수성구 청솔로12길 40 (황금동, 황금미진아파트)",
    "lat": 35.85046021711408,
    "lng": 128.622833964151,
    "region": "대구광역시"
  },
  {
    "name": "코아시스프라자 지하주차장 지하1~3층",
    "address": "대구광역시 수성구 동대구로 149, 코아시스아파트 지하주차장 지하1~3층 (황금동)",
    "lat": 35.84372306699012,
    "lng": 128.62401770060657,
    "region": "대구광역시"
  },
  {
    "name": "태왕아너스 주차장 지하 1~2층",
    "address": "대구광역시 수성구 청호로 345, 주차장 지하 1~2층 (황금동, 태왕아너스아파트)",
    "lat": 35.848282410218204,
    "lng": 128.63815472698604,
    "region": "대구광역시"
  },
  {
    "name": "우방오성타운 전체동의 지하주차장 지하1~2층",
    "address": "대구광역시 수성구 신천동로 380, 지하1층 (수성동1가, 우방오성타운)",
    "lat": 35.859168921944125,
    "lng": 128.60870620451203,
    "region": "대구광역시"
  },
  {
    "name": "신세계타운 전체동의 지하주차장 1층(입구 2동 옆)",
    "address": "대구광역시 수성구 신천동로 320, 2동 지하1층 (수성동1가, 신세계타운)",
    "lat": 35.85361522671808,
    "lng": 128.60913705712773,
    "region": "대구광역시"
  },
  {
    "name": "우방한가람타운 지하주차장 지하1~2층",
    "address": "대구광역시 수성구 명덕로 368, 지하1~3층 (수성동1가, 우방한가람타운)",
    "lat": 35.854438293731874,
    "lng": 128.61024631658805,
    "region": "대구광역시"
  },
  {
    "name": "한일유앤아이 전체 동의 지하주차장1-2층 민방위대피시설",
    "address": "대구광역시 수성구 고산로 162, 주차장지하 1~2층 (매호동, 한일유앤아이)",
    "lat": 35.84509249418905,
    "lng": 128.7075168166378,
    "region": "대구광역시"
  },
  {
    "name": "시지푸르지오 전체 동의 지하주차장1-2층 민방위대피시설",
    "address": "대구광역시 수성구 달구벌대로661길 7, 주차장지하 1~2층 (사월동, 대구 시지 푸르지오)",
    "lat": 35.837037220409634,
    "lng": 128.71913604226464,
    "region": "대구광역시"
  },
  {
    "name": "만촌태왕리더스아파트 전체 동의 지하주차장 1-2층",
    "address": "대구광역시 수성구 무열로 47, 지하1~2층 (만촌동, 만촌태왕리더스)",
    "lat": 35.862834624577,
    "lng": 128.64833253256364,
    "region": "대구광역시"
  },
  {
    "name": "만촌역 지하 1~3층",
    "address": "대구광역시 수성구 달구벌대로 지하2584, 만촌역 지하1~3층 (만촌동)",
    "lat": 35.85882969216249,
    "lng": 128.6454427418032,
    "region": "대구광역시"
  },
  {
    "name": "대구은행역 지하 1~3층",
    "address": "대구광역시 수성구 달구벌대로 지하2300, 대구은행역 지하1~3층 (수성동4가)",
    "lat": 35.85971930297659,
    "lng": 128.61430280531565,
    "region": "대구광역시"
  },
  {
    "name": "범어역 지하1~4층",
    "address": "대구광역시 수성구 달구벌대로 지하2396,  범어역 지하1~4층 (범어동)",
    "lat": 35.85903250256317,
    "lng": 128.62450523716117,
    "region": "대구광역시"
  },
  {
    "name": "수성구청역 지하1~4층",
    "address": "대구광역시 수성구 달구벌대로 지하2500, 수성구청역 지하1-4층 (범어동)",
    "lat": 35.85877523784442,
    "lng": 128.63605120338573,
    "region": "대구광역시"
  },
  {
    "name": "담티역 지하1~2층",
    "address": "대구광역시 수성구 달구벌대로 지하2672, 담티역 (만촌동)",
    "lat": 35.8548672189823,
    "lng": 128.653679576912,
    "region": "대구광역시"
  },
  {
    "name": "연호역 지하1~3층",
    "address": "대구광역시 수성구 달구벌대로 지하2870, 연호역 지하1~3층 (연호동)",
    "lat": 35.8464314998522,
    "lng": 128.67185534882617,
    "region": "대구광역시"
  },
  {
    "name": "알파시티역 지하1~5층",
    "address": "대구광역시 수성구 달구벌대로 지하2950, 수성알파시티역 (연호동)",
    "lat": 35.84263027746762,
    "lng": 128.68000496020315,
    "region": "대구광역시"
  },
  {
    "name": "고산역지하1~3층",
    "address": "대구광역시 수성구 달구벌대로 3080, 고산역 지하1~3층 (시지동)",
    "lat": 35.84261167098271,
    "lng": 128.6938465462336,
    "region": "대구광역시"
  },
  {
    "name": "신매역 지하1~3층",
    "address": "대구광역시 수성구 달구벌대로 지하3180, 신매역 지하1~3층 (매호동)",
    "lat": 35.84074351305361,
    "lng": 128.7043528364147,
    "region": "대구광역시"
  },
  {
    "name": "사월역 지하1,3,4층",
    "address": "대구광역시 수성구 달구벌대로 지하3290, 사월역 지하1,3,4층 (신매동)",
    "lat": 35.836791000235245,
    "lng": 128.7153645669116,
    "region": "대구광역시"
  },
  {
    "name": "매호효성백년가약 전체 동의 지하주차장1층 민방위대피시설",
    "address": "대구광역시 수성구 천을로23길 31, 주차장지하 1층 (매호동, 매호 효성백년가약 아파트)",
    "lat": 35.84611339899355,
    "lng": 128.70570503060296,
    "region": "대구광역시"
  },
  {
    "name": "캐슬골드파크2단지 주차장 지하 1~2층",
    "address": "대구광역시 수성구 청수로 235, 주차장 지하 1~2층 (황금동, 캐슬골드파크 2단지)",
    "lat": 35.84122751688204,
    "lng": 128.6333113925038,
    "region": "대구광역시"
  },
  {
    "name": "캐슬골드파크4단지 주차장 지하 1~2층",
    "address": "대구광역시 수성구 청수로 261, 주차장 지하 1~2층 (황금동, 캐슬골드파크 4단지)",
    "lat": 35.84140813543647,
    "lng": 128.63638005368804,
    "region": "대구광역시"
  },
  {
    "name": "캐슬골드파크5단지 주차장 지하 1~2층",
    "address": "대구광역시 수성구 청수로 214, 주차장 지하 1~2층 (황금동, 캐슬골드파크5단지)",
    "lat": 35.8395694030201,
    "lng": 128.6315243609394,
    "region": "대구광역시"
  },
  {
    "name": "제림은세계 지하주차장 지하1층",
    "address": "대구광역시 수성구 달구벌대로 3081, 지하주차장 지하 1층 (시지동, 제림은세계아파트)",
    "lat": 35.84352263945036,
    "lng": 128.69413105602874,
    "region": "대구광역시"
  },
  {
    "name": "메트로팔레스1단지 전체 동의 지하주차장 지하1~2층",
    "address": "대구광역시 수성구 동원로 135, 지하주차장지하1~2층 (만촌동, 메트로팔레스1단지아파트)",
    "lat": 35.869499002535136,
    "lng": 128.635008943249,
    "region": "대구광역시"
  },
  {
    "name": "메트로팔레스5단지 전체 동의 지하주차장 지하1~3층",
    "address": "대구광역시 수성구 동원로 100, 지하주차장지하1~3층 (만촌동, 메트로팔레스5단지아파트)",
    "lat": 35.86902798768229,
    "lng": 128.64039654885408,
    "region": "대구광역시"
  },
  {
    "name": "화성파크스위트 전체 동의 지하주차장 지하1~2층",
    "address": "대구광역시 수성구 화랑로34길 141, 지하주차장지하1~2층 (만촌동, 화성파크스위트)",
    "lat": 35.874419305240515,
    "lng": 128.65279396479042,
    "region": "대구광역시"
  },
  {
    "name": "만촌보성타운 전체 동의 지하주차장 지하1~2층",
    "address": "대구광역시 수성구 공경로 70, 지하주차장지하1~2층 (만촌동, 만촌보성타운아파트)",
    "lat": 35.87365335571839,
    "lng": 128.64289546919787,
    "region": "대구광역시"
  },
  {
    "name": "수성동일하이빌레이크시티아파트 지하주차장 지하 1~2층",
    "address": "대구광역시 수성구 수성로 71, 지하주차장 지하1층 (상동, 수성동일하이빌레이크시티아파트)",
    "lat": 35.83187642694595,
    "lng": 128.6109194822788,
    "region": "대구광역시"
  },
  {
    "name": "수성3가롯데캐슬 전체동의 지하주차장 지하 1~2층",
    "address": "대구광역시 수성구 명덕로 455, 지하주차장 1~2층 (수성동3가, 수성3가롯데캐슬아파트)",
    "lat": 35.85548797822277,
    "lng": 128.62085979989692,
    "region": "대구광역시"
  },
  {
    "name": "두산위브더제니스 지하주차장 지하3층~지하5층",
    "address": "대구광역시 수성구 달구벌대로 2435, 지하주차장 지하3층 (범어동, 두산위브더제니스)",
    "lat": 35.85919181204214,
    "lng": 128.6291057613447,
    "region": "대구광역시"
  },
  {
    "name": "시지효성백년가약1단지 전체 동의 지하주차장 지하1~3층",
    "address": "대구광역시 수성구 달구벌대로 3280, 지하주차장 1~3층 (신매동, 시지 효성 백년가약 1단지)",
    "lat": 35.83596568165893,
    "lng": 128.71451480664214,
    "region": "대구광역시"
  },
  {
    "name": "범어쌍용예가 전체동의 지하주차장 지하 1~2층",
    "address": "대구광역시 수성구 명덕로 477, 지하주차장지하1~2층 (범어동, 범어 쌍용 예가)",
    "lat": 35.85480055934599,
    "lng": 128.62114136356828,
    "region": "대구광역시"
  },
  {
    "name": "범어유림노르웨이숲 전체동의 지하주차장 지하1~2층",
    "address": "대구광역시 수성구 동대구로50길 37, 지하2층 (범어동, 유림노르웨이숲)",
    "lat": 35.85220056299534,
    "lng": 128.6277513053586,
    "region": "대구광역시"
  },
  {
    "name": "파동화성파크뷰아파트 전체 동의 지하주차장 1-2층",
    "address": "대구광역시 수성구 파동로 19, 101동 근처주차장지하1~2층 (파동, 화성파크뷰)",
    "lat": 35.806762559764216,
    "lng": 128.62201822102463,
    "region": "대구광역시"
  },
  {
    "name": "대우트럼프월드수성 전체동의 지하주차장 지하 1~2층",
    "address": "대구광역시 수성구 동대구로 59, 지하1~2층 (두산동, 대우트럼프월드수성아파트)",
    "lat": 35.835542789142735,
    "lng": 128.62282807026747,
    "region": "대구광역시"
  },
  {
    "name": "수성화성파크드림 전체동의 지하주차장 지하1~2층",
    "address": "대구광역시 수성구 용학로28길 8, 지하1~2층 (두산동, 수성화성파크드림)",
    "lat": 35.82289495886484,
    "lng": 128.62463337206944,
    "region": "대구광역시"
  },
  {
    "name": "수성대림e편한세상 전체 동의 지하주차장 지하1~2층",
    "address": "대구광역시 수성구 들안로73길 50-7, 지하주차장지하1~2층 (수성동4가, 수성대림 e-편한세상)",
    "lat": 35.86440969934737,
    "lng": 128.61505924802202,
    "region": "대구광역시"
  },
  {
    "name": "수성태영데시앙 전체 동의 지하주차장 지하1~2층",
    "address": "대구광역시 수성구 들안로 360, 지하주차장지하1~2층 (수성동4가, 수성 태영 데시앙)",
    "lat": 35.862178026513206,
    "lng": 128.6180311152946,
    "region": "대구광역시"
  },
  {
    "name": "범어월드메르디앙웨스턴카운티 전체 동 지하주차장 1-2층",
    "address": "대구광역시 수성구 범어천로 200, 지하주차장 1~2층 (범어동, 범어 월드메르디앙 웨스턴 카운티)",
    "lat": 35.86420673784976,
    "lng": 128.61965625341406,
    "region": "대구광역시"
  },
  {
    "name": "래미안수성아파트 전체 동의 지하주차장 1-3층",
    "address": "대구광역시 수성구 상록로 69, 지하주차장 1~3층 (범어동, 래미안수성아파트)",
    "lat": 35.86559088421953,
    "lng": 128.62383993886195,
    "region": "대구광역시"
  },
  {
    "name": "범어역우방유쉘 전체 동의 지하주차장 1-3층",
    "address": "대구광역시 수성구 동대구로 345, 지하주차장 1~3층 (범어동, 범어역우방유쉘)",
    "lat": 35.861169618019204,
    "lng": 128.62592785595515,
    "region": "대구광역시"
  },
  {
    "name": "수성롯데캐슬더퍼스트 전체동의 지하주차장 지하1~2층",
    "address": "대구광역시 수성구 수성로69길 65, 지하1~2층 (수성동1가, 수성 롯데캐슬 THE FIRST)",
    "lat": 35.85617132369831,
    "lng": 128.61006241583715,
    "region": "대구광역시"
  },
  {
    "name": "범어에스케이뷰아파트1단지 전체 동의 지하주차장 1층",
    "address": "대구광역시 수성구 범어로 73, 지하1층 (범어동, 범어 SK VIEW)",
    "lat": 35.85590703571749,
    "lng": 128.6348332964053,
    "region": "대구광역시"
  },
  {
    "name": "효성백년가약 궁 전체 동의 지하주차장 1층",
    "address": "대구광역시 수성구 청호로 466, 지하 1층 (범어동, 효성백년가약 궁)",
    "lat": 35.857097170521925,
    "lng": 128.64387893611956,
    "region": "대구광역시"
  },
  {
    "name": "정화우방팔레스 지하주차장 지하1층",
    "address": "대구광역시 수성구 수성로 135, 지하주차장 지하1층 (상동, 정화우방팔레스)",
    "lat": 35.837590352438845,
    "lng": 128.61170093258823,
    "region": "대구광역시"
  },
  {
    "name": "수성못코오롱하늘채아파트 전체 동의 지하주차장 1-3층",
    "address": "대구광역시 수성구 파동로 222, 112동 근처주차장지하1~3층 (파동, 수성못코오롱하늘채)",
    "lat": 35.82224138145752,
    "lng": 128.61256321764634,
    "region": "대구광역시"
  },
  {
    "name": "대구수성아이파크아파트 전체 동의 지하주차장 1-2층",
    "address": "대구광역시 수성구 파동로22길 15, 102동 근처주차장지하1~2층 (파동, 수성 아이파크)",
    "lat": 35.81302407028076,
    "lng": 128.61806910112392,
    "region": "대구광역시"
  },
  {
    "name": "범어숲화성파크드림S 103동 근처 지하주차장 1층",
    "address": "대구광역시 수성구 동대구로 376, 103동 지하주차장 지하1층 (범어동, 범어숲 화성파크드림S)",
    "lat": 35.86408133508894,
    "lng": 128.62758154267303,
    "region": "대구광역시"
  },
  {
    "name": "보국웰리치 101,103동 근처 지하주차장 지하1~2층",
    "address": "대구광역시 수성구 욱수천로 55, 지하주차장 1~2층 (욱수동, 보국 웰리치아파트)",
    "lat": 35.833894673229175,
    "lng": 128.71104165704276,
    "region": "대구광역시"
  },
  {
    "name": "태왕월드하이츠 전체 동의 지하주차장 지하1층",
    "address": "대구광역시 수성구 욱수천로 7, 지하주차장 1층 (욱수동, 태왕월드하이츠아파트)",
    "lat": 35.8295766235244,
    "lng": 128.70960116429384,
    "region": "대구광역시"
  },
  {
    "name": "수성아트피아 지하주차장 지하1~2층",
    "address": "대구광역시 수성구 무학로 180, 수성아트피아 지하주차장지하1~2층 (지산동)",
    "lat": 35.8296468235943,
    "lng": 128.62812542235102,
    "region": "대구광역시"
  },
  {
    "name": "지산대우로얄하이츠 지하주차장 지하1층",
    "address": "대구광역시 수성구 용학로36길 20, 주차장 지하1층 (지산동, 지산대우로얄하이츠)",
    "lat": 35.8207466116262,
    "lng": 128.62820108776205,
    "region": "대구광역시"
  },
  {
    "name": "홈플러스 대구수성점 지하주차장 지하 2~3층",
    "address": "대구광역시 수성구 동대구로 95, 지하주차장2~3층 (두산동, 수성 SK리더스뷰)",
    "lat": 35.83890507904336,
    "lng": 128.62358166597363,
    "region": "대구광역시"
  },
  {
    "name": "수성효성해링턴플레이스 지하주차장 지하1층",
    "address": "대구광역시 수성구 희망로24길 24, 지하주차장 지하1층 (중동, 수성 효성해링턴플레이스)",
    "lat": 35.84589160883868,
    "lng": 128.61133339879134,
    "region": "대구광역시"
  },
  {
    "name": "브라운스톤 범어 지하주차장 지하1층",
    "address": "대구광역시 수성구 동대구로 354, 지하주차장 지하1층 (범어동, 브라운스톤 범어)",
    "lat": 35.8618304203117,
    "lng": 128.6272135371584,
    "region": "대구광역시"
  },
  {
    "name": "범어 서한포레스트 지하주차장 지하1층",
    "address": "대구광역시 수성구 동대구로 346, 지하주차장 지하1층 (범어동, 범어서한포레스트)",
    "lat": 35.86137997843965,
    "lng": 128.6274222332962,
    "region": "대구광역시"
  },
  {
    "name": "대구광역시종합복지회관 지하1층",
    "address": "대구광역시 달서구 성당로 187 (성당동, 대구광역시종합복지회관)",
    "lat": 35.84996322279531,
    "lng": 128.5713906683729,
    "region": "대구광역시"
  },
  {
    "name": "상서고등학교 지하주차장 1층",
    "address": "대구광역시 달서구 야외음악당로 107 (성당동, 상서고등학교, 상서중학교)",
    "lat": 35.847072659042595,
    "lng": 128.55127799869962,
    "region": "대구광역시"
  },
  {
    "name": "두류도서관 지하1층",
    "address": "대구광역시 달서구 공원순환로 8 (두류동, 두류도서관)",
    "lat": 35.85266823320202,
    "lng": 128.5605491579272,
    "region": "대구광역시"
  },
  {
    "name": "대구공업대학 도서관 지하 1층",
    "address": "대구광역시 달서구 송현로 205 (본동, 대구공업대학교)",
    "lat": 35.83577255268233,
    "lng": 128.54454066831377,
    "region": "대구광역시"
  },
  {
    "name": "월배시장 주차장",
    "address": "대구광역시 달서구 월배로24길 13 (진천동, 월배시장)",
    "lat": 35.81402127008885,
    "lng": 128.5271085061193,
    "region": "대구광역시"
  },
  {
    "name": "송현여자고등학교 지하1층 다목적교실",
    "address": "대구광역시 달서구 송현로 156 (송현동, 송현여자중,고등학교)",
    "lat": 35.83121636715361,
    "lng": 128.54475179351633,
    "region": "대구광역시"
  },
  {
    "name": "그린맨션2차 각 동 라인별 지하 창고",
    "address": "대구광역시 달서구 구마로36길 20 (본동, 그린맨션2차아파트)",
    "lat": 35.83611252173751,
    "lng": 128.54665551097276,
    "region": "대구광역시"
  },
  {
    "name": "삼희빌딩 지하주차장 1층",
    "address": "대구광역시 달서구 달구벌대로 1780 (두류동)",
    "lat": 35.85831099796306,
    "lng": 128.55978009334623,
    "region": "대구광역시"
  },
  {
    "name": "그린맨션1차 전체 동의 지하1층",
    "address": "대구광역시 달서구 구마로40길 21 (송현동, 청구그린맨션1차아파트)",
    "lat": 35.83606537762649,
    "lng": 128.54885344388782,
    "region": "대구광역시"
  },
  {
    "name": "그린맨션3차 각 동 라인별 지하 창고",
    "address": "대구광역시 달서구 구마로36길 33 (본동, 그린맨션3차아파트)",
    "lat": 35.835491491466875,
    "lng": 128.54683591646733,
    "region": "대구광역시"
  },
  {
    "name": "대구보건고등학교 1층 교육장",
    "address": "대구광역시 달서구 두류남길 10, 대구보건고등학교, 구남중학교 (두류동)",
    "lat": 35.85815747787977,
    "lng": 128.5737236224357,
    "region": "대구광역시"
  },
  {
    "name": "산호아파트 지하주차장 1층",
    "address": "대구광역시 달서구 상화북로 159 (상인동, 산호아파트)",
    "lat": 35.81187379651742,
    "lng": 128.54341668067892,
    "region": "대구광역시"
  },
  {
    "name": "국민건강보험공단 지하2층",
    "address": "대구광역시 달서구 두류공원로 264 (두류동, 국민건강보험공단대구달서지사)",
    "lat": 35.857000287124606,
    "lng": 128.55829529445984,
    "region": "대구광역시"
  },
  {
    "name": "효성중학교 지하1층",
    "address": "대구광역시 달서구 월곡로94길 48, 효성중·여자고등학교 (월성동)",
    "lat": 35.83522781035407,
    "lng": 128.52791368265017,
    "region": "대구광역시"
  },
  {
    "name": "대건고등학교 지하1층",
    "address": "대구광역시 달서구 월곡로94길 46, 대건중,고등학교 (월성동)",
    "lat": 35.83406162971561,
    "lng": 128.5279061981721,
    "region": "대구광역시"
  },
  {
    "name": "달서경찰서 지하1층",
    "address": "대구광역시 달서구 학산로 55, 대구달서경찰서 (월성동)",
    "lat": 35.830384274360064,
    "lng": 128.5337272699839,
    "region": "대구광역시"
  },
  {
    "name": "달서소방서 지하1층",
    "address": "대구광역시 달서구 학산로 75 (월성동, 달서소방서)",
    "lat": 35.831114115432314,
    "lng": 128.53501822580387,
    "region": "대구광역시"
  },
  {
    "name": "월성동서아파트 지하주차장 1층",
    "address": "대구광역시 달서구 학산로7길 5 (월성동, 월성동서타운)",
    "lat": 35.82914883828236,
    "lng": 128.53219415205243,
    "region": "대구광역시"
  },
  {
    "name": "월성보성아파트2단지 지하주차장 1층",
    "address": "대구광역시 달서구 학산로7길 27 (월성동, 월성보성아파트2단지)",
    "lat": 35.83080595582998,
    "lng": 128.53115012517424,
    "region": "대구광역시"
  },
  {
    "name": "월성우방타운 지하1층 지하주차장",
    "address": "대구광역시 달서구 학산로2길 11 (월성동, 월성우방타운)",
    "lat": 35.82620993014013,
    "lng": 128.5320998810025,
    "region": "대구광역시"
  },
  {
    "name": "성안오피스텔 지하주차장 2층",
    "address": "대구광역시 달서구 달구벌대로 1834 (두류동, 성안오피스텔건물)",
    "lat": 35.85999692283499,
    "lng": 128.56537139926198,
    "region": "대구광역시"
  },
  {
    "name": "(주)이월드 타워 주차장 1층",
    "address": "대구광역시 달서구 두류공원로 200 (두류동, 이월드)",
    "lat": 35.85500953360007,
    "lng": 128.5600980657502,
    "region": "대구광역시"
  },
  {
    "name": "월성서한이다음 지하주차장 1층",
    "address": "대구광역시 달서구 학산로 15 (월성동, 월성서한이다음)",
    "lat": 35.82722083703353,
    "lng": 128.53099604616085,
    "region": "대구광역시"
  },
  {
    "name": "선호유치원 지하 교육장",
    "address": "대구광역시 달서구 구마로12길 73 (본동, 선호유치원)",
    "lat": 35.83390366481692,
    "lng": 128.5339257271139,
    "region": "대구광역시"
  },
  {
    "name": "달서구청 민방위교육장 지하1층",
    "address": "대구광역시 달서구 학산로 45 (월성동, 달서구청)",
    "lat": 35.82949098977235,
    "lng": 128.53336272778893,
    "region": "대구광역시"
  },
  {
    "name": "감삼빌딩 지하1층",
    "address": "대구광역시 달서구 달구벌대로 1680(두류동)",
    "lat": 35.854604289413466,
    "lng": 128.5497983081802,
    "region": "대구광역시"
  },
  {
    "name": "대구은행월성동지점 지하주차장 1층",
    "address": "대구광역시 달서구 월성로 30 (월성동, 대구은행월성동지점)",
    "lat": 35.831515055275865,
    "lng": 128.5323038047678,
    "region": "대구광역시"
  },
  {
    "name": "삼성공업 지하1층",
    "address": "대구광역시 달서구 성서공단로58길 30(월암동)",
    "lat": 35.83335285175872,
    "lng": 128.5139441458933,
    "region": "대구광역시"
  },
  {
    "name": "대구광역시 도시관리본부 지하1층",
    "address": "대구광역시 달서구 성서공단로 58(대천동)",
    "lat": 35.83474025427876,
    "lng": 128.48888983206874,
    "region": "대구광역시"
  },
  {
    "name": "현대동방아파트 지하1층 지하주차장",
    "address": "대구광역시 달서구 상인서로 85 (상인동, 상인동방현대아파트)",
    "lat": 35.81738517468002,
    "lng": 128.5412938379458,
    "region": "대구광역시"
  },
  {
    "name": "상인보성아파트 지하1층 지하주차장",
    "address": "대구광역시 달서구 상인서로 75 (상인동, 상인보성아파트)",
    "lat": 35.816653545332564,
    "lng": 128.54201685185362,
    "region": "대구광역시"
  },
  {
    "name": "상인영남화성아파트 지하1층 지하주차장",
    "address": "대구광역시 달서구 상인서로 76 (상인동, 상인영남화성타운)",
    "lat": 35.81671377644404,
    "lng": 128.5422220747244,
    "region": "대구광역시"
  },
  {
    "name": "상인청구아파트 지하1층 주차장",
    "address": "대구광역시 달서구 상인로 105 (상인동, 상인청구아파트)",
    "lat": 35.816248024809546,
    "lng": 128.5458130658074,
    "region": "대구광역시"
  },
  {
    "name": "상인서한아파트 지하1층 지하주차장",
    "address": "대구광역시 달서구 상인서로 51 (상인동, 상인서한타운)",
    "lat": 35.81488368136173,
    "lng": 128.54375062579825,
    "region": "대구광역시"
  },
  {
    "name": "동서아파트 지하1층 주차장",
    "address": "대구광역시 달서구 상인서로 39 (상인동, 상인동서아파트)",
    "lat": 35.81409390995535,
    "lng": 128.5445490343455,
    "region": "대구광역시"
  },
  {
    "name": "상인우방아파트 지하1층 지하주차장",
    "address": "대구광역시 달서구 상인서로 65 (상인동, 상인우방타운)",
    "lat": 35.81584077975199,
    "lng": 128.54282918897607,
    "region": "대구광역시"
  },
  {
    "name": "제림아파트 지하1층 지하주차장",
    "address": "대구광역시 달서구 상화북로 196 (상인동, 상인제림아파트)",
    "lat": 35.8132301989519,
    "lng": 128.547154155268,
    "region": "대구광역시"
  },
  {
    "name": "평광아파트 지하1층 지하주차장",
    "address": "대구광역시 달서구 상인서로 3 (상인동, 상인평광맨션)",
    "lat": 35.81158781503948,
    "lng": 128.54703846888668,
    "region": "대구광역시"
  },
  {
    "name": "비둘기아파트1.2단지 지하1층 지하주차장",
    "address": "대구광역시 달서구 상화로 371 (상인동, 상인비둘기1단지아파트)",
    "lat": 35.80903825180815,
    "lng": 128.5542890505513,
    "region": "대구광역시"
  },
  {
    "name": "은행아파트 지하1층 주자창",
    "address": "대구광역시 달서구 월곡로 112 (상인동, 은행아파트)",
    "lat": 35.80747294081735,
    "lng": 128.54947620675992,
    "region": "대구광역시"
  },
  {
    "name": "장미아파트3단지 지하1층 지하주차장",
    "address": "대구광역시 달서구 상화로 370 (상인동, 장미아파트)",
    "lat": 35.80789207369117,
    "lng": 128.55433908554676,
    "region": "대구광역시"
  },
  {
    "name": "장미아파트4단지 지하1층 지하주차장",
    "address": "대구광역시 달서구 상화로 380 (상인동, 장미아파트)",
    "lat": 35.807621526501826,
    "lng": 128.55501242844994,
    "region": "대구광역시"
  },
  {
    "name": "동서서한아파트 지하1~4층 지하주차장",
    "address": "대구광역시 달서구 선원로 100(이곡동, 성서동서서한아파트)",
    "lat": 35.85894436048964,
    "lng": 128.50308278516454,
    "region": "대구광역시"
  },
  {
    "name": "대백창신한라아파트 지하1~2층 지하주차장",
    "address": "대구광역시 달서구 성서서로 316(이곡동, 성서대백창신한라맨션)",
    "lat": 35.85321734149564,
    "lng": 128.4999723355774,
    "region": "대구광역시"
  },
  {
    "name": "청남타운 지하1층 지하주차장",
    "address": "대구광역시 달서구 성서서로 330(이곡동, 성서청남타운)",
    "lat": 35.85453891667283,
    "lng": 128.5000238351605,
    "region": "대구광역시"
  },
  {
    "name": "삼미아파트 지하1층 주자창",
    "address": "대구광역시 달서구 월배로34길 27 (상인동, 상인삼미아파트)",
    "lat": 35.8156173897432,
    "lng": 128.53276470032333,
    "region": "대구광역시"
  },
  {
    "name": "상인동화아이위시아파트 지하1층 지하주차장",
    "address": "대구광역시 달서구 월곡로 171 (상인동, 상인동화아이위시)",
    "lat": 35.81147200729635,
    "lng": 128.54483166619318,
    "region": "대구광역시"
  },
  {
    "name": "수석빌딩 지하1층 지하주차장",
    "address": "대구광역시 달서구 상화북로 196-6 (상인동)",
    "lat": 35.81298732931154,
    "lng": 128.54716917134516,
    "region": "대구광역시"
  },
  {
    "name": "성당에덴타운 지하주차장 1층",
    "address": "대구광역시 달서구 성당로33길 16 (성당동, 성당에덴타운)",
    "lat": 35.84922936312102,
    "lng": 128.5690066901256,
    "region": "대구광역시"
  },
  {
    "name": "달서우체국 지하1층",
    "address": "대구광역시 달서구 학산로 65, 대구달서우체국 (월성동)",
    "lat": 35.83060589304673,
    "lng": 128.53444821717667,
    "region": "대구광역시"
  },
  {
    "name": "보성화성아파트 지하1층 지하주차장",
    "address": "대구광역시 달서구 계대동문로 99 (이곡동, 성서보성화성타운)",
    "lat": 35.855618449391585,
    "lng": 128.5033127671849,
    "region": "대구광역시"
  },
  {
    "name": "동화태왕한양아파트 지하1층 지하주차장",
    "address": "대구광역시 달서구 상인서로 94 (상인동, 동화,태왕,한양,상인타운)",
    "lat": 35.818004014147434,
    "lng": 128.54097105800355,
    "region": "대구광역시"
  },
  {
    "name": "KT대구물류센터_구 한국통신대구망(지하1층 기계실)",
    "address": "대구광역시 달서구 선원로 7 (신당동, 한국통신대구망)",
    "lat": 35.85951307742223,
    "lng": 128.49321128109784,
    "region": "대구광역시"
  },
  {
    "name": "가람마을(1차) 지하1층 지하주차장",
    "address": "대구광역시 달서구 한실로 135(도원동, 가람마을)",
    "lat": 35.80655827901055,
    "lng": 128.54128940349617,
    "region": "대구광역시"
  },
  {
    "name": "가람마을(2차) 지하1층 지하주차장",
    "address": "대구광역시 달서구 한실로 135 (도원동, 가람마을)",
    "lat": 35.80655827901055,
    "lng": 128.54128940349617,
    "region": "대구광역시"
  },
  {
    "name": "대곡사계절타운 지하1층 지하주차장",
    "address": "대구광역시 달서구 한실로 117 (도원동, 대곡사계절타운)",
    "lat": 35.80830662561713,
    "lng": 128.53962112285316,
    "region": "대구광역시"
  },
  {
    "name": "대곡강산타운 지하1~2층 지하주차장",
    "address": "대구광역시 달서구 도원로 45 (도원동, 대곡강산타운)",
    "lat": 35.80562262076214,
    "lng": 128.53570926145633,
    "region": "대구광역시"
  },
  {
    "name": "한실들마을(1차) 지하1층 지하주차장",
    "address": "대구광역시 달서구 한실로 49 (도원동, 한실들마을)",
    "lat": 35.807938389596096,
    "lng": 128.53199402414904,
    "region": "대구광역시"
  },
  {
    "name": "한실들마을(2차) 지하1층 지하주차장",
    "address": "대구광역시 달서구 한실로 49 (도원동, 한실들마을)",
    "lat": 35.807938389596096,
    "lng": 128.53199402414904,
    "region": "대구광역시"
  },
  {
    "name": "별메마을 지하1층 지하주차장",
    "address": "대구광역시 달서구 도원로 46 (도원동, 별메마을)",
    "lat": 35.80584902632118,
    "lng": 128.53534663237986,
    "region": "대구광역시"
  },
  {
    "name": "산새마을 지하1층 지하주차장",
    "address": "대구광역시 달서구 도원남로 40 (도원동, 산새마을)",
    "lat": 35.8043114046983,
    "lng": 128.5332082113539,
    "region": "대구광역시"
  },
  {
    "name": "나래마을 지하1~2층 지하주차장",
    "address": "대구광역시 달서구 한실로 29 (도원동, 나래마을아파트)",
    "lat": 35.807690682058706,
    "lng": 128.52978449609128,
    "region": "대구광역시"
  },
  {
    "name": "아람마을 지하1층 지하주차장",
    "address": "대구광역시 달서구 한실로 30 (도원동, 아람마을)",
    "lat": 35.80732093470353,
    "lng": 128.52990912514375,
    "region": "대구광역시"
  },
  {
    "name": "송현제림아파트 지하주차장 1층",
    "address": "대구광역시 달서구 구마로52안길 57 (송현동, 송현제림아파트)",
    "lat": 35.83438831307094,
    "lng": 128.55092978695808,
    "region": "대구광역시"
  },
  {
    "name": "서한2차아파트 지하1층 지하주차장",
    "address": "대구광역시 달서구 선원로 122(이곡동, 성서2차서한타운)",
    "lat": 35.858899887672045,
    "lng": 128.50588751844637,
    "region": "대구광역시"
  },
  {
    "name": "지하철송현역 지하1~3층",
    "address": "대구광역시 달서구 월배로 지하 412 (송현동, 대구지하철1호선 송현역)",
    "lat": 35.83101468071426,
    "lng": 128.55185655007324,
    "region": "대구광역시"
  },
  {
    "name": "지하철월촌역 지하1~2층",
    "address": "대구광역시 달서구 월배로 지하 311 (송현동, 대구지하철1호선 월촌역)",
    "lat": 35.82364565867839,
    "lng": 128.54531552351477,
    "region": "대구광역시"
  },
  {
    "name": "대구광역시청소년수련원 지하1층",
    "address": "대구광역시 달서구 앞산순환로 180 (송현동, 청소년수련원)",
    "lat": 35.820163930601055,
    "lng": 128.5531683354454,
    "region": "대구광역시"
  },
  {
    "name": "장관빌라 지하1층 주차장",
    "address": "대구광역시 달서구 중흥로 68 (송현동, 장관빌라)",
    "lat": 35.82851548534351,
    "lng": 128.55837092138762,
    "region": "대구광역시"
  },
  {
    "name": "도시철도 월배역 지하1층~2층 지하주차장",
    "address": "대구광역시 달서구 월배로 지하 143 (진천동, 대구지하철1호선 월배역)",
    "lat": 35.816047027564494,
    "lng": 128.52982645854536,
    "region": "대구광역시"
  },
  {
    "name": "도시철도 진천역 지하1층~지하2층",
    "address": "대구광역시 달서구 월배로 지하 76 (진천동, 대구지하철1호선 진천역)",
    "lat": 35.813836581797005,
    "lng": 128.52303880746848,
    "region": "대구광역시"
  },
  {
    "name": "월성보성타운1단지 지하1층 지하주차장",
    "address": "대구광역시 달서구 학산로 30 (월성동, 월성보성타운1단지)",
    "lat": 35.82798867744519,
    "lng": 128.53254897132896,
    "region": "대구광역시"
  },
  {
    "name": "월성청구아파트 지하1층 지하주차장",
    "address": "대구광역시 달서구 학산로2길 24 (월성동, 월성청구아파트)",
    "lat": 35.82518214295766,
    "lng": 128.53273906136658,
    "region": "대구광역시"
  },
  {
    "name": "월성화성타운 지하1층 지하주차장",
    "address": "대구광역시 달서구 학산로2길 27 (월성동, 월성화성타운)",
    "lat": 35.825103746046764,
    "lng": 128.5331729646044,
    "region": "대구광역시"
  },
  {
    "name": "월성영남맨션 지하1층 지하주차장",
    "address": "대구광역시 달서구 학산로2길 39 (월성동, 월성영남맨션)",
    "lat": 35.82412659185525,
    "lng": 128.5337741822921,
    "region": "대구광역시"
  },
  {
    "name": "성당 제림하이츠 아파트 지하주차장 1층",
    "address": "대구광역시 달서구 당산로30길 12 (성당동, 성당제림하이츠아파트)",
    "lat": 35.848963460229974,
    "lng": 128.5478773902072,
    "region": "대구광역시"
  },
  {
    "name": "외국어고등학교(기숙사 지하1층)",
    "address": "대구광역시 달서구 선원로11길 21 (신당동, 대구외국어고등학교)",
    "lat": 35.86027755199736,
    "lng": 128.49856610753702,
    "region": "대구광역시"
  },
  {
    "name": "현대해상화재보험 지하 3층 주차장",
    "address": "대구광역시 달서구 달구벌대로 1790 (두류동, 현대해상빌딩)",
    "lat": 35.85867119350888,
    "lng": 128.56079125184726,
    "region": "대구광역시"
  },
  {
    "name": "원화여자고등학교 지하 1층",
    "address": "대구광역시 달서구 당산로30길 30 (성당동, 원화여자고등학교,원화중학교)",
    "lat": 35.848436629292166,
    "lng": 128.54958095460898,
    "region": "대구광역시"
  },
  {
    "name": "삼성명가타운(지하1층 주차장)",
    "address": "대구광역시 달서구 호산로 125 (파호동, 삼성명가타운)",
    "lat": 35.8499811205822,
    "lng": 128.4749120638847,
    "region": "대구광역시"
  },
  {
    "name": "삼성한국형아파트(지하1층 주차장)",
    "address": "대구광역시 달서구 호산로 126 (호산동, 삼성한국형아파트)",
    "lat": 35.85101539719753,
    "lng": 128.47826144117846,
    "region": "대구광역시"
  },
  {
    "name": "성서4주공아파트 지하주차장 1층",
    "address": "대구광역시 달서구 성서동로 355-27 (이곡동, 성서4주공아파트)",
    "lat": 35.85253176728562,
    "lng": 128.51240352955975,
    "region": "대구광역시"
  },
  {
    "name": "성서3차동서타운 지하주차장 1층",
    "address": "대구광역시 달서구 이곡공원로 49 (이곡동, 성서3차동서타운)",
    "lat": 35.855416806030455,
    "lng": 128.51292847733345,
    "region": "대구광역시"
  },
  {
    "name": "성서무지개타운 지하주차장 1층",
    "address": "대구광역시 달서구 선원로 171 (이곡동, 성서무지개타운)",
    "lat": 35.86013471988807,
    "lng": 128.5112397904571,
    "region": "대구광역시"
  },
  {
    "name": "성서푸른마을아파트 지하주차장 1층",
    "address": "대구광역시 달서구 선원로 137 (이곡동, 성서푸른마을)",
    "lat": 35.859790663945454,
    "lng": 128.5075495852072,
    "region": "대구광역시"
  },
  {
    "name": "성서와룡타운 지하주차장 1층",
    "address": "대구광역시 달서구 이곡동로 32 (이곡동, 성서와룡타운)",
    "lat": 35.85389223882092,
    "lng": 128.5109883414065,
    "region": "대구광역시"
  },
  {
    "name": "한샘아파트 지하주차장 1층",
    "address": "대구광역시 달서구 선원남로 77 (이곡동, 한샘아파트)",
    "lat": 35.85740522613505,
    "lng": 128.50883694437238,
    "region": "대구광역시"
  },
  {
    "name": "용산1차서한화성아파트 지하주차장 1층",
    "address": "대구광역시 달서구 장산로 10 (용산동, 용산1차서한화성타운아파트)",
    "lat": 35.85421117695547,
    "lng": 128.52963725377256,
    "region": "대구광역시"
  },
  {
    "name": "보람타운 101동 앞 지하주차장",
    "address": "대구광역시 달서구 새동네로 34 (용산동, 성서보람타운)",
    "lat": 35.85226089889985,
    "lng": 128.519357731233,
    "region": "대구광역시"
  },
  {
    "name": "보람타운 102동 앞 지하주차장",
    "address": "대구광역시 달서구 새동네로 34 (용산동, 성서보람타운)",
    "lat": 35.85226089889985,
    "lng": 128.519357731233,
    "region": "대구광역시"
  },
  {
    "name": "보람타운 203동 앞 지하주차장",
    "address": "대구광역시 달서구 새동네로 34 (용산동, 성서보람타운)",
    "lat": 35.85226089889985,
    "lng": 128.519357731233,
    "region": "대구광역시"
  },
  {
    "name": "한마음타운 102동 앞 지하주차장",
    "address": "대구광역시 달서구 선원남로 151 (용산동, 한마음아파트)",
    "lat": 35.85727659779436,
    "lng": 128.51677157654996,
    "region": "대구광역시"
  },
  {
    "name": "한마음타운 105동 앞 지하주차장",
    "address": "대구광역시 달서구 선원남로 151 (용산동, 한마음아파트)",
    "lat": 35.85727659779436,
    "lng": 128.51677157654996,
    "region": "대구광역시"
  },
  {
    "name": "성서2차보성 103동 앞 지하주차장",
    "address": "대구광역시 달서구 선원로 241 (용산동, 성서2차보성타운)",
    "lat": 35.85904151138044,
    "lng": 128.51890538753608,
    "region": "대구광역시"
  },
  {
    "name": "성서2차보성 106동 앞 지하주차장",
    "address": "대구광역시 달서구 선원로 241 (용산동, 성서2차보성타운)",
    "lat": 35.85904151138044,
    "lng": 128.51890538753608,
    "region": "대구광역시"
  },
  {
    "name": "성서2차보성 108동 앞 지하주차장",
    "address": "대구광역시 달서구 선원로 241 (용산동, 성서2차보성타운)",
    "lat": 35.85904151138044,
    "lng": 128.51890538753608,
    "region": "대구광역시"
  },
  {
    "name": "성서6주공 601동 앞 지하주차장",
    "address": "대구광역시 달서구 성지로 35 (용산동, 성서6주공아파트)",
    "lat": 35.85383722740338,
    "lng": 128.5195830184261,
    "region": "대구광역시"
  },
  {
    "name": "성서6주공 603동 앞 지하주차장",
    "address": "대구광역시 달서구 성지로 35 (용산동, 성서6주공아파트)",
    "lat": 35.85383722740338,
    "lng": 128.5195830184261,
    "region": "대구광역시"
  },
  {
    "name": "성서6주공 610동 앞 지하주차장",
    "address": "대구광역시 달서구 성지로 35 (용산동, 성서6주공아파트)",
    "lat": 35.85383722740338,
    "lng": 128.5195830184261,
    "region": "대구광역시"
  },
  {
    "name": "성서2차보성 101동 앞 지하주차장",
    "address": "대구광역시 달서구 선원로 241 (용산동, 성서2차보성타운)",
    "lat": 35.85904151138044,
    "lng": 128.51890538753608,
    "region": "대구광역시"
  },
  {
    "name": "한마음타운 101동 앞 지하주차장",
    "address": "대구광역시 달서구 선원남로 151 (용산동, 한마음아파트)",
    "lat": 35.85727659779436,
    "lng": 128.51677157654996,
    "region": "대구광역시"
  },
  {
    "name": "앞산청구제네스 지하1~2층 주차장",
    "address": "대구광역시 달서구 월배로 340 (송현동, 앞산청구제네스)",
    "lat": 35.825165030670256,
    "lng": 128.54779240584017,
    "region": "대구광역시"
  },
  {
    "name": "롯데캐슬레이크 지하주차장 1~3층",
    "address": "대구광역시 달서구 상화로58길 86 (도원동, 롯데캐슬레이크)",
    "lat": 35.80610007112374,
    "lng": 128.54875974250172,
    "region": "대구광역시"
  },
  {
    "name": "도시철도 이곡역 지하1층",
    "address": "대구광역시 달서구 달구벌대로 지하 1357 (이곡동, 대구지하철2호선이곡역)",
    "lat": 35.85062973112999,
    "lng": 128.5158553918493,
    "region": "대구광역시"
  },
  {
    "name": "용산역지하 1층",
    "address": "대구광역시 달서구 달구벌대로 지하 1476 (용산동, 대구지하철2호선 용산역)",
    "lat": 35.848923202970965,
    "lng": 128.52847592417618,
    "region": "대구광역시"
  },
  {
    "name": "계명대역(지하2층 역사)",
    "address": "대구광역시 달서구 달구벌대로 지하 1140 (신당동, 대구지하철2호선 계명대역)",
    "lat": 35.85144056524712,
    "lng": 128.49192725138465,
    "region": "대구광역시"
  },
  {
    "name": "강창역(지하2층 역사)",
    "address": "대구광역시 달서구 달구벌대로 지하 1014 (호산동, 대구지하철2호선 강창역)",
    "lat": 35.85319500909392,
    "lng": 128.4777311498955,
    "region": "대구광역시"
  },
  {
    "name": "삼정그린빌 지하1층 지하주차장",
    "address": "대구광역시 달서구 야외음악당로39길 54(두류동, 삼정그린빌)",
    "lat": 35.854280679158684,
    "lng": 128.5539830778035,
    "region": "대구광역시"
  },
  {
    "name": "감삼우방맨션아파트 지하1층 주차장",
    "address": "대구광역시 달서구 당산로 187 (감삼동, 감삼우방맨션)",
    "lat": 35.85311958747318,
    "lng": 128.5479379129906,
    "region": "대구광역시"
  },
  {
    "name": "감삼가든아파트 지하1층 지하주차장",
    "address": "대구광역시 달서구 감삼길 107 (감삼동, 감삼가든아파트)",
    "lat": 35.85029460538652,
    "lng": 128.54378208969166,
    "region": "대구광역시"
  },
  {
    "name": "우방드림시티아파트 지하1층 지하주차장",
    "address": "대구광역시 달서구 장기로 242 (감삼동, 우방드림시티)",
    "lat": 35.843708903969485,
    "lng": 128.53396967926648,
    "region": "대구광역시"
  },
  {
    "name": "장기초록나라 지하주차장 1층",
    "address": "대구광역시 달서구 한들로 55 (장기동, 장기초록나라)",
    "lat": 35.845589350357535,
    "lng": 128.52811323289615,
    "region": "대구광역시"
  },
  {
    "name": "영남네오빌비스타 지하주차장 1층",
    "address": "대구광역시 달서구 대명천로 250 (장기동, 영남네오빌비스타)",
    "lat": 35.8421460262154,
    "lng": 128.5330283989438,
    "region": "대구광역시"
  },
  {
    "name": "장기파랑새마을 지하주차장 1층",
    "address": "대구광역시 달서구 한들로 70 (장기동, 장기파랑새마을)",
    "lat": 35.844265587416466,
    "lng": 128.52822268544472,
    "region": "대구광역시"
  },
  {
    "name": "영남네오빌파크 지하1층 주차장",
    "address": "대구광역시 달서구 한들로 36 (장기동, 영남네오빌파크)",
    "lat": 35.84737524156597,
    "lng": 128.52768590031116,
    "region": "대구광역시"
  },
  {
    "name": "우방죽전타운 지하주차장 1층",
    "address": "대구광역시 달서구 용산로 160 (용산동, 우방죽전타운)",
    "lat": 35.85158101895718,
    "lng": 128.53080002748766,
    "region": "대구광역시"
  },
  {
    "name": "용산롯데캐슬그랜드 지하주차장 1층",
    "address": "대구광역시 달서구 장산남로 33 (용산동, 용산롯데캐슬그랜드)",
    "lat": 35.8518329080556,
    "lng": 128.5267046638126,
    "region": "대구광역시"
  },
  {
    "name": "용산우방타운 지하주차장 1층",
    "address": "대구광역시 달서구 용산로 174 (용산동, 용산우방타운)",
    "lat": 35.85301621380588,
    "lng": 128.5308133521492,
    "region": "대구광역시"
  },
  {
    "name": "용산파크타운 지하주차장 1층",
    "address": "대구광역시 달서구 용산로 259 (용산동, 용산파크타운)",
    "lat": 35.86039547809324,
    "lng": 128.52989711776073,
    "region": "대구광역시"
  },
  {
    "name": "용산영남타운 지하주차장 1층",
    "address": "대구광역시 달서구 용산로 266 (용산동, 용산영남타운)",
    "lat": 35.86135079738398,
    "lng": 128.53276184311466,
    "region": "대구광역시"
  },
  {
    "name": "용산청구블루빌아파트 지하주차장 1층",
    "address": "대구광역시 달서구 용산로 254 (용산동, 용산블루빌타운)",
    "lat": 35.86021674111716,
    "lng": 128.5317818714463,
    "region": "대구광역시"
  },
  {
    "name": "용산현대우방아파트 지하주차장 1층",
    "address": "대구광역시 달서구 용산로 253 (용산동, 용산현대우방아파트)",
    "lat": 35.860240755463465,
    "lng": 128.52956612079137,
    "region": "대구광역시"
  },
  {
    "name": "용산2차서한화성아파트 지하주차장 1층",
    "address": "대구광역시 달서구 용산큰못길 30 (용산동, 용산2차서한화성아파트)",
    "lat": 35.860239732642555,
    "lng": 128.52852309745202,
    "region": "대구광역시"
  },
  {
    "name": "용산2차우방타운 지하주차장 1층",
    "address": "대구광역시 달서구 용산서로 38 (용산동, 용산2차우방타운)",
    "lat": 35.85770685391198,
    "lng": 128.5265560253622,
    "region": "대구광역시"
  },
  {
    "name": "용산청구타운 지하주차장 1층",
    "address": "대구광역시 달서구 용산서로 22 (용산동, 용산청구타운)",
    "lat": 35.85769810863122,
    "lng": 128.52801804065248,
    "region": "대구광역시"
  },
  {
    "name": "용산세광태왕아파트 지하주차장 1층",
    "address": "대구광역시 달서구 용산서로 9 (용산동, 용산세광태왕2차아파트)",
    "lat": 35.85749652296363,
    "lng": 128.52964286729932,
    "region": "대구광역시"
  },
  {
    "name": "용산미진태왕아파트 지하주차장 1층",
    "address": "대구광역시 달서구 용산서로 21 (용산동, 용산미진태왕아파트)",
    "lat": 35.857454447936675,
    "lng": 128.5279043133743,
    "region": "대구광역시"
  },
  {
    "name": "용산보성타운 지하주차장 1층",
    "address": "대구광역시 달서구 용산서로 37 (용산동, 용산보성타운)",
    "lat": 35.85750753941601,
    "lng": 128.52625457906103,
    "region": "대구광역시"
  },
  {
    "name": "용산동서우방아파트 지하주차장 1층",
    "address": "대구광역시 달서구 장산로 20 (용산동, 용산동서우방타운아파트)",
    "lat": 35.85417554749638,
    "lng": 128.5279867602851,
    "region": "대구광역시"
  },
  {
    "name": "진천세광그린타운 지하1층 지하주차장",
    "address": "대구광역시 달서구 진천로7길 47-0 (진천동, 세광그린타운)",
    "lat": 35.811202250734404,
    "lng": 128.52272299315536,
    "region": "대구광역시"
  },
  {
    "name": "진천청구타운 지하1층 지하주차장",
    "address": "대구광역시 달서구 진천로 41 (진천동, 진천청구타운)",
    "lat": 35.81243668531516,
    "lng": 128.52482961292222,
    "region": "대구광역시"
  },
  {
    "name": "진천역 대우이안아파트 지하1층 지하주차장",
    "address": "대구광역시 달서구 진천로18길 10 (진천동, 진천역대우이안아파트)",
    "lat": 35.81635858361253,
    "lng": 128.5237683580004,
    "region": "대구광역시"
  },
  {
    "name": "진천트윈팰리스 지하1층 지하주차장",
    "address": "대구광역시 달서구 월배로 71 (진천동, 진천트윈팰리스)",
    "lat": 35.81404994930803,
    "lng": 128.52227030203483,
    "region": "대구광역시"
  },
  {
    "name": "월배역포스코더샾아파트 지하1층 지하주차장",
    "address": "대구광역시 달서구 월서로 51 (진천동, 월배역포스코더샵아파트)",
    "lat": 35.81951337213319,
    "lng": 128.5293748835499,
    "region": "대구광역시"
  },
  {
    "name": "대곡역화성타운 지하주차장 1층",
    "address": "대구광역시 달서구 비슬로 2731 (유천동, 대곡역화성타운)",
    "lat": 35.810160005888285,
    "lng": 128.51370841536175,
    "region": "대구광역시"
  },
  {
    "name": "유천동포스코더샾아파트 지하주차장 1층",
    "address": "대구광역시 달서구 달서대로 67 (유천동, 유천동 포스코 더샾아파트)",
    "lat": 35.81359016288209,
    "lng": 128.5094235229849,
    "region": "대구광역시"
  },
  {
    "name": "대곡역 동화타운 지하1층 지하주차장",
    "address": "대구광역시 달서구 상화로 24 (대곡동, 대곡역동화타운)",
    "lat": 35.80912643409569,
    "lng": 128.517241287307,
    "region": "대구광역시"
  },
  {
    "name": "대곡우방타운 지하1층 지하주차장",
    "address": "대구광역시 달서구 비슬로538길 22 (대곡동, 대곡우방타운)",
    "lat": 35.80694658376532,
    "lng": 128.50925358693536,
    "region": "대구광역시"
  },
  {
    "name": "수목원삼성래미안아파트 지하1층 지하주차장",
    "address": "대구광역시 달서구 상화로8길 23 (대곡동, 수목원삼성래미안)",
    "lat": 35.80745028430601,
    "lng": 128.51671451981954,
    "region": "대구광역시"
  },
  {
    "name": "삼성래미안2차아파트",
    "address": "대구광역시 달서구 상화로 86 (대곡동, 삼성래미안2차아파트)",
    "lat": 35.80697967628264,
    "lng": 128.5237564515003,
    "region": "대구광역시"
  },
  {
    "name": "우방송현하이츠 지하주차장 1층",
    "address": "대구광역시 달서구 학산남로 90 (송현동, 우방송현하이츠)",
    "lat": 35.82549521702725,
    "lng": 128.54205742017436,
    "region": "대구광역시"
  },
  {
    "name": "죽전그린빌아파트 지하1층 지하주차장",
    "address": "대구광역시 달서구 와룡로53길 40 (죽전동, 대구죽전그린빌아파트)",
    "lat": 35.856870172764616,
    "lng": 128.53456066279313,
    "region": "대구광역시"
  },
  {
    "name": "동화로즈빌아파트 지하1층 지하주차장",
    "address": "대구광역시 달서구 죽전1길 82 (죽전동, 동화로즈빌)",
    "lat": 35.853212665587655,
    "lng": 128.5384004994826,
    "region": "대구광역시"
  },
  {
    "name": "도시철도 반고개역 지하1층~3층",
    "address": "대구광역시 달서구 달구벌대로 지하1900, 대구지하철2호선 반고개역 (두류동)",
    "lat": 35.8621193989218,
    "lng": 128.57370435192647,
    "region": "대구광역시"
  },
  {
    "name": "두류역 지하2~3층",
    "address": "대구광역시 달서구 달구벌대로 지하1760, 대구지하철2호선 두류역 (두류동)",
    "lat": 35.85771207579423,
    "lng": 128.55795458031898,
    "region": "대구광역시"
  },
  {
    "name": "도시철도 죽전역 지하 1~4층",
    "address": "대구광역시 달서구 달구벌대로 지하 1560 (죽전동, 대구지하철2호선 죽전역)",
    "lat": 35.850419256698814,
    "lng": 128.53818195575383,
    "region": "대구광역시"
  },
  {
    "name": "성서산업단지역 지하1~3층 대피소",
    "address": "대구광역시 달서구 달구벌대로 지하 1280 (이곡동, 대구지하철2호선 성서산업단지역)",
    "lat": 35.85149287371735,
    "lng": 128.50746024781958,
    "region": "대구광역시"
  },
  {
    "name": "성당동더샾 아파트 지하주차장 1층~2층",
    "address": "대구광역시 달서구 장기로 115 (성당동, 성당동더샵)",
    "lat": 35.842345606807974,
    "lng": 128.54697840493515,
    "region": "대구광역시"
  },
  {
    "name": "우방유쉘(지하1층 주차장)",
    "address": "대구광역시 달서구 달구벌대로 995 (파호동, 성서우방유쉘)",
    "lat": 35.85393140516037,
    "lng": 128.47662950112465,
    "region": "대구광역시"
  },
  {
    "name": "성당코오롱하늘채 지하1~2층 지하주차장",
    "address": "대구광역시 달서구 장기로 160 (감삼동, 성당코오롱하늘채)",
    "lat": 35.84360896230873,
    "lng": 128.54364692522736,
    "region": "대구광역시"
  },
  {
    "name": "미리샘마을 지하1~2층 지하주차장",
    "address": "대구광역시 달서구 한실로 134 (도원동, 미리샘마을)",
    "lat": 35.806193958283984,
    "lng": 128.54125791551903,
    "region": "대구광역시"
  },
  {
    "name": "상인화성하이츠 지하1층 지하주차장",
    "address": "대구광역시 달서구 월배로 245 (상인동, 상인화성하이츠)",
    "lat": 35.82019554975933,
    "lng": 128.53998659575973,
    "region": "대구광역시"
  },
  {
    "name": "월촌화성타운 지하1층 지하주차장",
    "address": "대구광역시 달서구 송현로7길 41 (상인동, 월촌화성타운)",
    "lat": 35.81902521825813,
    "lng": 128.5467631173152,
    "region": "대구광역시"
  },
  {
    "name": "상인자이아파트 지하1층 지하주차장",
    "address": "대구광역시 달서구 상원로 142 (상인동, 상인자이)",
    "lat": 35.82089816332399,
    "lng": 128.52964462489442,
    "region": "대구광역시"
  },
  {
    "name": "신일해피트리아파트 지하1층 지하주차장",
    "address": "대구광역시 달서구 월서로 31 (상인동, 상인동신일해피트리)",
    "lat": 35.820210912386145,
    "lng": 128.53160010303384,
    "region": "대구광역시"
  },
  {
    "name": "대성스카이렉스 지하1~8층 지하주차장",
    "address": "대구광역시 달서구 월배로 183 (상인동, 상인대성스카이렉스)",
    "lat": 35.81784185448716,
    "lng": 128.5336441071957,
    "region": "대구광역시"
  },
  {
    "name": "상인역이편한세상1단지 지하1층 지하주차장",
    "address": "대구광역시 달서구 월서로 14 (상인동, 상인역e-편한세상1단지)",
    "lat": 35.82120128889764,
    "lng": 128.53377964850944,
    "region": "대구광역시"
  },
  {
    "name": "상인역이편한세상2단지 지하1층 지하주차장",
    "address": "대구광역시 달서구 월서로3길 15 (상인동, 상인역e-편한세상2단지)",
    "lat": 35.81981962555699,
    "lng": 128.5345258257685,
    "region": "대구광역시"
  },
  {
    "name": "상인 KCC스위첸 지하1층 지하주차장",
    "address": "대구광역시 달서구 월배로39길 26 (상인동, 상인KCC스위첸)",
    "lat": 35.81998892575076,
    "lng": 128.53287177756562,
    "region": "대구광역시"
  },
  {
    "name": "상인화성파크드림 1단지 지하1층 주차장",
    "address": "대구광역시 달서구 송현로7길 10 (상인동, 상인화성파크드림1단지아파트)",
    "lat": 35.821631332590904,
    "lng": 128.5471133522585,
    "region": "대구광역시"
  },
  {
    "name": "상인 화성파크드림 2단지 지하1층 지하주차장",
    "address": "대구광역시 달서구 송현로7길 9 (상인동, 상인화성파크드림2단지아파트)",
    "lat": 35.821456586915,
    "lng": 128.54738493595227,
    "region": "대구광역시"
  },
  {
    "name": "대구상인푸르지오아파트 지하1~2층 지하주차장",
    "address": "대구광역시 달서구 상화로 235 (상인동, 대구상인푸르지오)",
    "lat": 35.81057957464443,
    "lng": 128.54009820471074,
    "region": "대구광역시"
  },
  {
    "name": "월드마크웨스트엔드 지하1층~지하3층 지하주차장",
    "address": "대구광역시 달서구 와룡로 169 (감삼동, 월드마크웨스트엔드)",
    "lat": 35.84778876508496,
    "lng": 128.53676875354873,
    "region": "대구광역시"
  },
  {
    "name": "태왕아너스베스트아파트 지하1층 지하주차장",
    "address": "대구광역시 달서구 월배로33길 117 (월성동, 태왕 아너스 BEST)",
    "lat": 35.82038068225638,
    "lng": 128.52724178161608,
    "region": "대구광역시"
  },
  {
    "name": "월성자이아파트 지하1층 지하주차장",
    "address": "대구광역시 달서구 조암남로10길 21 (월성동, 월성자이아파트)",
    "lat": 35.8222287127991,
    "lng": 128.5270146454083,
    "region": "대구광역시"
  },
  {
    "name": "월성푸르지오아파트 지하1층 지하주차장",
    "address": "대구광역시 달서구 조암로6길 20 (월성동, 월성푸르지오)",
    "lat": 35.82673373123993,
    "lng": 128.52564995832827,
    "region": "대구광역시"
  },
  {
    "name": "태왕아너스월성아파트 지하1층 지하주차장",
    "address": "대구광역시 달서구 조암남로 24 (월성동, 태왕아너스월성)",
    "lat": 35.82213659439164,
    "lng": 128.53004067384174,
    "region": "대구광역시"
  },
  {
    "name": "월성동삼성래미안아파트 지하1층 지하주차장",
    "address": "대구광역시 달서구 상원로 143 (월성동, 월성동삼성래미안아파트)",
    "lat": 35.82071873834593,
    "lng": 128.52940249611677,
    "region": "대구광역시"
  },
  {
    "name": "월성동코오롱하늘채1단지 지하1층 지하주차장",
    "address": "대구광역시 달서구 조암남로16길 19 (월성동, 월성코오롱하늘채아파트 1단지)",
    "lat": 35.82181303444701,
    "lng": 128.52323655031725,
    "region": "대구광역시"
  },
  {
    "name": "월성동코오롱하늘채2단지 지하1층 지하주차장",
    "address": "대구광역시 달서구 조암남로16길 20 (월성동, 월성코오롱하늘채아파트 2단지)",
    "lat": 35.82201821167451,
    "lng": 128.52345369372912,
    "region": "대구광역시"
  },
  {
    "name": "월성월드메르디앙아파트 지하1층 지하주차장",
    "address": "대구광역시 달서구 조암로6길 19 (월성동, 월성월드메르디앙)",
    "lat": 35.82658478888304,
    "lng": 128.52539761885262,
    "region": "대구광역시"
  },
  {
    "name": "월성e편한세상아파트 지하1층 지하주차장",
    "address": "대구광역시 달서구 조암남로 10 (월성동, 월성e-편한세상)",
    "lat": 35.822642402061305,
    "lng": 128.53145209666303,
    "region": "대구광역시"
  },
  {
    "name": "이안월배아파트 지하주차장 1층",
    "address": "대구광역시 달서구 조암남로 116 (대천동, 이안월배아파트)",
    "lat": 35.8190477797359,
    "lng": 128.52082012331,
    "region": "대구광역시"
  },
  {
    "name": "대구월배태영데시앙 지하주차장 1층",
    "address": "대구광역시 달서구 조암남로 123 (대천동, 대구월배태영데시앙)",
    "lat": 35.81843450916726,
    "lng": 128.52029740089836,
    "region": "대구광역시"
  },
  {
    "name": "월배힐스테이트 지하주차장 1층",
    "address": "대구광역시 달서구 조암남로 132(대천동, 월배 힐스테이트)",
    "lat": 35.818140479762874,
    "lng": 128.5193748648422,
    "region": "대구광역시"
  },
  {
    "name": "본리롯데캐슬아파트 지하1층~지하2층",
    "address": "대구광역시 달서구 대명천로 101 (본리동, 본리롯데캐슬)",
    "lat": 35.83849718715682,
    "lng": 128.54865520629195,
    "region": "대구광역시"
  },
  {
    "name": "본리2차롯데캐슬 지하1층~지하2층",
    "address": "대구광역시 달서구 대명천로 119 (본리동, 본리2차롯데캐슬)",
    "lat": 35.838947548427896,
    "lng": 128.5466855579959,
    "region": "대구광역시"
  },
  {
    "name": "성당래미안e편한세상1차아파트 지하1층~지하2층",
    "address": "대구광역시 달서구 장기로 189 (본리동, 성당래미안e-편한세상)",
    "lat": 35.84183648241134,
    "lng": 128.539655337432,
    "region": "대구광역시"
  },
  {
    "name": "성당래미안e편한세상2차아파트 지하1층~지하2층",
    "address": "대구광역시 달서구 장기로 145 (본리동, 성당래미안e-편한세상)",
    "lat": 35.84239913110053,
    "lng": 128.54465144375249,
    "region": "대구광역시"
  },
  {
    "name": "한화꿈에그린아파트(지하1층 주차장)",
    "address": "대구광역시 달서구 달서대로 719 (신당동, 신당한화꿈에그린아파트)",
    "lat": 35.86397123050872,
    "lng": 128.49108129775686,
    "region": "대구광역시"
  },
  {
    "name": "삼정브리티시용산 지하1층~3층 지하주차장",
    "address": "대구광역시 달서구 달구벌대로 1530 (감삼동, 삼정브리티시용산)",
    "lat": 35.849513281900386,
    "lng": 128.5343102065552,
    "region": "대구광역시"
  },
  {
    "name": "한국법무보호복지공단대구경북지부 지하1층",
    "address": "대구광역시 달서구 성서동로 325 (이곡동)",
    "lat": 35.84976569385565,
    "lng": 128.51568818257118,
    "region": "대구광역시"
  },
  {
    "name": "VPHC(구_평화발레오) 지하1층 구내식당",
    "address": "대구광역시 달서구 성서로 236 (장동, 평화발레오)",
    "lat": 35.83837422882973,
    "lng": 128.50761394804033,
    "region": "대구광역시"
  },
  {
    "name": "대구환경공단 성서사업소 지하1층 탁구장",
    "address": "대구광역시 달서구 성서공단로 257 (장동, 대구환경공단성서사업소)",
    "lat": 35.83609330898017,
    "lng": 128.5110522484755,
    "region": "대구광역시"
  },
  {
    "name": "목화 스크린골프 지하1층",
    "address": "대구광역시 달서구 월배로 431, 목화 스크린골프 (송현동)",
    "lat": 35.8325951988805,
    "lng": 128.55277963533084,
    "region": "대구광역시"
  },
  {
    "name": "대구테크노파크 벤처공장(지하1층 주차장)",
    "address": "대구광역시 달서구 성서공단로11길 62 (호산동, 대구테크노파크벤처공장)",
    "lat": 35.840608392319055,
    "lng": 128.4882767783871,
    "region": "대구광역시"
  },
  {
    "name": "한국산업인력공단 대구지역본부 지하1층 대피소",
    "address": "대구광역시 달서구 성서공단로 213(갈산동)",
    "lat": 35.83599102720739,
    "lng": 128.50590183440028,
    "region": "대구광역시"
  },
  {
    "name": "도시철도 감삼역 지하 1~3층",
    "address": "대구광역시 달서구 달구벌대로 지하 1665 (감삼동, 대구지하철2호선 감삼역)",
    "lat": 35.85421275027546,
    "lng": 128.54734888026513,
    "region": "대구광역시"
  },
  {
    "name": "서한이다음레이크뷰 지하1~2층 지하주차장",
    "address": "대구광역시 달서구 상화로58길 35 (도원동, 서한이다음레이크뷰)",
    "lat": 35.80679465298463,
    "lng": 128.54646344867348,
    "region": "대구광역시"
  },
  {
    "name": "대구월배아이파크 지하주차장 1층",
    "address": "대구광역시 달서구 조암남로 182 (유천동, 대구월배아이파크)",
    "lat": 35.814871020456906,
    "lng": 128.51554933126107,
    "region": "대구광역시"
  },
  {
    "name": "진천역 계룡리슈빌 지하1층 지하주차장",
    "address": "대구광역시 달서구 진천로 77 (진천동, 진천역 계룡 리슈빌)",
    "lat": 35.81493901401062,
    "lng": 128.52209080036755,
    "region": "대구광역시"
  },
  {
    "name": "진천역AK그랑폴리스 지하주차장 1층",
    "address": "대구광역시 달서구 월배로11길 33 (유천동, 진천역AK그랑폴리스)",
    "lat": 35.8158709562184,
    "lng": 128.51908540809848,
    "region": "대구광역시"
  },
  {
    "name": "대곡역화성파크드림 지하주차장 1층",
    "address": "대구광역시 달서구 달서대로 41 (유천동, 대곡역화성파크드림)",
    "lat": 35.81239861243097,
    "lng": 128.51125673386036,
    "region": "대구광역시"
  },
  {
    "name": "도시철도 상인역 지하 1~2층",
    "address": "대구광역시 달서구 월배로 지하 223 (상인동, 대구지하철1호선 상인역)",
    "lat": 35.8189963700614,
    "lng": 128.53778319167898,
    "region": "대구광역시"
  },
  {
    "name": "성당두산위브 아파트 지하주차장 1층~2층",
    "address": "대구광역시 달서구 당산로 82 (성당동, 성당두산위브)",
    "lat": 35.84474702411764,
    "lng": 128.54478927764936,
    "region": "대구광역시"
  },
  {
    "name": "파라다이스웨딩 지하 1층(주차장)",
    "address": "대구광역시 달서구 구마로 52 (본동, 파라다이스웨딩컨벤션)",
    "lat": 35.837019681544376,
    "lng": 128.53326055747706,
    "region": "대구광역시"
  },
  {
    "name": "유림노르웨이 아침아파트 지하1층~지하4층",
    "address": "대구광역시 달서구 구마로 97 (본리동, 유림노르웨이아침)",
    "lat": 35.83772387835986,
    "lng": 128.53837101378227,
    "region": "대구광역시"
  },
  {
    "name": "수목원 서한이다음 지하1층 주차장",
    "address": "대구광역시 달서구 한실로6길 123 (대곡동, 수목원서한이다음아파트)",
    "lat": 35.79701722821053,
    "lng": 128.52977951820256,
    "region": "대구광역시"
  },
  {
    "name": "SS패션(경동어패럴) 지하1층 대피소",
    "address": "대구광역시 달서구 성서서로 230(갈산동)",
    "lat": 35.84558203421643,
    "lng": 128.49999384864634,
    "region": "대구광역시"
  },
  {
    "name": "월성삼정그린코아에듀파크 지하1~2층 주차장",
    "address": "대구광역시 달서구 월성로 100 (월성동, 월성 삼정그린코아 에듀파크)",
    "lat": 35.8292734346794,
    "lng": 128.525232341394,
    "region": "대구광역시"
  },
  {
    "name": "e편한세상월배 지하주차장",
    "address": "대구광역시 달서구 월성로 132 (월성동, e편한세상 월배)",
    "lat": 35.8271405391204,
    "lng": 128.52280068514,
    "region": "대구광역시"
  },
  {
    "name": "대곡역 지하 1층~3층 대피소",
    "address": "대구광역시 달서구 비슬로 지하2718, 대구지하철1호선 대곡역 (대곡동)",
    "lat": 35.8094387259615,
    "lng": 128.512485543461,
    "region": "대구광역시"
  },
  {
    "name": "계명대학교 동산병원 지하2층 주차장",
    "address": "대구광역시 달서구 달구벌대로 1035, 계명대학교동산병원 (신당동)",
    "lat": 35.8538856084681,
    "lng": 128.480131480982,
    "region": "대구광역시"
  },
  {
    "name": "두류파크KCC스위첸 지하주차장(1층~3층)",
    "address": "대구광역시 달서구 파도고개로 70 (두류동, 두류파크 KCC 스위첸)",
    "lat": 35.8539731993114,
    "lng": 128.570787169898,
    "region": "대구광역시"
  },
  {
    "name": "천내보성아파트 지하주차장 1층",
    "address": "대구광역시 달성군 화원읍 화원로 37 (천내보성타운)",
    "lat": 35.80759945861235,
    "lng": 128.49857951804418,
    "region": "대구광역시"
  },
  {
    "name": "삼산아파트 지하주차장 2층",
    "address": "대구광역시 달성군 다사읍 달구벌대로 790 (강창1차삼산타운)",
    "lat": 35.86226824058013,
    "lng": 128.45837723666503,
    "region": "대구광역시"
  },
  {
    "name": "한빛아파트 지하주차장 1층",
    "address": "대구광역시 달성군 화원읍 비슬로491길 13 (성화한빛아파트)",
    "lat": 35.79833573458803,
    "lng": 128.4865631173204,
    "region": "대구광역시"
  },
  {
    "name": "청구청룡아파트 지하주차장 1층",
    "address": "대구광역시 달성군 화원읍 비슬로 2715 (청구청룡맨션)",
    "lat": 35.80954305526873,
    "lng": 128.5121466946133,
    "region": "대구광역시"
  },
  {
    "name": "태왕아파트 지하주차장 1층",
    "address": "대구광역시 달성군 화원읍 성화로4길 13 (화원태왕타운)",
    "lat": 35.802095881948986,
    "lng": 128.49124389382308,
    "region": "대구광역시"
  },
  {
    "name": "강창태성그린시티 지하주차장 1층",
    "address": "대구광역시 달성군 다사읍 죽곡2길 6-0",
    "lat": 35.85776171139728,
    "lng": 128.46123591545867,
    "region": "대구광역시"
  },
  {
    "name": "우방연합아파트 지하주차장 1층",
    "address": "대구광역시 달성군 논공읍 논공중앙로22길 36-0",
    "lat": 35.72397781287561,
    "lng": 128.44906031604643,
    "region": "대구광역시"
  },
  {
    "name": "성원 아파트 지하주차장 1층",
    "address": "대구광역시 달성군 논공읍 논공로23길 14-0",
    "lat": 35.73068767176388,
    "lng": 128.44603285002077,
    "region": "대구광역시"
  },
  {
    "name": "서재보성1차 아파트 지하주차장 1~2층",
    "address": "대구광역시 달성군 다사읍 서재로30길 17-0",
    "lat": 35.87616710185162,
    "lng": 128.49908764435983,
    "region": "대구광역시"
  },
  {
    "name": "강창우방아파트 지하주차장 1층~2층",
    "address": "대구광역시 달성군 다사읍 달구벌대로 770 (강창우방타운)",
    "lat": 35.86133573773585,
    "lng": 128.45586318144416,
    "region": "대구광역시"
  },
  {
    "name": "삼우청솔아파트 지하주차장 1~2층",
    "address": "대구광역시 달성군 화원읍 비슬로539길 17 (삼우청솔타운)",
    "lat": 35.809705554937125,
    "lng": 128.50902164547264,
    "region": "대구광역시"
  },
  {
    "name": "청구청산아파트 지하주차장 1~2층",
    "address": "대구광역시 달성군 화원읍 비슬로539길 5 (청구청산맨션)",
    "lat": 35.80908311214291,
    "lng": 128.51006699452108,
    "region": "대구광역시"
  },
  {
    "name": "삼주타운 지하주차장 1~2층",
    "address": "대구광역시 달성군 화원읍 사문진로 349 (화원삼주타운)",
    "lat": 35.80812395505855,
    "lng": 128.48800840636392,
    "region": "대구광역시"
  },
  {
    "name": "명곡미래빌 1단지 아파트 지하주차장 1층",
    "address": "대구광역시 달성군 화원읍 명곡로 11 (명곡미래빌1단지)",
    "lat": 35.798737603840706,
    "lng": 128.4966282978164,
    "region": "대구광역시"
  },
  {
    "name": "명곡미래빌 2단지 아파트 지하주차장 1~2층",
    "address": "대구광역시 달성군 화원읍 명천로 231 (명곡미래빌 2단지)",
    "lat": 35.798723910824734,
    "lng": 128.49344556089872,
    "region": "대구광역시"
  },
  {
    "name": "대구 다사역 지하1~2층",
    "address": "대구광역시 달성군 다사읍 다사역로 지하 30",
    "lat": 35.86495300964186,
    "lng": 128.45828759508214,
    "region": "대구광역시"
  },
  {
    "name": "대구 대실역 지하1~3층",
    "address": "대구광역시 달성군 다사읍 달구벌대로 지하 888 (대실역)",
    "lat": 35.85719799806131,
    "lng": 128.46567877600918,
    "region": "대구광역시"
  },
  {
    "name": "달성군청 지하 1층",
    "address": "대구광역시 달성군 논공읍 달성군청로 33",
    "lat": 35.7749404325684,
    "lng": 128.43119411467893,
    "region": "대구광역시"
  },
  {
    "name": "다사주공1단지 지하주차장 1층",
    "address": "대구광역시 달성군 다사읍 매곡로14길 13-0",
    "lat": 35.866502620713554,
    "lng": 128.45592175295386,
    "region": "대구광역시"
  },
  {
    "name": "다사주공2단지 지하주차장 1층",
    "address": "대구광역시 달성군 다사읍 매곡로14길 11-0",
    "lat": 35.86661558337974,
    "lng": 128.4557072586868,
    "region": "대구광역시"
  },
  {
    "name": "신성서화성파크드림 105동 지하주차장 1~2층",
    "address": "대구광역시 달성군 다사읍 서재로27길 42-0 (신성서화성파크드림)",
    "lat": 35.875564242812914,
    "lng": 128.4956028831429,
    "region": "대구광역시"
  },
  {
    "name": "신성서화성파크드림 106동 지하주차장 1~2층",
    "address": "대구광역시 달성군 다사읍 서재로27길 42-0 (신성서화성파크드림)",
    "lat": 35.875564242812914,
    "lng": 128.4956028831429,
    "region": "대구광역시"
  },
  {
    "name": "평광행복타운 지하주차장 1층",
    "address": "대구광역시 달성군 논공읍 논공중앙로22길 12-0",
    "lat": 35.72585522790405,
    "lng": 128.44779052531297,
    "region": "대구광역시"
  },
  {
    "name": "대곡역 그린빌 지하주차장 1~2층",
    "address": "대구광역시 달성군 화원읍 명천로 57 (대곡역그린빌)",
    "lat": 35.8046157929612,
    "lng": 128.51106447394764,
    "region": "대구광역시"
  },
  {
    "name": "대곡역 래미안 지하주차장 1~3층",
    "address": "대구광역시 달성군 화원읍 비슬로539길 35 (대곡역래미안)",
    "lat": 35.811125808946926,
    "lng": 128.50815660187826,
    "region": "대구광역시"
  },
  {
    "name": "옥포 천년나무 2단지 아파트 지하1층",
    "address": "대구광역시 달성군 옥포읍 돌미로 51 (대구옥포LH천년나무2단지)",
    "lat": 35.78000746276399,
    "lng": 128.43966100394715,
    "region": "대구광역시"
  },
  {
    "name": "테크노폴리스 남해오네뜨 1차 아파트 지하1~2층",
    "address": "대구광역시 달성군 현풍읍 테크노북로4길 11(대구테크노폴리스남해오네뜨1차)",
    "lat": 35.69582092700771,
    "lng": 128.4553012726011,
    "region": "대구광역시"
  },
  {
    "name": "테크노폴리스 힐데스하임 아파트 지하주차장 1층",
    "address": "대구광역시 달성군 유가읍 테크노북로9길 42 (대구테크노 원 힐데스하임)",
    "lat": 35.6934462562117,
    "lng": 128.46821619218,
    "region": "대구광역시"
  },
  {
    "name": "달성화성파크드림 아파트 지하주차장 1~2층",
    "address": "대구광역시 달성군 구지면 과학마을로2길 6 (달성화성파크드림)",
    "lat": 35.65547305737284,
    "lng": 128.41589403106286,
    "region": "대구광역시"
  },
  {
    "name": "신동아파밀리에 지하주차장 1층",
    "address": "대구광역시 달성군 화원읍 비슬로539길 38 (대곡역신동아파밀리에아파트)",
    "lat": 35.81129289408816,
    "lng": 128.5085844247661,
    "region": "대구광역시"
  },
  {
    "name": "한샘타운 지하주차장 1층",
    "address": "대구광역시 달성군 화원읍 사문진로6길 17 (한샘타운)",
    "lat": 35.80439383105259,
    "lng": 128.49197595872417,
    "region": "대구광역시"
  },
  {
    "name": "화원태왕리더스 지하주차장 1~2층",
    "address": "대구광역시 달성군 화원읍 화원로3길 66 (화원태왕리더스)",
    "lat": 35.804957496300936,
    "lng": 128.49691271116518,
    "region": "대구광역시"
  },
  {
    "name": "대백아파트 지하주차장 1층",
    "address": "대구광역시 달성군 화원읍 성화로6길 5 (화원대백아파트)",
    "lat": 35.80133812320635,
    "lng": 128.48987864668717,
    "region": "대구광역시"
  },
  {
    "name": "청구청탑맨션 지하주차장 1~2층",
    "address": "대구광역시 달성군 화원읍 비슬로 2674 (청구청탑맨션)",
    "lat": 35.80737524831095,
    "lng": 128.50812225222407,
    "region": "대구광역시"
  },
  {
    "name": "명곡미래빌 3단지 아파트 지하주차장 1층",
    "address": "대구광역시 달성군 화원읍 명곡로 30 (명곡미래빌3단지)",
    "lat": 35.797015545705285,
    "lng": 128.4967264489076,
    "region": "대구광역시"
  },
  {
    "name": "명곡미래빌 4단지 아파트 지하주차장 1~3층",
    "address": "대구광역시 달성군 화원읍 화암로 120 (명곡미래빌4단지)",
    "lat": 35.79856811131195,
    "lng": 128.5012632424674,
    "region": "대구광역시"
  },
  {
    "name": "명곡미래빌 5단지 지하주차장 1~2층",
    "address": "대구광역시 달성군 화원읍 명천로 243 (명곡역미래빌5단지)",
    "lat": 35.798297766638825,
    "lng": 128.49226872494964,
    "region": "대구광역시"
  },
  {
    "name": "설화명곡역 지하 1~3층",
    "address": "대구광역시 달성군 화원읍 비슬로 지하 2476",
    "lat": 35.79861789830908,
    "lng": 128.4893927096728,
    "region": "대구광역시"
  },
  {
    "name": "화원역 지하1~3층",
    "address": "대구광역시 달성군 화원읍 비슬로 지하 2600",
    "lat": 35.80461468454766,
    "lng": 128.50078728186685,
    "region": "대구광역시"
  },
  {
    "name": "강창동서아파트 지하주차장 1층",
    "address": "대구광역시 달성군 다사읍 왕선로 49 (강창동서아파트)",
    "lat": 35.864015586175626,
    "lng": 128.46378159267044,
    "region": "대구광역시"
  },
  {
    "name": "강창한서꼼빠니아 지하주차장 1층",
    "address": "대구광역시 달성군 다사읍 달구벌대로 802-1 (강창한서꼼빠니아타운)",
    "lat": 35.86109275530847,
    "lng": 128.45926446405952,
    "region": "대구광역시"
  },
  {
    "name": "태왕드림하이츠 지하주차장 1~3층",
    "address": "대구광역시 달성군 다사읍 달구벌대로 802 (태왕드림하이츠)",
    "lat": 35.86199631281471,
    "lng": 128.45903079507298,
    "region": "대구광역시"
  },
  {
    "name": "다사 이편한세상 지하주차장 1층",
    "address": "대구광역시 달성군 다사읍 다사역로 60 (다사e-편한세상)",
    "lat": 35.86766679972669,
    "lng": 128.4572676336858,
    "region": "대구광역시"
  },
  {
    "name": "대실역 청아람 1단지 지하주차장 1층",
    "address": "대구광역시 달성군 다사읍 대실역북로 38 (대실역청아람1단지)",
    "lat": 35.860143711964206,
    "lng": 128.46830353035185,
    "region": "대구광역시"
  },
  {
    "name": "대실역 청아람 2단지 지하주차장 1층",
    "address": "대구광역시 달성군 다사읍 대실역북로 26 (대실역청아람2단지)",
    "lat": 35.859026901842455,
    "lng": 128.46768376996957,
    "region": "대구광역시"
  },
  {
    "name": "죽곡휴먼시아 1단지 지하주차장 1층",
    "address": "대구광역시 달성군 다사읍 대실역북로1길 6 (죽곡휴먼시아1단지)",
    "lat": 35.85867804119254,
    "lng": 128.466328581166,
    "region": "대구광역시"
  },
  {
    "name": "죽곡하우젠트아너스빌 지하주차장 1층",
    "address": "대구광역시 달성군 다사읍 왕선로 26 (죽곡하우젠트아너스빌)",
    "lat": 35.86181369996882,
    "lng": 128.46470070932037,
    "region": "대구광역시"
  },
  {
    "name": "강창훼밀리 지하주차장 1층",
    "address": "대구광역시 달성군 다사읍 달구벌대로 842-7 (강창훼밀리아파트)",
    "lat": 35.85982596055544,
    "lng": 128.4619547662998,
    "region": "대구광역시"
  },
  {
    "name": "강창하이츠 지하주차장 3~4층",
    "address": "대구광역시 달성군 다사읍 달구벌대로 812 (강창하이츠)",
    "lat": 35.86176635481977,
    "lng": 128.46023914455705,
    "region": "대구광역시"
  },
  {
    "name": "대실역 이편한세상 지하주차장 1층",
    "address": "대구광역시 달성군 다사읍 죽곡1길 42 (대실역e-편한세상)",
    "lat": 35.85470950555237,
    "lng": 128.46377233216458,
    "region": "대구광역시"
  },
  {
    "name": "서재우방타운 지하주차장 2층",
    "address": "대구광역시 달성군 다사읍 서재로28길 39 (서재우방타운)",
    "lat": 35.87402258038068,
    "lng": 128.50072343252384,
    "region": "대구광역시"
  },
  {
    "name": "서재휴먼시아 지하주차장 1층",
    "address": "대구광역시 달성군 다사읍 서재로14길 2 (서재휴먼시아)",
    "lat": 35.869102528957455,
    "lng": 128.4964025640005,
    "region": "대구광역시"
  },
  {
    "name": "죽곡푸르지오1단지 지하주차장 1~2층",
    "address": "대구광역시 달성군 다사읍 대실역북로 16 (죽곡푸르지오1단지)",
    "lat": 35.856711517284886,
    "lng": 128.46749102453887,
    "region": "대구광역시"
  },
  {
    "name": "죽곡푸르지오2단지 지하주차장 1~2층",
    "address": "대구광역시 달성군 다사읍 대실역남로 93 (죽곡푸르지오2단지)",
    "lat": 35.85015146131541,
    "lng": 128.4662891214147,
    "region": "대구광역시"
  },
  {
    "name": "대실역 리슈빌3단지 지하주차장 1~2층",
    "address": "대구광역시 달성군 다사읍 대실역남로 33 (죽곡청아람리슈빌3단지)",
    "lat": 35.854716169188315,
    "lng": 128.4663347318763,
    "region": "대구광역시"
  },
  {
    "name": "죽곡청아람리슈빌4단지 지하주차장 1~2층",
    "address": "대구광역시 달성군 다사읍 대실역남로 35 (죽곡청아람리슈빌4단지)",
    "lat": 35.854575325986936,
    "lng": 128.4652230075882,
    "region": "대구광역시"
  },
  {
    "name": "에코폴리스 동화아이위시1차 지하주차장 2~3층",
    "address": "대구광역시 달성군 다사읍 서재로12길 38 (에코폴리스동화아이위시)",
    "lat": 35.86700186995703,
    "lng": 128.4926717289099,
    "region": "대구광역시"
  },
  {
    "name": "에코폴리스 동화아이위시2차 지하주차장 2~3층",
    "address": "대구광역시 달성군 다사읍 서재로7길 23 (에코폴리스동화아이위시2차)",
    "lat": 35.869066182406286,
    "lng": 128.4903106192205,
    "region": "대구광역시"
  },
  {
    "name": "세천한라비발디 지하주차장 1~2층",
    "address": "대구광역시 달성군 다사읍 세천로 187-0",
    "lat": 35.87522870632839,
    "lng": 128.4815179805844,
    "region": "대구광역시"
  },
  {
    "name": "죽곡한신휴플러스 지하주차장 1~3층",
    "address": "대구광역시 달성군 다사읍 대실역남로 50 (죽곡한신휴플러스)",
    "lat": 35.85223385662146,
    "lng": 128.46430178728465,
    "region": "대구광역시"
  },
  {
    "name": "북죽곡엠코타운더솔레뉴 지하주차장 1~2층",
    "address": "대구광역시 달성군 다사읍 세천로 160-0",
    "lat": 35.874343358562385,
    "lng": 128.48067901478038,
    "region": "대구광역시"
  },
  {
    "name": "강창그린빌 지하주차장 1~2층",
    "address": "대구광역시 달성군 다사읍 달구벌대로 786 (강창그린빌)",
    "lat": 35.862064501419,
    "lng": 128.45759269957037,
    "region": "대구광역시"
  },
  {
    "name": "국태모닝포유 아파트 지하주차장 1층",
    "address": "대구광역시 달성군 가창면 가창로216길 55 (국태모닝포유아파트)",
    "lat": 35.80422181442353,
    "lng": 128.62403002643978,
    "region": "대구광역시"
  },
  {
    "name": "가창중석타운 아파트 지하주차장 1층",
    "address": "대구광역시 달성군 가창면 가창로 1008 (가창중석타운)",
    "lat": 35.79625534076768,
    "lng": 128.62722876886525,
    "region": "대구광역시"
  },
  {
    "name": "LH달성용계 국민임대 아파트 지하주차장 1층",
    "address": "대구광역시 달성군 가창면 가창로216길 25 (주공아파트)",
    "lat": 35.80245080162136,
    "lng": 128.62468842547406,
    "region": "대구광역시"
  },
  {
    "name": "과학마을청아람 아파트 지하주차장 1층",
    "address": "대구광역시 달성군 구지면 과학마을로 70",
    "lat": 35.65626263621156,
    "lng": 128.42103514613163,
    "region": "대구광역시"
  },
  {
    "name": "대구국가산단반도유보라1.0 아파트 지하주차장 1~2층",
    "address": "대구광역시 달성군 구지면 과학마을로3길 14",
    "lat": 35.656978230551445,
    "lng": 128.41913010250872,
    "region": "대구광역시"
  },
  {
    "name": "테크노폴리스 LH천년나무1단지 아파트 지하1층",
    "address": "대구광역시 달성군 현풍읍 테크노북로2길 10(대구테크노폴리스엘에이치천년나무1단지)",
    "lat": 35.691736747386926,
    "lng": 128.45029918958957,
    "region": "대구광역시"
  },
  {
    "name": "테크노폴리스 LH천년나무2단지 아파트 지하1층",
    "address": "대구광역시 달성군 현풍읍 테크노북로2길 30(대구테크노폴리스엘에이치천년나무2단지)",
    "lat": 35.69133613136015,
    "lng": 128.45226608640323,
    "region": "대구광역시"
  },
  {
    "name": "테크노폴리스 제일풍경채더퍼스트 아파트 지하1층",
    "address": "대구광역시 달성군 현풍읍 테크노상업로 49(제일풍경채더퍼스트)",
    "lat": 35.69332325872471,
    "lng": 128.45486974484106,
    "region": "대구광역시"
  },
  {
    "name": "테크노폴리스 서한이다음 아파트 지하1층",
    "address": "대구광역시 달성군 현풍읍 테크노상업로 33(대구테크노폴리스 서한이다음)",
    "lat": 35.69209549473805,
    "lng": 128.45344847745253,
    "region": "대구광역시"
  },
  {
    "name": "테크노폴리스 일동미라주 아파트 지하1층",
    "address": "대구광역시 달성군 현풍읍 테크노북로2길 9(대구테크노폴리스일동미라주더파크)",
    "lat": 35.69204095748992,
    "lng": 128.4504083784574,
    "region": "대구광역시"
  },
  {
    "name": "테크노폴리스 하나리움퀸즈파크 아파트 지하주차장 1층",
    "address": "대구광역시 달성군 유가읍 테크노북로 164 (하나리움퀸즈파크)",
    "lat": 35.6966397283293,
    "lng": 128.461037328365,
    "region": "대구광역시"
  },
  {
    "name": "테크노폴리스 남해오네뜨2차 아파트 지하주차장 1층",
    "address": "대구광역시 달성군 유가읍 테크노대로5길 57 (대구테크노폴리스남해오네뜨2차)",
    "lat": 35.6943299154845,
    "lng": 128.466407652656,
    "region": "대구광역시"
  },
  {
    "name": "테크노폴리스 반도유보라아이비파크 아파트 지하주차장 1층",
    "address": "대구광역시 달성군 유가읍 테크노대로 195 (대구테크노폴리스 반도유보라 아이비파크)",
    "lat": 35.689449068243,
    "lng": 128.468441588429,
    "region": "대구광역시"
  },
  {
    "name": "테크노폴리스 호반베르디움 2차 아파트 지하주차장 1층",
    "address": "대구광역시 달성군 유가읍 테크노대로5길 80 (호반베르디움 더 클래스)",
    "lat": 35.6962606461264,
    "lng": 128.466914784657,
    "region": "대구광역시"
  },
  {
    "name": "테크노폴리스 호반베르디움 1차 아파트 지하주차장 1층",
    "address": "대구광역시 달성군 유가읍 테크노대로5길 58 (대구테크노폴리스 호반베르디움)",
    "lat": 35.694332528347,
    "lng": 128.466983520036,
    "region": "대구광역시"
  },
  {
    "name": "옥포제림뉴타운 아파트 지하1층",
    "address": "대구광역시 달성군 옥포읍 교항제림길 10 (옥포제림뉴타운)",
    "lat": 35.78921534731187,
    "lng": 128.44335176021778,
    "region": "대구광역시"
  },
  {
    "name": "세광무지개마을 아파트 지하1층",
    "address": "대구광역시 달성군 옥포읍 본리로 102 (세광무지개마을)",
    "lat": 35.7943382822706,
    "lng": 128.45431364729473,
    "region": "대구광역시"
  },
  {
    "name": "달성삼환나우빌 아파트 지하1층",
    "address": "대구광역시 달성군 옥포읍 비슬로447길 11 (달성삼환나우빌)",
    "lat": 35.79042305319268,
    "lng": 128.46552788515166,
    "region": "대구광역시"
  },
  {
    "name": "옥포LH허브시티 아파트 지하 1층",
    "address": "대구광역시 달성군 옥포읍 비슬로 1941 (대구옥포LH허브시티)",
    "lat": 35.78191129173286,
    "lng": 128.4355825796546,
    "region": "대구광역시"
  },
  {
    "name": "대성베르힐4단지 아파트 지하 1층",
    "address": "대구광역시 달성군 옥포읍 돌미로 70 (옥포대성베르힐4단지)",
    "lat": 35.780536444184406,
    "lng": 128.44158423508193,
    "region": "대구광역시"
  },
  {
    "name": "진흥더블파크 지하주차장 1~2층",
    "address": "대구광역시 달성군 다사읍 서재로24길 29 (신성서진흥더블파크)",
    "lat": 35.87204717113435,
    "lng": 128.499442345051,
    "region": "대구광역시"
  },
  {
    "name": "대실역동화아이위시 지하주차장 1층",
    "address": "대구광역시 달성군 다사읍 대실역북로 55 (대실역동화아이위시)",
    "lat": 35.86149761475567,
    "lng": 128.46741339254078,
    "region": "대구광역시"
  },
  {
    "name": "서재보성2차 아파트 지하주차장 1~2층",
    "address": "대구광역시 달성군 다사읍 서재로30길 7 (서재2차보성타운)",
    "lat": 35.87602597871851,
    "lng": 128.49815334871678,
    "region": "대구광역시"
  },
  {
    "name": "테크노폴리스 우미린 더포레스트 아파트 지하주차장 1층",
    "address": "대구광역시 달성군 유가읍 테크노북로9길 16 (우미린더포레스트)",
    "lat": 35.6934200871364,
    "lng": 128.465435890216,
    "region": "대구광역시"
  },
  {
    "name": "테크노폴리스 화성파크드림 아파트 지하주차장 1층",
    "address": "대구광역시 달성군 유가읍 테크노북로 165 (대구테크노폴리스 화성파크드림)",
    "lat": 35.6970917962888,
    "lng": 128.4622437041,
    "region": "대구광역시"
  },
  {
    "name": "테크노폴리스 진아리채 아파트 지하주차장 1층",
    "address": "대구광역시 달성군 유가읍 테크노대로5길 79 (대구테크노폴리스진아리채아파트)",
    "lat": 35.696258229618,
    "lng": 128.466623844686,
    "region": "대구광역시"
  },
  {
    "name": "테크노폴리스 제일풍경채센트럴 아파트 지하주차장 1층",
    "address": "대구광역시 달성군 유가읍 테크노대로 165 (제일풍경채센트럴)",
    "lat": 35.6894649378969,
    "lng": 128.465141559747,
    "region": "대구광역시"
  },
  {
    "name": "하빈면사무소 지하1층",
    "address": "대구광역시 달성군 하빈면 하빈로84길 1, 하빈면사무소",
    "lat": 35.90120145428747,
    "lng": 128.44519873380696,
    "region": "대구광역시"
  },
  {
    "name": "테크노폴리스 LH천년나무 3단지 아파트 지하1층",
    "address": "대구광역시 달성군 현풍읍 테크노북로4길 27(대구테크노폴리스엘에이치천년나무3단지)",
    "lat": 35.69435933062796,
    "lng": 128.4557900939053,
    "region": "대구광역시"
  },
  {
    "name": "대구보훈요양원 지하1층",
    "address": "대구광역시 달성군 하빈면 하산길 123-23, 대구보훈요양원",
    "lat": 35.890122577619245,
    "lng": 128.4076403574623,
    "region": "대구광역시"
  },
  {
    "name": "우신미가뷰 아파트 지하주차장 1~3층",
    "address": "대구광역시 달성군 논공읍 금포로 75-20(우신미가뷰 아파트)",
    "lat": 35.769966475585164,
    "lng": 128.4282844766536,
    "region": "대구광역시"
  },
  {
    "name": "옥포 서한이다음 지하1~3층",
    "address": "대구광역시 달성군 옥포읍 돌미로6길 5(옥포지구 서한이다음)",
    "lat": 35.78133444013164,
    "lng": 128.44810329895293,
    "region": "대구광역시"
  },
  {
    "name": "군위읍사무소(지하 1층)",
    "address": "대구광역시 군위군 군위읍 중앙길 134 (군위읍사무소)",
    "lat": 36.24004253198929,
    "lng": 128.56832910723017,
    "region": "대구광역시"
  },
  {
    "name": "군위군청(지하 1층)",
    "address": "대구광역시 군위군 군위읍 군청로 200 (군위군청)",
    "lat": 36.2420217363032,
    "lng": 128.5732718071918,
    "region": "대구광역시"
  },
  {
    "name": "농협군위유통센터(지하 1층)",
    "address": "대구광역시 군위군 효령면 경북대로 2185, 농산물물류센타",
    "lat": 36.11791195404315,
    "lng": 128.57338351695492,
    "region": "대구광역시"
  },
  {
    "name": "삼국유사교육문화회관(지하 1층)",
    "address": "대구광역시 군위군 군위읍 군청로 158 (삼국유사문화예술회관)",
    "lat": 36.23738682952679,
    "lng": 128.57333293455773,
    "region": "대구광역시"
  },
  {
    "name": "LH천년나무 1단지(102동 지하 1층 주차장)",
    "address": "대구광역시 군위군 군위읍 동산새길 50 (LH천년나무1단지)",
    "lat": 36.23195505756864,
    "lng": 128.56864207286094,
    "region": "대구광역시"
  },
  {
    "name": "군위농업기술센터(지하 1층)",
    "address": "대구광역시 군위군 효령면 효우로 97",
    "lat": 36.18066627368359,
    "lng": 128.59248452150385,
    "region": "대구광역시"
  }
]