[
  {
    "name": "동진맨션 B동 지하 1층",
    "address": "광주광역시 동구 무등로 417-9 (산수동, 동진맨션)",
    "lat": 35.158602748066315,
    "lng": 126.92874091320095,
    "region": "광주광역시"
  },
  {
    "name": "무들빌딩 지하1층 주차장",
    "address": "광주광역시 동구 갈마로 46 (산수동)",
    "lat": 35.16161311210132,
    "lng": 126.93543056317009,
    "region": "광주광역시"
  },
  {
    "name": "동구청 본관 지하 1층",
    "address": "광주광역시 동구 서남로 1 (서석동, 동구청)",
    "lat": 35.14553978076103,
    "lng": 126.92266404090364,
    "region": "광주광역시"
  },
  {
    "name": "라인2차 202동 지하주차장 1층",
    "address": "광주광역시 동구 의재로 149-7 (운림동, 라인2차아파트)",
    "lat": 35.13293408744568,
    "lng": 126.94407479276668,
    "region": "광주광역시"
  },
  {
    "name": "아남아파트 지하주차장(지하1층)",
    "address": "광주광역시 동구 의재로 23-8 (학동, 아남아파트)",
    "lat": 35.13351995961123,
    "lng": 126.93041643779544,
    "region": "광주광역시"
  },
  {
    "name": "무등파크1차 지하주차장(지하1층)",
    "address": "광주광역시 동구 운림길 23 (운림동, 무등파크맨션)",
    "lat": 35.13429150396529,
    "lng": 126.94139206645336,
    "region": "광주광역시"
  },
  {
    "name": "평화맨션 2동 지하1층",
    "address": "광주광역시 동구 학소로 125 (학동, 평화맨션)",
    "lat": 35.13078798098783,
    "lng": 126.93207802296511,
    "region": "광주광역시"
  },
  {
    "name": "무등파크3차 지하주차장(지하1층)",
    "address": "광주광역시 동구 의재로 123 (운림동, 무등파크맨션)",
    "lat": 35.1323888001647,
    "lng": 126.941136447356,
    "region": "광주광역시"
  },
  {
    "name": "무등스위트맨션 지하주차장(지하1층)",
    "address": "광주광역시 동구 운림길 68 (운림동, 무등스위트맨션)",
    "lat": 35.1340296539622,
    "lng": 126.94255398391748,
    "region": "광주광역시"
  },
  {
    "name": "계림초등학교 지하1층",
    "address": "광주광역시 동구 중앙로 320 (계림동, 계림초등학교)",
    "lat": 35.16035800336783,
    "lng": 126.92180707695776,
    "region": "광주광역시"
  },
  {
    "name": "시립산수도서관",
    "address": "광주광역시 동구 경양로 355 (산수동, 시립산수도서관)",
    "lat": 35.15431521126723,
    "lng": 126.92824687139382,
    "region": "광주광역시"
  },
  {
    "name": "현대아파트 101동 지하주차장(지하1층)",
    "address": "광주광역시 동구 증심천로89번길 16 (학동, 현대아파트)",
    "lat": 35.13454312769252,
    "lng": 126.93600074540484,
    "region": "광주광역시"
  },
  {
    "name": "라인광명아파트 지하주차장(지하1층)",
    "address": "광주광역시 동구 운림길 58 (운림동, 라인광명아파트)",
    "lat": 35.13515283958774,
    "lng": 126.94259499144012,
    "region": "광주광역시"
  },
  {
    "name": "금호타운 지하1층 주차장",
    "address": "광주광역시 동구 필문대로 12-7 (계림동, 금호타운)",
    "lat": 35.163477515322306,
    "lng": 126.92077319259523,
    "region": "광주광역시"
  },
  {
    "name": "호반맨션 지하1층 주차장",
    "address": "광주광역시 동구 화산로 328-6 (용산동, 호반아파트)",
    "lat": 35.118124782796464,
    "lng": 126.93104915180606,
    "region": "광주광역시"
  },
  {
    "name": "두암타운101동 지하1층",
    "address": "광주광역시 동구 밤실로 147 (산수동, 두암타운)",
    "lat": 35.16067380092382,
    "lng": 126.93503627535134,
    "region": "광주광역시"
  },
  {
    "name": "두암타운102동 지하1층",
    "address": "광주광역시 동구 밤실로 147 (산수동, 두암타운)",
    "lat": 35.16067380092382,
    "lng": 126.93503627535134,
    "region": "광주광역시"
  },
  {
    "name": "두암타운103동 지하1층",
    "address": "광주광역시 동구 밤실로 147 (산수동, 두암타운)",
    "lat": 35.16067380092382,
    "lng": 126.93503627535134,
    "region": "광주광역시"
  },
  {
    "name": "두암타운105동 지하1층",
    "address": "광주광역시 동구 밤실로 147 (산수동, 두암타운)",
    "lat": 35.16067380092382,
    "lng": 126.93503627535134,
    "region": "광주광역시"
  },
  {
    "name": "두암타운106동 지하1층",
    "address": "광주광역시 동구 밤실로 147 (산수동, 두암타운)",
    "lat": 35.16067380092382,
    "lng": 126.93503627535134,
    "region": "광주광역시"
  },
  {
    "name": "두암타운107동 지하1층",
    "address": "광주광역시 동구 밤실로 147 (산수동, 두암타운)",
    "lat": 35.16067380092382,
    "lng": 126.93503627535134,
    "region": "광주광역시"
  },
  {
    "name": "두암타운108동 지하1층",
    "address": "광주광역시 동구 밤실로 147 (산수동, 두암타운)",
    "lat": 35.16067380092382,
    "lng": 126.93503627535134,
    "region": "광주광역시"
  },
  {
    "name": "두암타운109동 지하1층",
    "address": "광주광역시 동구 밤실로 147 (산수동, 두암타운)",
    "lat": 35.16067380092382,
    "lng": 126.93503627535134,
    "region": "광주광역시"
  },
  {
    "name": "두암타운110동 지하1층",
    "address": "광주광역시 동구 밤실로 147 (산수동, 두암타운)",
    "lat": 35.16067380092382,
    "lng": 126.93503627535134,
    "region": "광주광역시"
  },
  {
    "name": "두암타운111동 지하1층",
    "address": "광주광역시 동구 밤실로 147 (산수동, 두암타운)",
    "lat": 35.16067380092382,
    "lng": 126.93503627535134,
    "region": "광주광역시"
  },
  {
    "name": "두암타운112동 지하1층",
    "address": "광주광역시 동구 밤실로 147 (산수동, 두암타운)",
    "lat": 35.16067380092382,
    "lng": 126.93503627535134,
    "region": "광주광역시"
  },
  {
    "name": "두암타운113동 지하1층",
    "address": "광주광역시 동구 밤실로 147 (산수동, 두암타운)",
    "lat": 35.16067380092382,
    "lng": 126.93503627535134,
    "region": "광주광역시"
  },
  {
    "name": "두암타운115동 지하1층",
    "address": "광주광역시 동구 밤실로 147 (산수동, 두암타운)",
    "lat": 35.16067380092382,
    "lng": 126.93503627535134,
    "region": "광주광역시"
  },
  {
    "name": "두암타운116동 지하1층",
    "address": "광주광역시 동구 밤실로 147 (산수동, 두암타운)",
    "lat": 35.16067380092382,
    "lng": 126.93503627535134,
    "region": "광주광역시"
  },
  {
    "name": "동산로얄11동 지하1층 주차장",
    "address": "광주광역시 동구 밤실로82번길 23 (산수동, 동산로얄)",
    "lat": 35.15413442302812,
    "lng": 126.93749973636788,
    "region": "광주광역시"
  },
  {
    "name": "동산로얄12동 지하1층 주차장",
    "address": "광주광역시 동구 밤실로82번길 23 (산수동, 동산로얄)",
    "lat": 35.15413442302812,
    "lng": 126.93749973636788,
    "region": "광주광역시"
  },
  {
    "name": "광명아파트 101동 1문 지하1층",
    "address": "광주광역시 동구 무등로 532 (산수동, 광명아파트)",
    "lat": 35.15643011080662,
    "lng": 126.9378202428978,
    "region": "광주광역시"
  },
  {
    "name": "광명아파트 101동 2문 지하1층",
    "address": "광주광역시 동구 무등로 532 (산수동, 광명아파트)",
    "lat": 35.15643011080662,
    "lng": 126.9378202428978,
    "region": "광주광역시"
  },
  {
    "name": "광명아파트102동 지하1층",
    "address": "광주광역시 동구 무등로 532 (산수동, 광명아파트)",
    "lat": 35.15643011080662,
    "lng": 126.9378202428978,
    "region": "광주광역시"
  },
  {
    "name": "무등파크맨션 지하1층",
    "address": "광주광역시 동구 무등로 548 (산수동, 무등파크맨션)",
    "lat": 35.15690291185861,
    "lng": 126.93984096130758,
    "region": "광주광역시"
  },
  {
    "name": "해광아파트 지하1층",
    "address": "광주광역시 동구 필문대로145번길 11-12 (산수동, 해광아파트)",
    "lat": 35.15818730805344,
    "lng": 126.93321534051712,
    "region": "광주광역시"
  },
  {
    "name": "해주온천 지하1층",
    "address": "광주광역시 동구 무등로 512 (산수동, 해주빌딩)",
    "lat": 35.155672042158514,
    "lng": 126.9358019199738,
    "region": "광주광역시"
  },
  {
    "name": "진아하이빌1차아파트 지하1층 주차장",
    "address": "광주광역시 동구 학소로 65 (소태동, 진아아파트)",
    "lat": 35.12569364240566,
    "lng": 126.93423366937655,
    "region": "광주광역시"
  },
  {
    "name": "신양맨션 가동 지하1층",
    "address": "광주광역시 동구 필문대로123번길 5-8 (산수동, 신양맨션)",
    "lat": 35.16019891763971,
    "lng": 126.93163884751232,
    "region": "광주광역시"
  },
  {
    "name": "신양맨션 나동 지하1층",
    "address": "광주광역시 동구 필문대로123번길 5-8 (산수동, 신양맨션)",
    "lat": 35.16019891763971,
    "lng": 126.93163884751232,
    "region": "광주광역시"
  },
  {
    "name": "백화아파트 지하1층",
    "address": "광주광역시 동구 천변우로 603 (학동, 백화아파트)",
    "lat": 35.130973760555975,
    "lng": 126.92644589626389,
    "region": "광주광역시"
  },
  {
    "name": "남광교회 지하1층 주차장",
    "address": "광주광역시 동구 학동안길 31 (학동, 남광교회)",
    "lat": 35.13477800249399,
    "lng": 126.92475974621952,
    "region": "광주광역시"
  },
  {
    "name": "병무청 지하1층",
    "address": "광주광역시 동구 양림로119번길 8 (학동, 병무청)",
    "lat": 35.140537420572926,
    "lng": 126.92054062912152,
    "region": "광주광역시"
  },
  {
    "name": "전남대학교병원 지하1층 주차장",
    "address": "광주광역시 동구 제봉로 42 (학동, 전남대학교병원)",
    "lat": 35.14246566670208,
    "lng": 126.92085088719674,
    "region": "광주광역시"
  },
  {
    "name": "광주은행 본점 지하2층 주차장",
    "address": "광주광역시 동구 제봉로 225 (대인동, 광주은행본점빌딩)",
    "lat": 35.1549342082418,
    "lng": 126.9131738399209,
    "region": "광주광역시"
  },
  {
    "name": "충금지하상가 지하1층",
    "address": "광주광역시 동구 중앙로 지하 187 (충장로3가, 충금지하상가)",
    "lat": 35.15032054976748,
    "lng": 126.91546974675516,
    "region": "광주광역시"
  },
  {
    "name": "대인교차로 지하1층",
    "address": "광주광역시 동구 독립로 276 (대인동)",
    "lat": 35.15538859545632,
    "lng": 126.91239945758896,
    "region": "광주광역시"
  },
  {
    "name": "보성빌딩 지하1층 주차장",
    "address": "광주광역시 동구 서암대로 324 (계림동)",
    "lat": 35.1646972191622,
    "lng": 126.918754626508,
    "region": "광주광역시"
  },
  {
    "name": "새한건설",
    "address": "광주광역시 동구 독립로 324 (계림동)",
    "lat": 35.159412137002974,
    "lng": 126.91412634369946,
    "region": "광주광역시"
  },
  {
    "name": "sk브로드밴드 지하1층 주차장",
    "address": "광주광역시 동구 무등로 332 (계림동)",
    "lat": 35.16141714132135,
    "lng": 126.91918591617024,
    "region": "광주광역시"
  },
  {
    "name": "마사회 광주지점 지하1층 주차장",
    "address": "광주광역시 동구 구성로 257 (계림동)",
    "lat": 35.15731520072544,
    "lng": 126.918632671074,
    "region": "광주광역시"
  },
  {
    "name": "미즈프라자 지하 1층 주차장",
    "address": "광주광역시 동구 중앙로 239 (계림동, 미즈프라자)",
    "lat": 35.1536075578268,
    "lng": 126.91935848137264,
    "region": "광주광역시"
  },
  {
    "name": "광주중앙도서관 지하1층",
    "address": "광주광역시 동구 장동로 23-16, 광주중앙도서관 (동명동)",
    "lat": 35.14862122242902,
    "lng": 126.9250202800727,
    "region": "광주광역시"
  },
  {
    "name": "광주동명교회 다목적관",
    "address": "광주광역시 동구 동명로20번길 30, 동명교회다목적관 (동명동)",
    "lat": 35.15029181552236,
    "lng": 126.92661356696344,
    "region": "광주광역시"
  },
  {
    "name": "광주은행 계림지점 지하1층 주차장",
    "address": "광주광역시 동구 중앙로 240(동명동)",
    "lat": 35.15325090714718,
    "lng": 126.91960790057044,
    "region": "광주광역시"
  },
  {
    "name": "광주지방법원 지하1층 주차장",
    "address": "광주광역시 동구 준법로 7-12 (지산동, 광주지방.고등검찰청.법원)",
    "lat": 35.1504397996297,
    "lng": 126.933937616343,
    "region": "광주광역시"
  },
  {
    "name": "광주지방검찰청 지하1층 주차장",
    "address": "광주광역시 동구 준법로 7-12 (지산동, 광주지방.고등검찰청.법원)",
    "lat": 35.1504397996297,
    "lng": 126.933937616343,
    "region": "광주광역시"
  },
  {
    "name": "무등파크호텔 지하2층",
    "address": "광주광역시 동구 지호로164번길 14-10 (지산동, 무등산관광호텔)",
    "lat": 35.14900542999167,
    "lng": 126.94692024681532,
    "region": "광주광역시"
  },
  {
    "name": "삼성아파트 지하1층",
    "address": "광주광역시 동구 밤실로30번길 11 (지산동, 삼성아파트)",
    "lat": 35.150460113560115,
    "lng": 126.93810406115196,
    "region": "광주광역시"
  },
  {
    "name": "지산빌딩 지하 1층주차장",
    "address": "광주광역시 동구 필문대로273번길 29 (지산동)",
    "lat": 35.14570355546579,
    "lng": 126.9306827691088,
    "region": "광주광역시"
  },
  {
    "name": "지산교회 지하1층",
    "address": "광주광역시 동구 동명로110번길 14 (지산동)",
    "lat": 35.149594346894546,
    "lng": 126.93226104961882,
    "region": "광주광역시"
  },
  {
    "name": "변호사회관 지하1층 주차장",
    "address": "광주광역시 동구 동명로 101-1 (지산동)",
    "lat": 35.1509130051543,
    "lng": 126.93172667086392,
    "region": "광주광역시"
  },
  {
    "name": "금남로4가역 지하4층",
    "address": "광주광역시 동구 금남로 지하 210 (금남로4가, 금남로4가역)",
    "lat": 35.14998738465848,
    "lng": 126.9154175494524,
    "region": "광주광역시"
  },
  {
    "name": "금남로5가역 지하2층",
    "address": "광주광역시 동구 금남로 155 (금남로5가)",
    "lat": 35.153290562038926,
    "lng": 126.91095502072687,
    "region": "광주광역시"
  },
  {
    "name": "두산위브아파트 지하1,2층 주차장",
    "address": "광주광역시 동구 무등로 374 (계림동, 두산위브)",
    "lat": 35.16041801261031,
    "lng": 126.92370744253716,
    "region": "광주광역시"
  },
  {
    "name": "학동증심사입구역 지하1층",
    "address": "광주광역시 동구 남문로 지하 700 (학동, 학동증심사역)",
    "lat": 35.13354122648441,
    "lng": 126.928129657083,
    "region": "광주광역시"
  },
  {
    "name": "남광주역 지하1층",
    "address": "광주광역시 동구 제봉로 지하 1 (학동, 남광주역)",
    "lat": 35.1392324203108,
    "lng": 126.92321972580956,
    "region": "광주광역시"
  },
  {
    "name": "문화전당역 지하3층",
    "address": "광주광역시 동구 문화전당로26번길 지하 7 (광산동, 문화전당역)",
    "lat": 35.14577344564317,
    "lng": 126.920169862887,
    "region": "광주광역시"
  },
  {
    "name": "소태역 지하1층",
    "address": "광주광역시 동구 남문로 지하 587 (소태동)",
    "lat": 35.123438975445175,
    "lng": 126.93229763107038,
    "region": "광주광역시"
  },
  {
    "name": "호남직업전문학교 지하1층 주차장",
    "address": "광주광역시 동구 무등로 339 (계림동, 호남직업전문학원)",
    "lat": 35.16152484164784,
    "lng": 126.92004623485504,
    "region": "광주광역시"
  },
  {
    "name": "고려요양병원 지하1층",
    "address": "광주광역시 동구 구성로 268 (계림동, 방부병원)",
    "lat": 35.15788165734004,
    "lng": 126.91966875431063,
    "region": "광주광역시"
  },
  {
    "name": "지산휴먼시아아파트 지하1층 주차장",
    "address": "광주광역시 동구 동명로69번길 20-0 (지산동)",
    "lat": 35.15283675300697,
    "lng": 126.9277270568433,
    "region": "광주광역시"
  },
  {
    "name": "살레시오여자고등학교 체육관 지하 1층",
    "address": "광주광역시 동구 필문대로273번길 21-0 (지산동)",
    "lat": 35.14605152120432,
    "lng": 126.92984930516418,
    "region": "광주광역시"
  },
  {
    "name": "지산1동행정복지센터 지하1층",
    "address": "광주광역시 동구 지산로 57 (지산동)",
    "lat": 35.14899679827226,
    "lng": 126.93279033562096,
    "region": "광주광역시"
  },
  {
    "name": "금석빌라 지하1층 주차장",
    "address": "광주광역시 동구 동명로14번길 9(동명동, 금석빌라)",
    "lat": 35.150197401153974,
    "lng": 126.9242388276816,
    "region": "광주광역시"
  },
  {
    "name": "신영루체클래식 지하주차장(지하1층)",
    "address": "광주광역시 동구 증심천로43번길 11 (학동, 신영루체클래식)",
    "lat": 35.131767776759204,
    "lng": 126.9342562972068,
    "region": "광주광역시"
  },
  {
    "name": "금호베스트빌 지하주차장(지하1층)",
    "address": "광주광역시 동구 증심천로 88 (학동, 금호베스트빌)",
    "lat": 35.13359793143063,
    "lng": 126.9372939985108,
    "region": "광주광역시"
  },
  {
    "name": "대주피오레힐즈 지하주차장(지하1층)",
    "address": "광주광역시 동구 의재로51번길 22-2 (학동, 학동대주피오레-힐즈)",
    "lat": 35.13441700095311,
    "lng": 126.93384888438575,
    "region": "광주광역시"
  },
  {
    "name": "운림글로벌아파트 지하주차장(지하1층)",
    "address": "광주광역시 동구 의재로 161 (운림동, 운림글로벌아파트)",
    "lat": 35.132380191332764,
    "lng": 126.94532768994088,
    "region": "광주광역시"
  },
  {
    "name": "모아미래도아파트 지하1층 주차장",
    "address": "광주광역시 동구 학소로76번길 14 (소태동, 모아미래도아파트)",
    "lat": 35.12704994465912,
    "lng": 126.9358793361577,
    "region": "광주광역시"
  },
  {
    "name": "소태동한국아델리움 지하1층 주차장",
    "address": "광주광역시 동구 의재로 120 (소태동, 소태동한국아델리움)",
    "lat": 35.13200464460484,
    "lng": 126.94084088942942,
    "region": "광주광역시"
  },
  {
    "name": "온세계아이조움 지하1층 주차장",
    "address": "광주광역시 동구 남문로 550-0 (소태동)",
    "lat": 35.120338043125244,
    "lng": 126.93393611869972,
    "region": "광주광역시"
  },
  {
    "name": "진아하이빌 지하1층 주차장",
    "address": "광주광역시 동구 지호로86번길 3 (지산동, 진아하이빌아파트)",
    "lat": 35.14764227401125,
    "lng": 126.9382349910119,
    "region": "광주광역시"
  },
  {
    "name": "광주은행 산수동지점 지하 1층주차장",
    "address": "광주광역시 동구 필문대로 190 (산수동)",
    "lat": 35.15384742970828,
    "lng": 126.93127661907556,
    "region": "광주광역시"
  },
  {
    "name": "학1마을 아파트 지하1층 주차장",
    "address": "광주광역시 동구 남문로 734 (학동, 학1마을)",
    "lat": 35.13584307493801,
    "lng": 126.92650346773902,
    "region": "광주광역시"
  },
  {
    "name": "무등산리버파크아파트(학2마을) 지하1층 주차장",
    "address": "광주광역시 동구 남문로693번길 11 (학동, 학2마을아파트)",
    "lat": 35.13195344643666,
    "lng": 126.92716992886248,
    "region": "광주광역시"
  },
  {
    "name": "월남호반베르디움1차 지하주차장",
    "address": "광주광역시 동구 남문로 377 (월남동, 월남호반베르디움1차)",
    "lat": 35.105385645084176,
    "lng": 126.93681047774672,
    "region": "광주광역시"
  },
  {
    "name": "무등산아이파크 지하1층 주차장",
    "address": "광주광역시 동구 남문로753번길 20 (학동, 무등산아이파크)",
    "lat": 35.136156562391264,
    "lng": 126.92312546792382,
    "region": "광주광역시"
  },
  {
    "name": "푸른마을공동체센터 지하1층 주차장",
    "address": "광주광역시 동구 동명로67번길 29, 푸른마을공동체센터 (산수동)",
    "lat": 35.153104278412414,
    "lng": 126.92581119703684,
    "region": "광주광역시"
  },
  {
    "name": "신세계백화점 지하주차장(지하 2,3층)",
    "address": "광주광역시 서구 무진대로 932 (광천동, 신세계백화점)",
    "lat": 35.161006910632466,
    "lng": 126.8823784103996,
    "region": "광주광역시"
  },
  {
    "name": "유스퀘어 지하주하장(지하1층)",
    "address": "광주광역시 서구 무진대로 904 (광천동, 유스퀘어(광천터미널))",
    "lat": 35.16112204515603,
    "lng": 126.87929230712848,
    "region": "광주광역시"
  },
  {
    "name": "상무버들마을주공1단지 아파트 지하1층주차장",
    "address": "광주광역시 서구 상무버들로40번길 14 (유촌동, 상무버들마을1주공아파트)",
    "lat": 35.16571231544603,
    "lng": 126.85933921081605,
    "region": "광주광역시"
  },
  {
    "name": "상무버들마을2단지 아파트 지하1층주차장",
    "address": "광주광역시 서구 상무버들로 15 (유촌동, 상무버들마을2주공아파트)",
    "lat": 35.164161147013985,
    "lng": 126.86176995637386,
    "region": "광주광역시"
  },
  {
    "name": "중흥아파트 101동 지하주차장 1층",
    "address": "광주광역시 서구 상무자유로 105(치평동, 중흥아파트)",
    "lat": 35.15190652053331,
    "lng": 126.8457681325026,
    "region": "광주광역시"
  },
  {
    "name": "중흥아파트 115동 지하주차장 1층",
    "address": "광주광역시 서구 치평로 77, 114동 (치평동, 중흥아파트)",
    "lat": 35.15438759439451,
    "lng": 126.84721834931662,
    "region": "광주광역시"
  },
  {
    "name": "라인대주아파트 201동 지하주차장 1층",
    "address": "광주광역시 서구 치평로 15 (치평동, 라인대주아파트)",
    "lat": 35.148568455588475,
    "lng": 126.84726405291102,
    "region": "광주광역시"
  },
  {
    "name": "호반아파트 101동 지하주차장 1층",
    "address": "광주광역시 서구 상무공원로 126, 호반아파트 101동 (치평동)",
    "lat": 35.155646926666115,
    "lng": 126.843223617446,
    "region": "광주광역시"
  },
  {
    "name": "금호대우아파트 103동 지하주차장 1층",
    "address": "광주광역시 서구 치평로 107, 103동 (치평동, 대우금호아파트)",
    "lat": 35.15701320711022,
    "lng": 126.84716590501786,
    "region": "광주광역시"
  },
  {
    "name": "해광한신아파트 101동 지하주차장 1층",
    "address": "광주광역시 서구 상무공원로 112 (치평동, 해광한신아파트상가)",
    "lat": 35.15443856956117,
    "lng": 126.84324261640378,
    "region": "광주광역시"
  },
  {
    "name": "대주아파트 101동 지하주차장 1층",
    "address": "광주광역시 서구 상무공원로 94 (치평동, 대주아파트)",
    "lat": 35.152840872843974,
    "lng": 126.8432203783116,
    "region": "광주광역시"
  },
  {
    "name": "금호타운3차아파트 301동 지하주차장 1층",
    "address": "광주광역시 서구 치평로 23(치평동, 금호 타운)",
    "lat": 35.14943199033537,
    "lng": 126.84725127115972,
    "region": "광주광역시"
  },
  {
    "name": "우미아파트 지하주차장 1층",
    "address": "광주광역시 서구 상무공원로 35 (치평동, 상무1차우미아파트)",
    "lat": 35.14748887931316,
    "lng": 126.84283874536952,
    "region": "광주광역시"
  },
  {
    "name": "금호쌍용아파트 지하주차장 1층",
    "address": "광주광역시 서구 치평로 35 (치평동, 금호쌍용아파트)",
    "lat": 35.15043296812632,
    "lng": 126.8472394131704,
    "region": "광주광역시"
  },
  {
    "name": "한국아파트 101동 지하주차장 1층",
    "address": "광주광역시 서구 상무시민로 65 (치평동, 한국아파트)",
    "lat": 35.1553434899799,
    "lng": 126.8462268496,
    "region": "광주광역시"
  },
  {
    "name": "금호타운4차아파트 401동 지하주차장 1층",
    "address": "광주광역시 서구 상무공원로 61 (치평동, 금호타운)",
    "lat": 35.14988428743326,
    "lng": 126.84282832726466,
    "region": "광주광역시"
  },
  {
    "name": "현대아파트 103동 지하주차장 1층",
    "address": "광주광역시 서구 내방로 52 (치평동, 현대아파트)",
    "lat": 35.15864535525056,
    "lng": 126.84644188934836,
    "region": "광주광역시"
  },
  {
    "name": "상무2동 행정복지센터 지하1층",
    "address": "광주광역시 서구 화정로85번길 17 (쌍촌동, 상무2동주민센터)",
    "lat": 35.146571500194455,
    "lng": 126.86647351066026,
    "region": "광주광역시"
  },
  {
    "name": "금호하이빌 지하주차장 2층",
    "address": "광주광역시 서구 내방로343번길 19 (화정동, 금호하이빌)",
    "lat": 35.15920126044782,
    "lng": 126.87812845136644,
    "region": "광주광역시"
  },
  {
    "name": "금호월드 지하주차장 2층",
    "address": "광주광역시 서구 군분2로 54 (화정동)",
    "lat": 35.15776337440356,
    "lng": 126.881298446807,
    "region": "광주광역시"
  },
  {
    "name": "해태아파트 지하주차장 1층",
    "address": "광주광역시 서구 월드컵4강로226번길 14-0 (내방동)",
    "lat": 35.15624959969193,
    "lng": 126.87075464215307,
    "region": "광주광역시"
  },
  {
    "name": "광주광역시 교육청 지하 1층",
    "address": "광주광역시 서구 화운로 93 (화정동, 광주광역시교육청)",
    "lat": 35.14805516661419,
    "lng": 126.88000335282427,
    "region": "광주광역시"
  },
  {
    "name": "서석중고등학교 지하 1층",
    "address": "광주광역시 서구 화정로253번길 27 (화정동, 광주서석중고등학교)",
    "lat": 35.14946965768971,
    "lng": 126.88262017476464,
    "region": "광주광역시"
  },
  {
    "name": "남화아파트 지하주차장 1층",
    "address": "광주광역시 서구 화정로243번길 11 (화정동, 남화아파트)",
    "lat": 35.14794311648897,
    "lng": 126.88390351463096,
    "region": "광주광역시"
  },
  {
    "name": "광덕중고등학교 지하 1층",
    "address": "광주광역시 서구 화정로 202 (화정동, 광덕중고등학교)",
    "lat": 35.14558744571186,
    "lng": 126.87952340318031,
    "region": "광주광역시"
  },
  {
    "name": "대주아파트 지하주차장 1층",
    "address": "광주광역시 서구 화운로 37 (화정동, 대주아파트)",
    "lat": 35.14388944275555,
    "lng": 126.88330911211656,
    "region": "광주광역시"
  },
  {
    "name": "금호타운 지하주차장",
    "address": "광주광역시 서구 화정로180번길 6-0 (화정동)",
    "lat": 35.14501737737068,
    "lng": 126.87687213389542,
    "region": "광주광역시"
  },
  {
    "name": "화정4동 행정복지센터 지하1층",
    "address": "광주광역시 서구 염화로83번길 3 (화정동, 화정4동주민센터)",
    "lat": 35.141930638376515,
    "lng": 126.87380033579252,
    "region": "광주광역시"
  },
  {
    "name": "우미아파트 전체 지하주차장 1층",
    "address": "광주광역시 서구 염화로31번길 23 (화정동, 우미아파트)",
    "lat": 35.13670267243217,
    "lng": 126.87030575697784,
    "region": "광주광역시"
  },
  {
    "name": "모아아파트 전체 지하주차장 1층",
    "address": "광주광역시 서구 화정로 135 (화정동, 모아아파트)",
    "lat": 35.145385400182434,
    "lng": 126.87212521881978,
    "region": "광주광역시"
  },
  {
    "name": "호반아파트 전체 지하주차장 1층",
    "address": "광주광역시 서구 학생독립로9번길 8 (화정동, 호반아파트)",
    "lat": 35.143971188759195,
    "lng": 126.86763099706016,
    "region": "광주광역시"
  },
  {
    "name": "중흥아파트 전체 지하주차장 1층",
    "address": "광주광역시 서구 염화로57번길 16 (화정동, 중흥아파트)",
    "lat": 35.140002254674755,
    "lng": 126.87139699523904,
    "region": "광주광역시"
  },
  {
    "name": "모아타워 전체 지하주차장 1층",
    "address": "광주광역시 서구 염화로57번길 4 (화정동)",
    "lat": 35.13979137912909,
    "lng": 126.8728784473351,
    "region": "광주광역시"
  },
  {
    "name": "금호타운1차 전체 지하주차장 1층",
    "address": "광주광역시 서구 염화로57번길 3 (화정동, 금호타운)",
    "lat": 35.139631786001445,
    "lng": 126.8726697188447,
    "region": "광주광역시"
  },
  {
    "name": "금호타운2차 전체 지하주차장 1층",
    "address": "광주광역시 서구 염화로57번길 19 (화정동, 금호타운)",
    "lat": 35.13987870433875,
    "lng": 126.87106683062146,
    "region": "광주광역시"
  },
  {
    "name": "라인동산아파트 전체 지하주차장 1층",
    "address": "광주광역시 서구 염화로45번길 17 (화정동, 라인동산아파트)",
    "lat": 35.13871029377559,
    "lng": 126.87100969086175,
    "region": "광주광역시"
  },
  {
    "name": "서창동 행정복지센터",
    "address": "광주광역시 서구 눌재로 412 (세하동)",
    "lat": 35.11452318795928,
    "lng": 126.8302091235022,
    "region": "광주광역시"
  },
  {
    "name": "모아아파트",
    "address": "광주광역시 서구 금화로149번길 27 (금호동, 모아아파트)",
    "lat": 35.13496636961496,
    "lng": 126.8634086365735,
    "region": "광주광역시"
  },
  {
    "name": "일신아파트",
    "address": "광주광역시 서구 운천로 69 (금호동, 일신명지아파트)",
    "lat": 35.138972094791725,
    "lng": 126.85856443899516,
    "region": "광주광역시"
  },
  {
    "name": "라인아파트",
    "address": "광주광역시 서구 금부로 100 (금호동, 금호동라인아파트)",
    "lat": 35.1396058225683,
    "lng": 126.8597175385196,
    "region": "광주광역시"
  },
  {
    "name": "금호타운1차아파트 102동  지하주차장 1층",
    "address": "광주광역시 서구 풍암중앙로 68 (풍암동, 금호타운)",
    "lat": 35.12566102935483,
    "lng": 126.88166095660168,
    "region": "광주광역시"
  },
  {
    "name": "부영2차아파트 202동~205동 지하주차장 1층",
    "address": "광주광역시 서구 풍암1로 42 (풍암동, 풍암부영2차아파트신암마을)",
    "lat": 35.12306995582608,
    "lng": 126.8778886124458,
    "region": "광주광역시"
  },
  {
    "name": "새한센시빌 101~2동,103~4동 지하주차장1층",
    "address": "광주광역시 서구 풍암순환로 54 (풍암동, 신암마을새한센시빌아파트)",
    "lat": 35.12170014018431,
    "lng": 126.87741866309553,
    "region": "광주광역시"
  },
  {
    "name": "라인동산아파트 지하주차장 1층",
    "address": "광주광역시 서구 상무평화로 64 (치평동, 상무지구라인동산아파트)",
    "lat": 35.14788777706355,
    "lng": 126.8460165734381,
    "region": "광주광역시"
  },
  {
    "name": "동천마을6단지 지하주차장 지하 1층",
    "address": "광주광역시 서구 하남대로710번길 5-0 (동천동)",
    "lat": 35.17080233792807,
    "lng": 126.870337286623,
    "region": "광주광역시"
  },
  {
    "name": "우미광장 101동~103동 지하주차장 1층",
    "address": "광주광역시 서구 풍암순환로 183 (풍암동, 우미광장아파트)",
    "lat": 35.12687138405878,
    "lng": 126.8821926050165,
    "region": "광주광역시"
  },
  {
    "name": "현대삼환아파트 102동,103동 지하주차장 1~2층",
    "address": "광주광역시 서구 풍암1로 53 (풍암동, 현대·삼환아파트)",
    "lat": 35.12232892183805,
    "lng": 126.87912663993646,
    "region": "광주광역시"
  },
  {
    "name": "금호타운2차아파트 201동,204동 지하주차장 1~2층",
    "address": "광주광역시 서구 풍암2로 66 (풍암동, 금호타운)",
    "lat": 35.122064791318955,
    "lng": 126.88187868793452,
    "region": "광주광역시"
  },
  {
    "name": "삼능남양아파트 101동, 104동 지하주차장 1층",
    "address": "광주광역시 서구 풍암순환로 86 (풍암동, 삼능남양아파트)",
    "lat": 35.12097226714622,
    "lng": 126.88076956149438,
    "region": "광주광역시"
  },
  {
    "name": "현대아파트 101동, 105동 지하주차장 1층",
    "address": "광주광역시 서구 풍암순환로 70 (풍암동, 현대아파트)",
    "lat": 35.12116913018733,
    "lng": 126.87903150885148,
    "region": "광주광역시"
  },
  {
    "name": "대주파크빌 202동~203동 지하주차장 1층",
    "address": "광주광역시 서구 풍암순환로 5 (풍암동, 대주파크빌2단지아파트)",
    "lat": 35.12589975227294,
    "lng": 126.87561160299104,
    "region": "광주광역시"
  },
  {
    "name": "동부센트레빌 101동~107동 지하주차장 1층~3층",
    "address": "광주광역시 서구 풍암신흥로 40 (풍암동, 동부센트레빌)",
    "lat": 35.12052816330963,
    "lng": 126.86770806303022,
    "region": "광주광역시"
  },
  {
    "name": "화정센트럴파크 101동 지하주차장 1층",
    "address": "광주광역시 서구 화운로193번길 25-0 (내방동)",
    "lat": 35.155932834691725,
    "lng": 126.8739207739886,
    "region": "광주광역시"
  },
  {
    "name": "호반리젠시빌 지하1층주차장",
    "address": "광주광역시 서구 상무버들로 45 (유촌동, 호반리젠시빌아파트)",
    "lat": 35.16437133270695,
    "lng": 126.8582939487856,
    "region": "광주광역시"
  },
  {
    "name": "우미아트빌 201~206동 지하주차장 1층",
    "address": "광주광역시 서구 상무민주로 120 (쌍촌동, 우미아트빌)",
    "lat": 35.161192470177774,
    "lng": 126.8596675868016,
    "region": "광주광역시"
  },
  {
    "name": "호반리젠시빌2차 지하 1층",
    "address": "광주광역시 서구 화개1로 33-0 (금호동)",
    "lat": 35.126853975094285,
    "lng": 126.85512509880952,
    "region": "광주광역시"
  },
  {
    "name": "남양파크아파트 지하1층",
    "address": "광주광역시 서구 화개1로78번길 13 (금호동, 남양파크아파트)",
    "lat": 35.131163824671475,
    "lng": 126.85663836457844,
    "region": "광주광역시"
  },
  {
    "name": "중흥아파트 지하1층",
    "address": "광주광역시 서구 마재로 21 (금호동, 중흥아파트)",
    "lat": 35.13021809290877,
    "lng": 126.86211319478424,
    "region": "광주광역시"
  },
  {
    "name": "주은아파트 지하1층",
    "address": "광주광역시 서구 마재로 57-0 (금호동)",
    "lat": 35.13109106571202,
    "lng": 126.8650835349308,
    "region": "광주광역시"
  },
  {
    "name": "부영1차아파트 지하1층",
    "address": "광주광역시 서구 화개1로24번길 10-0 (금호동)",
    "lat": 35.126288920429694,
    "lng": 126.8567069815663,
    "region": "광주광역시"
  },
  {
    "name": "종원팰리스빌아파트 지하1층",
    "address": "광주광역시 서구 화개1로 59-2 (금호동, 종원팰리스빌아파트)",
    "lat": 35.12934275919451,
    "lng": 126.8544685094518,
    "region": "광주광역시"
  },
  {
    "name": "코아루아파트",
    "address": "광주광역시 서구 금호운천길 41 (금호동, 금호동코아루)",
    "lat": 35.138818678295294,
    "lng": 126.8569151964326,
    "region": "광주광역시"
  },
  {
    "name": "호반리젠시빌 3단지 아파트",
    "address": "광주광역시 서구 금화로149번길 11 (금호동, 금부마을호반리젠시빌)",
    "lat": 35.13357503239111,
    "lng": 126.86426046612914,
    "region": "광주광역시"
  },
  {
    "name": "한국2단지 아파트",
    "address": "광주광역시 서구 금화로115번길 9 (금호동, 한국아파트)",
    "lat": 35.13359385107523,
    "lng": 126.8611172546355,
    "region": "광주광역시"
  },
  {
    "name": "화정 e편한세상 지하주차장",
    "address": "광주광역시 서구 금화로 293-0 (화정동)",
    "lat": 35.138253579955254,
    "lng": 126.8790041980297,
    "region": "광주광역시"
  },
  {
    "name": "광주광역시청 지하주차장 1층",
    "address": "광주광역시 서구 내방로 111 (치평동, 광주광역시청)",
    "lat": 35.159003310182946,
    "lng": 126.8530264838642,
    "region": "광주광역시"
  },
  {
    "name": "김대중컨벤션센터역",
    "address": "광주광역시 서구 상무대로 지하 705 (마륵동)",
    "lat": 35.14320851769869,
    "lng": 126.84135241316253,
    "region": "광주광역시"
  },
  {
    "name": "상무역 대합실 지하 1층",
    "address": "광주광역시 서구 상무대로 지하 777 (마륵동)",
    "lat": 35.14660586532319,
    "lng": 126.8482400667022,
    "region": "광주광역시"
  },
  {
    "name": "양동시장역 지하 1층",
    "address": "광주광역시 서구 경열로 지하 152, 양동역 (양동)",
    "lat": 35.15444477412398,
    "lng": 126.90161164110071,
    "region": "광주광역시"
  },
  {
    "name": "화정역 화정1동 지하 1층",
    "address": "광주광역시 서구 상무대로 지하 1050, 화정역 (화정동)",
    "lat": 35.1519664789444,
    "lng": 126.8767862177158,
    "region": "광주광역시"
  },
  {
    "name": "운천역 상무1동 지하1층",
    "address": "광주광역시 서구 상무대로 지하 883 (쌍촌동, 운천역)",
    "lat": 35.15050666946982,
    "lng": 126.85868649805067,
    "region": "광주광역시"
  },
  {
    "name": "화정역 지하 1층 (화정2동)",
    "address": "광주광역시 서구 상무대로 지하 1050, 화정역 (화정동)",
    "lat": 35.1519664789444,
    "lng": 126.8767862177158,
    "region": "광주광역시"
  },
  {
    "name": "돌고개역(지하 1, 2, 3층)",
    "address": "광주광역시 서구 경열로 지하87, 돌고개역 지하 1, 2, 3층 (농성동)",
    "lat": 35.151950099658514,
    "lng": 126.8954489236612,
    "region": "광주광역시"
  },
  {
    "name": "농성역 지하 1층",
    "address": "광주광역시 서구 상무대로 지하 1123 (농성동, 농성역)",
    "lat": 35.15361664757805,
    "lng": 126.88470745806433,
    "region": "광주광역시"
  },
  {
    "name": "쌍촌역 상무2동",
    "address": "광주광역시 서구 상무대로 지하 983 (쌍촌동, 쌍촌역)",
    "lat": 35.15156781519699,
    "lng": 126.86953453923104,
    "region": "광주광역시"
  },
  {
    "name": "일신아파트 지하주차장 1층",
    "address": "광주광역시 서구 월드컵4강로 137 (쌍촌동, 일신아파트)",
    "lat": 35.148526678626965,
    "lng": 126.8709438435559,
    "region": "광주광역시"
  },
  {
    "name": "광천 e편한세상 지하주차장(지하1층)",
    "address": "광주광역시 서구 화운로 278 (광천동, 광천e편한세상)",
    "lat": 35.163562521526465,
    "lng": 126.87755939723256,
    "region": "광주광역시"
  },
  {
    "name": "성우아파트 지하주차장1층",
    "address": "광주광역시 서구 마륵복개로 164 (쌍촌동, 성우아파트)",
    "lat": 35.1462828668889,
    "lng": 126.85470252695052,
    "region": "광주광역시"
  },
  {
    "name": "양동 센트럴뷰 지하주차장",
    "address": "광주광역시 서구 발산로 36 (양동, 양동 CENTRAL VIEW)",
    "lat": 35.158038779035216,
    "lng": 126.89452076088908,
    "region": "광주광역시"
  },
  {
    "name": "대주피오레 전체 지하주차장 1층",
    "address": "광주광역시 서구 화정로 126 (화정동, 화정동대주피오레)",
    "lat": 35.14503555628629,
    "lng": 126.87063233674766,
    "region": "광주광역시"
  },
  {
    "name": "운천역 상무2동",
    "address": "광주광역시 서구 상무대로 지하 883 (쌍촌동, 운천역)",
    "lat": 35.15050666946982,
    "lng": 126.85868649805067,
    "region": "광주광역시"
  },
  {
    "name": "쌍촌역 상무1동 지하1층",
    "address": "광주광역시 서구 상무대로 지하 983 (쌍촌동, 쌍촌역)",
    "lat": 35.15156781519699,
    "lng": 126.86953453923104,
    "region": "광주광역시"
  },
  {
    "name": "상무힐스테이트 101동~107동 지하주차장 1층",
    "address": "광주광역시 서구 상무대로911번길 42(쌍촌동, 상무 힐스테이트)",
    "lat": 35.154850741760725,
    "lng": 126.86169584673976,
    "region": "광주광역시"
  },
  {
    "name": "서구청 민방위실전훈련센터(지하 1,2층)",
    "address": "광주광역시 서구 경열로 33, 서구청 지하 1, 2층 (농성동)",
    "lat": 35.1514906435131,
    "lng": 126.89014732373889,
    "region": "광주광역시"
  },
  {
    "name": "호반리젠시빌 301동~305동 지하주차장 1층",
    "address": "광주광역시 서구 상일로 53 (쌍촌동, 호반리젠시빌)",
    "lat": 35.16033378662187,
    "lng": 126.86309115445458,
    "region": "광주광역시"
  },
  {
    "name": "현대아파트 103동, 105동 지하주차장 1층",
    "address": "광주광역시 서구 내방로240번길 10 (쌍촌동, 현대아파트)",
    "lat": 35.15700101772128,
    "lng": 126.8667452030652,
    "region": "광주광역시"
  },
  {
    "name": "상무푸르지오 지하주차장1층",
    "address": "광주광역시 서구 금호운천길 83 (쌍촌동, 상무 푸르지오)",
    "lat": 35.14240661313353,
    "lng": 126.855927612744,
    "region": "광주광역시"
  },
  {
    "name": "동천센트럴파크 지하주차장 지하 1층",
    "address": "광주광역시 서구 동천로 11-0 (동천동)",
    "lat": 35.1696820007162,
    "lng": 126.8600366977831,
    "region": "광주광역시"
  },
  {
    "name": "호반베르디움 지하주차장 지하 1층",
    "address": "광주광역시 서구 하남대로680번길 10-0 (동천동)",
    "lat": 35.170809889833926,
    "lng": 126.86683291573996,
    "region": "광주광역시"
  },
  {
    "name": "평화공원 지하주차장 1층",
    "address": "광주광역시 서구 내방로 102 (치평동)",
    "lat": 35.15765847521096,
    "lng": 126.85176725756642,
    "region": "광주광역시"
  },
  {
    "name": "한국교직원공제회관 지하주차장(지하1, 2, 3층)",
    "address": "광주광역시 서구 죽봉대로 52, 한국교직원공제회관 지하 1, 2, 3층 (농성동)",
    "lat": 35.15801952062468,
    "lng": 126.88332666986128,
    "region": "광주광역시"
  },
  {
    "name": "백일대주아파트 지하주차장 1층",
    "address": "광주광역시 서구 화정로 106-15 (쌍촌동, 백일대주아파트)",
    "lat": 35.14431043971766,
    "lng": 126.86909194391744,
    "region": "광주광역시"
  },
  {
    "name": "KDB생명보험 지하2층 주차장",
    "address": "광주광역시 서구 천변좌로 268 (양동, 케이디비생명보험(주))",
    "lat": 35.15240873801517,
    "lng": 126.90477798803072,
    "region": "광주광역시"
  },
  {
    "name": "동남아파트 지하1층주차장",
    "address": "광주광역시 서구 칠성로35번길 6-10 (쌍촌동, 동남아파트)",
    "lat": 35.16713221267315,
    "lng": 126.8608971164165,
    "region": "광주광역시"
  },
  {
    "name": "초원파크맨션 지하1층 주차장",
    "address": "광주광역시 서구 천변좌로108번길 8 (양동, 초원파크맨션)",
    "lat": 35.15990712639063,
    "lng": 126.89097805170655,
    "region": "광주광역시"
  },
  {
    "name": "동천마을1단지 지하주차장 지하 1층",
    "address": "광주광역시 서구 동천로 25 (동천동, 동천마을1단지아파트)",
    "lat": 35.17096954640376,
    "lng": 126.86013692157348,
    "region": "광주광역시"
  },
  {
    "name": "우미린 지하주차장 지하 1층",
    "address": "광주광역시 서구 하남대로710번길 20 (동천동, 우미린)",
    "lat": 35.169937719085695,
    "lng": 126.86979966017188,
    "region": "광주광역시"
  },
  {
    "name": "유니버시아드 힐스테이트 1단지 지하주차장 1~3층",
    "address": "광주광역시 서구 화운로 94 (화정동, 유니버시아드힐스테이트1단지)",
    "lat": 35.148315374124856,
    "lng": 126.88023368927364,
    "region": "광주광역시"
  },
  {
    "name": "유니버시아드 힐스테이트 2단지 지하주차장 1~3층",
    "address": "광주광역시 서구 화정로 211 (화정동, 유니버시아드힐스테이트2단지)",
    "lat": 35.146005097424165,
    "lng": 126.88048998728684,
    "region": "광주광역시"
  },
  {
    "name": "유니버시아드 힐스테이트 3단지 지하주차장 1~2층",
    "address": "광주광역시 서구 화운로 24 (화정동, 유니버시아드힐스테이트3단지)",
    "lat": 35.14293274135419,
    "lng": 126.88456345209777,
    "region": "광주광역시"
  },
  {
    "name": "농성초교비상대피소 지하 1층",
    "address": "광주광역시 남구 금화로481번길 7 (농성초등학교)",
    "lat": 35.14904213349762,
    "lng": 126.89053955933096,
    "region": "광주광역시"
  },
  {
    "name": "라인광장 아파트 지하1층 비상대피소",
    "address": "광주광역시 남구 봉선중앙로 103 (라인광장아파트)",
    "lat": 35.130197525536026,
    "lng": 126.91078175717637,
    "region": "광주광역시"
  },
  {
    "name": "봉선동 모아아파트 1,2,3,5동 지하1층 비상대피소",
    "address": "광주광역시 남구 봉선중앙로 115 (봉선동, 모아아파트)",
    "lat": 35.13075402627178,
    "lng": 126.91071425591632,
    "region": "광주광역시"
  },
  {
    "name": "봉선1동 라인하이츠 아파트 지하1층 비상대피소",
    "address": "광주광역시 남구 대남대로159번길 31 (봉선동, 라인하이츠)",
    "lat": 35.13079563556634,
    "lng": 126.90791880329223,
    "region": "광주광역시"
  },
  {
    "name": "모아아파트 2단지 지하1층 비상대피소",
    "address": "광주광역시 남구 봉선1로 86 (봉선동, 모아아파트)",
    "lat": 35.127966761449414,
    "lng": 126.91458651252616,
    "region": "광주광역시"
  },
  {
    "name": "광주은행 봉선동지점 지하1층 주차장",
    "address": "광주광역시 남구 봉선중앙로 81 (봉선동, 광주은행봉선동지점)",
    "lat": 35.12817941490203,
    "lng": 126.91098889697167,
    "region": "광주광역시"
  },
  {
    "name": "라인효친아파트 지하 및 지하주차장(2동제외)",
    "address": "광주광역시 남구 용대로 131 (방림동, 라인효친아파트)",
    "lat": 35.12798100518402,
    "lng": 126.9181301778162,
    "region": "광주광역시"
  },
  {
    "name": "월산동 덕림제일파크맨션 지하주차장 1층",
    "address": "광주광역시 남구 월산로132번길 9-0 (월산동)",
    "lat": 35.14990833437926,
    "lng": 126.89746959499092,
    "region": "광주광역시"
  },
  {
    "name": "월산동 금호평생교육관 지하 1층",
    "address": "광주광역시 남구 중앙로 15-0 (월산동)",
    "lat": 35.14470489466771,
    "lng": 126.90044137287629,
    "region": "광주광역시"
  },
  {
    "name": "월산동 월산교회 지하주차장 1층",
    "address": "광주광역시 남구 덕림길 13-0 (월산동)",
    "lat": 35.14722977392966,
    "lng": 126.902243310505,
    "region": "광주광역시"
  },
  {
    "name": "월산동 동신대한방병원 지하주차장 1층",
    "address": "광주광역시 남구 월산로 141-0 (월산동)",
    "lat": 35.15036031503604,
    "lng": 126.89606913582875,
    "region": "광주광역시"
  },
  {
    "name": "광주공원 남구민방위교육장 지하1층",
    "address": "광주광역시 남구 중앙로107번길 15 (구동)",
    "lat": 35.14670271825259,
    "lng": 126.909946679727,
    "region": "광주광역시"
  },
  {
    "name": "대성초교 비상대피소 지하1층",
    "address": "광주광역시 남구 서동로2번길 8 (서동, 대성초등학교)",
    "lat": 35.14408278088813,
    "lng": 126.90442729595595,
    "region": "광주광역시"
  },
  {
    "name": "노인회관",
    "address": "광주광역시 남구 제중로 92 (서동, 광주전남노인회관)",
    "lat": 35.14104635798775,
    "lng": 126.91047109001153,
    "region": "광주광역시"
  },
  {
    "name": "KBC빌딩 지하주차장",
    "address": "광주광역시 남구 중앙로 87 (서동, 케이비씨광주방송)",
    "lat": 35.14405992883484,
    "lng": 126.90754196672448,
    "region": "광주광역시"
  },
  {
    "name": "아남프라자아파트 지하1층 주차장",
    "address": "광주광역시 남구 제중로 91 (서동, 아남프라자아파트)",
    "lat": 35.14077545160324,
    "lng": 126.910383058464,
    "region": "광주광역시"
  },
  {
    "name": "제일파크 지하1층 주차장",
    "address": "광주광역시 남구 서동로40번길 1 (서동, 제일파크맨션)",
    "lat": 35.14763730241182,
    "lng": 126.9052042193142,
    "region": "광주광역시"
  },
  {
    "name": "광주대학교",
    "address": "광주광역시 남구 효덕로 277 (진월동, 광주대학교)",
    "lat": 35.1081988867654,
    "lng": 126.89681129187916,
    "region": "광주광역시"
  },
  {
    "name": "동성고등학교",
    "address": "광주광역시 남구 서문대로627번길 20 (진월동)",
    "lat": 35.11534926598405,
    "lng": 126.89548383716252,
    "region": "광주광역시"
  },
  {
    "name": "한양아파트 지하주차장 1층",
    "address": "광주광역시 남구 광복마을7길 31 (주월동, 한양아파트)",
    "lat": 35.1273614439958,
    "lng": 126.89289950483176,
    "region": "광주광역시"
  },
  {
    "name": "현대1차아파트, 지하주차장 1층",
    "address": "광주광역시 남구 회재로1186번길 52 (주월동, 현대아파트)",
    "lat": 35.12734511483525,
    "lng": 126.89222076712258,
    "region": "광주광역시"
  },
  {
    "name": "현대2차아파트, 지하주차장 1층",
    "address": "광주광역시 남구 회재로1186번길 30 (주월동, 주월동 현대아파트)",
    "lat": 35.12922979230882,
    "lng": 126.89191350377344,
    "region": "광주광역시"
  },
  {
    "name": "서강아파트 지하주차장1층",
    "address": "광주광역시 남구 회서로21번길 13 (주월동, 서강아파트)",
    "lat": 35.13138679822164,
    "lng": 126.8951223611026,
    "region": "광주광역시"
  },
  {
    "name": "라인가든2차아파트 3~5동 지하1층",
    "address": "광주광역시 남구 서문대로 766 (주월동, 라인가든아파트)",
    "lat": 35.12772956667528,
    "lng": 126.89792698955397,
    "region": "광주광역시"
  },
  {
    "name": "신천그린아파트 101동 1~2호, 지하1층",
    "address": "광주광역시 남구 서문대로 760 (주월동, 신천그린아파트)",
    "lat": 35.127213369916355,
    "lng": 126.89851186193326,
    "region": "광주광역시"
  },
  {
    "name": "덕산아파트 지하주차장 1층",
    "address": "광주광역시 남구 봉선로84번길 7 (주월동, 덕산아파트)",
    "lat": 35.126064924598616,
    "lng": 126.9049604593092,
    "region": "광주광역시"
  },
  {
    "name": "경남아파트 지하주차장 1층",
    "address": "광주광역시 남구 옹정길 21 (주월동, 경남아파트)",
    "lat": 35.100100672328665,
    "lng": 126.86263776673374,
    "region": "광주광역시"
  },
  {
    "name": "남광주신협 진월푸른길지점 지하주차장 1층",
    "address": "광주광역시 남구 서문대로 735 (진월동)",
    "lat": 35.124947601199274,
    "lng": 126.8977737523818,
    "region": "광주광역시"
  },
  {
    "name": "진월 중흥파크아파트 지하주차장 1층",
    "address": "광주광역시 남구 서문대로749번마길 30 (진월동, 중흥파크아파트)",
    "lat": 35.1233313739402,
    "lng": 126.89413259670933,
    "region": "광주광역시"
  },
  {
    "name": "방림1동 행정복지센터 지하1층",
    "address": "광주광역시 남구 오방로 101-2 (방림동, 방림1동주민센터)",
    "lat": 35.13430178666897,
    "lng": 126.91833185299002,
    "region": "광주광역시"
  },
  {
    "name": "광주 인성고등학교 강당 지하1층",
    "address": "광주광역시 남구 서문대로 390 (송하동, 광주인성고)",
    "lat": 35.102904267772786,
    "lng": 126.87904465590152,
    "region": "광주광역시"
  },
  {
    "name": "송하동 금호타운아파트 지하주차장A & B 1층",
    "address": "광주광역시 남구 효덕로 291 (송하동, 금호타운)",
    "lat": 35.10931779620815,
    "lng": 126.89614199073526,
    "region": "광주광역시"
  },
  {
    "name": "송암동 삼익아파트 105동&106동 지하주차장 1층",
    "address": "광주광역시 남구 서문대로556번길 6 (송하동, 삼익아파트)",
    "lat": 35.110106140402,
    "lng": 126.89365239220784,
    "region": "광주광역시"
  },
  {
    "name": "진월 대주1차아파트 103동, 105동의 지하 1층",
    "address": "광주광역시 남구 서문대로678번길 7 (진월동, 대주아파트)",
    "lat": 35.11987054454655,
    "lng": 126.9000391199663,
    "region": "광주광역시"
  },
  {
    "name": "진월 현대1차아파트 303동, 307동의 지하1층",
    "address": "광주광역시 남구 서문대로622번길 7 (진월동)",
    "lat": 35.115204889781566,
    "lng": 126.89862802703789,
    "region": "광주광역시"
  },
  {
    "name": "진월 삼익2차아파트 지하주차장 1층",
    "address": "광주광역시 남구 서문대로654번길 24",
    "lat": 35.116766187712166,
    "lng": 126.90133185179808,
    "region": "광주광역시"
  },
  {
    "name": "봉선2동 라인1차아파트 지하주차장 1층",
    "address": "광주광역시 남구 봉선로 91 (라인아파트)",
    "lat": 35.12561826155084,
    "lng": 126.90633488452778,
    "region": "광주광역시"
  },
  {
    "name": "봉선2동 무등파크2차아파트 지하주차장 1층",
    "address": "광주광역시 남구 봉선2로 96-14 (봉선동, 무등2차아파트)",
    "lat": 35.12530717312242,
    "lng": 126.91691615430096,
    "region": "광주광역시"
  },
  {
    "name": "봉선2동 무등파크3차아파트 지하주차장 1층",
    "address": "광주광역시 남구 용대로 92-1 (봉선3차2단지무등파크맨션)",
    "lat": 35.124382751271845,
    "lng": 126.91875037595396,
    "region": "광주광역시"
  },
  {
    "name": "봉선2동 금호1차아파트 지하주차장 1층",
    "address": "광주광역시 남구 봉선로133번길 4 (봉선동, 금호타운)",
    "lat": 35.123765082790094,
    "lng": 126.9103427597259,
    "region": "광주광역시"
  },
  {
    "name": "대원빌딩",
    "address": "광주광역시 남구 대남대로 125 (방림동, 국민건강보험공단)",
    "lat": 35.13387898260579,
    "lng": 126.9113579887897,
    "region": "광주광역시"
  },
  {
    "name": "사직도서관 지하 1층",
    "address": "광주광역시 남구 제중로 56 (양림동)",
    "lat": 35.139566272359815,
    "lng": 126.91357423462028,
    "region": "광주광역시"
  },
  {
    "name": "호남신학대학 지하 1층",
    "address": "광주광역시 남구 제중로 77 (양림동, 호남신학대학교)",
    "lat": 35.14071434337071,
    "lng": 126.91187599234412,
    "region": "광주광역시"
  },
  {
    "name": "양림교회 지하1층",
    "address": "광주광역시 남구 3·1만세운동길 10 (양림동, 양림교회)",
    "lat": 35.13674077530945,
    "lng": 126.9162327667821,
    "region": "광주광역시"
  },
  {
    "name": "방림신용협동조합 지하1층",
    "address": "광주광역시 남구 큰방림길 7 (방림동, 방림신용협동조합)",
    "lat": 35.134255536251175,
    "lng": 126.92126181679122,
    "region": "광주광역시"
  },
  {
    "name": "금호맨션 지하주차장 1층",
    "address": "광주광역시 남구 용대로 180-8 (방림동, 금호맨션)",
    "lat": 35.13197887858548,
    "lng": 126.9182687810905,
    "region": "광주광역시"
  },
  {
    "name": "봉선2동 금호2차아파트 지하주차장 1층",
    "address": "광주광역시 남구 봉선로 134 (금호타운)",
    "lat": 35.12324664275012,
    "lng": 126.9098601880972,
    "region": "광주광역시"
  },
  {
    "name": "봉선2동 무등파크1차아파트 지하주차장 1층",
    "address": "광주광역시 남구 용대로 115 (무등파크맨션)",
    "lat": 35.126458035122255,
    "lng": 126.91821573917689,
    "region": "광주광역시"
  },
  {
    "name": "봉선2동 대화아파트 지하주차장 1층",
    "address": "광주광역시 남구 봉선로96번길 1 (대화아파트)",
    "lat": 35.12502433355754,
    "lng": 126.90615695712866,
    "region": "광주광역시"
  },
  {
    "name": "봉선2동 라인2,3차 아파트 지하주차장 1층",
    "address": "광주광역시 남구 제석로80번길 22-3 (라인아파트)",
    "lat": 35.121125223967425,
    "lng": 126.90972369767614,
    "region": "광주광역시"
  },
  {
    "name": "사직스카이 아파트 주차장 지하1층",
    "address": "광주광역시 남구 제중로 123 (백운동)",
    "lat": 35.1424971046363,
    "lng": 126.90796995686117,
    "region": "광주광역시"
  },
  {
    "name": "백운현대아파트주차장 지하1층",
    "address": "광주광역시 남구 독립로54번길 29 (백운동)",
    "lat": 35.1385787412669,
    "lng": 126.9049745860121,
    "region": "광주광역시"
  },
  {
    "name": "벽산아파트 주차장 지하1층",
    "address": "광주광역시 남구 독립로54번길 8 (백운동)",
    "lat": 35.138478890466885,
    "lng": 126.9025494148524,
    "region": "광주광역시"
  },
  {
    "name": "월산5동 제일맨션 정문 지하 1층",
    "address": "광주광역시 남구 군분로99번길 5, 지하1층 (월산동, 제일맨션)",
    "lat": 35.141455167654414,
    "lng": 126.89001477096556,
    "region": "광주광역시"
  },
  {
    "name": "광주은행주월지점 건물 지하 1층",
    "address": "광주광역시 남구 대남대로 289, 광주광역시 새마을회관 지하1층 (월산동)",
    "lat": 35.1380157053012,
    "lng": 126.89592334144362,
    "region": "광주광역시"
  },
  {
    "name": "남부교회 지하1층 예배당",
    "address": "광주광역시 남구 군분로62번길 7, 지하1층 (월산동)",
    "lat": 35.139221462807306,
    "lng": 126.89342193834788,
    "region": "광주광역시"
  },
  {
    "name": "대명빌딩 지하1층",
    "address": "광주광역시 남구 대남대로317번길 4, 대명빌딩 지하1층 (월산동)",
    "lat": 35.14007408131176,
    "lng": 126.89400190612778,
    "region": "광주광역시"
  },
  {
    "name": "월산5동 라인아파트 지하주차장 1층",
    "address": "광주광역시 남구 수박등로48번길 7, 지하1층 (월산동, 월산동 라인아파트)",
    "lat": 35.143231092278064,
    "lng": 126.89610980859524,
    "region": "광주광역시"
  },
  {
    "name": "신우아파트 지하1층",
    "address": "광주광역시 남구 대남대로294번길 7, 지하1층 (월산동, 신우아파트)",
    "lat": 35.138928663515514,
    "lng": 126.8967624528091,
    "region": "광주광역시"
  },
  {
    "name": "주월2동 해태아파트 1차 지하주차장 1층",
    "address": "광주광역시 남구 회재로1173번길 40 (주월동)",
    "lat": 35.134541799721255,
    "lng": 126.8916809910254,
    "region": "광주광역시"
  },
  {
    "name": "주월2동 명지아파트 지하주차장 1층",
    "address": "광주광역시 남구 금화로376번길 34 (주월동)",
    "lat": 35.13885640889888,
    "lng": 126.88881404968213,
    "region": "광주광역시"
  },
  {
    "name": "주월성당 지하주차장 1층",
    "address": "광주광역시 남구 군분로65번길 34 (주월동)",
    "lat": 35.13767698481382,
    "lng": 126.88936006027905,
    "region": "광주광역시"
  },
  {
    "name": "송림아파트 지하1층 비상대피소",
    "address": "광주광역시 남구 봉선로19번길 18 (주월동, 송림아파트)",
    "lat": 35.131581520130595,
    "lng": 126.90495190129788,
    "region": "광주광역시"
  },
  {
    "name": "기업은행",
    "address": "광주광역시 남구 대남대로 159 (주월동, 기업은행)",
    "lat": 35.13360546591334,
    "lng": 126.9077671713146,
    "region": "광주광역시"
  },
  {
    "name": "광주웨슬리신협 지하주차장 1층",
    "address": "광주광역시 남구 대남대로 151 (주월동, 광주웨슬리신협)",
    "lat": 35.1336507942631,
    "lng": 126.90848406577894,
    "region": "광주광역시"
  },
  {
    "name": "한일병원 지하주차장 1층",
    "address": "광주광역시 남구 봉선중앙로 137 (주월동, 한일병원)",
    "lat": 35.133358893123834,
    "lng": 126.91043091295384,
    "region": "광주광역시"
  },
  {
    "name": "KT남광주지점 지하 1층",
    "address": "광주광역시 남구 백서로 14 (백운동, KT남광주지점)",
    "lat": 35.13595259500268,
    "lng": 126.910304929057,
    "region": "광주광역시"
  },
  {
    "name": "백운동 대주아파트 101동 지하 1층",
    "address": "광주광역시 남구 독립로10번길 14 (백운동, 대주아파트)",
    "lat": 35.13454372102488,
    "lng": 126.9031517424089,
    "region": "광주광역시"
  },
  {
    "name": "백운동 대주아파트 102동 지하 1층",
    "address": "광주광역시 남구 독립로10번길 13 (백운동, 대주아파트)",
    "lat": 35.13463733195326,
    "lng": 126.90317809265795,
    "region": "광주광역시"
  },
  {
    "name": "백운동 대주아파트 103동 지하 1층",
    "address": "광주광역시 남구 백양로7번길 16-7 (백운동, 대주아파트)",
    "lat": 35.13521789716216,
    "lng": 126.90303862160636,
    "region": "광주광역시"
  },
  {
    "name": "동아일보광주지사 지하 1층",
    "address": "광주광역시 남구 독립로 65 (백운동, 동아일보)",
    "lat": 35.13962936538282,
    "lng": 126.90168943103927,
    "region": "광주광역시"
  },
  {
    "name": "월산4동 제일파크맨션 지하 1층",
    "address": "광주광역시 남구 경열로76번길 33-5 (월산동, 제일파크맨션)",
    "lat": 35.14834464948755,
    "lng": 126.89452467948634,
    "region": "광주광역시"
  },
  {
    "name": "보라아파트 지하1층 주차장",
    "address": "광주광역시 남구 금화로446번길 18 (월산동, 월산동보라아파트)",
    "lat": 35.14555276429381,
    "lng": 126.89341470007952,
    "region": "광주광역시"
  },
  {
    "name": "벧엘교회 별관 지하1층",
    "address": "광주광역시 남구 군분로170번길 2 (월산동, 벧엘교회교육관)",
    "lat": 35.14712362205481,
    "lng": 126.88664205742695,
    "region": "광주광역시"
  },
  {
    "name": "신촌빌딩 지하1층 주차장",
    "address": "광주광역시 남구 대남대로 373-1 (월산동, 연합내과의원)",
    "lat": 35.14456014183134,
    "lng": 126.89091023044668,
    "region": "광주광역시"
  },
  {
    "name": "지원빌딩 지하2층",
    "address": "광주광역시 남구 대남대로 365 (월산동, 농협중앙회)",
    "lat": 35.14389223779034,
    "lng": 126.89144049886484,
    "region": "광주광역시"
  },
  {
    "name": "월산동 삼진하트빌 지하주차장 1층",
    "address": "광주광역시 남구 중앙로 34 (월산동)",
    "lat": 35.14377689178751,
    "lng": 126.90201266612712,
    "region": "광주광역시"
  },
  {
    "name": "베스트클리닉 빌딩 지하1층",
    "address": "광주광역시 남구 대남대로 301, 베스트클리닉빌딩 지하1층 (월산동)",
    "lat": 35.13891321877498,
    "lng": 126.89522195760568,
    "region": "광주광역시"
  },
  {
    "name": "지석동한일베라체아파트 지하주차장 1층",
    "address": "광주광역시 남구 회재로 211 (지석동, 지석동한일베라체아파트)",
    "lat": 35.08222783189664,
    "lng": 126.83026594582677,
    "region": "광주광역시"
  },
  {
    "name": "송하동 진아리채 2단지 아파트 지하주차장 1층",
    "address": "광주광역시 남구 원효천1길 5 (송하동, 송하동 진아리채 2단지)",
    "lat": 35.10489909662864,
    "lng": 126.88267215941096,
    "region": "광주광역시"
  },
  {
    "name": "봉선2동 한국아델리움1단지아파트 지하주차장 1층",
    "address": "광주광역시 남구 제석로80번안길 11 (한국아델리움1단지아파트)",
    "lat": 35.11993216893102,
    "lng": 126.91242121263332,
    "region": "광주광역시"
  },
  {
    "name": "봉선2동 한국아델리움2단지아파트 지하주차장 1층",
    "address": "광주광역시 남구 제석로80번안길 2 (한국아델리움)",
    "lat": 35.120770717744506,
    "lng": 126.912091780709,
    "region": "광주광역시"
  },
  {
    "name": "봉선2동 남양휴튼1차아파트 지하주차장 1층",
    "address": "광주광역시 남구 제석로 99 (봉선동, 봉선1차남양휴튼)",
    "lat": 35.12338611594365,
    "lng": 126.9069171940897,
    "region": "광주광역시"
  },
  {
    "name": "봉선2동 포스코더샵아파트 지하주차장 1층",
    "address": "광주광역시 남구 효사랑길 14 (포스코더샵아파트)",
    "lat": 35.121155632208975,
    "lng": 126.91641408991217,
    "region": "광주광역시"
  },
  {
    "name": "봉선2동 쌍용스윗닷홈 아파트 지하주차장 1층",
    "address": "광주광역시 남구 봉선중앙로 8 (쌍용스윗닷홈)",
    "lat": 35.121886944537025,
    "lng": 126.91284755211372,
    "region": "광주광역시"
  },
  {
    "name": "봉선2동 더쉴아파트 지하주차장 1층",
    "address": "광주광역시 남구 제석로 72 (봉선더쉴1단지)",
    "lat": 35.12069313729164,
    "lng": 126.90801863833344,
    "region": "광주광역시"
  },
  {
    "name": "생명의빛교회 지하예배당",
    "address": "광주광역시 남구 봉선로19번길 29-1 (주월동, 정다운교회)",
    "lat": 35.131814714205014,
    "lng": 126.90621410726412,
    "region": "광주광역시"
  },
  {
    "name": "은성교회 지하1층",
    "address": "광주광역시 남구 봉선중앙로68번길 14 (봉선동, 은성교회)",
    "lat": 35.12709759416117,
    "lng": 126.91283385568832,
    "region": "광주광역시"
  },
  {
    "name": "무등산센트럴파크아파트 1~5 지하주차장 1층",
    "address": "광주광역시 남구 방림로 31 (방림동, 무등산센트럴파크아파트)",
    "lat": 35.13488334694006,
    "lng": 126.92060599040782,
    "region": "광주광역시"
  },
  {
    "name": "광명샤인빌아파트 지하주차장 1층",
    "address": "광주광역시 남구 용대로 177-16 (방림동, 광명샤인빌)",
    "lat": 35.13220944521189,
    "lng": 126.9170076695219,
    "region": "광주광역시"
  },
  {
    "name": "광주서남교회 지하 1층",
    "address": "광주광역시 남구 진다리로 12 (백운동, 광주서남교회)",
    "lat": 35.13686283532682,
    "lng": 126.90281360028688,
    "region": "광주광역시"
  },
  {
    "name": "송화휴먼시아1단지 지하주차장1층",
    "address": "광주광역시 남구 효우로60번길 50 (송화마을휴먼시아)",
    "lat": 35.10938797906839,
    "lng": 126.89979764780176,
    "region": "광주광역시"
  },
  {
    "name": "송화휴먼시아2단지 지하주차장 1층",
    "address": "광주광역시 남구 효우로60번길 37 (송화마을휴먼시아)",
    "lat": 35.10776122178069,
    "lng": 126.90004743857052,
    "region": "광주광역시"
  },
  {
    "name": "송화휴먼시아3단지 지하주차장 1층",
    "address": "광주광역시 남구 효우로60번길 10 (송화마을휴먼시아)",
    "lat": 35.108371988112474,
    "lng": 126.90318325689816,
    "region": "광주광역시"
  },
  {
    "name": "송화휴먼시아4단지 지하주차장 1층",
    "address": "광주광역시 남구 효우로60번길 9 (노대동, 송화마을휴먼시아)",
    "lat": 35.108139860387844,
    "lng": 126.9031053287476,
    "region": "광주광역시"
  },
  {
    "name": "송화휴먼시아5단지 지하주차장 1층",
    "address": "광주광역시 남구 노대실로 33 (송화마을휴먼시아)",
    "lat": 35.10660225002129,
    "lng": 126.90644635839024,
    "region": "광주광역시"
  },
  {
    "name": "송화휴먼시아6단지 지하주차장 1층",
    "address": "광주광역시 남구 노대실로 49 (송화마을휴먼시아)",
    "lat": 35.10515844501696,
    "lng": 126.9063843622964,
    "region": "광주광역시"
  },
  {
    "name": "송화휴먼시아7단지 지하주차장 1층",
    "address": "광주광역시 남구 노대실로 89 (송화마을휴먼시아)",
    "lat": 35.10280151937945,
    "lng": 126.90385975582107,
    "region": "광주광역시"
  },
  {
    "name": "진월지구남양휴튼 지하주차장 1층",
    "address": "광주광역시 남구 노대실로 26 (진월지구남양휴튼아파트)",
    "lat": 35.107290610086714,
    "lng": 126.90619243783893,
    "region": "광주광역시"
  },
  {
    "name": "진월 대주파크빌 지하주차장 1층",
    "address": "광주광역시 남구 화산로 20 (대주파크빌)",
    "lat": 35.1118676872709,
    "lng": 126.89875252803208,
    "region": "광주광역시"
  },
  {
    "name": "빛고을시민문화관 지하1, 2층",
    "address": "광주광역시 남구 천변좌로338번길 7 (구동)",
    "lat": 35.14789950028576,
    "lng": 126.90949138899836,
    "region": "광주광역시"
  },
  {
    "name": "사직동주민센터 지하1층",
    "address": "광주광역시 남구 중앙로95번길 14 (서동, 사직동주민센터)",
    "lat": 35.145712414394,
    "lng": 126.907891142396,
    "region": "광주광역시"
  },
  {
    "name": "주월2동 주월1차영무예다음 지하주차장 1층",
    "address": "광주광역시 남구 금화로376번길 21 (주월동)",
    "lat": 35.13990137934879,
    "lng": 126.88823844762364,
    "region": "광주광역시"
  },
  {
    "name": "주월2동 주월2차영무예다음 지하주차장 1층",
    "address": "광주광역시 남구 금화로376번길 9 (주월동)",
    "lat": 35.14075234253249,
    "lng": 126.88764822832488,
    "region": "광주광역시"
  },
  {
    "name": "주월2동 해태2차아파트 지하주차장 1층",
    "address": "광주광역시 남구 회재로 1201-0 (주월동)",
    "lat": 35.1330704025605,
    "lng": 126.89205656327044,
    "region": "광주광역시"
  },
  {
    "name": "월산동 우영타워 지하주차장 1층",
    "address": "광주광역시 남구 수원지길 22 (월산동)",
    "lat": 35.15071725267393,
    "lng": 126.9002597818877,
    "region": "광주광역시"
  },
  {
    "name": "월산동 더 메드리츠 빌딩 지하 1층",
    "address": "광주광역시 남구 경열로 84 (월산동)",
    "lat": 35.15157818465375,
    "lng": 126.89514452048743,
    "region": "광주광역시"
  },
  {
    "name": "양림휴먼시아1단지 105동 앞 지하주차장 1층",
    "address": "광주광역시 남구 제중로 11 (양림동, 양림1단지휴먼시아)",
    "lat": 35.13578628685272,
    "lng": 126.91490250008404,
    "region": "광주광역시"
  },
  {
    "name": "양림휴먼시아2단지 203동 앞 지하주차장 1층",
    "address": "광주광역시 남구 정율성로 7 (양림동, 광주양림휴먼시아)",
    "lat": 35.136611490731624,
    "lng": 126.91749455435372,
    "region": "광주광역시"
  },
  {
    "name": "벧엘교회 지하2층",
    "address": "광주광역시 남구 군분로170번길 8 (월산동, 벧엘교회예배당)",
    "lat": 35.14738684828177,
    "lng": 126.8871693133558,
    "region": "광주광역시"
  },
  {
    "name": "호반베르디움1차 아파트 지하주차장 1층",
    "address": "광주광역시 남구 회재로1186번길 24 (주월동, 주월동호반베르디움1차)",
    "lat": 35.12969120781086,
    "lng": 126.8916422063165,
    "region": "광주광역시"
  },
  {
    "name": "호반베르디움2차 아파트, 지하주차장 1층",
    "address": "광주광역시 남구 회재로 1174-14 (주월동, 호반베르디움2차)",
    "lat": 35.1307343334054,
    "lng": 126.89026320327604,
    "region": "광주광역시"
  },
  {
    "name": "봉선동성당 지하예배당",
    "address": "광주광역시 남구 봉선로51번길 17 (주월동, 봉선동천주교성당)",
    "lat": 35.12905515891554,
    "lng": 126.90630845291058,
    "region": "광주광역시"
  },
  {
    "name": "방림2동 광신프로그레스 아파트 지하주차장 1층",
    "address": "광주광역시 남구 용대로 186 (방림동, 방림광신프로그레스)",
    "lat": 35.13272063937544,
    "lng": 126.91792031620506,
    "region": "광주광역시"
  },
  {
    "name": "고싸움놀이영상체험관 지하1층",
    "address": "광주광역시 남구 고싸움로 2 (칠석동, 고싸움)",
    "lat": 35.06950275400916,
    "lng": 126.83548307253128,
    "region": "광주광역시"
  },
  {
    "name": "월산동 행정복지센터 지하 1층",
    "address": "광주광역시 남구 덕림2길 3 (월산동)",
    "lat": 35.1475074690319,
    "lng": 126.90269112748408,
    "region": "광주광역시"
  },
  {
    "name": "루엔시티아파트 지하주차장 1층",
    "address": "광주광역시 남구 독립로80번길 7 (백운동)",
    "lat": 35.14092872058851,
    "lng": 126.90326911458516,
    "region": "광주광역시"
  },
  {
    "name": "백운휴먼시아2차아파트 지하주차장 1층",
    "address": "광주광역시 남구 독립로80번길 8 (백운동)",
    "lat": 35.140781483622,
    "lng": 126.90310112999578,
    "region": "광주광역시"
  },
  {
    "name": "백운휴먼시아3차아파트 지하주차장 1층",
    "address": "광주광역시 남구 백운로 100 (백운동)",
    "lat": 35.14205938954791,
    "lng": 126.90634475721812,
    "region": "광주광역시"
  },
  {
    "name": "송촌아파트 지하주차장 1층",
    "address": "광주광역시 남구 독립로80번길 10-1 (백운동)",
    "lat": 35.14038868505746,
    "lng": 126.9033133970146,
    "region": "광주광역시"
  },
  {
    "name": "목우아파트 주차장 지하주차장 1층",
    "address": "광주광역시 남구 백운로66번길 8 (백운동)",
    "lat": 35.13909811732082,
    "lng": 126.9066645096621,
    "region": "광주광역시"
  },
  {
    "name": "남구청 지하1층",
    "address": "광주광역시 남구 봉선로 1 (주월동, 남구청)",
    "lat": 35.133039724929574,
    "lng": 126.90208238319474,
    "region": "광주광역시"
  },
  {
    "name": "힐스테이트백운 지하 1층 주차장",
    "address": "광주광역시 남구 회재로1293번길 7 (백운동, 힐스테이트백운)",
    "lat": 35.13702079346028,
    "lng": 126.90073520548796,
    "region": "광주광역시"
  },
  {
    "name": "광명메이루즈 지하1층 주차장",
    "address": "광주광역시 남구 봉선로 37 (주월동, 봉선로광명메이루즈)",
    "lat": 35.12996076828313,
    "lng": 126.90397147005064,
    "region": "광주광역시"
  },
  {
    "name": "이지더원2단지 아파트 지하1층 주차장",
    "address": "광주광역시 남구 봉선로 55 (주월동, 주월동이지더원아파트2단지)",
    "lat": 35.12860806423971,
    "lng": 126.90467741579845,
    "region": "광주광역시"
  },
  {
    "name": "이지더원3단지 아파트 지하1층 주차장",
    "address": "광주광역시 남구 봉선로51번길 12 (주월동, 주월동이지더원아파트3단지)",
    "lat": 35.12872440991591,
    "lng": 126.90570859636368,
    "region": "광주광역시"
  },
  {
    "name": "주월 골드클래스 어반시티 아파트 지하주차장 2층~6층",
    "address": "광주광역시 남구 서문대로812번길 4-8 (주월동, 남구주월골드클래스어반시티)",
    "lat": 35.13039330803436,
    "lng": 126.8999871541953,
    "region": "광주광역시"
  },
  {
    "name": "주월 양우내안애 프레스티지 아파트 지하주차장 1층~3층",
    "address": "광주광역시 남구 대남대로223번길 10 (주월동, 양우 내안애 프레스티지)",
    "lat": 35.13353967255814,
    "lng": 126.89925976963067,
    "region": "광주광역시"
  },
  {
    "name": "진월 진아리채3차아파트 지하주차장 1층",
    "address": "광주광역시 남구 화산로 115 (진월동, 진아리채)",
    "lat": 35.1147744204378,
    "lng": 126.908831568345,
    "region": "광주광역시"
  },
  {
    "name": "진월 한국아델리움아파트 지하주차장 1, 2층",
    "address": "광주광역시 남구 서문대로627번길 19 (진월동, 한국아델리움)",
    "lat": 35.1152164866687,
    "lng": 126.895310893584,
    "region": "광주광역시"
  },
  {
    "name": "신안동 KT북광주지사 지하주차장 1층",
    "address": "광주광역시 북구 무등로202번길 15 (신안동, KT북광주지사)",
    "lat": 35.16435310449594,
    "lng": 126.90536925449004,
    "region": "광주광역시"
  },
  {
    "name": "신안동 모아아파트 지하주차장 1층",
    "address": "광주광역시 북구 서양로 28 (신안동, 모아아파트)",
    "lat": 35.17061688763734,
    "lng": 126.90448050539987,
    "region": "광주광역시"
  },
  {
    "name": "용봉동 북구청 지하1층 민방위교육장",
    "address": "광주광역시 북구 우치로 77-0 (용봉동)",
    "lat": 35.17412106851811,
    "lng": 126.91257165707236,
    "region": "광주광역시"
  },
  {
    "name": "삼각동 호반맨션 지하주차장 1층",
    "address": "광주광역시 북구 설죽로370번길 7 (삼각동, 호반맨션)",
    "lat": 35.193034230832524,
    "lng": 126.89969923606496,
    "region": "광주광역시"
  },
  {
    "name": "동림동 우미아파트 102동 지하주차장 1층",
    "address": "광주광역시 북구 북문대로201번길 30 (동림동)",
    "lat": 35.185628269240034,
    "lng": 126.86822356737352,
    "region": "광주광역시"
  },
  {
    "name": "운암2동 신원교회 지하 1층",
    "address": "광주광역시 북구 운신북길 297 (운암동, 신원교회)",
    "lat": 35.1712003652977,
    "lng": 126.88956861281648,
    "region": "광주광역시"
  },
  {
    "name": "오치1동 한국전력공사 광주전남지역본부 지하1층",
    "address": "광주광역시 북구 우치로 222-0 (오치동)",
    "lat": 35.184797584478204,
    "lng": 126.906162996161,
    "region": "광주광역시"
  },
  {
    "name": "용봉동 삼원맨션아파트 지하주차장 1층",
    "address": "광주광역시 북구 용주로30번길 16 (용봉동, 삼원맨션)",
    "lat": 35.18099353671764,
    "lng": 126.90156661745272,
    "region": "광주광역시"
  },
  {
    "name": "동림동 삼호가든아파트 105동 지하주차장 1층",
    "address": "광주광역시 북구 북문대로 235 (동림동, 삼호가든아파트)",
    "lat": 35.18642218435291,
    "lng": 126.86631712729748,
    "region": "광주광역시"
  },
  {
    "name": "운암2동 동일아파트 지하주차장",
    "address": "광주광역시 북구 비엔날레로 51 (운암동, 동일아파트)",
    "lat": 35.17681884438942,
    "lng": 126.8887206980922,
    "region": "광주광역시"
  },
  {
    "name": "용봉동 한신아파트 지하주차장 1층",
    "address": "광주광역시 북구 용봉택지로 16 (용봉동)",
    "lat": 35.17858243618607,
    "lng": 126.88833210474684,
    "region": "광주광역시"
  },
  {
    "name": "운암2동 한국아파트 지하주차장 1층",
    "address": "광주광역시 북구 금호로40번길 33 (운암동, 한국아파트)",
    "lat": 35.17411526126175,
    "lng": 126.89113702970369,
    "region": "광주광역시"
  },
  {
    "name": "운암2동 새한교회 지하주차장 1층",
    "address": "광주광역시 북구 죽봉대로 211 (운암동, 광주새한교회)",
    "lat": 35.17233056803838,
    "lng": 126.88439892169217,
    "region": "광주광역시"
  },
  {
    "name": "문흥1동 라인1차아파트 전체 동의 지하1층",
    "address": "광주광역시 북구 문산로 61 (문흥동, 라인아파트)",
    "lat": 35.187030621099446,
    "lng": 126.92405294867432,
    "region": "광주광역시"
  },
  {
    "name": "문흥1동 중흥1차아파트 전체 동의 지하1층",
    "address": "광주광역시 북구 서하로 417 (문흥동, 중흥아파트)",
    "lat": 35.18374142174646,
    "lng": 126.9250855052325,
    "region": "광주광역시"
  },
  {
    "name": "문흥1동 모아아파트 전체 동의 지하1층",
    "address": "광주광역시 북구 문산로 40 (문흥동, 모아아파트)",
    "lat": 35.18532309699697,
    "lng": 126.92314492976412,
    "region": "광주광역시"
  },
  {
    "name": "문흥1동 우미호반아파트 전체 동의 지하1층",
    "address": "광주광역시 북구 문산로62번길 20 (문흥동, 문흥동 우미,호반아파트)",
    "lat": 35.18616715972054,
    "lng": 126.92563196487866,
    "region": "광주광역시"
  },
  {
    "name": "문흥1동 현대아파트 지하주차장 1층",
    "address": "광주광역시 북구 대천로 195 (문흥동, 현대아파트)",
    "lat": 35.19084393987961,
    "lng": 126.92384166074484,
    "region": "광주광역시"
  },
  {
    "name": "문흥1동 라인동산아파트 지하주차장 1층",
    "address": "광주광역시 북구 문산로 81 (문흥동, 문흥 라인동산아파트)",
    "lat": 35.18871644400803,
    "lng": 126.92535696542518,
    "region": "광주광역시"
  },
  {
    "name": "삼각동 우미타운 지하주차장 1층",
    "address": "광주광역시 북구 안산로 76 (삼각동, 삼각동 우미타운)",
    "lat": 35.194073275941214,
    "lng": 126.9020957285301,
    "region": "광주광역시"
  },
  {
    "name": "두암2동 동강빌딩 지하주차장 1층",
    "address": "광주광역시 북구 동문대로 152 (두암동)",
    "lat": 35.17615587696501,
    "lng": 126.92791371768972,
    "region": "광주광역시"
  },
  {
    "name": "두암2동 광주병원 지하주차장 1층",
    "address": "광주광역시 북구 면앙로139번길 51 (두암동, 광주병원)",
    "lat": 35.178821292397025,
    "lng": 126.92827484979075,
    "region": "광주광역시"
  },
  {
    "name": "두암2동 무등파크2차아파트 202동 앞 지하주차장 1층",
    "address": "광주광역시 북구 월동로 50 (두암동, 두암2차무등파크맨션)",
    "lat": 35.17615686512351,
    "lng": 126.93595167474687,
    "region": "광주광역시"
  },
  {
    "name": "두암2동 라인동산아파트 102동 105동 지하주차장1층",
    "address": "광주광역시 북구 삼정로 112 (두암동, 라인동산아파트)",
    "lat": 35.17166609745206,
    "lng": 126.93662592896176,
    "region": "광주광역시"
  },
  {
    "name": "운암2동 대주아파트 지하주차장 1층",
    "address": "광주광역시 북구 금호로40번길 11 (운암동, 운암동 대주APT)",
    "lat": 35.17335221344129,
    "lng": 126.89019824800364,
    "region": "광주광역시"
  },
  {
    "name": "두암3동 두암중앙교회 지하 1층",
    "address": "광주광역시 북구 삼정로87번길 70 (두암동, 광주두암중앙교회)",
    "lat": 35.17100540245087,
    "lng": 126.9338639460241,
    "region": "광주광역시"
  },
  {
    "name": "두암3동 부영맨션 아파트 지하1층",
    "address": "광주광역시 북구 삼정로 71 (두암동, 부영맨션)",
    "lat": 35.16836382494775,
    "lng": 126.93717443539146,
    "region": "광주광역시"
  },
  {
    "name": "삼각동 모아호반아파트 지하주차장 1층",
    "address": "광주광역시 북구 설죽로370번길 27 (삼각동, 삼각동모아,호반아파트)",
    "lat": 35.19412261699384,
    "lng": 126.90125507510564,
    "region": "광주광역시"
  },
  {
    "name": "문흥1동행정복지센터 지하1층",
    "address": "광주광역시 북구 대천로 140-3, 문흥1동주민센터 (문흥동)",
    "lat": 35.186654803499344,
    "lng": 126.92152678342374,
    "region": "광주광역시"
  },
  {
    "name": "풍향동 강남빌딩 지하주차장 1층",
    "address": "광주광역시 북구 필문대로 7-1 (풍향동)",
    "lat": 35.16468379448572,
    "lng": 126.92066198627448,
    "region": "광주광역시"
  },
  {
    "name": "신안동 NC백화점 지하주차장 3층",
    "address": "광주광역시 북구 경열로 249 (신안동, NC백화점광주점)",
    "lat": 35.16154691887157,
    "lng": 126.90734201934706,
    "region": "광주광역시"
  },
  {
    "name": "문흥2동 중흥2차 아파트 동별 지하1층",
    "address": "광주광역시 북구 문산로 30 (문흥동, 중흥아파트)",
    "lat": 35.184533590327014,
    "lng": 126.922526012511,
    "region": "광주광역시"
  },
  {
    "name": "문흥2동 대주3차아파트 동별 지하1층",
    "address": "광주광역시 북구 서하로 416 (문흥동, 문흥동 대주아파트)",
    "lat": 35.183446093063154,
    "lng": 126.92466653779536,
    "region": "광주광역시"
  },
  {
    "name": "문흥2동 라인3차아파트 301동 앞 지하1층 주차장",
    "address": "광주광역시 북구 문산로 7 (문흥동, 문흥3차 라인아파트)",
    "lat": 35.182840616352415,
    "lng": 126.9208744743628,
    "region": "광주광역시"
  },
  {
    "name": "문흥2동 제일아파트 동별 지하1층",
    "address": "광주광역시 북구 천지인로 191 (문흥동, 문흥제일파크)",
    "lat": 35.1825819056862,
    "lng": 126.91958638520852,
    "region": "광주광역시"
  },
  {
    "name": "문흥2동 중흥3차아파트 동별 지하1층",
    "address": "광주광역시 북구 천지인로173번길 10 (문흥동, 중흥아파트)",
    "lat": 35.18400218328672,
    "lng": 126.91823379119596,
    "region": "광주광역시"
  },
  {
    "name": "문흥2동 일신아파트 동별 지하1층",
    "address": "광주광역시 북구 대천로 124-4 (문흥동, 일신아파트)",
    "lat": 35.18527979210136,
    "lng": 126.92034393907154,
    "region": "광주광역시"
  },
  {
    "name": "문흥2동 문산빌딩 지하1층 주차장",
    "address": "광주광역시 북구 서하로 372 (문흥동)",
    "lat": 35.18583753683944,
    "lng": 126.92070152576612,
    "region": "광주광역시"
  },
  {
    "name": "오치2동 북부경찰서 지하1층 식당",
    "address": "광주광역시 북구 서하로 172-0 (오치동)",
    "lat": 35.1872059190638,
    "lng": 126.8992513416525,
    "region": "광주광역시"
  },
  {
    "name": "매곡동 공간아파트 지하주차장 1층",
    "address": "광주광역시 북구 매곡로 54 (매곡동, 공간아파트)",
    "lat": 35.189809868649384,
    "lng": 126.8941185303425,
    "region": "광주광역시"
  },
  {
    "name": "오치1동 행정복지센터 지하 1층",
    "address": "광주광역시 북구 우치로274번길 48, 오치1동주민센터 (오치동)",
    "lat": 35.18918104979635,
    "lng": 126.9081589309352,
    "region": "광주광역시"
  },
  {
    "name": "매곡동 호반1차아파트 101동 지하주차장 1층",
    "address": "광주광역시 북구 매곡로 60 (매곡동)",
    "lat": 35.19034090984145,
    "lng": 126.89384636499628,
    "region": "광주광역시"
  },
  {
    "name": "오치1동 금호아파트 지하주차장 1층, 2층",
    "address": "광주광역시 북구 서하로233번길 60 (오치동, 오치동 금호타운)",
    "lat": 35.18957470789929,
    "lng": 126.9063796876473,
    "region": "광주광역시"
  },
  {
    "name": "매곡동 서강아파트 지하주차장 1층",
    "address": "광주광역시 북구 어매마을길17번길 16 (매곡동, 매곡동서강아파트)",
    "lat": 35.191797151243826,
    "lng": 126.8939877331026,
    "region": "광주광역시"
  },
  {
    "name": "매곡동 대화아파트 지하주차장 1층",
    "address": "광주광역시 북구 매곡로86번길 2 (매곡동, 대화아파트)",
    "lat": 35.19217158565043,
    "lng": 126.8926781206124,
    "region": "광주광역시"
  },
  {
    "name": "매곡동 삼성아파트 지하주차장 1층",
    "address": "광주광역시 북구 서하로 120 (매곡동)",
    "lat": 35.187239831908094,
    "lng": 126.89389423690528,
    "region": "광주광역시"
  },
  {
    "name": "매곡동 부림2차아파트 지하주차장 1층",
    "address": "광주광역시 북구 매곡로69번길 22 (매곡동, 매곡동부림아파트)",
    "lat": 35.189600358274795,
    "lng": 126.89160098644804,
    "region": "광주광역시"
  },
  {
    "name": "오치2동 삼익1차아파트 103동 지하1층",
    "address": "광주광역시 북구 설죽로320번길 25 (오치동, 삼익1차아파트)",
    "lat": 35.188004632662164,
    "lng": 126.9018603372159,
    "region": "광주광역시"
  },
  {
    "name": "두암3동 기산로얄타운 지하주차장 1층",
    "address": "광주광역시 북구 군왕로 46 (두암동, 기산로얄타운)",
    "lat": 35.165366416344256,
    "lng": 126.9320356310436,
    "region": "광주광역시"
  },
  {
    "name": "삼각동 혁신타운 지하주차장 1층",
    "address": "광주광역시 북구 우치로383번길 3 (삼각동, 삼각동 혁신타운)",
    "lat": 35.19872376247205,
    "lng": 126.90313389663103,
    "region": "광주광역시"
  },
  {
    "name": "삼각동 그린타운아파트 지하주차장 1층",
    "address": "광주광역시 북구 설죽로389번길 70 (삼각동, 삼각동그린타운아파트)",
    "lat": 35.195717792976325,
    "lng": 126.89897700001193,
    "region": "광주광역시"
  },
  {
    "name": "양산동 주식회사 케이티앤지 지하복도 1층",
    "address": "광주광역시 북구 하서로 300 (양산동)",
    "lat": 35.20178508538008,
    "lng": 126.87459833077055,
    "region": "광주광역시"
  },
  {
    "name": "신용동 용두주공아파트 지하주차장 1층",
    "address": "광주광역시 북구 임방울대로1041번길 15 (신용동, 용두주공아파트)",
    "lat": 35.214012215021704,
    "lng": 126.87134252980752,
    "region": "광주광역시"
  },
  {
    "name": "우산동 무등도서관 지하 2층",
    "address": "광주광역시 북구 면앙로 130 (우산동, 시립무등도서관)",
    "lat": 35.17686970858793,
    "lng": 126.9257288406544,
    "region": "광주광역시"
  },
  {
    "name": "우산동 제일볼링센터 지하주차장 1층",
    "address": "광주광역시 북구 서방로 83 (우산동)",
    "lat": 35.17178873465866,
    "lng": 126.92232946277326,
    "region": "광주광역시"
  },
  {
    "name": "우산동 현대아파트 지하주차장 1층",
    "address": "광주광역시 북구 호동로 100 (우산동, 현대아파트)",
    "lat": 35.17997465508876,
    "lng": 126.91854005350692,
    "region": "광주광역시"
  },
  {
    "name": "우산동 우미프라자 지하주차장 1층",
    "address": "광주광역시 북구 평교로18번길 50 (우산동, 우미프라자 아파트)",
    "lat": 35.17829058053896,
    "lng": 126.92734666421508,
    "region": "광주광역시"
  },
  {
    "name": "중앙동 송강빌딩 지하주차장 1층",
    "address": "광주광역시 북구 금남로 80 (유동)",
    "lat": 35.15723267104422,
    "lng": 126.90429410082682,
    "region": "광주광역시"
  },
  {
    "name": "중앙동 교보생명빌딩 지하주차장 1층",
    "address": "광주광역시 북구 금남로 136 (누문동, 교보빌딩)",
    "lat": 35.1540693063475,
    "lng": 126.9088156880005,
    "region": "광주광역시"
  },
  {
    "name": "일곡동 대우아파트 지하주차장 1층",
    "address": "광주광역시 북구 일곡택지로 50 (일곡동, 대우아파트)",
    "lat": 35.20576279355004,
    "lng": 126.8944500048368,
    "region": "광주광역시"
  },
  {
    "name": "일곡동 삼호아파트 지하주차장 1층, 2층",
    "address": "광주광역시 북구 설죽로 600 (일곡동, 삼호아파트)",
    "lat": 35.213439716615774,
    "lng": 126.8979288713342,
    "region": "광주광역시"
  },
  {
    "name": "용봉동 신동아아파트 지하주차장 1층",
    "address": "광주광역시 북구 비엔날레로 112-5 (용봉동, 신동아아파트)",
    "lat": 35.1817326719883,
    "lng": 126.890937713927,
    "region": "광주광역시"
  },
  {
    "name": "용봉동 현대3차아파트 지하주차장 1층",
    "address": "광주광역시 북구 저불로 80 (용봉동)",
    "lat": 35.18107140974718,
    "lng": 126.8956070430655,
    "region": "광주광역시"
  },
  {
    "name": "중흥1동 사랑방신문 지하1층",
    "address": "광주광역시 북구 제봉로 324 (중흥동, SRB빌딩)",
    "lat": 35.163281618807424,
    "lng": 126.9095382930956,
    "region": "광주광역시"
  },
  {
    "name": "중흥1동 주식회사 애드하임(광남일보) 지하주차장 1층",
    "address": "광주광역시 북구 무등로 254 (중흥동)",
    "lat": 35.16355388005378,
    "lng": 126.91109434820213,
    "region": "광주광역시"
  },
  {
    "name": "중흥동 전남대동창회관 지하주차장 1층",
    "address": "광주광역시 북구 서암대로 275 (중흥동)",
    "lat": 35.166339755278145,
    "lng": 126.913985699309,
    "region": "광주광역시"
  },
  {
    "name": "중흥1동 한국경영원 지하주차장 1층",
    "address": "광주광역시 북구 경양로 170 (중흥동)",
    "lat": 35.16011226240574,
    "lng": 126.91023156879378,
    "region": "광주광역시"
  },
  {
    "name": "운암3동 나산아파트 지하주차장 1층",
    "address": "광주광역시 북구 북문대로169번길 16 (운암동, 나산아파트)",
    "lat": 35.183203853191976,
    "lng": 126.8704485532858,
    "region": "광주광역시"
  },
  {
    "name": "일곡동 금호아파트 지하주차장 1층",
    "address": "광주광역시 북구 설죽로 560 (일곡동, 금호타운)",
    "lat": 35.20875729993705,
    "lng": 126.89780444898824,
    "region": "광주광역시"
  },
  {
    "name": "일곡동 한일아파트 지하주차장 1층",
    "address": "광주광역시 북구 일곡택지로 60 (일곡동, 한일아파트)",
    "lat": 35.207175974772134,
    "lng": 126.89447378285745,
    "region": "광주광역시"
  },
  {
    "name": "일곡동 현대2차아파트 지하주차장 1층",
    "address": "광주광역시 북구 일곡마을로 55 (일곡동, 현대2차아파트)",
    "lat": 35.20511646995141,
    "lng": 126.8952732073316,
    "region": "광주광역시"
  },
  {
    "name": "일곡동 호반일신아파트 지하주차장 1층",
    "address": "광주광역시 북구 설죽로 545 (일곡동, 일곡동호반,일신아파트)",
    "lat": 35.20813566068682,
    "lng": 126.8975115546157,
    "region": "광주광역시"
  },
  {
    "name": "일곡동 롯데아파트 지하주차장 1층, 2층",
    "address": "광주광역시 북구 설죽로 595 (일곡동, 롯데아파트)",
    "lat": 35.212453745630754,
    "lng": 126.8976129473208,
    "region": "광주광역시"
  },
  {
    "name": "일곡동 청솔4차아파트 지하주차장 1층, 2층, 3층",
    "address": "광주광역시 북구 일곡마을로 10 (일곡동, 일곡4차청솔아파트)",
    "lat": 35.20635240891269,
    "lng": 126.90013585451292,
    "region": "광주광역시"
  },
  {
    "name": "용봉동 모아미래도아파트 지하주차장 1층",
    "address": "광주광역시 북구 저불로 21 (용봉동)",
    "lat": 35.176435899875464,
    "lng": 126.895084667279,
    "region": "광주광역시"
  },
  {
    "name": "문흥2동 우성아파트 106동 앞 지하 1층 주차장",
    "address": "광주광역시 북구 호동로 99 (문흥동, 우성아파트)",
    "lat": 35.18051509257414,
    "lng": 126.91845598106458,
    "region": "광주광역시"
  },
  {
    "name": "문흥2동 상록아파트 동별 지하1층 주차장",
    "address": "광주광역시 북구 문산로 20 (문흥동, 문흥상록아파트)",
    "lat": 35.18337877011949,
    "lng": 126.92161472687756,
    "region": "광주광역시"
  },
  {
    "name": "매곡동 금호아파트 지하주차장 1층",
    "address": "광주광역시 북구 하백로46번길 10 (매곡동, 금호타운)",
    "lat": 35.19141836585763,
    "lng": 126.89177860724328,
    "region": "광주광역시"
  },
  {
    "name": "문화동 해광파크 지하주차장 1층",
    "address": "광주광역시 북구 군왕로208번길 11 (각화동, 해광파크)",
    "lat": 35.179301837102194,
    "lng": 126.93651791943422,
    "region": "광주광역시"
  },
  {
    "name": "두암1동 현대2차아파트 지하주차장 1층",
    "address": "광주광역시 북구 동문대로86번길 55 (두암동, 두암동현대2차아파트)",
    "lat": 35.17077807171339,
    "lng": 126.92603622120666,
    "region": "광주광역시"
  },
  {
    "name": "두암1동 은병원 지하주차장 1층",
    "address": "광주광역시 북구 동문대로 94 (두암동, 은병원)",
    "lat": 35.1718501943442,
    "lng": 126.92420997132136,
    "region": "광주광역시"
  },
  {
    "name": "두암1동 반석힐라아파트 지하주차장 1층",
    "address": "광주광역시 북구 군왕로51번길 39 (두암동, 반석힐라아파트)",
    "lat": 35.166956676868665,
    "lng": 126.93030066954712,
    "region": "광주광역시"
  },
  {
    "name": "문화동 각화주공아파트 지하 1층",
    "address": "광주광역시 북구 군왕로207번길 20 (각화동, 각화영구임대아파트)",
    "lat": 35.179788484081435,
    "lng": 126.93468438934664,
    "region": "광주광역시"
  },
  {
    "name": "문화동 금호아파트 지하 1층",
    "address": "광주광역시 북구 각화대로 33 (각화동, 금호타운)",
    "lat": 35.18153299865563,
    "lng": 126.933861005008,
    "region": "광주광역시"
  },
  {
    "name": "문화동 문흥동성당 지하 1층",
    "address": "광주광역시 북구 문화소통로 309 (문흥동, 문흥동천주교회)",
    "lat": 35.18289698138374,
    "lng": 126.92732065878542,
    "region": "광주광역시"
  },
  {
    "name": "문화동 대주1차아파트 지하 1층",
    "address": "광주광역시 북구 평교로 42 (문흥동, 대주맨션)",
    "lat": 35.18105887826433,
    "lng": 126.92583624612892,
    "region": "광주광역시"
  },
  {
    "name": "신안동 중도다이아빌 지하주차장 1층",
    "address": "광주광역시 북구 무등로111번길 30 (신안동, 중도다이아빌)",
    "lat": 35.16881692778509,
    "lng": 126.89687772035884,
    "region": "광주광역시"
  },
  {
    "name": "일곡동 벽산아파트 지하주차장 1층",
    "address": "광주광역시 북구 우치로537번길 5 (일곡동, 벽산아파트)",
    "lat": 35.212387055103115,
    "lng": 126.9003183576861,
    "region": "광주광역시"
  },
  {
    "name": "문화동 글로벌아파트 지하주차장 1층",
    "address": "광주광역시 북구 월동로 88 (각화동, 글로벌아파트)",
    "lat": 35.17906515485068,
    "lng": 126.93782281912218,
    "region": "광주광역시"
  },
  {
    "name": "풍향동 대주빌라 지하주차장 1층",
    "address": "광주광역시 북구 밤실로181번길 24 (풍향동, 대주빌라연립주택)",
    "lat": 35.16300401108557,
    "lng": 126.93285325802984,
    "region": "광주광역시"
  },
  {
    "name": "신용주공아파트 지하주차장 1층",
    "address": "광주광역시 북구 연양로7번길 58 (신용동, 신용주공아파트)",
    "lat": 35.208999019663715,
    "lng": 126.8681673117083,
    "region": "광주광역시"
  },
  {
    "name": "양산동 한국아델리움아파트 전체 동의 지하주차장 1층",
    "address": "광주광역시 북구 양산제로 30 (연제동, 한국아델리움)",
    "lat": 35.19994077254491,
    "lng": 126.87217454820605,
    "region": "광주광역시"
  },
  {
    "name": "양산동 호반리젠시빌아파트 전체 동의 지하주차장 1층",
    "address": "광주광역시 북구 양산로71번길 33 (양산동, 호반리젠시빌아파트)",
    "lat": 35.21217624554588,
    "lng": 126.88200539400871,
    "region": "광주광역시"
  },
  {
    "name": "양산동 연제1차대주피오레아파트 전체동의 지하주차장 1층",
    "address": "광주광역시 북구 양일로 70 (연제동, 연제1차대주피오레)",
    "lat": 35.19636739702691,
    "lng": 126.87229227286088,
    "region": "광주광역시"
  },
  {
    "name": "양산동 지에스그린자이1차아파트 전체동의 지하주차장 1층",
    "address": "광주광역시 북구 양산로71번길 10 (양산동, 지에스그린자이1차아파트)",
    "lat": 35.21079393872883,
    "lng": 126.88283700226556,
    "region": "광주광역시"
  },
  {
    "name": "운암1동 롯데캐슬아파트 3단지 지하주차장 1층",
    "address": "광주광역시 북구 서강로54번길 32 (운암동, 롯데캐슬)",
    "lat": 35.17592018298266,
    "lng": 126.87439899097608,
    "region": "광주광역시"
  },
  {
    "name": "임동 한국아델리움1차아파트 지하주차장 1층",
    "address": "광주광역시 북구 천변우로79번길 77 (임동, 한국아델리움)",
    "lat": 35.166122918075985,
    "lng": 126.89098154789572,
    "region": "광주광역시"
  },
  {
    "name": "임동 리버파크아파트 전체 동의 지하주차장 1층",
    "address": "광주광역시 북구 천변우로 11 (임동, 리버파크아파트)",
    "lat": 35.16900464606632,
    "lng": 126.88587697995784,
    "region": "광주광역시"
  },
  {
    "name": "두암2동 현대아파트 101동 지하주차장 1층",
    "address": "광주광역시 북구 삼정로 108 (두암동, 현대아파트)",
    "lat": 35.17182252533083,
    "lng": 126.93740226966632,
    "region": "광주광역시"
  },
  {
    "name": "운암1동 운암산아이파크아파트 지하주차장(1~3주차장)",
    "address": "광주광역시 북구 서강로 77 (운암동, 운암산아이파크아파트)",
    "lat": 35.179275480873336,
    "lng": 126.87011337313368,
    "region": "광주광역시"
  },
  {
    "name": "오치2동 청암아파트 지하주차장 1층",
    "address": "광주광역시 북구 우치로311번길 18 (오치동, 청암아파트)",
    "lat": 35.19232135155308,
    "lng": 126.90233801552694,
    "region": "광주광역시"
  },
  {
    "name": "오치2동 공간아파트 지하주차장 1층",
    "address": "광주광역시 북구 천지인로 59-1 (오치동, 오치동공간아파트)",
    "lat": 35.18460390745207,
    "lng": 126.90506078536173,
    "region": "광주광역시"
  },
  {
    "name": "매곡동 서광인텔파크 지하주차장 1층",
    "address": "광주광역시 북구 하백로 45 (매곡동, 서광인텔파크아파트)",
    "lat": 35.191438679744145,
    "lng": 126.89036447568412,
    "region": "광주광역시"
  },
  {
    "name": "동림동 삼익아파트 105동 지하주차장 1층",
    "address": "광주광역시 북구 유림로 175 (동림동, 삼익아파트)",
    "lat": 35.17776119446129,
    "lng": 126.86391340150456,
    "region": "광주광역시"
  },
  {
    "name": "동림동 죽림마을아파트 107동 지하주차장 1층",
    "address": "광주광역시 북구 유림로160번길 5 (동림동, 죽림마을주공아파트)",
    "lat": 35.17676784288697,
    "lng": 126.86479976357292,
    "region": "광주광역시"
  },
  {
    "name": "동림동 푸른마을주공4단지아파트 410동 지하주차장 1층",
    "address": "광주광역시 북구 동림용산로 12 (동림동, 동림푸른마을주공4단지)",
    "lat": 35.18763656369869,
    "lng": 126.8687060613931,
    "region": "광주광역시"
  },
  {
    "name": "두암1동 주말씀교회 지하 1층",
    "address": "광주광역시 북구 군왕로51번길 23 (두암동, 사랑의교회)",
    "lat": 35.16645145145106,
    "lng": 126.93085235176416,
    "region": "광주광역시"
  },
  {
    "name": "두암1동 두암천주교회 지하 1층",
    "address": "광주광역시 북구 서방로159번길 11 (두암동, 두암동천주교회)",
    "lat": 35.169957772506784,
    "lng": 126.92983603435562,
    "region": "광주광역시"
  },
  {
    "name": "용봉동 한화꿈에그린아파트 지하주차장 1층",
    "address": "광주광역시 북구 용주로30번길 60 (용봉동)",
    "lat": 35.18056414309545,
    "lng": 126.90409221265764,
    "region": "광주광역시"
  },
  {
    "name": "두암3동 주공2단지 아파트 관리소 지하1층",
    "address": "광주광역시 북구 삼정로 7 (두암동, 율곡타운,두암주공2단지아파트)",
    "lat": 35.16267668219251,
    "lng": 126.93688497050157,
    "region": "광주광역시"
  },
  {
    "name": "두암3동 주공4단지 아파트 관리소 지하1층",
    "address": "광주광역시 북구 삼정로 10 (두암동, 두암주공4단지아파트)",
    "lat": 35.16262209718283,
    "lng": 126.93717506576633,
    "region": "광주광역시"
  },
  {
    "name": "중흥동 평화프라자 지하주차장 2층",
    "address": "광주광역시 북구 우치로27번길 33 (중흥동)",
    "lat": 35.17055001267083,
    "lng": 126.90914984889264,
    "region": "광주광역시"
  },
  {
    "name": "중흥동 모아타운 지하 1층",
    "address": "광주광역시 북구 서암대로 199 (중흥동, 모아타운)",
    "lat": 35.168424116087536,
    "lng": 126.90591324105186,
    "region": "광주광역시"
  },
  {
    "name": "중앙동 동언빌딩 지하주차장 1층",
    "address": "광주광역시 북구 금남로 121 (북동, 동언빌딩)",
    "lat": 35.15531003111525,
    "lng": 126.90810537961411,
    "region": "광주광역시"
  },
  {
    "name": "운암2동 광주문화예술회관 지하주차장",
    "address": "광주광역시 북구 북문대로 60 (운암동, 광주문화예술회관)",
    "lat": 35.17637315724517,
    "lng": 126.88013925326185,
    "region": "광주광역시"
  },
  {
    "name": "운암3동 우미3차아파트 지하주차장 1층",
    "address": "광주광역시 북구 서강로131번길 60 (운암동, 운암3차우미아파트)",
    "lat": 35.184477857779925,
    "lng": 126.87258527290868,
    "region": "광주광역시"
  },
  {
    "name": "오치1동 혁신1차아파트 지하주차장 1층",
    "address": "광주광역시 북구 대천로 40 (오치동, 오치동 혁신타운)",
    "lat": 35.18511084885611,
    "lng": 126.9108033239514,
    "region": "광주광역시"
  },
  {
    "name": "5.18국립묘지 역사의 문 지하 1층",
    "address": "광주광역시 북구 민주로 200 (운정동, 국립5.18민주묘지)",
    "lat": 35.23253721941229,
    "lng": 126.94152753478126,
    "region": "광주광역시"
  },
  {
    "name": "운암1동 벽산블루밍메가씨티3단지아파트 지하주차장 1층",
    "address": "광주광역시 북구 대자로 55-0 (운암동, 벽산블루밍메가씨티)",
    "lat": 35.17349525880564,
    "lng": 126.87863522315256,
    "region": "광주광역시"
  },
  {
    "name": "중흥동 동부교육지원청 지하 1층",
    "address": "광주광역시 북구 서양로 111 (중흥동, 광주광역시동부교육청)",
    "lat": 35.1685940707154,
    "lng": 126.913267027987,
    "region": "광주광역시"
  },
  {
    "name": "풍향동 금성맨션 지하실 지하 1층",
    "address": "광주광역시 북구 군왕로18번길 21 (풍향동, 금성맨션)",
    "lat": 35.16211727926884,
    "lng": 126.93167715667629,
    "region": "광주광역시"
  },
  {
    "name": "문흥1동 문흥지하보도 지하 1층",
    "address": "광주광역시 북구 서하로 지하 377-1 (문흥동)",
    "lat": 35.185712063722285,
    "lng": 126.921680512747,
    "region": "광주광역시"
  },
  {
    "name": "중앙동 금남로5가역 지하 1층",
    "address": "광주광역시 북구 금남로 지하 138 (북동, 금남로5가역)",
    "lat": 35.15427504036984,
    "lng": 126.9091973628667,
    "region": "광주광역시"
  },
  {
    "name": "풍향동 북문교회 지하실 지하 1층",
    "address": "광주광역시 북구 동문대로 28-5 (풍향동, 북문교회)",
    "lat": 35.167237817081066,
    "lng": 126.92032629869016,
    "region": "광주광역시"
  },
  {
    "name": "우산동 지오빌딩 지하주차장 1,2층",
    "address": "광주광역시 북구 서암대로 315, 지오빌딩 (우산동)",
    "lat": 35.165255450361606,
    "lng": 126.91827659697884,
    "region": "광주광역시"
  },
  {
    "name": "운암3동 남양휴튼아파트 지하주차장 1층",
    "address": "광주광역시 북구 서강로 150 (운암동, 남양휴튼)",
    "lat": 35.18359641074398,
    "lng": 126.87591240077542,
    "region": "광주광역시"
  },
  {
    "name": "운암3동 미라보3차아파트 지하주차장 1층",
    "address": "광주광역시 북구 서강로 155 (운암동, 미라보아파트)",
    "lat": 35.18430208305177,
    "lng": 126.87625653150612,
    "region": "광주광역시"
  },
  {
    "name": "운암3동 유탑하늘세움아파트 지하주차장 1층",
    "address": "광주광역시 북구 하서로 71 (운암동, 유탑하늘세움아파트)",
    "lat": 35.18283163378282,
    "lng": 126.88013994718224,
    "region": "광주광역시"
  },
  {
    "name": "운암3동 코아루렉시안아파트 지하주차장 1층",
    "address": "광주광역시 북구 북문대로187번길 14 (운암동, 운암산코아루렉시안)",
    "lat": 35.18413117481045,
    "lng": 126.8693367341804,
    "region": "광주광역시"
  },
  {
    "name": "오치1동 한국아델리움아파트 지하주차장 1층, 2층",
    "address": "광주광역시 북구 능안로29번길 30 (오치동, 한국아델리움)",
    "lat": 35.188021539619385,
    "lng": 126.9155750684521,
    "region": "광주광역시"
  },
  {
    "name": "오치2동 새에덴교회 지하1층 회의, 예배실",
    "address": "광주광역시 북구 우치로311번길 17 (오치동, 빛과사랑교회)",
    "lat": 35.191983282597924,
    "lng": 126.90238208230204,
    "region": "광주광역시"
  },
  {
    "name": "매곡동 대성베르힐아파트 지하주차장 1층",
    "address": "광주광역시 북구 초당로7번길 19 (매곡동, 대성베르힐)",
    "lat": 35.194683238325,
    "lng": 126.89415172335154,
    "region": "광주광역시"
  },
  {
    "name": "운암2동 엠마우스복지관 지하주차장 1층",
    "address": "광주광역시 북구 북문대로20번길 38 (운암동, 엠마우스복지관)",
    "lat": 35.17561333706416,
    "lng": 126.88444752547528,
    "region": "광주광역시"
  },
  {
    "name": "중흥1동 한빛교회 지하1층 식당",
    "address": "광주광역시 북구 중흥로 135 (중흥동, 한빛교회)",
    "lat": 35.16250147991471,
    "lng": 126.90897026271442,
    "region": "광주광역시"
  },
  {
    "name": "건국동 정부광주지방합동청사 지하주차장 1층",
    "address": "광주광역시 북구 첨단과기로208번길 43 (오룡동, 정부광주지방합동청사)",
    "lat": 35.22310153280049,
    "lng": 126.84999728555935,
    "region": "광주광역시"
  },
  {
    "name": "(구) 장운동사무소 지하 1층",
    "address": "광주광역시 북구 용호천변길 31-7 (장등동)",
    "lat": 35.21085416961077,
    "lng": 126.94266347305133,
    "region": "광주광역시"
  },
  {
    "name": "중소벤처기업진흥공단호남연수원 지하 1층",
    "address": "광주광역시 북구 동문대로456번길 40, 중소벤처기업진흥공단광주연수원 (장등동)",
    "lat": 35.20431848720673,
    "lng": 126.93732142700011,
    "region": "광주광역시"
  },
  {
    "name": "중흥동 튼튼정형외과 지하주차장 1층",
    "address": "광주광역시 북구 서방로 12 (중흥동)",
    "lat": 35.173314836902655,
    "lng": 126.91428462106828,
    "region": "광주광역시"
  },
  {
    "name": "신용동 호반베르디움 1단지 아파트 지하주차장 1층",
    "address": "광주광역시 북구 첨단연신로133번길 8 (신용동, 광주첨단2지구 호반베르디움 1단지)",
    "lat": 35.2102098508877,
    "lng": 126.8633636199115,
    "region": "광주광역시"
  },
  {
    "name": "중흥동 영무예다음아파트 지하주차장 1층",
    "address": "광주광역시 북구 서방로40번길 13 (중흥동, 중흥동영무예다음아파트)",
    "lat": 35.172196822143135,
    "lng": 126.91732168718912,
    "region": "광주광역시"
  },
  {
    "name": "오치2동 무등파크아파트 지하주차장 1층",
    "address": "광주광역시 북구 천지인로 47-3 (오치동, 오치동 무등아파트)",
    "lat": 35.184703599788,
    "lng": 126.90394771727642,
    "region": "광주광역시"
  },
  {
    "name": "삼각동 일곡엘리체프라임 지하주차장 1층",
    "address": "광주광역시 북구 설죽로 419 (삼각동, 일곡엘리체프라임)",
    "lat": 35.19665170956421,
    "lng": 126.89846784432012,
    "region": "광주광역시"
  },
  {
    "name": "두암2동 북구노인종합복지회관 지하 1층",
    "address": "광주광역시 북구 군왕로130번길 30 (두암동, 북구노인종합복지회관)",
    "lat": 35.17238709043471,
    "lng": 126.93435973558462,
    "region": "광주광역시"
  },
  {
    "name": "풍향동 교대금호어울림아파트 각 동 지하주차장 1층",
    "address": "광주광역시 북구 군왕로 17 (풍향동, 교대금호어울림)",
    "lat": 35.163526697207296,
    "lng": 126.92990008128103,
    "region": "광주광역시"
  },
  {
    "name": "중흥1동 광주역다사로움아파트 지하주차장 1층",
    "address": "광주광역시 북구 서암대로 268(중흥동, 광주역 다사로움)",
    "lat": 35.16614240124642,
    "lng": 126.91290715804716,
    "region": "광주광역시"
  },
  {
    "name": "신용동 첨단휴먼시아1단지 지하주차장 지하1층",
    "address": "광주광역시 북구 첨단연신로 250(신용동, 첨단휴먼시아)",
    "lat": 35.20805686987045,
    "lng": 126.85832271390268,
    "region": "광주광역시"
  },
  {
    "name": "건국동 힐스테이트 본촌아파트 지하주차장",
    "address": "광주광역시 북구 본촌마을길 157-22 (본촌동, 힐스테이트 본촌)",
    "lat": 35.21844476656593,
    "lng": 126.88174514407144,
    "region": "광주광역시"
  },
  {
    "name": "중흥1동 도나우타운 아파트 지하주차장 1층",
    "address": "광주광역시 북구 무등로262번길 60 (중흥동, 중흥동 도나우타운)",
    "lat": 35.16084912051685,
    "lng": 126.91078141255817,
    "region": "광주광역시"
  },
  {
    "name": "우산동 무등산자이앤어울림아파트1단지 지하주차장 1~3층",
    "address": "광주광역시 북구 서양로 155 (우산동, 무등산자이앤어울림아파트1단지)",
    "lat": 35.16738213552817,
    "lng": 126.9179027091064,
    "region": "광주광역시"
  },
  {
    "name": "광산문화원 지하1층",
    "address": "광주광역시 광산구 상무대로 265 (소촌동)",
    "lat": 35.14239743930576,
    "lng": 126.79515949826305,
    "region": "광주광역시"
  },
  {
    "name": "소촌아트팩토리 지하1층",
    "address": "광주광역시 광산구 소촌로85번길 14-9 (소촌동)",
    "lat": 35.152739667848294,
    "lng": 126.79126162173458,
    "region": "광주광역시"
  },
  {
    "name": "호남대학교 복지관 지하1층",
    "address": "광주광역시 광산구 호남대길 20, 복지관 (서봉동)",
    "lat": 35.15056440774226,
    "lng": 126.77008260485606,
    "region": "광주광역시"
  },
  {
    "name": "임곡농협",
    "address": "광주광역시 광산구 고봉로 807 (고룡동)",
    "lat": 35.21994694736423,
    "lng": 126.74252936679224,
    "region": "광주광역시"
  },
  {
    "name": "광산구의회",
    "address": "광주광역시 광산구 광산로29번길 5, 광산구의회 (송정동)",
    "lat": 35.13913336270406,
    "lng": 126.79455810204864,
    "region": "광주광역시"
  },
  {
    "name": "리버힐아파트 상가 지하주차장 1층",
    "address": "광주광역시 광산구 우산로 47 (우산동, 리버힐아파트)",
    "lat": 35.15829509304479,
    "lng": 126.80611477644092,
    "region": "광주광역시"
  },
  {
    "name": "대덕2차 아파트 지하주차장 1층",
    "address": "광주광역시 광산구 우산로96번길 66 (우산동, 대덕아파트상가)",
    "lat": 35.15340498471814,
    "lng": 126.81049768870125,
    "region": "광주광역시"
  },
  {
    "name": "동곡농협 지하1층",
    "address": "광주광역시 광산구 동곡로 161-21, 지하1층 (하산동)",
    "lat": 35.09869716047636,
    "lng": 126.77408185550853,
    "region": "광주광역시"
  },
  {
    "name": "보라2차아파트 지하1층 주차장",
    "address": "광주광역시 광산구 상무대로263번길 17 (소촌동, 보라2차아파트)",
    "lat": 35.14295132690244,
    "lng": 126.79434327483187,
    "region": "광주광역시"
  },
  {
    "name": "농협중앙회 우산지점 지하주차장 1층",
    "address": "광주광역시 광산구 무진대로 285 (우산동)",
    "lat": 35.161749531964766,
    "lng": 126.81160803537132,
    "region": "광주광역시"
  },
  {
    "name": "한국농어촌공사 지하주차장 1층",
    "address": "광주광역시 광산구 무진대로 225 (우산동)",
    "lat": 35.16231674205324,
    "lng": 126.8051078663487,
    "region": "광주광역시"
  },
  {
    "name": "상수도광산사업소 지하주차장 1층",
    "address": "광주광역시 광산구 우산로 81 (우산동, 상수도광산사업소)",
    "lat": 35.15673485837998,
    "lng": 126.80921920901883,
    "region": "광주광역시"
  },
  {
    "name": "국민은행 지하주차장 1층",
    "address": "광주광역시 광산구 사암로 205 (우산동)",
    "lat": 35.16281900195423,
    "lng": 126.80802172603316,
    "region": "광주광역시"
  },
  {
    "name": "송정동라인2차아파트",
    "address": "광주광역시 광산구 상무대로 137-2 (송정동, 송정 라인2차 아파트)",
    "lat": 35.132405549450624,
    "lng": 126.78799972645432,
    "region": "광주광역시"
  },
  {
    "name": "첨단대우아파트 지하주차장 1층~2층",
    "address": "광주광역시 광산구 첨단중앙로181번길 88-21 (월계동, 첨단대우아파트)",
    "lat": 35.22036196907527,
    "lng": 126.8312209311263,
    "region": "광주광역시"
  },
  {
    "name": "건영아파트 지하주차장 1층",
    "address": "광주광역시 광산구 첨단중앙로181번길 104 (월계동, 건영아파트)",
    "lat": 35.21787988575647,
    "lng": 126.83008468137167,
    "region": "광주광역시"
  },
  {
    "name": "첨단성원아파트 지하주차장 1층",
    "address": "광주광역시 광산구 첨단중앙로181번길 92 (월계동, 성원아파트)",
    "lat": 35.21848022346542,
    "lng": 126.83186267211026,
    "region": "광주광역시"
  },
  {
    "name": "첨단신동아아파트 지하주차장 1층",
    "address": "광주광역시 광산구 첨단중앙로181번길 88-22 (월계동, 신동아아파트)",
    "lat": 35.22042110381206,
    "lng": 126.83148226546412,
    "region": "광주광역시"
  },
  {
    "name": "첨단선경아파트 지하주차장 1층~2층",
    "address": "광주광역시 광산구 첨단중앙로181번길 42-25 (월계동, 첨단선경아파트)",
    "lat": 35.22225938189758,
    "lng": 126.83558097706594,
    "region": "광주광역시"
  },
  {
    "name": "첨단금호타운아파트 지하주차장 1층",
    "address": "광주광역시 광산구 첨단중앙로181번길 42-5 (월계동, 첨단금호타운)",
    "lat": 35.220479930531376,
    "lng": 126.83631252527704,
    "region": "광주광역시"
  },
  {
    "name": "일신아파트 지하주차장 1층",
    "address": "광주광역시 광산구 첨단중앙로181번길 42-14 (월계동, 일신아파트)",
    "lat": 35.22128986890877,
    "lng": 126.83628598442112,
    "region": "광주광역시"
  },
  {
    "name": "첨단금광아파트 지하주차장 1층",
    "address": "광주광역시 광산구 첨단중앙로181번길 42-4 (월계동, 첨단과학산업단지금광아파트)",
    "lat": 35.22042313140981,
    "lng": 126.8366657906863,
    "region": "광주광역시"
  },
  {
    "name": "첨단동부아파트 지하주차장 1층",
    "address": "광주광역시 광산구 첨단중앙로 201 (월계동, 첨단동부아파트)",
    "lat": 35.223080503169015,
    "lng": 126.8401421710518,
    "region": "광주광역시"
  },
  {
    "name": "벽산아파트 지하주차장 1층",
    "address": "광주광역시 광산구 첨단중앙로181번길 16 (월계동, 벽산아파트)",
    "lat": 35.221055005854865,
    "lng": 126.83952255848634,
    "region": "광주광역시"
  },
  {
    "name": "첨단모아아파트 지하주차장 1층",
    "address": "광주광역시 광산구 첨단중앙로181번길 6 (월계동, 월계동모아아파트)",
    "lat": 35.2214461243524,
    "lng": 126.84062369908445,
    "region": "광주광역시"
  },
  {
    "name": "신가중흥2차아파트 지하주차장 1층",
    "address": "광주광역시 광산구 목련로382번길 79 (신가동, 중흥아파트)",
    "lat": 35.1814144811066,
    "lng": 126.83667139788264,
    "region": "광주광역시"
  },
  {
    "name": "우산장미빌라트",
    "address": "광주광역시 광산구 사암로118번길 11-10 (우산동, 장미 빌라트)",
    "lat": 35.15532198095701,
    "lng": 126.80821201845872,
    "region": "광주광역시"
  },
  {
    "name": "평동농협 지하 1층 대회의실",
    "address": "광주광역시 광산구 평동로800번길 16 (옥동)",
    "lat": 35.12429162052409,
    "lng": 126.760856925654,
    "region": "광주광역시"
  },
  {
    "name": "화천기공 지하 1층",
    "address": "광주광역시 광산구 하남산단4번로 123-17 (장덕동)",
    "lat": 35.19593863142127,
    "lng": 126.80611240031548,
    "region": "광주광역시"
  },
  {
    "name": "하남농협 지하 주차장",
    "address": "광주광역시 광산구 사암로 280 (월곡동)",
    "lat": 35.1692924272109,
    "lng": 126.809222167544,
    "region": "광주광역시"
  },
  {
    "name": "월곡1동 행정복지센터",
    "address": "광주광역시 광산구 사암로 306 (월곡동, 월곡1동주민센터)",
    "lat": 35.1717657565978,
    "lng": 126.80958892237972,
    "region": "광주광역시"
  },
  {
    "name": "한성아파트2차 203동 지하실",
    "address": "광주광역시 광산구 월곡산정로 96-21 (월곡동, 한성아파트)",
    "lat": 35.164219485918544,
    "lng": 126.8113875912698,
    "region": "광주광역시"
  },
  {
    "name": "하남금호아파트 2동 지하주차장",
    "address": "광주광역시 광산구 월곡산정로 80 (월곡동, 하남금호타운)",
    "lat": 35.165875981133944,
    "lng": 126.8106763947119,
    "region": "광주광역시"
  },
  {
    "name": "서경아파트 지하 1층",
    "address": "광주광역시 광산구 도산로 28 (도산동, 서경아파트)",
    "lat": 35.13070301564647,
    "lng": 126.79109461287986,
    "region": "광주광역시"
  },
  {
    "name": "우미아파트 지하 1층",
    "address": "광주광역시 광산구 도산로 26 (도산동, 우미아파트)",
    "lat": 35.130628681296386,
    "lng": 126.79128718173456,
    "region": "광주광역시"
  },
  {
    "name": "대덕1차아파트 지하1층",
    "address": "광주광역시 광산구 송도로 143 (도산동, 대덕1차아파트)",
    "lat": 35.12795056366764,
    "lng": 126.79174662867167,
    "region": "광주광역시"
  },
  {
    "name": "무등파크맨션 지하주차장 1층",
    "address": "광주광역시 광산구 도산로 3 (도산동, 도산동무등아파트)",
    "lat": 35.128608678008426,
    "lng": 126.79185470004748,
    "region": "광주광역시"
  },
  {
    "name": "호반1차아파트 지하주차장 1층",
    "address": "광주광역시 광산구 도산로9번길 35 (도산동, 도산동호반아파트)",
    "lat": 35.127980143618515,
    "lng": 126.79044655864544,
    "region": "광주광역시"
  },
  {
    "name": "청암아파트 지하주차장 1층",
    "address": "광주광역시 광산구 남동길30번길 28 (도산동, 청암아파트)",
    "lat": 35.12887792859201,
    "lng": 126.78946870485204,
    "region": "광주광역시"
  },
  {
    "name": "호반청암빌라트 지하주차장 1층",
    "address": "광주광역시 광산구 도산로12번길 17-25 (도산동, 호반청암빌라트)",
    "lat": 35.13012280084185,
    "lng": 126.79257868993555,
    "region": "광주광역시"
  },
  {
    "name": "호반2차아파트 지하주차장 1층",
    "address": "광주광역시 광산구 송도로162번길 11-6 (도산동, 호반2차아파트)",
    "lat": 35.129058209580926,
    "lng": 126.79387019537263,
    "region": "광주광역시"
  },
  {
    "name": "1차 대주파크빌 지하주차장 1층",
    "address": "광주광역시 광산구 송도로182번길 55 (도산동, 도산동 1차 대주파크빌)",
    "lat": 35.12914603189732,
    "lng": 126.79564822205106,
    "region": "광주광역시"
  },
  {
    "name": "광산구청",
    "address": "광주광역시 광산구 광산로29번길 15 (송정동, 광산구청)",
    "lat": 35.13998862550806,
    "lng": 126.7938014559985,
    "region": "광주광역시"
  },
  {
    "name": "서라1차아파트 지하1층 주차장",
    "address": "광주광역시 광산구 어등대로665번길 27 (소촌동, 소촌동서라아파트)",
    "lat": 35.14673470392654,
    "lng": 126.7909144023852,
    "region": "광주광역시"
  },
  {
    "name": "대화아파트 지하1층 주차장",
    "address": "광주광역시 광산구 어등대로647번길 43 (소촌동, 대화아파트)",
    "lat": 35.14553930092434,
    "lng": 126.79428161257955,
    "region": "광주광역시"
  },
  {
    "name": "운남주공 1,2단지 지하주차장 1층",
    "address": "광주광역시 광산구 목련로273번길 76 (운남동, 운남주공1/2단지아파트)",
    "lat": 35.16428945355115,
    "lng": 126.75885188016366,
    "region": "광주광역시"
  },
  {
    "name": "운남주공 4단지 지하주차장 1층",
    "address": "광주광역시 광산구 목련로273번안길 30 (운남동, 운남주공4단지아파트)",
    "lat": 35.17795198773535,
    "lng": 126.8231549410529,
    "region": "광주광역시"
  },
  {
    "name": "운남주공 5단지 지하주차장 1층",
    "address": "광주광역시 광산구 하남대로 248-10 (운남동, 운남주공5단지아파트)",
    "lat": 35.17841839874683,
    "lng": 126.82046723624788,
    "region": "광주광역시"
  },
  {
    "name": "삼성전자 광주공장 지하1층",
    "address": "광주광역시 광산구 하남산단6번로 107 (오선동)",
    "lat": 35.20274093259235,
    "lng": 126.80713293526394,
    "region": "광주광역시"
  },
  {
    "name": "명지아파트(지하주차장 1층)",
    "address": "광주광역시 광산구 송도로320번길 11 (신촌동, 신촌동명지아파트)",
    "lat": 35.140872073640985,
    "lng": 126.80318900740764,
    "region": "광주광역시"
  },
  {
    "name": "광주여대 체육관",
    "address": "광주광역시 광산구 광주여대길 6, 광주여대시립유니버시아드체육관 (산정동)",
    "lat": 35.164332820693495,
    "lng": 126.79893406214484,
    "region": "광주광역시"
  },
  {
    "name": "일신아파트",
    "address": "광주광역시 광산구 사암로 271 (월곡동, 하남일신아파트)",
    "lat": 35.16864694491994,
    "lng": 126.80848079819567,
    "region": "광주광역시"
  },
  {
    "name": "부영아파트",
    "address": "광주광역시 광산구 사암로 251 (월곡동, 하남부영아파트)",
    "lat": 35.16672433782088,
    "lng": 126.80862376448133,
    "region": "광주광역시"
  },
  {
    "name": "대덕아파트",
    "address": "광주광역시 광산구 산정공원로71번길 18-7 (산정동, 산정동대덕훼미리)",
    "lat": 35.174313001933726,
    "lng": 126.80541786710468,
    "region": "광주광역시"
  },
  {
    "name": "태양아파트",
    "address": "광주광역시 광산구 산정공원로71번길 27 (산정동, 태양아파트)",
    "lat": 35.17386783811108,
    "lng": 126.80489188353155,
    "region": "광주광역시"
  },
  {
    "name": "대덕아파트(지하주차장 1층)",
    "address": "광주광역시 광산구 송정로65번길 28 (송정동, 송정동 대덕9차 아파트)",
    "lat": 35.135550700498904,
    "lng": 126.79873984295511,
    "region": "광주광역시"
  },
  {
    "name": "대화아파트(지하주차장 1층)",
    "address": "광주광역시 광산구 송도로212번길 31-8 (송정동, 대화아파트)",
    "lat": 35.132341910801024,
    "lng": 126.79749989122878,
    "region": "광주광역시"
  },
  {
    "name": "신한화아파트(지하주차장 1층)",
    "address": "광주광역시 광산구 내상로 80 (송정동, 신한화아파트)",
    "lat": 35.13626825097311,
    "lng": 126.80053118325212,
    "region": "광주광역시"
  },
  {
    "name": "금강아파트(지하주차장 1층)",
    "address": "광주광역시 광산구 송정로 77 (송정동, 금강아파트)",
    "lat": 35.13394302656616,
    "lng": 126.79913532399284,
    "region": "광주광역시"
  },
  {
    "name": "모아아파트(지하주차장 1층)",
    "address": "광주광역시 광산구 송도로320번길 16-6 (송정동, 송정동모아아파트)",
    "lat": 35.14045599352351,
    "lng": 126.80324625281938,
    "region": "광주광역시"
  },
  {
    "name": "LC타워",
    "address": "광주광역시 광산구 첨단중앙로 96, 지하주차장 1층 (월계동)",
    "lat": 35.21391619106317,
    "lng": 126.84321557211244,
    "region": "광주광역시"
  },
  {
    "name": "3-2차 호반 리젠시빌 아파트",
    "address": "광주광역시 광산구 첨단중앙로68번길 100, 지하주차장 1층 (산월동, 첨단3-2차 호반리젠시빌)",
    "lat": 35.21122342480125,
    "lng": 126.84849837183518,
    "region": "광주광역시"
  },
  {
    "name": "3-3차 호반 리젠시빌 아파트",
    "address": "광주광역시 광산구 첨단중앙로68번길 134 (산월동, 첨단3-3차호반리젠시빌)",
    "lat": 35.21119003424622,
    "lng": 126.85033976630268,
    "region": "광주광역시"
  },
  {
    "name": "3-1차 호반 리젠시빌 아파트",
    "address": "광주광역시 광산구 첨단중앙로68번길 60, 지하주차장 1층 (산월동, 첨단3-1차 호반리젠시빌)",
    "lat": 35.211236530651114,
    "lng": 126.84625988572748,
    "region": "광주광역시"
  },
  {
    "name": "첨단부영2차아파트",
    "address": "광주광역시 광산구 첨단중앙로68번길 22, 지하주차장 1층 (산월동, 부영아파트)",
    "lat": 35.21124909425215,
    "lng": 126.84419088262868,
    "region": "광주광역시"
  },
  {
    "name": "첨단부영1차아파트",
    "address": "광주광역시 광산구 월계로 170, 지하주차장 1층 (산월동, 부영아파트)",
    "lat": 35.21307945394974,
    "lng": 126.8440297505894,
    "region": "광주광역시"
  },
  {
    "name": "슬기로운재활의학과병원 지하1층 주차장",
    "address": "광주광역시 광산구 상무대로 271, 슬기로운재활의학과병원 (소촌동)",
    "lat": 35.14277230821426,
    "lng": 126.79554676549168,
    "region": "광주광역시"
  },
  {
    "name": "모아드림2차아파트 지하1층 주차장",
    "address": "광주광역시 광산구 소촌로86번길 17 (소촌동, 모아드림타운)",
    "lat": 35.15242467893162,
    "lng": 126.79500595836684,
    "region": "광주광역시"
  },
  {
    "name": "서라2차 아파트 지하1층 주차장",
    "address": "광주광역시 광산구 어등대로665번길 26 (소촌동, 소촌동서라2차아파트)",
    "lat": 35.14675949245314,
    "lng": 126.79129425361312,
    "region": "광주광역시"
  },
  {
    "name": "송광2차 파크맨션 지하1층 주차장",
    "address": "광주광역시 광산구 어등대로647번길 32 (소촌동, 송광파크맨션)",
    "lat": 35.14522719340165,
    "lng": 126.79309187985072,
    "region": "광주광역시"
  },
  {
    "name": "라인2차아파트 지하1층 주차장",
    "address": "광주광역시 광산구 금봉로 18 (소촌동, 소촌2차라인아파트)",
    "lat": 35.15147651293946,
    "lng": 126.80044497531088,
    "region": "광주광역시"
  },
  {
    "name": "비아호반아파트 지하주차장 1층",
    "address": "광주광역시 광산구 비아로 185 (비아동, 하남지구호반아파트)",
    "lat": 35.223438648768514,
    "lng": 126.82437701479653,
    "region": "광주광역시"
  },
  {
    "name": "도천중흥아파트 지하주차장 1층",
    "address": "광주광역시 광산구 비아로62번길 7 (도천동, 중흥아파트)",
    "lat": 35.21974843838711,
    "lng": 126.81805815782504,
    "region": "광주광역시"
  },
  {
    "name": "신창호반5차 아파트 지하추자창",
    "address": "광주광역시 광산구 왕버들로251번길 27 (신창동, 신창5차호반베르디움)",
    "lat": 35.1978421693923,
    "lng": 126.8370422051184,
    "region": "광주광역시"
  },
  {
    "name": "남양휴튼1차 지하주차장",
    "address": "광주광역시 광산구 신창로131번길 10 (신창동, 신창1차남양휴튼)",
    "lat": 35.19734823181465,
    "lng": 126.83830258419007,
    "region": "광주광역시"
  },
  {
    "name": "남양휴튼2차 지하주차장",
    "address": "광주광역시 광산구 신창로71번길 17 (신창동, 신창2차남양휴튼)",
    "lat": 35.1915726811323,
    "lng": 126.8359619500743,
    "region": "광주광역시"
  },
  {
    "name": "운남주공 6단지 지하주차장 1층",
    "address": "광주광역시 광산구 목련로153번길 134 (운남동, 광주운남6단지주공아파트)",
    "lat": 35.17780143812606,
    "lng": 126.81516006402306,
    "region": "광주광역시"
  },
  {
    "name": "운남주공 7단지 지하주차장 1층",
    "address": "광주광역시 광산구 목련로153번길 56 (운남동, 운남주공7단지아파트)",
    "lat": 35.17434342150968,
    "lng": 126.81482315674911,
    "region": "광주광역시"
  },
  {
    "name": "운남우체국 지하주차장 1층",
    "address": "광주광역시 광산구 목련로273번안길 7 (운남동, 운남우체국)",
    "lat": 35.17813840172389,
    "lng": 126.82435291677756,
    "region": "광주광역시"
  },
  {
    "name": "광신프로그레스 아파트",
    "address": "광주광역시 광산구 광산로20번길 28 (송정동, 광신프로그레스)",
    "lat": 35.137190345799425,
    "lng": 126.79492106390434,
    "region": "광주광역시"
  },
  {
    "name": "수완우미린1차 아파트 지하주차장 1층",
    "address": "광주광역시 광산구 수완로33번길 22 (수완동, 수완1차우미린아파트)",
    "lat": 35.188392454375446,
    "lng": 126.8274401863954,
    "region": "광주광역시"
  },
  {
    "name": "수완신안실크밸리 아파트 지하주차장 1층",
    "address": "광주광역시 광산구 풍영로330번길 34 (장덕동, 수완신안실크밸리)",
    "lat": 35.20060384248495,
    "lng": 126.81689588740556,
    "region": "광주광역시"
  },
  {
    "name": "장자울마을휴먼시아 5차 지하주차장 1층",
    "address": "광주광역시 광산구 풍영로145번길 42 (흑석동, 장자울마을휴먼시아)",
    "lat": 35.18454042099973,
    "lng": 126.81159481326397,
    "region": "광주광역시"
  },
  {
    "name": "수완GS자이 아파트 지하주차장 1~2층",
    "address": "광주광역시 광산구 장덕로95번길 45 (장덕동, 수완자이)",
    "lat": 35.19764678859109,
    "lng": 126.81954947416467,
    "region": "광주광역시"
  },
  {
    "name": "하남2지구 다사로움1단지 전체 동의 지하주차장 1층",
    "address": "광주광역시 광산구 목련로21번길 45 (산정동, 하남2지구다사로움1단지아파트)",
    "lat": 35.17474875670954,
    "lng": 126.7998250286498,
    "region": "광주광역시"
  },
  {
    "name": "하남2지구 다사로움2단지 지하주차장 1층",
    "address": "광주광역시 광산구 목련로 15 (산정동, 하남2지구다사로움2단지아파트)",
    "lat": 35.17284195394853,
    "lng": 126.79947006210016,
    "region": "광주광역시"
  },
  {
    "name": "첨단종합사회복지관 지하주차장 1층",
    "address": "광주광역시 광산구 첨단중앙로 160, 첨단1동 행정복지센터 (쌍암동)",
    "lat": 35.21958735133367,
    "lng": 126.84224236671008,
    "region": "광주광역시"
  },
  {
    "name": "상아아파트",
    "address": "광주광역시 광산구 도산신송길 31 (송정동, 송정동 상아아파트)",
    "lat": 35.13456245549303,
    "lng": 126.79179393298658,
    "region": "광주광역시"
  },
  {
    "name": "마이다스빌",
    "address": "광주광역시 광산구 평동로1119번길 25 (송정동, 마이다스빌)",
    "lat": 35.135896402493124,
    "lng": 126.78828954721278,
    "region": "광주광역시"
  },
  {
    "name": "영천주공9단지",
    "address": "광주광역시 광산구 풍영로 63 (월곡동, 영천마을주공아파트)",
    "lat": 35.17748519447825,
    "lng": 126.8113045566702,
    "region": "광주광역시"
  },
  {
    "name": "영천주공10단지",
    "address": "광주광역시 광산구 사암로340번길 30 (월곡동, 영천마을주공아파트)",
    "lat": 35.17485622895108,
    "lng": 126.81062951462124,
    "region": "광주광역시"
  },
  {
    "name": "하남주공아파트 관리사무소 지하 1층",
    "address": "광주광역시 광산구 월곡산정로 12 (우산동, 하남주공아파트1차)",
    "lat": 35.166459148658824,
    "lng": 126.80341946112026,
    "region": "광주광역시"
  },
  {
    "name": "리버힐(시영1차)아파트 지하 1층",
    "address": "광주광역시 광산구 우산로 47 (우산동, 리버힐아파트)",
    "lat": 35.15829509304479,
    "lng": 126.80611477644092,
    "region": "광주광역시"
  },
  {
    "name": "우미아파트 지하주차장 1층",
    "address": "광주광역시 광산구 월곡산정로 40 (우산동, 우미아파트)",
    "lat": 35.16620351615113,
    "lng": 126.80658255690626,
    "region": "광주광역시"
  },
  {
    "name": "동산아파트 지하 1층",
    "address": "광주광역시 광산구 월곡산정로 20-49 (우산동, 동산아파트)",
    "lat": 35.16488071223473,
    "lng": 126.80583401099368,
    "region": "광주광역시"
  },
  {
    "name": "하남제일파크맨션 지하주차장 1층",
    "address": "광주광역시 광산구 월곡산정로 20 (우산동, 하남제일파크맨션)",
    "lat": 35.16621332501503,
    "lng": 126.80447680622254,
    "region": "광주광역시"
  },
  {
    "name": "우산빛여울채 지하주차장 1층",
    "address": "광주광역시 광산구 우산로 17 (우산동, 시영2단지아파트)",
    "lat": 35.15900986996402,
    "lng": 126.80278523907012,
    "region": "광주광역시"
  },
  {
    "name": "풍영 리버빌 지하주차장",
    "address": "광주광역시 광산구 수등로 287 (신창동, 신가부영아파트)",
    "lat": 35.185311568466766,
    "lng": 126.84032617741538,
    "region": "광주광역시"
  },
  {
    "name": "광주송정역지하철",
    "address": "광주광역시 광산구 상무대로 지하 201-99 (송정동, 광주송정역)",
    "lat": 35.137716472472334,
    "lng": 126.79140652985762,
    "region": "광주광역시"
  },
  {
    "name": "공항역",
    "address": "광주광역시 광산구 상무대로 지하 416-99 (신촌동, 공항역)",
    "lat": 35.14409292490103,
    "lng": 126.81132561435686,
    "region": "광주광역시"
  },
  {
    "name": "도산역 지하1,2층",
    "address": "광주광역시 광산구 상무대로 지하 125-99 (도산동, 도산역)",
    "lat": 35.131461903579435,
    "lng": 126.7873790241006,
    "region": "광주광역시"
  },
  {
    "name": "신가우미이노스빌아파트 지하주차장 1층",
    "address": "광주광역시 광산구 수등로258번길 10 (신가동, 우미이노스빌)",
    "lat": 35.184204105151395,
    "lng": 126.83685143249456,
    "region": "광주광역시"
  },
  {
    "name": "수등리안아파트 지하주차장 1층",
    "address": "광주광역시 광산구 수등로258번길 13(신가동, 수등리안아파트)",
    "lat": 35.18375452896795,
    "lng": 126.83732889734362,
    "region": "광주광역시"
  },
  {
    "name": "신창부영6차아파트 지하주차장 1층",
    "address": "광주광역시 광산구 신창로35번길 20 (신가동, 신창6차부영사랑으로)",
    "lat": 35.1886605474933,
    "lng": 126.83584754024596,
    "region": "광주광역시"
  },
  {
    "name": "송정공원역",
    "address": "광주광역시 광산구 상무대로 지하 314-99 (송정동, 송정공원역)",
    "lat": 35.14344911068751,
    "lng": 126.80012119303277,
    "region": "광주광역시"
  },
  {
    "name": "신가주공아파트 지하주차장 1층",
    "address": "광주광역시 광산구 수등로 204 (신가동, 주공아파트)",
    "lat": 35.18495639216162,
    "lng": 126.831224966913,
    "region": "광주광역시"
  },
  {
    "name": "광산문화예술회관(지하주차장 1층)",
    "address": "광주광역시 광산구 광산로68번길 13 (송정동, 광산문화예술회관)",
    "lat": 35.140407430867,
    "lng": 126.79904275188156,
    "region": "광주광역시"
  },
  {
    "name": "명지아파트(지하주차장 1층)",
    "address": "광주광역시 광산구 송도로320번길 16-15 (송정동, 송정명지2차아파트)",
    "lat": 35.13995103186174,
    "lng": 126.80303973672125,
    "region": "광주광역시"
  },
  {
    "name": "삼도농협 지하1층",
    "address": "광주광역시 광산구 삼도로 335, 삼도농협 (도덕동)",
    "lat": 35.1632255359935,
    "lng": 126.699915242837,
    "region": "광주광역시"
  },
  {
    "name": "대덕무지개아파트 지하1층 주차장",
    "address": "광주광역시 광산구 금봉로 36 (소촌동)",
    "lat": 35.15150907913769,
    "lng": 126.8025766536085,
    "region": "광주광역시"
  },
  {
    "name": "금호훼밀리파크아파트 지하1층 주차장",
    "address": "광주광역시 광산구 사암로95번길 42 (소촌동)",
    "lat": 35.15430746689525,
    "lng": 126.80315600854138,
    "region": "광주광역시"
  },
  {
    "name": "광주선운휴먼시아아파트 지하1층 주차장",
    "address": "광주광역시 광산구 선운중앙로 68 (선암동)",
    "lat": 35.147780578520255,
    "lng": 126.77950120745076,
    "region": "광주광역시"
  },
  {
    "name": "어등산대방노블랜드 지하주차장 2층",
    "address": "광주광역시 광산구 용아로297번길 17 (산정동, 어등산대방노블랜드)",
    "lat": 35.16980769750162,
    "lng": 126.80178259353676,
    "region": "광주광역시"
  },
  {
    "name": "하남중흥S클래스 지하주차장 1층",
    "address": "광주광역시 광산구 목련로21번길 20 (산정동, 하남2지구중흥S-클래스)",
    "lat": 35.17384028579484,
    "lng": 126.8004832517613,
    "region": "광주광역시"
  },
  {
    "name": "산정셀트리움 전체 동의 지하주차장 1층",
    "address": "광주광역시 광산구 목련로 42 (산정동, 산정 셀트리움)",
    "lat": 35.172403283003206,
    "lng": 126.80242645751444,
    "region": "광주광역시"
  },
  {
    "name": "첨단부영사랑으로7차아파트 지하1층",
    "address": "광주광역시 광산구 산월로 80, 지하주차장 1층 (산월동, 부영사랑으로)",
    "lat": 35.20858611640403,
    "lng": 126.84595888753434,
    "region": "광주광역시"
  },
  {
    "name": "중흥S클래스리버티 지하주차장 2층",
    "address": "광주광역시 광산구 풍영철길로 20-20 (우산동, 우산동중흥s-클래스리버티)",
    "lat": 35.162873875058445,
    "lng": 126.81445048107692,
    "region": "광주광역시"
  },
  {
    "name": "신완마을휴먼시아 6차 지하주차장 1층",
    "address": "광주광역시 광산구 풍영로329번길 51 (장덕동, 신완마을휴먼시아)",
    "lat": 35.20044554113728,
    "lng": 126.81206291124198,
    "region": "광주광역시"
  },
  {
    "name": "아름마을휴먼시아 2차 지하주차장 1층",
    "address": "광주광역시 광산구 수등로123번길 22 (신가동, 아름마을휴먼시아)",
    "lat": 35.184061608185075,
    "lng": 126.82289819961636,
    "region": "광주광역시"
  },
  {
    "name": "수완진아리채2차 아파트 지하주차장 1층",
    "address": "광주광역시 광산구 장덕로137번길 17 (수완동)",
    "lat": 35.19761001829873,
    "lng": 126.8235197076346,
    "region": "광주광역시"
  },
  {
    "name": "운남 우방아이유쉘 지하주차장 1층",
    "address": "광주광역시 광산구 임방울대로 154-24 (운남동, 우방아이유쉘)",
    "lat": 35.17486164753797,
    "lng": 126.8196777591581,
    "region": "광주광역시"
  },
  {
    "name": "운남 삼성아파트 지하주차장 1층",
    "address": "광주광역시 광산구 임방울대로 142-12 (운남동, 삼성아파트)",
    "lat": 35.17382885549123,
    "lng": 126.8185087994534,
    "region": "광주광역시"
  },
  {
    "name": "송정KTX우방아이유쉘아파트 지하주차장 1층",
    "address": "광주광역시 광산구 평동로1100번길 71(도산동, 송정우방아이유쉘아파트)",
    "lat": 35.13202229322409,
    "lng": 126.7854857425827,
    "region": "광주광역시"
  },
  {
    "name": "소촌2차국제미소래아파트 지하1층 주차장",
    "address": "광주광역시 광산구 소촌로42번길 163(소촌동, 소촌2차국제미소래아파트)",
    "lat": 35.153459019867704,
    "lng": 126.79763712779652,
    "region": "광주광역시"
  },
  {
    "name": "광주 송정역 모아엘가 아파트",
    "address": "광주광역시 광산구 평동로1101번길 40(송정동, 광주송정역모아엘가)",
    "lat": 35.13685972634241,
    "lng": 126.78729870241906,
    "region": "광주광역시"
  },
  {
    "name": "첨단대라수2차아파트 지하주차장 1층",
    "address": "광주광역시 광산구 임방울대로825번길 22-54, -1층 (쌍암동, 첨단대라수 2차)",
    "lat": 35.21999004934598,
    "lng": 126.851145011681,
    "region": "광주광역시"
  },
  {
    "name": "평동 광산엘리체레이크시티 지하주차장 1~2층",
    "address": "광주광역시 광산구 용동길63번길 31, 광산엘리체 레이크시티 (지죽동)",
    "lat": 35.137754277947984,
    "lng": 126.75319767297869,
    "region": "광주광역시"
  },
  {
    "name": "선운리버프라임아파트 지하주차장 1층",
    "address": "광주광역시 광산구 선운로 65 (선암동, 선운리버프라임)",
    "lat": 35.1500545541332,
    "lng": 126.77645191153,
    "region": "광주광역시"
  },
  {
    "name": "성화파인빌아파트 지하주차장 1층",
    "address": "광주광역시 광산구 소촌로152번길 53-17 (소촌동, 성화파인빌)",
    "lat": 35.1581035461754,
    "lng": 126.797820574825,
    "region": "광주광역시"
  },
  {
    "name": "운남주공 3단지 지하주차장 1층",
    "address": "광주광역시 광산구 목련로 307-11 (운남동, 운남주공3단지아파트)",
    "lat": 35.1768164624675,
    "lng": 126.827316092172,
    "region": "광주광역시"
  },
  {
    "name": "운남진아리채리버힐즈 지하주차장 1층",
    "address": "광주광역시 광산구 목련로273번길 23, 운남진아리채리버힐즈아파트 (운남동)",
    "lat": 35.175262107954,
    "lng": 126.826212562337,
    "region": "광주광역시"
  },
  {
    "name": "운남주공 8단지 지하주차장 1층",
    "address": "광주광역시 광산구 목련로153번길 143 (운남동, 운남8단지 주공아파트)",
    "lat": 35.1782947035402,
    "lng": 126.814844690661,
    "region": "광주광역시"
  },
  {
    "name": "선운지구 진아리채",
    "address": "광주광역시 광산구 선운로 33 (선암동, 선운지구진아리채)",
    "lat": 35.1494451108695,
    "lng": 126.772910353774,
    "region": "광주광역시"
  },
  {
    "name": "어등산 대광로제비앙 퍼스트뷰",
    "address": "광주광역시 광산구 용아로 247 (산정동)",
    "lat": 35.1657606839356,
    "lng": 126.801043080918,
    "region": "광주광역시"
  }
]