[
  {
    "name": "신포지하상가 지하1층",
    "address": "인천광역시 중구 우현로 지하67, 신포지하도상가 (답동)",
    "lat": 37.47312743307429,
    "lng": 126.6293286771712,
    "region": "인천광역시"
  },
  {
    "name": "중구청 지하1층 통합방위상황실",
    "address": "인천광역시 중구 신포로27번길 80 (관동1가, 중구청)",
    "lat": 37.47346889784852,
    "lng": 126.6213512913531,
    "region": "인천광역시"
  },
  {
    "name": "인하대병원 지하 1~3층",
    "address": "인천광역시 중구 인항로 27 (신흥동3가, 인하대학병원)",
    "lat": 37.45788363392021,
    "lng": 126.63363195899883,
    "region": "인천광역시"
  },
  {
    "name": "풍림아파트 지하주차장 1~2층",
    "address": "인천광역시 중구 인중로 109 (신흥동1가, 풍림아파트)",
    "lat": 37.46529386293093,
    "lng": 126.63060605074465,
    "region": "인천광역시"
  },
  {
    "name": "누리타워아파트 지하1층",
    "address": "인천광역시 중구 인중로 96 (신흥동2가, 신흥동누리타워)",
    "lat": 37.465547759253774,
    "lng": 126.6325471986243,
    "region": "인천광역시"
  },
  {
    "name": "중앙로지하상가 지하1층",
    "address": "인천광역시 중구 우현로 지하69, 중앙로지하도상가 (인현동)",
    "lat": 37.4750635285432,
    "lng": 126.63101112479896,
    "region": "인천광역시"
  },
  {
    "name": "인현지하상가 지하1층",
    "address": "인천광역시 중구 참외전로 지하121, 인현지하도상가 (인현동)",
    "lat": 37.475633853770354,
    "lng": 126.63108225472666,
    "region": "인천광역시"
  },
  {
    "name": "새인천지하상가 지하1층",
    "address": "인천광역시 중구 참외전로 지하123, 새동인천지하상가 (인현동)",
    "lat": 37.47567498357572,
    "lng": 126.63130567110584,
    "region": "인천광역시"
  },
  {
    "name": "동인천지하상가 지하1층",
    "address": "인천광역시 중구 참외전로 지하125, 동인천지하아케이드 (인현동)",
    "lat": 37.475250405702496,
    "lng": 126.63136932187147,
    "region": "인천광역시"
  },
  {
    "name": "구동인천지하상가 지하1층",
    "address": "인천광역시 중구 참외전로 지하131-13, 동인천 구지하상가 (인현동)",
    "lat": 37.47520758192175,
    "lng": 126.6324782860531,
    "region": "인천광역시"
  },
  {
    "name": "한중문화관 지하 1~2층",
    "address": "인천광역시 중구 제물량로 238 (항동1가, 한중문화관)",
    "lat": 37.47348953365321,
    "lng": 126.61870643827228,
    "region": "인천광역시"
  },
  {
    "name": "하버파크호텔 지하 1~2층",
    "address": "인천광역시 중구 제물량로 217 (항동3가, 하버파크호텔)",
    "lat": 37.47219909156531,
    "lng": 126.61981267684509,
    "region": "인천광역시"
  },
  {
    "name": "경남아너스빌 아파트 지하 1층",
    "address": "인천광역시 중구 서해대로 439 (신흥동1가, 경남아너스빌아파트)",
    "lat": 37.46560255635316,
    "lng": 126.63383019598598,
    "region": "인천광역시"
  },
  {
    "name": "대림아파트 지하 1층",
    "address": "인천광역시 중구 인중로 114 (신흥동1가, 인천신흥대림아파트)",
    "lat": 37.46605125579095,
    "lng": 126.63027450831407,
    "region": "인천광역시"
  },
  {
    "name": "인천보건환경연구원 지하1층",
    "address": "인천광역시 중구 서해대로 471 (신흥동2가, 보건환경연구원)",
    "lat": 37.46821539546864,
    "lng": 126.63513738165818,
    "region": "인천광역시"
  },
  {
    "name": "신흥 한별프라이빌 아파트 지하1층",
    "address": "인천광역시 중구 인중로63번길 28 (신흥동3가, 한별프라이빌)",
    "lat": 37.4632112383112,
    "lng": 126.63524519469594,
    "region": "인천광역시"
  },
  {
    "name": "영종금호2차베스트빌아파트 지하1층(지하주차장)",
    "address": "인천광역시 중구 흰바위로 14 (운서동, 영종2차금호베스트빌)",
    "lat": 37.49231291829528,
    "lng": 126.48648483275406,
    "region": "인천광역시"
  },
  {
    "name": "영종금호1차베스트빌아파트 지하1층(지하주차장)",
    "address": "인천광역시 중구 신도시남로 15 (운서동, 금호베스트빌)",
    "lat": 37.49393786149439,
    "lng": 126.48535311396836,
    "region": "인천광역시"
  },
  {
    "name": "동원베네스트영종타운하우스 지하1층(지하주차장)",
    "address": "인천광역시 중구 신도시북로43번길 27 (운서동, 동원베네스트영종타운하우스)",
    "lat": 37.50010769530041,
    "lng": 126.48282737977884,
    "region": "인천광역시"
  },
  {
    "name": "영종자이 아파트 지하1~2층",
    "address": "인천광역시 중구 운남서로 7 (운남동, 영종자이)",
    "lat": 37.48902633767549,
    "lng": 126.53190006413443,
    "region": "인천광역시"
  },
  {
    "name": "영종금호 어울림1차아파트 지하1층(지하주차장)",
    "address": "인천광역시 중구 운서4로 18 (운서동, 영종어울림1차)",
    "lat": 37.48146396990169,
    "lng": 126.50966176712924,
    "region": "인천광역시"
  },
  {
    "name": "신생삼성아파트 지하1~2층",
    "address": "인천광역시 중구 인중로 111 (신생동, 삼성아파트)",
    "lat": 37.46531212977663,
    "lng": 126.63032781299025,
    "region": "인천광역시"
  },
  {
    "name": "신흥아이파크 아파트 지하1층",
    "address": "인천광역시 중구 인항로 30 (신흥동3가, 신흥아이파크)",
    "lat": 37.45732643782475,
    "lng": 126.63380733906423,
    "region": "인천광역시"
  },
  {
    "name": "인천중구청 지하주차장 지하1~3층",
    "address": "인천광역시 중구 신포로27번길 80 (관동1가, 중구청)",
    "lat": 37.47346889784852,
    "lng": 126.6213512913531,
    "region": "인천광역시"
  },
  {
    "name": "풍림8단지아파트 지하1층(지하주차장)",
    "address": "인천광역시 중구 흰바위로 13 (운서동, 영종풍림아이원아파트)",
    "lat": 37.49270409258359,
    "lng": 126.48628860514162,
    "region": "인천광역시"
  },
  {
    "name": "영종힐스테이트 아파트 지하1~2층 지하 주차장",
    "address": "인천광역시 중구 하늘별빛로 66 (중산동, 영종힐스테이트)",
    "lat": 37.48974154749194,
    "lng": 126.56429460598608,
    "region": "인천광역시"
  },
  {
    "name": "영종한양수자인아파트 지하1~2층 지하주차장",
    "address": "인천광역시 중구 은하수로 377 (중산동, 인천영종한양수자인아파트)",
    "lat": 37.49150384831192,
    "lng": 126.55283060475128,
    "region": "인천광역시"
  },
  {
    "name": "영종우미린1단지아파트 지하1~2층 지하주차장",
    "address": "인천광역시 중구 은하수로 351 (중산동, 하늘도시우미린1단지)",
    "lat": 37.49353194939032,
    "lng": 126.5549795002933,
    "region": "인천광역시"
  },
  {
    "name": "영종우미린 2단지 아파트 지하1~2층 지하주차장",
    "address": "인천광역시 중구 하늘달빛로 113 (중산동, 하늘도시우미린2단지)",
    "lat": 37.48813856720433,
    "lng": 126.55503753175256,
    "region": "인천광역시"
  },
  {
    "name": "영종동보노빌리티아파트 지하1~2층 지하 주차장",
    "address": "인천광역시 중구 하늘달빛로 65 (중산동, 인천영종동보노빌리티아파트)",
    "lat": 37.48515925967958,
    "lng": 126.55939219928916,
    "region": "인천광역시"
  },
  {
    "name": "영종7단지 LH 국민임대아파트 지하1층 지하주차장",
    "address": "인천광역시 중구 은하수로 465 (중산동, 영종7단지엘에이치)",
    "lat": 37.48472122921382,
    "lng": 126.55015696698158,
    "region": "인천광역시"
  },
  {
    "name": "영종한라비발디아파트 지하1~3층 지하주차장",
    "address": "인천광역시 중구 하늘별빛로 86 (중산동, 인천영종하늘도시한라비발디아파트)",
    "lat": 37.4907622707703,
    "lng": 126.56266979052717,
    "region": "인천광역시"
  },
  {
    "name": "인천역 지하2층",
    "address": "인천광역시 중구 제물량로 269 (북성동1가, 인천역)",
    "lat": 37.475890362736656,
    "lng": 126.61705387006192,
    "region": "인천광역시"
  },
  {
    "name": "도원지하보도 지하1층",
    "address": "인천광역시 중구 참외전로 244 (도원동)",
    "lat": 37.4685086799904,
    "lng": 126.64169113752966,
    "region": "인천광역시"
  },
  {
    "name": "민방위교육장 지하 1층",
    "address": "인천광역시 중구 우현로20번길 46, 중구 민방위교육장 (신생동)",
    "lat": 37.46783947532556,
    "lng": 126.62791813523222,
    "region": "인천광역시"
  },
  {
    "name": "연안부두 해양광장 지하1층 공영지하주차장",
    "address": "인천광역시 중구 연안부두로 36 (항동7가, 연안부두해양광장)",
    "lat": 37.455527752302366,
    "lng": 126.6017969400507,
    "region": "인천광역시"
  },
  {
    "name": "인천중구문화회관 지하1층",
    "address": "인천광역시 중구 축항대로296번길 81 (신흥동3가, 중구문화회관중구국민체육센터)",
    "lat": 37.44055404202093,
    "lng": 126.6287965811551,
    "region": "인천광역시"
  },
  {
    "name": "남경포브아파트 지하1층",
    "address": "인천광역시 중구 제물량로 317 (송월동2가, 남경포브아파트)",
    "lat": 37.47924293806678,
    "lng": 126.61938068469058,
    "region": "인천광역시"
  },
  {
    "name": "인천국제공항 제1여객터미널 교통센터 지하3층 주차장",
    "address": "인천광역시 중구 공항로 271 (운서동, 인천국제공항역)",
    "lat": 37.44794018599499,
    "lng": 126.45206398967724,
    "region": "인천광역시"
  },
  {
    "name": "인천국제공항 제2여객터미널 교통센터 지하1층 주차장",
    "address": "인천광역시 중구 제2터미널대로 446 (운서동)",
    "lat": 37.47839869339116,
    "lng": 126.42500881376816,
    "region": "인천광역시"
  },
  {
    "name": "월드게이트 지하1~2층 지하주차장",
    "address": "인천광역시 중구 공항로424번길 50 (운서동, IBC월드게이트)",
    "lat": 37.43949863573365,
    "lng": 126.46003437523594,
    "region": "인천광역시"
  },
  {
    "name": "LG인천공항에클라트 지하1층(지하주차장)",
    "address": "인천광역시 중구 공항로424번길 66 (운서동, LG인천공항에클라트)",
    "lat": 37.43919362872481,
    "lng": 126.46204794325212,
    "region": "인천광역시"
  },
  {
    "name": "SK무의연수원 지하1층",
    "address": "인천광역시 중구 대무의로 159, SK무의연수원 (무의동)",
    "lat": 37.39987792647389,
    "lng": 126.4202253500781,
    "region": "인천광역시"
  },
  {
    "name": "파라다이스시티호텔 지하 1~2층",
    "address": "인천광역시 중구 영종해안남로321번길 186, 파라다이스시티 (운서동)",
    "lat": 37.43727794323964,
    "lng": 126.45497547700162,
    "region": "인천광역시"
  },
  {
    "name": "배다리 지하상가 지하1층",
    "address": "인천광역시 동구 송림로 지하 4 (금곡동)",
    "lat": 37.47281395973516,
    "lng": 126.63594445497895,
    "region": "인천광역시"
  },
  {
    "name": "동구청 지하1층 소나무홀",
    "address": "인천광역시 동구 금곡로 67, 동구청 지하1층 소나무홀 (송림동)",
    "lat": 37.47326365958594,
    "lng": 126.64303298511504,
    "region": "인천광역시"
  },
  {
    "name": "동구민방위교육장 지하1층",
    "address": "인천광역시 동구 우각로 19 (창영동, 민방위대피소)",
    "lat": 37.471143574383696,
    "lng": 126.63886639352258,
    "region": "인천광역시"
  },
  {
    "name": "송현주공아파트 지하1층 다목적실",
    "address": "인천광역시 동구 인중로 653 (송현동, 송현주공아파트)",
    "lat": 37.481200718983935,
    "lng": 126.64449660378408,
    "region": "인천광역시"
  },
  {
    "name": "송현성결교회",
    "address": "인천광역시 동구 화도진로44번길 37 (송현동)",
    "lat": 37.47574288616139,
    "lng": 126.63544123549624,
    "region": "인천광역시"
  },
  {
    "name": "인천송림공구상가 지하 1층",
    "address": "인천광역시 동구 봉수대로 98 (송림동, 송림동공구상가)",
    "lat": 37.484372187594765,
    "lng": 126.660341516771,
    "region": "인천광역시"
  },
  {
    "name": "인천교자동차매매상가 지하1층",
    "address": "인천광역시 동구 방축로 191 (송림동)",
    "lat": 37.47946711993442,
    "lng": 126.66564616764607,
    "region": "인천광역시"
  },
  {
    "name": "인천의료원 주차장 지하1층",
    "address": "인천광역시 동구 방축로 217 (송림동)",
    "lat": 37.47823309001289,
    "lng": 126.66821217994246,
    "region": "인천광역시"
  },
  {
    "name": "인천산업용품유통센터 주차장 지하1층",
    "address": "인천광역시 동구 방축로83번길 23 (송림동, 인천산업용품유통단지)",
    "lat": 37.48614900941048,
    "lng": 126.65383294840404,
    "region": "인천광역시"
  },
  {
    "name": "인천지방경찰청 제1기동대 지하1층 체력단련실",
    "address": "인천광역시 동구 금곡로 43 (송림동, 인천지방경찰청)",
    "lat": 37.473519197721046,
    "lng": 126.64044557235266,
    "region": "인천광역시"
  },
  {
    "name": "삼두2차아파트 지하1층 주차장",
    "address": "인천광역시 동구 화수로 21 (송현동, 삼두2차아파트)",
    "lat": 37.48137244317715,
    "lng": 126.63482730581909,
    "region": "인천광역시"
  },
  {
    "name": "청소년수련관 지하1층 주차장",
    "address": "인천광역시 동구 솔빛로 82, 동구청소년수련관 지하1층 주차장 (송림동)",
    "lat": 37.47618636228642,
    "lng": 126.64251381819948,
    "region": "인천광역시"
  },
  {
    "name": "영풍아파트 지하1층 주차장",
    "address": "인천광역시 동구 화도진로 132 (화수동, 영풍아파트)",
    "lat": 37.48258585658102,
    "lng": 126.62735815740584,
    "region": "인천광역시"
  },
  {
    "name": "화도진그린빌 주공아파트 지하1층 주차장",
    "address": "인천광역시 동구 화도진로 113 (화수동, 화도진그린빌 주공아파트)",
    "lat": 37.48118183829283,
    "lng": 126.62812844229732,
    "region": "인천광역시"
  },
  {
    "name": "인천세무서 지하1층 구내식당",
    "address": "인천광역시 동구 우각로 75 (창영동, 인천세무서)",
    "lat": 37.47082461332499,
    "lng": 126.64181940286008,
    "region": "인천광역시"
  },
  {
    "name": "만석비치타운주공아파트 지하1층 주차장",
    "address": "인천광역시 동구 화도진로 187 (만석동, 만석비치타운 주공아파트)",
    "lat": 37.485607576334914,
    "lng": 126.6225101083276,
    "region": "인천광역시"
  },
  {
    "name": "동산중.고등학교 지하1층",
    "address": "인천광역시 동구 동산로 58 (송림동)",
    "lat": 37.47293598038934,
    "lng": 126.6474815607814,
    "region": "인천광역시"
  },
  {
    "name": "진로아파트 지하1층 주차장",
    "address": "인천광역시 동구 새천년로10번길 19-0 (송림동)",
    "lat": 37.46961988384302,
    "lng": 126.64952260500102,
    "region": "인천광역시"
  },
  {
    "name": "천광한의원 지하주차장",
    "address": "인천광역시 동구 샛골로 120 (송림동)",
    "lat": 37.47297901442404,
    "lng": 126.64416872986338,
    "region": "인천광역시"
  },
  {
    "name": "송림주공아파트 지하1층 창고",
    "address": "인천광역시 동구 재능로 86 (송림동)",
    "lat": 37.47330122662584,
    "lng": 126.65202212705196,
    "region": "인천광역시"
  },
  {
    "name": "누리아파트 지하1층 주차장",
    "address": "인천광역시 동구 송미로24번길 17-4 (송림동, 송림동누리아파트)",
    "lat": 37.48152447722178,
    "lng": 126.64981303839916,
    "region": "인천광역시"
  },
  {
    "name": "두손피카디리 지하1~2층 주차장",
    "address": "인천광역시 동구 송림로 24 (금곡동, 두손 피카디리)",
    "lat": 37.47341140952192,
    "lng": 126.63780082347834,
    "region": "인천광역시"
  },
  {
    "name": "솔빛마을주공1차아파트 지하1층 ~ 지하7층 주차장",
    "address": "인천광역시 동구 송현로 50 (송현동, 솔빛마을 주공아파트)",
    "lat": 37.47986663079091,
    "lng": 126.63701937895796,
    "region": "인천광역시"
  },
  {
    "name": "솔빛마을2차주공아파트1단지 지하1층 주차장",
    "address": "인천광역시 동구 송현로 39-0 (송현동, 솔빛마을 주공2차아파트)",
    "lat": 37.47961429777359,
    "lng": 126.63600651039457,
    "region": "인천광역시"
  },
  {
    "name": "솔빛마을2차주공아파트2단지 지하1층 주차장",
    "address": "인천광역시 동구 화수로 8-10 (송현동, 솔빛마을 주공2차아파트)",
    "lat": 37.48072296312228,
    "lng": 126.6364648296104,
    "region": "인천광역시"
  },
  {
    "name": "풍림아이원 아파트 지하1층 주차장",
    "address": "인천광역시 동구 송미로 6 (송림동, 송림풍림아이원아파트)",
    "lat": 37.48062498335916,
    "lng": 126.64784745102163,
    "region": "인천광역시"
  },
  {
    "name": "송림지하보도 지하전체",
    "address": "인천광역시 동구 송림로 지하 82-1 (송림동)",
    "lat": 37.47561067176262,
    "lng": 126.644015470062,
    "region": "인천광역시"
  },
  {
    "name": "송림휴먼시아 아파트 주차장 지하 1층",
    "address": "인천광역시 동구 송향로 31 (송림동, 송림휴먼시아1단지)",
    "lat": 37.48132997929339,
    "lng": 126.65221572870544,
    "region": "인천광역시"
  },
  {
    "name": "동산휴먼시아 1단지 지하주차장",
    "address": "인천광역시 동구 재능로 191-0 (송림동)",
    "lat": 37.47637289725551,
    "lng": 126.64925669094424,
    "region": "인천광역시"
  },
  {
    "name": "동산휴먼시아 2단지 지하주차장",
    "address": "인천광역시 동구 새천년로38번길 11-0 (송림동)",
    "lat": 37.47190797130762,
    "lng": 126.65066059953296,
    "region": "인천광역시"
  },
  {
    "name": "동구문화체육센터 지하2층 주차장",
    "address": "인천광역시 동구 송림로110번길 5-8, 동구 문화체육센터 (송림동)",
    "lat": 37.475965291461335,
    "lng": 126.64738801968,
    "region": "인천광역시"
  },
  {
    "name": "송림체육관 지하2층 소경기장",
    "address": "인천광역시 동구 염전로 30, 송림체육관 (송림동)",
    "lat": 37.48466948530173,
    "lng": 126.6478762708426,
    "region": "인천광역시"
  },
  {
    "name": "인천브리즈힐 아파트 주차장 지하1층",
    "address": "인천광역시 동구 송림로162번길 9(송림동, 엘에이치브리즈힐)",
    "lat": 37.477289455191766,
    "lng": 126.65146858430992,
    "region": "인천광역시"
  },
  {
    "name": "제물포지하상가(지하1층)",
    "address": "인천광역시 미추홀구 경인로 지하 125 (숭의동, 제물포지하도상가)",
    "lat": 37.46632548164244,
    "lng": 126.65657083884928,
    "region": "인천광역시"
  },
  {
    "name": "석바위지하상가 지하1층",
    "address": "인천광역시 미추홀구 경원대로 지하848, 석바위지하상가 지하1층 (주안동)",
    "lat": 37.4583877165577,
    "lng": 126.6896239094257,
    "region": "인천광역시"
  },
  {
    "name": "현대아파트상가",
    "address": "인천광역시 미추홀구 경인로 391 (주안동, 주안현대아파트)",
    "lat": 37.45847134197225,
    "lng": 126.683596012932,
    "region": "인천광역시"
  },
  {
    "name": "케이피일렉트릭 지하 1층",
    "address": "인천광역시 미추홀구 방축로 328 (주안동, 케이피일렉트릭)",
    "lat": 37.47413122894039,
    "lng": 126.67945972117208,
    "region": "인천광역시"
  },
  {
    "name": "세종빌딩 지하2~3층",
    "address": "인천광역시 미추홀구 구월로8번길 16, 세종빌딩 지하2~3층 (주안동)",
    "lat": 37.457094010727786,
    "lng": 126.69198425069511,
    "region": "인천광역시"
  },
  {
    "name": "주안시범공단 지하주차장 1층",
    "address": "인천광역시 미추홀구 주염로 58 (주안동, 주안시범공단)",
    "lat": 37.47035146189106,
    "lng": 126.68384238002793,
    "region": "인천광역시"
  },
  {
    "name": "동아아파트주차장 지하1층",
    "address": "인천광역시 미추홀구 능해길 32 (용현동, 동아아파트)",
    "lat": 37.45890548003909,
    "lng": 126.63933615462751,
    "region": "인천광역시"
  },
  {
    "name": "한양1차아파트주차장(지하1층)",
    "address": "인천광역시 미추홀구 낙섬중로 20 (용현동, 한양아파트)",
    "lat": 37.450145714637145,
    "lng": 126.63647176270771,
    "region": "인천광역시"
  },
  {
    "name": "신동아3차아파트 지하주차장1층",
    "address": "인천광역시 미추홀구 매소홀로475번길 18 (학익동, 신동아아파트3차)",
    "lat": 37.44037286427412,
    "lng": 126.67513972866574,
    "region": "인천광역시"
  },
  {
    "name": "주안역지하상가 지하1층 대피소",
    "address": "인천광역시 미추홀구 주안로 지하 86 (주안동, 주안역 지하도상가)",
    "lat": 37.46401784146983,
    "lng": 126.6791493402744,
    "region": "인천광역시"
  },
  {
    "name": "동아아파트 지하1층(1,2,3,5동)",
    "address": "인천광역시 미추홀구 인하로430번길 15 (관교동, 동아아파트)",
    "lat": 37.44493735558411,
    "lng": 126.69439933577604,
    "region": "인천광역시"
  },
  {
    "name": "동아아파트 2동 지하1층",
    "address": "인천광역시 미추홀구 인하로430번길 15 (관교동, 동아아파트)",
    "lat": 37.44493735558411,
    "lng": 126.69439933577604,
    "region": "인천광역시"
  },
  {
    "name": "동아아파트 3동 지하1층",
    "address": "인천광역시 미추홀구 인하로430번길 15 (관교동, 동아아파트)",
    "lat": 37.44493735558411,
    "lng": 126.69439933577604,
    "region": "인천광역시"
  },
  {
    "name": "동아아파트 5동 지하1층",
    "address": "인천광역시 미추홀구 인하로430번길 15 (관교동, 동아아파트)",
    "lat": 37.44493735558411,
    "lng": 126.69439933577604,
    "region": "인천광역시"
  },
  {
    "name": "햇살요양원 지하 1층",
    "address": "인천광역시 미추홀구 인중로 13 (숭의동, 햇살병원)",
    "lat": 37.46257266936312,
    "lng": 126.6410018380022,
    "region": "인천광역시"
  },
  {
    "name": "신동아3차아파트 지하1층대피소(17,19,20,21동)",
    "address": "인천광역시 미추홀구 매소홀로475번길 18 (학익동, 신동아아파트3차)",
    "lat": 37.44037286427412,
    "lng": 126.67513972866574,
    "region": "인천광역시"
  },
  {
    "name": "신동아3차아파트 20동 지하대피소 1층",
    "address": "인천광역시 미추홀구 매소홀로475번길 18 (학익동, 신동아아파트3차)",
    "lat": 37.44037286427412,
    "lng": 126.67513972866574,
    "region": "인천광역시"
  },
  {
    "name": "신동아4차아파트 지하1층대피소(23,24,27동)",
    "address": "인천광역시 미추홀구 학익소로61번길 132 (학익동, 신동아아파트4차)",
    "lat": 37.442644243232266,
    "lng": 126.67750321632748,
    "region": "인천광역시"
  },
  {
    "name": "신동아4차아파트 24동 지하대피소 1층",
    "address": "인천광역시 미추홀구 학익소로61번길 132 (학익동, 신동아아파트4차)",
    "lat": 37.442644243232266,
    "lng": 126.67750321632748,
    "region": "인천광역시"
  },
  {
    "name": "신동아4차아파트 27동 지하1층 대피소",
    "address": "인천광역시 미추홀구 학익소로61번길 132 (학익동, 신동아아파트4차)",
    "lat": 37.442644243232266,
    "lng": 126.67750321632748,
    "region": "인천광역시"
  },
  {
    "name": "삼보빌딩 지하1층",
    "address": "인천광역시 미추홀구 경원대로 768, 삼보빌딩 지하1층 (주안동)",
    "lat": 37.451152541465085,
    "lng": 126.69010497804815,
    "region": "인천광역시"
  },
  {
    "name": "동부아파트 지하1층(101,102,103동)",
    "address": "인천광역시 미추홀구 주승로 253 (관교동, 동부아파트)",
    "lat": 37.44065619381632,
    "lng": 126.69566797649664,
    "region": "인천광역시"
  },
  {
    "name": "성지아파트 지하1층(101,102,103동)",
    "address": "인천광역시 미추홀구 문화로 35 (관교동, 성지아파트)",
    "lat": 37.44225551444372,
    "lng": 126.698423260524,
    "region": "인천광역시"
  },
  {
    "name": "쌍용아파트 6동 지하1층",
    "address": "인천광역시 미추홀구 주승로 231 (관교동, 쌍용아파트)",
    "lat": 37.44251983797835,
    "lng": 126.69477063604184,
    "region": "인천광역시"
  },
  {
    "name": "삼환2차아파트 지하주차장 1층",
    "address": "인천광역시 미추홀구 문화로 23 (관교동, 삼환아파트)",
    "lat": 37.44126759446553,
    "lng": 126.6983051961371,
    "region": "인천광역시"
  },
  {
    "name": "동부아파트 102동 지하1층",
    "address": "인천광역시 미추홀구 주승로 253 (관교동, 동부아파트)",
    "lat": 37.44065619381632,
    "lng": 126.69566797649664,
    "region": "인천광역시"
  },
  {
    "name": "동부아파트 103동 지하1층",
    "address": "인천광역시 미추홀구 주승로 253 (관교동, 동부아파트)",
    "lat": 37.44065619381632,
    "lng": 126.69566797649664,
    "region": "인천광역시"
  },
  {
    "name": "쌍용아파트 지하1층(1,2,3,5,6동)",
    "address": "인천광역시 미추홀구 주승로 231 (관교동, 쌍용아파트)",
    "lat": 37.44251983797835,
    "lng": 126.69477063604184,
    "region": "인천광역시"
  },
  {
    "name": "쌍용아파트 2동 지하1층",
    "address": "인천광역시 미추홀구 주승로 231 (관교동, 쌍용아파트)",
    "lat": 37.44251983797835,
    "lng": 126.69477063604184,
    "region": "인천광역시"
  },
  {
    "name": "쌍용아파트 3동 지하1층",
    "address": "인천광역시 미추홀구 주승로 231 (관교동, 쌍용아파트)",
    "lat": 37.44251983797835,
    "lng": 126.69477063604184,
    "region": "인천광역시"
  },
  {
    "name": "쌍용아파트 5동 지하1층",
    "address": "인천광역시 미추홀구 주승로 231 (관교동, 쌍용아파트)",
    "lat": 37.44251983797835,
    "lng": 126.69477063604184,
    "region": "인천광역시"
  },
  {
    "name": "인하사대부중 지하1층 스카우트실, 다목적실",
    "address": "인천광역시 미추홀구 재넘이길123번길 29 (학익동, 인하사범대부속중고등학교)",
    "lat": 37.44692504950528,
    "lng": 126.66125958715988,
    "region": "인천광역시"
  },
  {
    "name": "성지아파트 102동 지하1층",
    "address": "인천광역시 미추홀구 문화로 35 (관교동, 성지아파트)",
    "lat": 37.44225551444372,
    "lng": 126.698423260524,
    "region": "인천광역시"
  },
  {
    "name": "성지아파트 103동 지하1층",
    "address": "인천광역시 미추홀구 문화로 35 (관교동, 성지아파트)",
    "lat": 37.44225551444372,
    "lng": 126.698423260524,
    "region": "인천광역시"
  },
  {
    "name": "신동아3층아파트 21동 지하1층 대피소",
    "address": "인천광역시 미추홀구 매소홀로475번길 18 (학익동, 신동아아파트3차)",
    "lat": 37.44037286427412,
    "lng": 126.67513972866574,
    "region": "인천광역시"
  },
  {
    "name": "롯데오피스텔 지하주차장 1~4층",
    "address": "인천광역시 미추홀구 한나루로 604 (도화동, 롯데오피스텔)",
    "lat": 37.45985912157551,
    "lng": 126.67272673619124,
    "region": "인천광역시"
  },
  {
    "name": "삼환1차아파트 지하주차장 1층",
    "address": "인천광역시 미추홀구 주승로 223 (관교동, 삼환1차아파트)",
    "lat": 37.44334804508688,
    "lng": 126.69432147566266,
    "region": "인천광역시"
  },
  {
    "name": "삼환1차아파트 지하1층(102,103,104동)",
    "address": "인천광역시 미추홀구 주승로 223 (관교동, 삼환1차아파트)",
    "lat": 37.44334804508688,
    "lng": 126.69432147566266,
    "region": "인천광역시"
  },
  {
    "name": "신동아6차아파트 지하주차장 1층",
    "address": "인천광역시 미추홀구 학익소로63번길 57 (학익동, 신동아아파트)",
    "lat": 37.44076745539058,
    "lng": 126.67318636383534,
    "region": "인천광역시"
  },
  {
    "name": "궁전빌딩 지하주차장 1층",
    "address": "인천광역시 미추홀구 석정로 433 (주안동, 영일빌딩)",
    "lat": 37.46664984578531,
    "lng": 126.68380467723844,
    "region": "인천광역시"
  },
  {
    "name": "용현3동행정복지센터 지하1층",
    "address": "인천광역시 미추홀구 인주대로 133, 용현3동 행정복지센터 지하1층 (용현동)",
    "lat": 37.4566986265792,
    "lng": 126.65191903331406,
    "region": "인천광역시"
  },
  {
    "name": "종합건설본부 지하주차장 1~2층",
    "address": "인천광역시 미추홀구 한나루로 607 (도화동, 인천종합건설본부)",
    "lat": 37.46013656770741,
    "lng": 126.6723095440247,
    "region": "인천광역시"
  },
  {
    "name": "에이스빌딩 지하1층",
    "address": "인천광역시 미추홀구 경인로 434, 에이스빌딩 지하1층 (주안동)",
    "lat": 37.45769327974293,
    "lng": 126.68820386849892,
    "region": "인천광역시"
  },
  {
    "name": "태화아파트 지하1,2층 주차장",
    "address": "인천광역시 미추홀구 석정로 360 (주안동, 주안태화아파트)",
    "lat": 37.46722533957001,
    "lng": 126.67536341779692,
    "region": "인천광역시"
  },
  {
    "name": "태화아파트 지하2층주차장",
    "address": "인천광역시 미추홀구 석정로 360 (주안동, 주안태화아파트)",
    "lat": 37.46722533957001,
    "lng": 126.67536341779692,
    "region": "인천광역시"
  },
  {
    "name": "삼화아파트 지하주차장 1~2층",
    "address": "인천광역시 미추홀구 한나루로489번길 49 (용현동, 삼화아파트)",
    "lat": 37.451216970942,
    "lng": 126.66446511622976,
    "region": "인천광역시"
  },
  {
    "name": "신비마을아파트 지하1층 주차장(101~107동)",
    "address": "인천광역시 미추홀구 주승로 148 (주안동, 신비마을아파트)",
    "lat": 37.4453683990952,
    "lng": 126.686706716482,
    "region": "인천광역시"
  },
  {
    "name": "국일아파트 지하1층",
    "address": "인천광역시 미추홀구 소성로 346 (문학동, 국일아파트)",
    "lat": 37.437312794112174,
    "lng": 126.68573783586756,
    "region": "인천광역시"
  },
  {
    "name": "신비마을아파트 지하1층(109,110,111,112동)",
    "address": "인천광역시 미추홀구 주승로 160 (관교동, 신비마을아파트)",
    "lat": 37.44537906880354,
    "lng": 126.6880756895246,
    "region": "인천광역시"
  },
  {
    "name": "신비마을아파트 110동 지하1층",
    "address": "인천광역시 미추홀구 주승로 160 (관교동, 신비마을아파트)",
    "lat": 37.44537906880354,
    "lng": 126.6880756895246,
    "region": "인천광역시"
  },
  {
    "name": "신비마을아파트 111동 지하1층",
    "address": "인천광역시 미추홀구 경원대로 689 (관교동, 신비마을아파트)",
    "lat": 37.444240630262144,
    "lng": 126.6902031766607,
    "region": "인천광역시"
  },
  {
    "name": "신비마을아파트 112동 지하1층",
    "address": "인천광역시 미추홀구 경원대로 627 (관교동, 신비마을아파트)",
    "lat": 37.43946383504704,
    "lng": 126.69410179125258,
    "region": "인천광역시"
  },
  {
    "name": "진흥아파트 지하 1,2층 주차장",
    "address": "인천광역시 미추홀구 인하로298번길 33 (주안동, 진흥아파트)",
    "lat": 37.4464096070368,
    "lng": 126.68127350246,
    "region": "인천광역시"
  },
  {
    "name": "진흥아파트 제2주차장 지하 1~2층",
    "address": "인천광역시 미추홀구 인하로298번길 33 (주안동, 진흥아파트)",
    "lat": 37.446409606965325,
    "lng": 126.68127350246408,
    "region": "인천광역시"
  },
  {
    "name": "진흥아파트 제3주차장 지하 1~2층",
    "address": "인천광역시 미추홀구 인하로298번길 33 (주안동, 진흥아파트)",
    "lat": 37.446409606965325,
    "lng": 126.68127350246408,
    "region": "인천광역시"
  },
  {
    "name": "서울빌딩 지하1층",
    "address": "인천광역시 미추홀구 경원대로 766, 서울빌딩 지하1층 (주안동)",
    "lat": 37.45105515310089,
    "lng": 126.69027297101388,
    "region": "인천광역시"
  },
  {
    "name": "하나아파트 지하주차장 1층",
    "address": "인천광역시 미추홀구 매소홀로418번길 21 (학익동, 하나아파트)",
    "lat": 37.438836713802615,
    "lng": 126.66826411205716,
    "region": "인천광역시"
  },
  {
    "name": "주안시민지하상가 지하1층 대피소",
    "address": "인천광역시 미추홀구 경인로 지하 343 (주안동, 주안로 지하상가)",
    "lat": 37.45867745617002,
    "lng": 126.67813355570073,
    "region": "인천광역시"
  },
  {
    "name": "호산아파트 101동 지하주차장 1층",
    "address": "인천광역시 미추홀구 한나루로358번길 6-11 (학익동, 호산아파트)",
    "lat": 37.43972385869883,
    "lng": 126.6626636446812,
    "region": "인천광역시"
  },
  {
    "name": "나산아파트 지하주차장 1~2층",
    "address": "인천광역시 미추홀구 경인로 221 (도화동, 나산아파트)",
    "lat": 37.46473396999105,
    "lng": 126.66721346991793,
    "region": "인천광역시"
  },
  {
    "name": "호산아파트 지하1층 주차장",
    "address": "인천광역시 미추홀구 소성로318번길 5 (문학동, 호산아파트)",
    "lat": 37.43743710746108,
    "lng": 126.68265001484436,
    "region": "인천광역시"
  },
  {
    "name": "서울여성병원",
    "address": "인천광역시 미추홀구 경원대로 771 (주안동, 서울산부인과)",
    "lat": 37.4514885749605,
    "lng": 126.68958051689307,
    "region": "인천광역시"
  },
  {
    "name": "신동아8차아파트 지하주차장 1층~2층",
    "address": "인천광역시 미추홀구 매소홀로475번길 60 (학익동, 주안8차신동아아파트)",
    "lat": 37.44222131565819,
    "lng": 126.67462670972569,
    "region": "인천광역시"
  },
  {
    "name": "한양2차아파트주차장(지하1층)",
    "address": "인천광역시 미추홀구 매소홀로 23-42 (용현동, 한양2차아파트)",
    "lat": 37.45320402123135,
    "lng": 126.6315629313488,
    "region": "인천광역시"
  },
  {
    "name": "금호2차아파트 203동 지하주차장(지하1층)",
    "address": "인천광역시 미추홀구 매소홀로 68 (용현동, 용현2단지금호타운)",
    "lat": 37.44951667819863,
    "lng": 126.63315056024835,
    "region": "인천광역시"
  },
  {
    "name": "윤성아파트 지하주차장(지하1~2층)",
    "address": "인천광역시 미추홀구 매소홀로 143 (용현동, 윤성아파트)",
    "lat": 37.44551798942919,
    "lng": 126.63995148577678,
    "region": "인천광역시"
  },
  {
    "name": "인천터미널공사 지하1~2층",
    "address": "인천광역시 미추홀구 연남로 35 (관교동, 인천종합터미널,신세계백화점)",
    "lat": 37.442155973018586,
    "lng": 126.70233075863815,
    "region": "인천광역시"
  },
  {
    "name": "두산아파트 지하1층",
    "address": "인천광역시 미추홀구 석산로 42, 지하1층 (주안동, 두산주상복합아파트)",
    "lat": 37.461416451386434,
    "lng": 126.69679918961133,
    "region": "인천광역시"
  },
  {
    "name": "태산아파트 지하주차장 1층~2층",
    "address": "인천광역시 미추홀구 한나루로341번길 40 (학익동, 태산아파트)",
    "lat": 37.4389532096917,
    "lng": 126.65942040779792,
    "region": "인천광역시"
  },
  {
    "name": "정광아파트 지하주차장 1층~2층",
    "address": "인천광역시 미추홀구 한나루로357번길 87-18 (학익동, 정광아파트)",
    "lat": 37.43851266743014,
    "lng": 126.65734036696897,
    "region": "인천광역시"
  },
  {
    "name": "금호아파트9동(지하1층)",
    "address": "인천광역시 미추홀구 낙섬동로 9 (용현동, 금호타운)",
    "lat": 37.4476013092951,
    "lng": 126.63858597177205,
    "region": "인천광역시"
  },
  {
    "name": "극동아파트 지하 1층",
    "address": "인천광역시 미추홀구 석정로126번길 12-33 (숭의동, 극동아파트)",
    "lat": 37.46802511693579,
    "lng": 126.64828944306956,
    "region": "인천광역시"
  },
  {
    "name": "서해아파트 지하주차장(지하1층)",
    "address": "인천광역시 미추홀구 토금중로 63 (용현동, 서해아파트)",
    "lat": 37.45161365310948,
    "lng": 126.64004828552856,
    "region": "인천광역시"
  },
  {
    "name": "한국아파트 지하주차장(지하1층)",
    "address": "인천광역시 미추홀구 낙섬동로 6 (용현동, 한국아파트)",
    "lat": 37.44717930002554,
    "lng": 126.63846048013004,
    "region": "인천광역시"
  },
  {
    "name": "금호아파트 12동(지하1층)",
    "address": "인천광역시 미추홀구 낙섬동로 9 (용현동, 금호타운)",
    "lat": 37.4476013092951,
    "lng": 126.63858597177205,
    "region": "인천광역시"
  },
  {
    "name": "동아시티월드 지하주차장 1~4층",
    "address": "인천광역시 미추홀구 독배로 443 (숭의동, 삼화복합빌딩)",
    "lat": 37.45893828514036,
    "lng": 126.64858609901071,
    "region": "인천광역시"
  },
  {
    "name": "인천터미널 지하철역 지하1층",
    "address": "인천광역시 미추홀구 예술로 지하 85 (관교동, 인천터미널역)",
    "lat": 37.44176177086187,
    "lng": 126.69977658502872,
    "region": "인천광역시"
  },
  {
    "name": "삼환1차아파트 지하1층(103,104동)",
    "address": "인천광역시 미추홀구 주승로 223 (관교동, 삼환1차아파트)",
    "lat": 37.44334804508688,
    "lng": 126.69432147566266,
    "region": "인천광역시"
  },
  {
    "name": "삼환1차아파트 104동 지하1층",
    "address": "인천광역시 미추홀구 주승로 223 (관교동, 삼환1차아파트)",
    "lat": 37.44334804508688,
    "lng": 126.69432147566266,
    "region": "인천광역시"
  },
  {
    "name": "현광아파트 지하주차장 1층",
    "address": "인천광역시 미추홀구 염창로 94 (주안동, 현광아파트)",
    "lat": 37.46528935919667,
    "lng": 126.68447694425078,
    "region": "인천광역시"
  },
  {
    "name": "선정아파트 지하주차장 1층",
    "address": "인천광역시 미추홀구 염창로 101 (주안동, 선정아파트)",
    "lat": 37.46532108045194,
    "lng": 126.685422716776,
    "region": "인천광역시"
  },
  {
    "name": "용현대우 아파트 지하1,2주차장  (지하1층~2층)",
    "address": "인천광역시 미추홀구 아암대로29번길 13 (용현동, 용현대우아파트)",
    "lat": 37.45818431159735,
    "lng": 126.6376271416983,
    "region": "인천광역시"
  },
  {
    "name": "용현대우 아파트 지하주차장2 (1층~2층)",
    "address": "인천광역시 미추홀구 아암대로29번길 13 (용현동, 용현대우아파트)",
    "lat": 37.45818431159735,
    "lng": 126.6376271416983,
    "region": "인천광역시"
  },
  {
    "name": "현대홈타운 지하주차장 1층",
    "address": "인천광역시 미추홀구 석정로351번길 12 (주안동, 현대홈타운아파트)",
    "lat": 37.46800167453557,
    "lng": 126.6747042777623,
    "region": "인천광역시"
  },
  {
    "name": "로터리빌딩 지하 1~ 2층",
    "address": "인천광역시 미추홀구 인중로 9 (숭의동, 원흥빌딩)",
    "lat": 37.46236462548836,
    "lng": 126.64124903050292,
    "region": "인천광역시"
  },
  {
    "name": "원흥아파트 지하주차장 1층~2층",
    "address": "인천광역시 미추홀구 한나루로341번길 16-21 (학익동, 원흥아파트)",
    "lat": 37.43909142955589,
    "lng": 126.66065898724156,
    "region": "인천광역시"
  },
  {
    "name": "신창미션힐아파트 103동 지하주차장(지하1층)",
    "address": "인천광역시 미추홀구 매소홀로 171 (용현동, 신창미션힐)",
    "lat": 37.44412519561667,
    "lng": 126.64248260566356,
    "region": "인천광역시"
  },
  {
    "name": "신창미션힐아파트 104동 지하주차장(지하1층)",
    "address": "인천광역시 미추홀구 매소홀로 171 (용현동, 신창미션힐)",
    "lat": 37.44412519561667,
    "lng": 126.64248260566356,
    "region": "인천광역시"
  },
  {
    "name": "신창미션힐아파트 108동 지하주차장(지하1층)",
    "address": "인천광역시 미추홀구 매소홀로 171 (용현동, 신창미션힐)",
    "lat": 37.44412519561667,
    "lng": 126.64248260566356,
    "region": "인천광역시"
  },
  {
    "name": "문학경기장내 야구장 지하1층 주차장",
    "address": "인천광역시 미추홀구 매소홀로 618 (문학동, 문학경기장)",
    "lat": 37.43728495963111,
    "lng": 126.690718294408,
    "region": "인천광역시"
  },
  {
    "name": "남광로얄아파트 지하 1층(9동)",
    "address": "인천광역시 미추홀구 인주대로366번길 23, 지하1층 (주안동, 남광로얄아파트)",
    "lat": 37.45040227618439,
    "lng": 126.67719629192852,
    "region": "인천광역시"
  },
  {
    "name": "금양아파트 지하주차장 2층~3층",
    "address": "인천광역시 미추홀구 미추홀대로 510, 지하2층~지하3층 (주안동, 한덕주상복합아파트)",
    "lat": 37.44279246274966,
    "lng": 126.67889100264134,
    "region": "인천광역시"
  },
  {
    "name": "진도아파트 지하주차장 1층",
    "address": "인천광역시 미추홀구 석정로 412 (주안동, 진도로르빌)",
    "lat": 37.466551948258726,
    "lng": 126.68127298748364,
    "region": "인천광역시"
  },
  {
    "name": "고운누리아파트 지하주차장",
    "address": "인천광역시 미추홀구 길파로28번길 34 (주안동, 대산고운누리아파트)",
    "lat": 37.4679344975247,
    "lng": 126.6816340808428,
    "region": "인천광역시"
  },
  {
    "name": "숭의한화꿈에그린아파트 지하1층",
    "address": "인천광역시 미추홀구 석정로126번길 23 (한화 꿈에그린 아파트)",
    "lat": 37.46749157357284,
    "lng": 126.64935882713138,
    "region": "인천광역시"
  },
  {
    "name": "풍림아이원아파트 지하주차장1층~2층(102동,119동)",
    "address": "인천광역시 미추홀구 매소홀로 340 (학익동, 학익동풍림아이원아파트)",
    "lat": 37.441623753410354,
    "lng": 126.65996443316386,
    "region": "인천광역시"
  },
  {
    "name": "풍림아이원 아파트 119동 지하주차장 1층~2층",
    "address": "인천광역시 미추홀구 매소홀로 340 (학익동, 학익동풍림아이원아파트)",
    "lat": 37.441623753410354,
    "lng": 126.65996443316386,
    "region": "인천광역시"
  },
  {
    "name": "동아아파트 지하주차장 1층",
    "address": "인천광역시 미추홀구 경인로 203-12 (도화동, 동아아파트)",
    "lat": 37.46571930874804,
    "lng": 126.665537781185,
    "region": "인천광역시"
  },
  {
    "name": "인천정보산업진흥원 지하주차장 1~4층",
    "address": "인천광역시 미추홀구 경인로 229 (도화동, 인천IT타워)",
    "lat": 37.464480648815695,
    "lng": 126.66799615338502,
    "region": "인천광역시"
  },
  {
    "name": "엑슬루타워아파트 지하주차장 1층~2층",
    "address": "인천광역시 미추홀구 매소홀로309번길 32 (학익동, 엑슬루타워)",
    "lat": 37.44427191284945,
    "lng": 126.65811525944254,
    "region": "인천광역시"
  },
  {
    "name": "용현성원상떼빌아파트 1~3지하주차장 (지하1층~3층)",
    "address": "인천광역시 미추홀구 낙섬동로 104 (용현동, 용현동성원상떼빌)",
    "lat": 37.4545243923414,
    "lng": 126.64334002724894,
    "region": "인천광역시"
  },
  {
    "name": "용현성원상떼빌아파트 지하 2(1층~3층)",
    "address": "인천광역시 미추홀구 낙섬동로 104 (용현동, 용현동성원상떼빌)",
    "lat": 37.4545243923414,
    "lng": 126.64334002724894,
    "region": "인천광역시"
  },
  {
    "name": "용현성원상떼빌아파트 지하 3 (1층~3층)",
    "address": "인천광역시 미추홀구 낙섬동로 104 (용현동, 용현동성원상떼빌)",
    "lat": 37.4545243923414,
    "lng": 126.64334002724894,
    "region": "인천광역시"
  },
  {
    "name": "인천관교한신휴플러스 지하 1,2층 주차장(106동)",
    "address": "인천광역시 미추홀구 경원대로 717 (주안동, 인천관교한신휴플러스)",
    "lat": 37.4467356681705,
    "lng": 126.689748234298,
    "region": "인천광역시"
  },
  {
    "name": "신동아3차아파트 17동 지하1층 대피소",
    "address": "인천광역시 미추홀구 매소홀로475번길 18 (학익동, 신동아아파트3차)",
    "lat": 37.44037286427412,
    "lng": 126.67513972866574,
    "region": "인천광역시"
  },
  {
    "name": "한승미메이드 지하주차장 1~3층",
    "address": "인천광역시 미추홀구 경인로 302 (도화동, 도화한승미메이드)",
    "lat": 37.46010296970879,
    "lng": 126.67396668323823,
    "region": "인천광역시"
  },
  {
    "name": "TS굿모닝아파트 지하주차장 1층",
    "address": "인천광역시 미추홀구 장고개로36번길 36, 지하1층 (도화동, 티에스 굿모닝 아파트)",
    "lat": 37.46996998925508,
    "lng": 126.66859077449612,
    "region": "인천광역시"
  },
  {
    "name": "향진원 지하 1층 강당",
    "address": "인천광역시 미추홀구 석정로329번길 32, 향진원 지하1층 (도화동)",
    "lat": 37.46898679171715,
    "lng": 126.67120715477826,
    "region": "인천광역시"
  },
  {
    "name": "더월드스테이트아파트 지하1, 2층 대피소(112동)",
    "address": "인천광역시 미추홀구 경원대로 884, 112동 지하1~2층 (주안동, 주안더월드스테이트)",
    "lat": 37.46148807288766,
    "lng": 126.6900229718384,
    "region": "인천광역시"
  },
  {
    "name": "더월드스테이트아파트 지하1, 2층 대피소(113동)",
    "address": "인천광역시 미추홀구 경원대로 884, 113동 지하1~2층 (주안동, 주안더월드스테이트)",
    "lat": 37.46148807288766,
    "lng": 126.6900229718384,
    "region": "인천광역시"
  },
  {
    "name": "더월드스테이트아파트 지하1~3층 대피소(114동)",
    "address": "인천광역시 미추홀구 경원대로 884, 114동 지하1~3층 (주안동, 주안더월드스테이트)",
    "lat": 37.46148807288766,
    "lng": 126.6900229718384,
    "region": "인천광역시"
  },
  {
    "name": "더월드스테이트아파트 지하1, 2층 대피소(121동)",
    "address": "인천광역시 미추홀구 경원대로 884, 121동 지하1~2층 (주안동, 주안더월드스테이트)",
    "lat": 37.46148807288766,
    "lng": 126.6900229718384,
    "region": "인천광역시"
  },
  {
    "name": "더월드스테이트아파트 지하1층 대피소(124동)",
    "address": "인천광역시 미추홀구 경원대로 884, 124동 지하1층 (주안동, 주안더월드스테이트)",
    "lat": 37.46148807288766,
    "lng": 126.6900229718384,
    "region": "인천광역시"
  },
  {
    "name": "더월드스테이트아파트 지하1층 대피소(103동)",
    "address": "인천광역시 미추홀구 경원대로 884, 103동 지하1~2층 (주안동, 주안더월드스테이트)",
    "lat": 37.46148807288766,
    "lng": 126.6900229718384,
    "region": "인천광역시"
  },
  {
    "name": "더월드스테이트아파트 지하1, 2층 대피소(101동)",
    "address": "인천광역시 미추홀구 경원대로 884, 101동 지하1~2층 (주안동, 주안더월드스테이트)",
    "lat": 37.46148807288766,
    "lng": 126.6900229718384,
    "region": "인천광역시"
  },
  {
    "name": "더월드스테이트아파트 지하1층 대피소(201동)",
    "address": "인천광역시 미추홀구 경원대로864번길 114, 201동 지하1층 (주안동, 주안더월드스테이트)",
    "lat": 37.462267284603854,
    "lng": 126.6951283226517,
    "region": "인천광역시"
  },
  {
    "name": "신동아5차아파트 지하주차장 1층",
    "address": "인천광역시 미추홀구 학익소로61번길 135 (학익동, 신동아아파트5차)",
    "lat": 37.44289201632832,
    "lng": 126.67781177446952,
    "region": "인천광역시"
  },
  {
    "name": "신동아7차아파트 지하주차장 1층",
    "address": "인천광역시 미추홀구 학익소로61번길 83 (학익동, 주안7차신동아아파트)",
    "lat": 37.4428410138561,
    "lng": 126.674785245479,
    "region": "인천광역시"
  },
  {
    "name": "대흥평창로시스빌딩 지하주차장 1층",
    "address": "인천광역시 미추홀구 소성로 171 (학익동, 대흥평창로시스빌딩)",
    "lat": 37.4417819683899,
    "lng": 126.66745307586956,
    "region": "인천광역시"
  },
  {
    "name": "두원계전빌딩 지하주차장 1층",
    "address": "인천광역시 미추홀구 한나루로 436 (학익동, 두원계전빌딩)",
    "lat": 37.4459693368356,
    "lng": 126.66681320471896,
    "region": "인천광역시"
  },
  {
    "name": "현준솔로몬 지하주차장 1층",
    "address": "인천광역시 미추홀구 소성로 159 (학익동, 현준솔로몬시티)",
    "lat": 37.44231340267027,
    "lng": 126.6662421643638,
    "region": "인천광역시"
  },
  {
    "name": "중앙빌딩 지하주차장 1층",
    "address": "인천광역시 미추홀구 소성로 153 (학익동, 중앙빌딩)",
    "lat": 37.442540975039705,
    "lng": 126.66564442118492,
    "region": "인천광역시"
  },
  {
    "name": "용현엑슬루타워 지하주차장(1층~3층)",
    "address": "인천광역시 미추홀구 아암대로29번길 16 (용현동, 인천용현엑슬루타워)",
    "lat": 37.45794676983926,
    "lng": 126.63756377041192,
    "region": "인천광역시"
  },
  {
    "name": "동아풍림아파트 지하주차장 1층~2층(101동,104동)",
    "address": "인천광역시 미추홀구 소성로 120 (학익동, 동아,풍림아파트)",
    "lat": 37.4435475897004,
    "lng": 126.6621301528384,
    "region": "인천광역시"
  },
  {
    "name": "동아풍림아파트 104동 지하주차장 1층~2층",
    "address": "인천광역시 미추홀구 소성로 120-0 (학익동, 동아,풍림아파트)",
    "lat": 37.4435475897004,
    "lng": 126.6621301528384,
    "region": "인천광역시"
  },
  {
    "name": "파란마을아파트 지하 1~2층",
    "address": "인천광역시 미추홀구 참외전로 302 (숭의동, 파란마을)",
    "lat": 37.46602509820305,
    "lng": 126.64756116201887,
    "region": "인천광역시"
  },
  {
    "name": "도화신동아파밀리에아파트 지하주차장 2층",
    "address": "인천광역시 미추홀구 송림로 194, 지하2층 (도화동, 도화동 신동아파밀리에 아파트)",
    "lat": 37.476322505705184,
    "lng": 126.65487527235516,
    "region": "인천광역시"
  },
  {
    "name": "금호2차아파트 206동 지하주차장(지하1층)",
    "address": "인천광역시 미추홀구 매소홀로 68 (용현동, 용현2단지금호타운)",
    "lat": 37.44951667819863,
    "lng": 126.63315056024835,
    "region": "인천광역시"
  },
  {
    "name": "금호2차아파트 207동 지하주차장(지하1층)",
    "address": "인천광역시 미추홀구 매소홀로 68 (용현동, 용현2단지금호타운)",
    "lat": 37.44951667819863,
    "lng": 126.63315056024835,
    "region": "인천광역시"
  },
  {
    "name": "금호2차아파트 209동 지하주차장(지하1층)",
    "address": "인천광역시 미추홀구 매소홀로 68 (용현동, 용현2단지금호타운)",
    "lat": 37.44951667819863,
    "lng": 126.63315056024835,
    "region": "인천광역시"
  },
  {
    "name": "금호2차아파트 210동 지하주차장(지하1층)",
    "address": "인천광역시 미추홀구 매소홀로 68 (용현동, 용현2단지금호타운)",
    "lat": 37.44951667819863,
    "lng": 126.63315056024835,
    "region": "인천광역시"
  },
  {
    "name": "SK Sky View 아파트 지하주차장(지하1~2층)",
    "address": "인천광역시 미추홀구 용정공원로 33 (용현동, 인천SKSkyVIEW)",
    "lat": 37.450926391057365,
    "lng": 126.6438111288998,
    "region": "인천광역시"
  },
  {
    "name": "도화서희스타힐스 아파트 지하주차장 1층~2층",
    "address": "인천광역시 미추홀구 숙골로112번길 12, 지하1, 2층 (도화동, 도화서희스타힐스)",
    "lat": 37.47225556129957,
    "lng": 126.66320541834575,
    "region": "인천광역시"
  },
  {
    "name": "인천미추홀소방서 지하주차장 1층",
    "address": "인천광역시 미추홀구 인하로 190, 인천광역시소방본부및미추홀소방서 지하1층 (주안동)",
    "lat": 37.44854142967056,
    "lng": 126.66908302734666,
    "region": "인천광역시"
  },
  {
    "name": "휴먼빌아파트 지하주차장 1층",
    "address": "인천광역시 미추홀구 한나루로550번길 63 (주안휴먼빌아파트)",
    "lat": 37.45520286674025,
    "lng": 126.67354711816245,
    "region": "인천광역시"
  },
  {
    "name": "e편한세상 도화6-1단지 아파트 지하주차장 1층~2층",
    "address": "인천광역시 미추홀구 숙골로88번길 46, 지하1, 2층 (도화동, e편한세상도화 6-1단지)",
    "lat": 37.47354751355144,
    "lng": 126.6652289906511,
    "region": "인천광역시"
  },
  {
    "name": "e편한세상 도화5단지 아파트 지하주차장 1층~2층",
    "address": "인천광역시 미추홀구 숙골로112번길 11, 지하1, 2층 (도화동, e편한세상도화 5단지)",
    "lat": 37.47252747034219,
    "lng": 126.6630024164573,
    "region": "인천광역시"
  },
  {
    "name": "e편한세상 도화6-2단지 아파트 지하주차장 1층~2층",
    "address": "인천광역시 미추홀구 숙골로88번길 56, 지하1, 2층 (도화동, e편한세상도화 6-2단지)",
    "lat": 37.47410006098995,
    "lng": 126.66437570516892,
    "region": "인천광역시"
  },
  {
    "name": "아인병원 지하1~8층",
    "address": "인천광역시 미추홀구 경인로 372, 지하1~8층 (주안동, 포레나 미추홀)",
    "lat": 37.45818411734172,
    "lng": 126.68125089572986,
    "region": "인천광역시"
  },
  {
    "name": "e편한세상주안에듀서밋",
    "address": "인천광역시 미추홀구 주승로 51 (주안동, e편한세상 주안 에듀서밋)",
    "lat": 37.4442640543619,
    "lng": 126.676210427804,
    "region": "인천광역시"
  },
  {
    "name": "동막역 대합실 지하1층",
    "address": "인천광역시 연수구 경원대로 지하 80 (동춘동, 동막역)",
    "lat": 37.398187004543566,
    "lng": 126.67333707373412,
    "region": "인천광역시"
  },
  {
    "name": "동춘역 대합실 지하1층",
    "address": "인천광역시 연수구 경원대로 지하 180 (동춘동, 동춘역)",
    "lat": 37.40535432355452,
    "lng": 126.68104689795766,
    "region": "인천광역시"
  },
  {
    "name": "원인재역 대합실 지하1층",
    "address": "인천광역시 연수구 경원대로 지하 285 (연수동, 원인재역)",
    "lat": 37.41181658298589,
    "lng": 126.68700305637306,
    "region": "인천광역시"
  },
  {
    "name": "신연수역 대합실 지하1층",
    "address": "인천광역시 연수구 경원대로 지하 368 (연수동, 인천시지정문화재)",
    "lat": 37.41809221921499,
    "lng": 126.6942995423883,
    "region": "인천광역시"
  },
  {
    "name": "선학역 대합실 지하1층",
    "address": "인천광역시 연수구 경원대로 지하 480 (선학동, 선학역)",
    "lat": 37.42713975034204,
    "lng": 126.69917334295576,
    "region": "인천광역시"
  },
  {
    "name": "문학경기장역 지하1층",
    "address": "인천광역시 연수구 예술로 지하 2 (선학동, 문학경기장역)",
    "lat": 37.4342274943446,
    "lng": 126.69815341408388,
    "region": "인천광역시"
  },
  {
    "name": "연수구청 지하 1, 2층",
    "address": "인천광역시 연수구 원인재로 115 (동춘동, 연수구청)",
    "lat": 37.40914321623202,
    "lng": 126.67831447973496,
    "region": "인천광역시"
  },
  {
    "name": "백산1차아파트 지하주차장 1층",
    "address": "인천광역시 연수구 한나루로79번길 11 (옥련동, 백산1차아파트)",
    "lat": 37.422902263632345,
    "lng": 126.6463355325253,
    "region": "인천광역시"
  },
  {
    "name": "삼성아파트 지하주차장 1,2층",
    "address": "인천광역시 연수구 독배로40번길 18 (옥련동, 삼성아파트)",
    "lat": 37.42427173300658,
    "lng": 126.6458062876586,
    "region": "인천광역시"
  },
  {
    "name": "우성1차아파트 지하주차장 1~2층",
    "address": "인천광역시 연수구 독배로40번길 48 (옥련동, 우성1차아파트)",
    "lat": 37.424316772061886,
    "lng": 126.64746842219836,
    "region": "인천광역시"
  },
  {
    "name": "옥련서해아파트 지하주차장 1~3층",
    "address": "인천광역시 연수구 청량로185번길 16 (옥련동, 서해아파트)",
    "lat": 37.42334883479231,
    "lng": 126.65196017826511,
    "region": "인천광역시"
  },
  {
    "name": "럭키송도아파트 지하주차장 1층",
    "address": "인천광역시 연수구 능허대로79번길 30 (옥련동, 럭키송도아파트)",
    "lat": 37.42523382285434,
    "lng": 126.64216428463656,
    "region": "인천광역시"
  },
  {
    "name": "원흥아파트 지하주차장 1층",
    "address": "인천광역시 연수구 독배로 52 (옥련동, 원흥아파트)",
    "lat": 37.425305434488514,
    "lng": 126.64480012815382,
    "region": "인천광역시"
  },
  {
    "name": "옥련현대1차아파트 지하주차장 1층",
    "address": "인천광역시 연수구 옥련로 33 (옥련동, 현대1차아파트)",
    "lat": 37.42737676505408,
    "lng": 126.64322112765426,
    "region": "인천광역시"
  },
  {
    "name": "옥련현대2차아파트 지하주차장 1~3층",
    "address": "인천광역시 연수구 독배로 58 (옥련동, 현대2차아파트)",
    "lat": 37.42574919880052,
    "lng": 126.64543110850512,
    "region": "인천광역시"
  },
  {
    "name": "옥련현대3차아파트 지하주차장 1~2층",
    "address": "인천광역시 연수구 능허대로79번길 65 (옥련동, 현대3차아파트)",
    "lat": 37.42596468189643,
    "lng": 126.64396193361556,
    "region": "인천광역시"
  },
  {
    "name": "옥련현대4차아파트 지하주차장 1~3층",
    "address": "인천광역시 연수구 한나루로105번길 68 (옥련동, 현대4차아파트)",
    "lat": 37.42574731501523,
    "lng": 126.64974665598452,
    "region": "인천광역시"
  },
  {
    "name": "선학뉴서울아파트 지하주차장 1층",
    "address": "인천광역시 연수구 선학로 101 (선학동, 뉴서울1차아파트)",
    "lat": 37.42579054903115,
    "lng": 126.70013089009788,
    "region": "인천광역시"
  },
  {
    "name": "선학동금호타운 지하주차장 1층",
    "address": "인천광역시 연수구 선학로 100 (선학동, 금호아파트)",
    "lat": 37.42595510466673,
    "lng": 126.70042271623043,
    "region": "인천광역시"
  },
  {
    "name": "아주아파트 지하주차장 1층",
    "address": "인천광역시 연수구 선학로 90 (선학동, 아주아파트)",
    "lat": 37.425760300651234,
    "lng": 126.70145145846016,
    "region": "인천광역시"
  },
  {
    "name": "대동아파트 지하주차장 1층",
    "address": "인천광역시 연수구 선학로74번길 17 (선학동, 대동아파트)",
    "lat": 37.42416067852315,
    "lng": 126.7022400180508,
    "region": "인천광역시"
  },
  {
    "name": "윤성아파트 지하주차장 1층",
    "address": "인천광역시 연수구 넘말로79번길 45 (선학동, 윤성아파트)",
    "lat": 37.42989664971354,
    "lng": 126.6948920293408,
    "region": "인천광역시"
  },
  {
    "name": "동남아파트 지하주차장 1층",
    "address": "인천광역시 연수구 새말로 21 (연수동, 동남아파트)",
    "lat": 37.42314903890066,
    "lng": 126.67421386507208,
    "region": "인천광역시"
  },
  {
    "name": "연수유천아파트 지하창고 1층",
    "address": "인천광역시 연수구 먼우금로 302 (연수동, 연수유천아파트)",
    "lat": 37.422961101797696,
    "lng": 126.68279940020317,
    "region": "인천광역시"
  },
  {
    "name": "태산아파트 지하주차장 1층",
    "address": "인천광역시 연수구 먼우금로 282 (연수동, 태산아파트)",
    "lat": 37.42133810495349,
    "lng": 126.68151041283566,
    "region": "인천광역시"
  },
  {
    "name": "연수우성1차아파트 지하주차장 1층",
    "address": "인천광역시 연수구 청능대로 175 (연수동, 연수1차우성아파트)",
    "lat": 37.408940478326194,
    "lng": 126.68202025205728,
    "region": "인천광역시"
  },
  {
    "name": "연수우성2차아파트 지하주차장 1층",
    "address": "인천광역시 연수구 원인재로 180 (연수동, 연수우성2차아파트)",
    "lat": 37.41286102027734,
    "lng": 126.6838665247186,
    "region": "인천광역시"
  },
  {
    "name": "연수대동아파트 지하주차장 1층",
    "address": "인천광역시 연수구 벚꽃로 172 (연수동, 대동아파트)",
    "lat": 37.41441385509961,
    "lng": 126.68357194368777,
    "region": "인천광역시"
  },
  {
    "name": "대우1차아파트 지하주차장 1층",
    "address": "인천광역시 연수구 원인재로 237 (연수동, 대우1차아파트)",
    "lat": 37.41679747506034,
    "lng": 126.68824464905502,
    "region": "인천광역시"
  },
  {
    "name": "청학현대아파트 지하주차장 1층",
    "address": "인천광역시 연수구 계림로 111 (청학동, 현대아파트)",
    "lat": 37.42772649629889,
    "lng": 126.66958747574289,
    "region": "인천광역시"
  },
  {
    "name": "청학동 시대아파트 상가 지하주차장 1층",
    "address": "인천광역시 연수구 용담로 11, 시대아파트 (청학동)",
    "lat": 37.42139163703355,
    "lng": 126.6694907528228,
    "region": "인천광역시"
  },
  {
    "name": "동보아파트 지하주차장 1층",
    "address": "인천광역시 연수구 솔샘로 120 (청학동, 동보아파트)",
    "lat": 37.42556532410418,
    "lng": 126.66226130595008,
    "region": "인천광역시"
  },
  {
    "name": "연수하나1차아파트 지하주차장 1층",
    "address": "인천광역시 연수구 용담로 14 (청학동, 연수1차하나아파트)",
    "lat": 37.42094558474869,
    "lng": 126.66946513500834,
    "region": "인천광역시"
  },
  {
    "name": "건영아파트 지하주차장 1층",
    "address": "인천광역시 연수구 먼우금로83번길 12 (동춘동, 건영아파트)",
    "lat": 37.40667197357296,
    "lng": 126.66925773670756,
    "region": "인천광역시"
  },
  {
    "name": "무지개마을아파트 지하주차장 1층",
    "address": "인천광역시 연수구 원인재로 14 (무지개마을아파트)",
    "lat": 37.40278974938562,
    "lng": 126.67122910095918,
    "region": "인천광역시"
  },
  {
    "name": "대우삼환아파트 지하주차장 1층",
    "address": "인천광역시 연수구 원인재로 88 (동춘동, 대우삼환아파트)",
    "lat": 37.406909087992425,
    "lng": 126.67722694311976,
    "region": "인천광역시"
  },
  {
    "name": "두손메카오피스텔 지하주차장 1층",
    "address": "인천광역시 연수구 먼우금로 194 (연수동, 메카오피스텔)",
    "lat": 37.41447799267959,
    "lng": 126.67681006214016,
    "region": "인천광역시"
  },
  {
    "name": "풍림아이원1단지아파트 지하주차장 1층",
    "address": "인천광역시 연수구 신송로118번길 6 (송도동, 송도풍림아이원1단지아파트)",
    "lat": 37.39575448797981,
    "lng": 126.6531021215584,
    "region": "인천광역시"
  },
  {
    "name": "풍림아이원2단지아파트 지하주차장 1층",
    "address": "인천광역시 연수구 해돋이로120번길 16 (송도동, 송도풍림아이원2단지아파트)",
    "lat": 37.39335116308241,
    "lng": 126.65054377757676,
    "region": "인천광역시"
  },
  {
    "name": "풍림아이원6단지아파트 지하주차장 1층",
    "address": "인천광역시 연수구 해돋이로84번길 10 (송도동, 송도풍림아이원6단지아파트)",
    "lat": 37.39091019170591,
    "lng": 126.6533334165897,
    "region": "인천광역시"
  },
  {
    "name": "송도현대아이파크아파트 지하주차장 1층",
    "address": "인천광역시 연수구 해돋이로6번길 7 (송도동, 아이파크송도)",
    "lat": 37.38663976103263,
    "lng": 126.65985908523776,
    "region": "인천광역시"
  },
  {
    "name": "송도성지리벨루스아파트 지하주차장 1층",
    "address": "인천광역시 연수구 신송로6번길 7 (송도동, 송도성지리벨루스)",
    "lat": 37.38976322022877,
    "lng": 126.66284235762392,
    "region": "인천광역시"
  },
  {
    "name": "국제업무지구역 대합실 지하1층",
    "address": "인천광역시 연수구 인천타워대로 지하 334 (송도동, 국제업무지구역)",
    "lat": 37.40021761437767,
    "lng": 126.6306916943358,
    "region": "인천광역시"
  },
  {
    "name": "센트럴파크역 대합실 지하1층",
    "address": "인천광역시 연수구 인천타워대로 지하 240 (송도동, 센트럴파크역)",
    "lat": 37.39258806214358,
    "lng": 126.63520592461953,
    "region": "인천광역시"
  },
  {
    "name": "인천대입구역 대합실 지하1층",
    "address": "인천광역시 연수구 인천타워대로 지하 155 (송도동, 인천대입구역)",
    "lat": 37.3851160130639,
    "lng": 126.63929384677527,
    "region": "인천광역시"
  },
  {
    "name": "지식정보단지역 대합실 지하1층",
    "address": "인천광역시 연수구 인천타워대로 지하 57 (송도동, 지식정보단지역)",
    "lat": 37.37826213233513,
    "lng": 126.6448877037072,
    "region": "인천광역시"
  },
  {
    "name": "테크노파크역 대합실 지하1층",
    "address": "인천광역시 연수구 송도국제대로 지하 150 (송도동)",
    "lat": 37.38220814041444,
    "lng": 126.65601171414204,
    "region": "인천광역시"
  },
  {
    "name": "캠퍼스타운역 대합실 지하1층",
    "address": "인천광역시 연수구 송도국제대로 지하 66 (송도동, 캠퍼스타운역)",
    "lat": 37.38835206780095,
    "lng": 126.6624005338603,
    "region": "인천광역시"
  },
  {
    "name": "풍림아이원아파트 지하주차장 1층",
    "address": "인천광역시 연수구 비류대로186번길 21 (옥련동, 풍림아파트)",
    "lat": 37.42705705847098,
    "lng": 126.65519585702184,
    "region": "인천광역시"
  },
  {
    "name": "옥련2차우성아파트 지하주차장 1층",
    "address": "인천광역시 연수구 청량로185번길 73 (옥련동, 옥련2차우성아파트)",
    "lat": 37.42305566909912,
    "lng": 126.64876112557556,
    "region": "인천광역시"
  },
  {
    "name": "옥련현대5차아파트 지하주차장 1~3층",
    "address": "인천광역시 연수구 한진로 49 (옥련동, 현대5차아파트)",
    "lat": 37.42693060907634,
    "lng": 126.64812853796508,
    "region": "인천광역시"
  },
  {
    "name": "연수풍림1차아파트 지하주차장 1층",
    "address": "인천광역시 연수구 함박뫼로 250 (연수동, 연수풍림1차아파트)",
    "lat": 37.418300952775496,
    "lng": 126.69304970339324,
    "region": "인천광역시"
  },
  {
    "name": "한양1차아파트 지하주차장 1층",
    "address": "인천광역시 연수구 원인재로 124 (동춘동, 한양1차아파트)",
    "lat": 37.40949192214013,
    "lng": 126.6790990150005,
    "region": "인천광역시"
  },
  {
    "name": "삼성럭키아파트 지하주차장 1층",
    "address": "인천광역시 연수구 원인재로 81 (동춘동, 삼성럭키아파트)",
    "lat": 37.406492281284976,
    "lng": 126.67676738269068,
    "region": "인천광역시"
  },
  {
    "name": "송도더샵엑스포10단지아파트 지하주차장 1~2층",
    "address": "인천광역시 연수구 컨벤시아대로42번길 95 (송도동, 더샵엑스포)",
    "lat": 37.4036285449303,
    "lng": 126.64398303006033,
    "region": "인천광역시"
  },
  {
    "name": "더샵퍼스트월드 지하주차장 1층",
    "address": "인천광역시 연수구 해돋이로 107 (송도동, 송도 더샵 퍼스트월드)",
    "lat": 37.39144764402776,
    "lng": 126.6502164629747,
    "region": "인천광역시"
  },
  {
    "name": "송도코오롱더프라우주상복합1단지 지하주차장 1~2층",
    "address": "인천광역시 연수구 컨벤시아대로42번길 8 (송도동, 송도 코오롱 더 프라우 1단지)",
    "lat": 37.39901522336623,
    "lng": 126.6518926142874,
    "region": "인천광역시"
  },
  {
    "name": "송도더샵센트럴파크1차주상복합 지하주차장 1~2층",
    "address": "인천광역시 연수구 센트럴로 232 (송도동, 더샵센트럴파크1)",
    "lat": 37.3963447962905,
    "lng": 126.63729638000412,
    "region": "인천광역시"
  },
  {
    "name": "송도더샵센트럴파크2차주상복합 지하주차장 1~2층",
    "address": "인천광역시 연수구 센트럴로 194 (송도동, 더샵 센트럴파크2)",
    "lat": 37.39418675693274,
    "lng": 126.64068883194462,
    "region": "인천광역시"
  },
  {
    "name": "송도자이하버뷰2단지아파트 지하주차장 1~2층",
    "address": "인천광역시 연수구 컨벤시아대로130번길 32 (송도동, 송도자이하버뷰2단지아파트)",
    "lat": 37.39471190723008,
    "lng": 126.64382369162864,
    "region": "인천광역시"
  },
  {
    "name": "송도푸르지오월드마크8단지주상복합 지하주차장 1~2층",
    "address": "인천광역시 연수구 컨벤시아대로 126 (송도동, 푸르지오월드마크)",
    "lat": 37.39246560158606,
    "lng": 126.64610793403436,
    "region": "인천광역시"
  },
  {
    "name": "송도더샵그린애비뉴8단지아파트 지하주차장 1~2층",
    "address": "인천광역시 연수구 컨벤시아대로42번길 61 (송도동, 송도더샵그린애비뉴8단지)",
    "lat": 37.40167862906743,
    "lng": 126.64684423400637,
    "region": "인천광역시"
  },
  {
    "name": "송도더샵하버뷰13단지아파트 지하주차장 1~2층",
    "address": "인천광역시 연수구 아트센터대로97번길 75 (송도동, 송도더샵하버뷰13단지)",
    "lat": 37.39744459426108,
    "lng": 126.64575477186868,
    "region": "인천광역시"
  },
  {
    "name": "송도캐슬앤해모로아파트 지하주차장 1~2층",
    "address": "인천광역시 연수구 송도과학로51번길 136 (송도동, 송도 캐슬&해모로)",
    "lat": 37.38535835630489,
    "lng": 126.67573340015863,
    "region": "인천광역시"
  },
  {
    "name": "송도테크노파크IT센터 지하주차장 1층",
    "address": "인천광역시 연수구 송도과학로 32 (송도동, 송도테크노파크IT센터)",
    "lat": 37.38235079879341,
    "lng": 126.66200049840366,
    "region": "인천광역시"
  },
  {
    "name": "송도더샵그린스퀘어 지하주차장 1~2층",
    "address": "인천광역시 연수구 송도문화로28번길 81 (송도동, 송도더샵그린스퀘어)",
    "lat": 37.37223559659802,
    "lng": 126.65205538440756,
    "region": "인천광역시"
  },
  {
    "name": "송도아라프라자 지하주차장 1~2층",
    "address": "인천광역시 연수구 컨벤시아대로230번길 42, 송도아라플라자 (송도동)",
    "lat": 37.38786166844975,
    "lng": 126.63499633325816,
    "region": "인천광역시"
  },
  {
    "name": "힐스테이트레이크송도2차아파트 지하주차장 1~2층",
    "address": "인천광역시 연수구 아카데미로 446 (송도동, 힐스테이트 레이크 송도 2차)",
    "lat": 37.39524895594599,
    "lng": 126.61937271796398,
    "region": "인천광역시"
  },
  {
    "name": "랜드마크시티 센트럴더샵 지하주차장 1층",
    "address": "인천광역시 연수구 랜드마크로 68, 지하층 (송도동, 랜드마크시티센트럴더샵)",
    "lat": 37.414915509294495,
    "lng": 126.62098428422416,
    "region": "인천광역시"
  },
  {
    "name": "송도파크자이 아파트 지하주차장 1층~3층",
    "address": "인천광역시 연수구 앵고개로104번길 22 (동춘동, 송도파크자이)",
    "lat": 37.41106174717291,
    "lng": 126.65770367461351,
    "region": "인천광역시"
  },
  {
    "name": "송도달빛축제공원역 대합실 지하1층",
    "address": "인천광역시 연수구 인천타워대로 지하424, 송도달빛축제공원역 (송도동)",
    "lat": 37.40735243701962,
    "lng": 126.62578547621476,
    "region": "인천광역시"
  },
  {
    "name": "더샵송도마리나베이 지하주차장 1층",
    "address": "인천광역시 연수구 랜드마크로 160 (송도동, 더샵 송도 마리나베이)",
    "lat": 37.4104293984403,
    "lng": 126.612290971737,
    "region": "인천광역시"
  },
  {
    "name": "청학동 행정복지센터 지하주차장 1층",
    "address": "인천광역시 연수구 비류대로 287, 청학동 행정복지센터(신 청사) (청학동)",
    "lat": 37.4266724706326,
    "lng": 126.666620456456,
    "region": "인천광역시"
  },
  {
    "name": "청학복합문화센터 지하주차장 1층",
    "address": "인천광역시 연수구 비류대로 299, 청학문화센터 (청학동)",
    "lat": 37.4263056468979,
    "lng": 126.667668621676,
    "region": "인천광역시"
  },
  {
    "name": "올리브아울렛 지하2층",
    "address": "인천광역시 남동구 남동대로 880, 올리브백화점 지하2층 (간석동)",
    "lat": 37.46099156172073,
    "lng": 126.70864180328635,
    "region": "인천광역시"
  },
  {
    "name": "인천광역시교육청 지하1층",
    "address": "인천광역시 남동구 정각로 9 (구월동, 인천광역시교육청)",
    "lat": 37.45531096303488,
    "lng": 126.70303537374468,
    "region": "인천광역시"
  },
  {
    "name": "민방위교육장",
    "address": "인천광역시 남동구 백범로180번길 25 (만수동, 만수북초등학교)",
    "lat": 37.45920500969482,
    "lng": 126.7293958481324,
    "region": "인천광역시"
  },
  {
    "name": "효성상아아파트 지하 1층",
    "address": "인천광역시 남동구 백범로227번길 76 (만수동, 효성상아아파트)",
    "lat": 37.45688200766197,
    "lng": 126.7233001421797,
    "region": "인천광역시"
  },
  {
    "name": "인천광역시청 지하1층",
    "address": "인천광역시 남동구 정각로 29 (구월동, 인천광역시청)",
    "lat": 37.455033486527306,
    "lng": 126.70608676793891,
    "region": "인천광역시"
  },
  {
    "name": "남동경찰서",
    "address": "인천광역시 남동구 남동대로 668 (구월동, 인천남동경찰서)",
    "lat": 37.44187197180574,
    "lng": 126.7068477187189,
    "region": "인천광역시"
  },
  {
    "name": "남동소방서 지하1층 식당",
    "address": "인천광역시 남동구 인주대로 714 (구월동, 남동소방서)",
    "lat": 37.44898050324343,
    "lng": 126.71624509890869,
    "region": "인천광역시"
  },
  {
    "name": "만수주공2단지아파트 전체 동의 지하1층",
    "address": "인천광역시 남동구 백범로124번길 43 (만수동, 만수주공2단지아파트)",
    "lat": 37.456480485933625,
    "lng": 126.73484880165346,
    "region": "인천광역시"
  },
  {
    "name": "만수주공4단지아파트 전체 동의 지하1층",
    "address": "인천광역시 남동구 백범로124번길 126 (만수동, 만수주공4단지아파트)",
    "lat": 37.459116130561256,
    "lng": 126.7375498767702,
    "region": "인천광역시"
  },
  {
    "name": "만수주공5단지아파트 전체 동의 지하1층",
    "address": "인천광역시 남동구 백범로124번길 127 (만수동, 만수주공5단지아파트)",
    "lat": 37.45965023303096,
    "lng": 126.73832058539304,
    "region": "인천광역시"
  },
  {
    "name": "금호아파트 전체 동의 지하 1층",
    "address": "인천광역시 남동구 구월로 73, 전체동 지하1층 (간석동, 금호아파트)",
    "lat": 37.45844268785645,
    "lng": 126.69893269304796,
    "region": "인천광역시"
  },
  {
    "name": "신동아아파트 1~9동 지하1층",
    "address": "인천광역시 남동구 만수로111번길 38 (만수동, 신동아아파트)",
    "lat": 37.46597090200122,
    "lng": 126.73664507378294,
    "region": "인천광역시"
  },
  {
    "name": "우성1차아파트 지하1층",
    "address": "인천광역시 남동구 방축로 501 (간석동, 우성아파트)",
    "lat": 37.46620873870194,
    "lng": 126.6934091671832,
    "region": "인천광역시"
  },
  {
    "name": "만수주공8단지아파트(801~808동) 지하1층",
    "address": "인천광역시 남동구 담방로 105 (만수동, 만수주공7,8단지아파트)",
    "lat": 37.44877217368386,
    "lng": 126.74069620257346,
    "region": "인천광역시"
  },
  {
    "name": "만수1동성당 지하1~3층",
    "address": "인천광역시 남동구 하촌로 66 (만수동, 만수1동천주교회)",
    "lat": 37.45362075368672,
    "lng": 126.73381321086808,
    "region": "인천광역시"
  },
  {
    "name": "낙원제일교회 지하 1층 주차장",
    "address": "인천광역시 남동구 용천로 94, 낙원제일교회 지하1층 (구월동)",
    "lat": 37.457983570996575,
    "lng": 126.715047121392,
    "region": "인천광역시"
  },
  {
    "name": "현대아파트 지하1층",
    "address": "인천광역시 남동구 방축로 493 (간석동, 현대아파트)",
    "lat": 37.46704355164863,
    "lng": 126.69301892329293,
    "region": "인천광역시"
  },
  {
    "name": "구월3동행정복지센터 지하1층",
    "address": "인천광역시 남동구 문화서로 84 (구월동, 구월3동주민센터)",
    "lat": 37.45270860403226,
    "lng": 126.69683034168033,
    "region": "인천광역시"
  },
  {
    "name": "KT 인천지사 지하1층",
    "address": "인천광역시 남동구 경인로 508 (간석동, KT인천지사)",
    "lat": 37.46030985066243,
    "lng": 126.69582917629522,
    "region": "인천광역시"
  },
  {
    "name": "우성2차아파트 지하1층",
    "address": "인천광역시 남동구 석정로551번길 20 (간석동, 간석2차우성아파트)",
    "lat": 37.467018619883966,
    "lng": 126.6969331332714,
    "region": "인천광역시"
  },
  {
    "name": "남동장애인종합복지관 지하 1층",
    "address": "인천광역시 남동구 인주대로 898 (만수동, 남동장애인종합복지관)",
    "lat": 37.44796757418223,
    "lng": 126.73704566438872,
    "region": "인천광역시"
  },
  {
    "name": "씨티은행 지하주차장 지하1층",
    "address": "인천광역시 남동구 인주대로 585 (구월동, 한국씨티은행)",
    "lat": 37.45036434906108,
    "lng": 126.70192744694518,
    "region": "인천광역시"
  },
  {
    "name": "종합문화예술회관 지하1층",
    "address": "인천광역시 남동구 예술로 지하 172 (구월동, 예술회관역)",
    "lat": 37.44943977618944,
    "lng": 126.7011556359658,
    "region": "인천광역시"
  },
  {
    "name": "구월4동 행정복지센터",
    "address": "인천광역시 남동구 구월말로 7, 구월4동 행정복지센터 (구월동)",
    "lat": 37.44964937736642,
    "lng": 126.72414382812674,
    "region": "인천광역시"
  },
  {
    "name": "두진아파트 주차장 지하1층",
    "address": "인천광역시 남동구 호구포로899번길 8 (간석동, 두진아파트)",
    "lat": 37.46271971850875,
    "lng": 126.71991788214956,
    "region": "인천광역시"
  },
  {
    "name": "남동구청 지하주차장 1층",
    "address": "인천광역시 남동구 소래로 633 (만수동, 남동구청)",
    "lat": 37.44652823968291,
    "lng": 126.73211745494034,
    "region": "인천광역시"
  },
  {
    "name": "만수6동 행정복지센터 지하1층",
    "address": "인천광역시 남동구 장승남로 47 (만수동, 만수6동주민센터)",
    "lat": 37.44369604055482,
    "lng": 126.7376071276478,
    "region": "인천광역시"
  },
  {
    "name": "뉴코아아울렛 지하주차장 지하 2층",
    "address": "인천광역시 남동구 인하로 485 (구월동, 뉴코아아울렛인천점)",
    "lat": 37.44372016206808,
    "lng": 126.70064276539836,
    "region": "인천광역시"
  },
  {
    "name": "동원아파트 주차장 지하1층",
    "address": "인천광역시 남동구 간석로66번길 29 (간석동, 동원아파트)",
    "lat": 37.46494828179751,
    "lng": 126.71507483137265,
    "region": "인천광역시"
  },
  {
    "name": "교원공제회관 지하1층~3층",
    "address": "인천광역시 남동구 백범로 357, 한국교직원공제회 인천회관 지하1층 (간석동)",
    "lat": 37.46539684491805,
    "lng": 126.71083127924426,
    "region": "인천광역시"
  },
  {
    "name": "한라아파트 지하1층",
    "address": "인천광역시 남동구 포구로 64-6 (논현동, 한라아파트)",
    "lat": 37.4045607927398,
    "lng": 126.73727163367712,
    "region": "인천광역시"
  },
  {
    "name": "태화오피스텔 지하1층",
    "address": "인천광역시 남동구 남동대로916번길 23, 태화오피스텔 지하1층 (간석동)",
    "lat": 37.46408799334292,
    "lng": 126.70966738037104,
    "region": "인천광역시"
  },
  {
    "name": "만수주공11단지아파트 지하주차장 1층",
    "address": "인천광역시 남동구 만수서로105번길 40-18 (만수동, 만수주공11단지아파트)",
    "lat": 37.46219164066561,
    "lng": 126.74005566563724,
    "region": "인천광역시"
  },
  {
    "name": "영풍2단지아파트 지하주차장 1층",
    "address": "인천광역시 남동구 호구포로888번길 40(만수동, 영풍아파트)",
    "lat": 37.46119496029132,
    "lng": 126.7225125320314,
    "region": "인천광역시"
  },
  {
    "name": "남촌도림동행정복지센터 지하1층",
    "address": "인천광역시 남동구 남촌동로 32, 남촌도림동 행정복지센터 (남촌동)",
    "lat": 37.432150659445966,
    "lng": 126.71519877607489,
    "region": "인천광역시"
  },
  {
    "name": "동부교육지원청 지하1층",
    "address": "인천광역시 남동구 인주대로 923 (만수동, 동부교육청)",
    "lat": 37.44823079567114,
    "lng": 126.74001491139477,
    "region": "인천광역시"
  },
  {
    "name": "영풍1단지아파트 지하주차장 2층",
    "address": "인천광역시 남동구 백범로248번길 20 (만수동, 영풍아파트)",
    "lat": 37.461715680512754,
    "lng": 126.72194344412588,
    "region": "인천광역시"
  },
  {
    "name": "논현주공1단지아파트 주차장 지하1~2층",
    "address": "인천광역시 남동구 호구포로 294 (논현동, 논현주공1단지아파트)",
    "lat": 37.40865101944679,
    "lng": 126.71332037032415,
    "region": "인천광역시"
  },
  {
    "name": "논현주공2-2단지 아파트 주차장 지하1~2층",
    "address": "인천광역시 남동구 함박뫼로 439 (논현동, 논현주공2단지아파트)",
    "lat": 37.40973685643493,
    "lng": 126.71141316479046,
    "region": "인천광역시"
  },
  {
    "name": "논현주공2-1단지 아파트 주차장 지하1~2층",
    "address": "인천광역시 남동구 함박뫼로 439 (논현동, 논현주공2단지아파트)",
    "lat": 37.40973685643493,
    "lng": 126.71141316479046,
    "region": "인천광역시"
  },
  {
    "name": "드림랜드아파트 주차장 지하1~2층",
    "address": "인천광역시 남동구 복개서로35번길 27-17 (구월동, 드림랜드아파트)",
    "lat": 37.44956452206021,
    "lng": 126.72729394797052,
    "region": "인천광역시"
  },
  {
    "name": "성문아파트 주차장 지하1층",
    "address": "인천광역시 남동구 호구포로744번길 26 (구월동, 성문아파트)",
    "lat": 37.44855150539422,
    "lng": 126.7205367227945,
    "region": "인천광역시"
  },
  {
    "name": "풍림2차아파트 지하1층",
    "address": "인천광역시 남동구 남촌동로 8 (남촌동, 남촌2차풍림아파트)",
    "lat": 37.43154106628389,
    "lng": 126.71790805713636,
    "region": "인천광역시"
  },
  {
    "name": "풍림1차아파트 지하1층",
    "address": "인천광역시 남동구 남촌동로15번길 21 (남촌동, 풍림아파트)",
    "lat": 37.43101527692928,
    "lng": 126.71715844058284,
    "region": "인천광역시"
  },
  {
    "name": "종합문화예술회관역 지하1~2층",
    "address": "인천광역시 남동구 예술로 지하 172 (구월동, 예술회관역)",
    "lat": 37.44943977618944,
    "lng": 126.7011556359658,
    "region": "인천광역시"
  },
  {
    "name": "인천시청역 지하1층",
    "address": "인천광역시 남동구 예술로 지하264, 인천시청역 1호선 (간석동)",
    "lat": 37.4574193760789,
    "lng": 126.702342101667,
    "region": "인천광역시"
  },
  {
    "name": "간석오거리역 지하1층",
    "address": "인천광역시 남동구 경인로 지하 642 (간석동, 간석오거리역)",
    "lat": 37.46667437878366,
    "lng": 126.70815141298858,
    "region": "인천광역시"
  },
  {
    "name": "동보아파트 주차장 지하1층",
    "address": "인천광역시 남동구 남동대로370번길 122 (논현동, 동보아파트)",
    "lat": 37.41323361150916,
    "lng": 126.71229938497012,
    "region": "인천광역시"
  },
  {
    "name": "햇빛마을벽산아파트 지하주차장 3층",
    "address": "인천광역시 남동구 호구포로 924 (만수동, 햇빛마을벽산아파트)",
    "lat": 37.46461547036613,
    "lng": 126.72108932516402,
    "region": "인천광역시"
  },
  {
    "name": "이삭아파트 주차장 지하1층",
    "address": "인천광역시 남동구 용천로176번길 109 (간석동, 이삭아파트)",
    "lat": 37.46523303507767,
    "lng": 126.7203723968922,
    "region": "인천광역시"
  },
  {
    "name": "풍림3차아파트 지하1층",
    "address": "인천광역시 남동구 남촌로84번길 38 (남촌동, 남촌3차풍림아파트)",
    "lat": 37.42935103665533,
    "lng": 126.7169806336471,
    "region": "인천광역시"
  },
  {
    "name": "태평2차아파트 주차장 지하 1~3층",
    "address": "인천광역시 남동구 장아산로 175 (서창동, 태평아파트상가)",
    "lat": 37.43587075348979,
    "lng": 126.75162833936626,
    "region": "인천광역시"
  },
  {
    "name": "이삭아파트 지하주차장 1층",
    "address": "인천광역시 남동구 담방서로17번길 21 (만수동, 이삭아파트)",
    "lat": 37.44660170322447,
    "lng": 126.73653549833747,
    "region": "인천광역시"
  },
  {
    "name": "삼익아파트 지하주차장 1층",
    "address": "인천광역시 남동구 장승남로 70-30 (만수동, 삼익아파트)",
    "lat": 37.44206315517954,
    "lng": 126.74001791056148,
    "region": "인천광역시"
  },
  {
    "name": "담방마을아파트 지하주차장 1층",
    "address": "인천광역시 남동구 매소홀로 1030 (만수동, 담방마을아파트)",
    "lat": 37.4394294378331,
    "lng": 126.73753777723276,
    "region": "인천광역시"
  },
  {
    "name": "한국아파트 지하주차장 1층",
    "address": "인천광역시 남동구 담방로21번길 23 (만수동, 한국아파트)",
    "lat": 37.44143801261939,
    "lng": 126.73736855882689,
    "region": "인천광역시"
  },
  {
    "name": "금호어울림아파트 지하주차장 1층",
    "address": "인천광역시 남동구 석산로 138 (간석동, 금호어울림마을아파트)",
    "lat": 37.460247821833406,
    "lng": 126.70725088831622,
    "region": "인천광역시"
  },
  {
    "name": "논현휴먼시아5단지아파트 주차장 지하1~2층",
    "address": "인천광역시 남동구 논현로 105 (논현동, 논현휴먼시아달맞이마을5단지아파트)",
    "lat": 37.40249208834845,
    "lng": 126.71814977848294,
    "region": "인천광역시"
  },
  {
    "name": "휴먼시아12단지아파트 지하1~2층",
    "address": "인천광역시 남동구 청능대로715번길 59 (논현동, 산뒤마을논현주공12단지아파트)",
    "lat": 37.40915469597824,
    "lng": 126.7351010548836,
    "region": "인천광역시"
  },
  {
    "name": "신영지웰9단지 아파트 지하1~2층",
    "address": "인천광역시 남동구 소래역로 93 (논현동, 냇마을신영지웰아파트)",
    "lat": 37.40421552885983,
    "lng": 126.73072249143772,
    "region": "인천광역시"
  },
  {
    "name": "현대홈타운아파트 지하주차장 1~2층",
    "address": "인천광역시 남동구 구월로 65 (간석동, 현대홈타운아파트)",
    "lat": 37.45737728940976,
    "lng": 126.6975749486029,
    "region": "인천광역시"
  },
  {
    "name": "다정한마을서해그랑블아파트 주차장 지하 1층",
    "address": "인천광역시 남동구 구월로157번길 7 (간석동, 다정한마을서해아파트)",
    "lat": 37.457246798872376,
    "lng": 126.70734046628068,
    "region": "인천광역시"
  },
  {
    "name": "서해그랑블아파트 주차장 지하1층",
    "address": "인천광역시 남동구 독곡로48번길 7 (서창동, 서해그랑블아파트상가)",
    "lat": 37.434101007743415,
    "lng": 126.74869696681613,
    "region": "인천광역시"
  },
  {
    "name": "소래마을풍림아파트 지하1~2층",
    "address": "인천광역시 남동구 청능대로718번길 7 (논현동, 소래마을풍림아파트)",
    "lat": 37.40655286494694,
    "lng": 126.73808020648592,
    "region": "인천광역시"
  },
  {
    "name": "휴먼시아8단지아파트 지하1층",
    "address": "인천광역시 남동구 소래역로 119 (논현동, 휴먼시아동산마을8단지아파트)",
    "lat": 37.40613741318811,
    "lng": 126.72907581995928,
    "region": "인천광역시"
  },
  {
    "name": "웰카운티10단지아파트 지하1~2층",
    "address": "인천광역시 남동구 논현로 235 (논현동, 별빛마을웰카운티아파트)",
    "lat": 37.40624866447582,
    "lng": 126.73167067525388,
    "region": "인천광역시"
  },
  {
    "name": "논현단풍마을트리플에듀 지하1층",
    "address": "인천광역시 남동구 소래역로 94 (논현동, 논현단풍마을트리플에듀)",
    "lat": 37.40441578255194,
    "lng": 126.73107804034332,
    "region": "인천광역시"
  },
  {
    "name": "휴먼시아13단지아파트 지하1층",
    "address": "인천광역시 남동구 포구로 98 (논현동, 휴먼시아푸르내마을13단지아파트)",
    "lat": 37.40665280707562,
    "lng": 126.73407419926676,
    "region": "인천광역시"
  },
  {
    "name": "논현주공14단지아파트 지하1층",
    "address": "인천광역시 남동구 청능대로715번길 22 (논현동, 등대마을논현주공14단지아파트)",
    "lat": 37.40774920390765,
    "lng": 126.73626047775794,
    "region": "인천광역시"
  },
  {
    "name": "신원아침도시아파트 지하1층",
    "address": "인천광역시 남동구 경원대로 972, 신원아침도시에이 (간석동)",
    "lat": 37.469472373453215,
    "lng": 126.69063127986324,
    "region": "인천광역시"
  },
  {
    "name": "신동아파밀리에명품아파트 지하1층~2층",
    "address": "인천광역시 남동구 염전로 440 (간석동, 신동아파밀리에명품아파트)",
    "lat": 37.46855761198466,
    "lng": 126.6889597681759,
    "region": "인천광역시"
  },
  {
    "name": "행복누리움아파트 지하1층",
    "address": "인천광역시 남동구 석정로 540-6, 지하1층 (간석동, 행복누리움아파트)",
    "lat": 37.46538403865732,
    "lng": 126.69555032417156,
    "region": "인천광역시"
  },
  {
    "name": "풍림아파트 지하1층~2층",
    "address": "인천광역시 남동구 석산로 35, 지하1층 (간석동, 간석마을 풍림아이원아파트)",
    "lat": 37.46219269626218,
    "lng": 126.6966635631432,
    "region": "인천광역시"
  },
  {
    "name": "남동국민체육센터 지하주차장 1층",
    "address": "인천광역시 남동구 백범로124번길 94, 남동국민체육센터 (만수동)",
    "lat": 37.45826898915335,
    "lng": 126.73629788673996,
    "region": "인천광역시"
  },
  {
    "name": "미추홀도서관 지하2층",
    "address": "인천광역시 남동구 인주대로776번길 53 (구월동, 인천광역시미추홀도서관)",
    "lat": 37.44679397506804,
    "lng": 126.72456482665454,
    "region": "인천광역시"
  },
  {
    "name": "논현1동 행정복지센터 지하1층",
    "address": "인천광역시 남동구 소래역로 115 (논현동, 논현1동주민센터)",
    "lat": 37.40581878210147,
    "lng": 126.72935850443729,
    "region": "인천광역시"
  },
  {
    "name": "구월1동행정복지센터 지하주차장 1층",
    "address": "인천광역시 남동구 선수촌공원로 104, 구월1동 행정복지센터 (구월동)",
    "lat": 37.4476505439478,
    "lng": 126.712492521604,
    "region": "인천광역시"
  },
  {
    "name": "서창임광그대가아파트 주차장 지하1층",
    "address": "인천광역시 남동구 장아산로 158 (서창동, 임광그대가아파트)",
    "lat": 37.43688859020492,
    "lng": 126.74997016736486,
    "region": "인천광역시"
  },
  {
    "name": "현대모닝사이드아파트 주차장 지하1~2층",
    "address": "인천광역시 남동구 매소홀로 1103 (서창동, 현대모닝사이드아파트)",
    "lat": 37.43855999822866,
    "lng": 126.74535359533974,
    "region": "인천광역시"
  },
  {
    "name": "어진마을한화꿈에그린6단지아파트 주차장 지하1~2층",
    "address": "인천광역시 남동구 논현로 106 (논현동, 어진마을한화꿈에그린6단지아파트)",
    "lat": 37.40216053698474,
    "lng": 126.71828078917486,
    "region": "인천광역시"
  },
  {
    "name": "신일해피트리7단지아파트 주차장 지하1층",
    "address": "인천광역시 남동구 은봉로 288 (논현동, 새터마을신일해피트리아파트)",
    "lat": 37.40510389379326,
    "lng": 126.72198293506484,
    "region": "인천광역시"
  },
  {
    "name": "대성유니드아파트 지하주차장 1층",
    "address": "인천광역시 남동구 서판로 30 (만수동, 대성유니드별빛마을아파트)",
    "lat": 37.46319337044113,
    "lng": 126.723727715975,
    "region": "인천광역시"
  },
  {
    "name": "남촌동성당 지하1층",
    "address": "인천광역시 남동구 남촌로93번길 22-4 (남촌동, 남촌동천주교회)",
    "lat": 37.42840140839788,
    "lng": 126.71383500563468,
    "region": "인천광역시"
  },
  {
    "name": "도림주공1차아파트 지하1층",
    "address": "인천광역시 남동구 논고개로334번길 17 (도림동, 도림주공그린빌1단지아파트)",
    "lat": 37.41904133639303,
    "lng": 126.73088024464946,
    "region": "인천광역시"
  },
  {
    "name": "도림주공2차아파트 지하1층",
    "address": "인천광역시 남동구 오봉로 33 (도림동, 도림주공그린빌2단지아파트)",
    "lat": 37.41818730486075,
    "lng": 126.73049408464588,
    "region": "인천광역시"
  },
  {
    "name": "벽산블루밍아파트 지하1층",
    "address": "인천광역시 남동구 도림로 8 (도림동, 벽산블루밍아파트)",
    "lat": 37.4205770756647,
    "lng": 126.72894951496946,
    "region": "인천광역시"
  },
  {
    "name": "도림현대아이파크아파트 지하1층",
    "address": "인천광역시 남동구 도리미로 8 (도림동, 현대아이파크아파트)",
    "lat": 37.42197799945994,
    "lng": 126.73051351337668,
    "region": "인천광역시"
  },
  {
    "name": "1단지힐스테이트롯데캐슬아파트 지하주차장 1층~2층",
    "address": "인천광역시 남동구 구월로 192, 지하주차장 1층~2층 (구월동, 힐스테이트롯데캐슬골드1단지아파트)",
    "lat": 37.4564339655208,
    "lng": 126.71175453231564,
    "region": "인천광역시"
  },
  {
    "name": "2단지구월롯데캐슬아파트 지하주차장 1층~2층",
    "address": "인천광역시 남동구 호구포로 803, 지하주차장 1층~2층 (구월동, 롯데캐슬골드)",
    "lat": 37.4541590497489,
    "lng": 126.71887929540112,
    "region": "인천광역시"
  },
  {
    "name": "휴먼시아3단지아파트 주차장 지하1층",
    "address": "인천광역시 남동구 논현로 45 (논현동, 논현휴먼시아하늘마을3단지아파트)",
    "lat": 37.402395265008806,
    "lng": 126.71156718494744,
    "region": "인천광역시"
  },
  {
    "name": "에코메트로한화꿈에그린11단지아파트 지하주차장 1층",
    "address": "인천광역시 남동구 논고개로 17 (논현동, 한화꿈에그린에코메트로11단지)",
    "lat": 37.39502648240853,
    "lng": 126.73144546892004,
    "region": "인천광역시"
  },
  {
    "name": "에코메트로한화꿈에그린12단지아파트 지하주차장 1층",
    "address": "인천광역시 남동구 논고개로 10 (논현동, 에코메트로12단지한화꿈에그린아파트)",
    "lat": 37.39477585333341,
    "lng": 126.73256623802423,
    "region": "인천광역시"
  },
  {
    "name": "휴먼시아2단지아파트 주차장 지하1층",
    "address": "인천광역시 남동구 은봉로166번길 27 (논현동, 논현휴먼시아범마을2단지아파트)",
    "lat": 37.40455099228637,
    "lng": 126.70762477624584,
    "region": "인천광역시"
  },
  {
    "name": "장수주공아파트 주차장 지하1층",
    "address": "인천광역시 남동구 장수로 27 (장수동, 주공아파트)",
    "lat": 37.45187866133276,
    "lng": 126.7494784512173,
    "region": "인천광역시"
  },
  {
    "name": "한국산업단지공단 인천지역본부 지하주차장 1층",
    "address": "인천광역시 남동구 남동대로 217 (고잔동, 한국산업단지공단 인천지역본부)",
    "lat": 37.4045656515864,
    "lng": 126.69704828209962,
    "region": "인천광역시"
  },
  {
    "name": "인천종합비즈니스센터 지하주차장 1층",
    "address": "인천광역시 남동구 남동대로215번길 30 (고잔동, 인천종합비즈니스센터)",
    "lat": 37.40509955060666,
    "lng": 126.6958177154168,
    "region": "인천광역시"
  },
  {
    "name": "논현고잔동 행정복지센터 지하주차장 1층",
    "address": "인천광역시 남동구 앵고개로847번길 32 (논현동, 논현고잔동주민센터)",
    "lat": 37.39772635750625,
    "lng": 126.72624861471807,
    "region": "인천광역시"
  },
  {
    "name": "에코메트로한화꿈에그린9단지아파트 지하주차장 1층",
    "address": "인천광역시 남동구 에코중앙로 96 (논현동, 에코메트로9단지한화꿈에그린아파트)",
    "lat": 37.38723206413356,
    "lng": 126.72148303727812,
    "region": "인천광역시"
  },
  {
    "name": "에코메트로한화꿈에그린10단지아파트 지하주차장 1층",
    "address": "인천광역시 남동구 아암대로1503번길 21 (논현동, 에코메트로10단지한화꿈에그린아파트)",
    "lat": 37.39143229033449,
    "lng": 126.7291980638855,
    "region": "인천광역시"
  },
  {
    "name": "에코메트로한화꿈에그린7단지아파트 지하주차장 1층",
    "address": "인천광역시 남동구 에코중앙로 165 (논현동, 에코메트로7단지상가)",
    "lat": 37.39211891819028,
    "lng": 126.72628988801578,
    "region": "인천광역시"
  },
  {
    "name": "소래휴먼시아1단지아파트 지하주차장 1층",
    "address": "인천광역시 남동구 앵고개로815번길 70 (논현동, 소래휴먼시아1단지아파트)",
    "lat": 37.396369179537366,
    "lng": 126.72273958848672,
    "region": "인천광역시"
  },
  {
    "name": "소래휴먼시아3단지아파트 지하주차장 1층",
    "address": "인천광역시 남동구 논현로 45 (논현동, 논현휴먼시아하늘마을3단지아파트)",
    "lat": 37.402395265008806,
    "lng": 126.71156718494744,
    "region": "인천광역시"
  },
  {
    "name": "에코메트로한화꿈에그린6단지아파트 지하주차장 1층",
    "address": "인천광역시 남동구 아암대로1503번길 98 (논현동, 에코메트로6단지한화꿈에그린아파트)",
    "lat": 37.39395516715167,
    "lng": 126.72619861368058,
    "region": "인천광역시"
  },
  {
    "name": "에코메트로한화꿈에그린5단지아파트 지하주차장 1층",
    "address": "인천광역시 남동구 소래역남로 39 (논현동, 에코메트로5단지한화꿈에그린아파트)",
    "lat": 37.39905356855593,
    "lng": 126.73256032463988,
    "region": "인천광역시"
  },
  {
    "name": "논현힐스테이트아파트 지하주차장 1층",
    "address": "인천광역시 남동구 논고개로68번길 39 (논현동, 힐스테이트아파트상가)",
    "lat": 37.39982086849075,
    "lng": 126.72872460270776,
    "region": "인천광역시"
  },
  {
    "name": "간석3동행정복지센터 주차장 지하1층",
    "address": "인천광역시 남동구 용천로 186 (간석동, 간석3동주민센터)",
    "lat": 37.46608596229056,
    "lng": 126.71436015398292,
    "region": "인천광역시"
  },
  {
    "name": "만수1동 행정복지센터 지하1층",
    "address": "인천광역시 남동구 인주대로 851, 만수1동 행정복지센터 (만수동)",
    "lat": 37.448633266678144,
    "lng": 126.73187907963248,
    "region": "인천광역시"
  },
  {
    "name": "올림픽생활기념관 지하 1층",
    "address": "인천광역시 남동구 구월로 251 (구월동, 올림픽국민생활체육관)",
    "lat": 37.45614730701512,
    "lng": 126.71866319731863,
    "region": "인천광역시"
  },
  {
    "name": "구월2동 행정복지센터 지하 1층 주차장",
    "address": "인천광역시 남동구 구월로 208, 구월2동 행정복지센터 지하주차장 1층 (구월동)",
    "lat": 37.45616851227794,
    "lng": 126.71344633593438,
    "region": "인천광역시"
  },
  {
    "name": "장수서창동 행정복지센터 지하주차장 1층",
    "address": "인천광역시 남동구 독곡로 28 (서창동, 장수서창동주민센터)",
    "lat": 37.43590125428819,
    "lng": 126.74746712249878,
    "region": "인천광역시"
  },
  {
    "name": "만수2동 행정복지센터 지하주차장 1층",
    "address": "인천광역시 남동구 만수서로 46 (만수동, 만수2동 주민센터)",
    "lat": 37.4614746478146,
    "lng": 126.73115314972492,
    "region": "인천광역시"
  },
  {
    "name": "포레시안아파트 지하주차장 1층",
    "address": "인천광역시 남동구 만수서로 55(만수동, 포레시안(Foresian))",
    "lat": 37.46186506709462,
    "lng": 126.73223673569592,
    "region": "인천광역시"
  },
  {
    "name": "향촌2차아파트 지하주차장 1층",
    "address": "인천광역시 남동구 만수서로 36 (만수동, 향촌휴먼시아2단지아파트)",
    "lat": 37.461341941040295,
    "lng": 126.73011156440764,
    "region": "인천광역시"
  },
  {
    "name": "만수3동 행정복지센터 지하1층",
    "address": "인천광역시 남동구 서판로 11 (만수동, 만수3동주민센터)",
    "lat": 37.46195361838232,
    "lng": 126.72298854667774,
    "region": "인천광역시"
  },
  {
    "name": "만수어린이공원 지하주차장 1층",
    "address": "인천광역시 남동구 구월로336번길 38 (만수동)",
    "lat": 37.453455951336,
    "lng": 126.72777133371748,
    "region": "인천광역시"
  },
  {
    "name": "간석LH1단지아파트 주차장 지하1층",
    "address": "인천광역시 남동구 백범로294번길 15 (간석동, 간석LH1단지)",
    "lat": 37.46333165504686,
    "lng": 126.71749825942928,
    "region": "인천광역시"
  },
  {
    "name": "구월아시아드 선수촌 2단지아파트 지하주차장 지하1~2층",
    "address": "인천광역시 남동구 선수촌공원로 96 (구월동, 구월아시아드선수촌2단지)",
    "lat": 37.44699823717414,
    "lng": 126.7125807862788,
    "region": "인천광역시"
  },
  {
    "name": "구월아시아드 선수촌 센트럴자이아파트 지하주차장 1~2층",
    "address": "인천광역시 남동구 선수촌로 55 (구월동, 구월아시아드선수촌센트럴자이)",
    "lat": 37.444135667084495,
    "lng": 126.71448887081225,
    "region": "인천광역시"
  },
  {
    "name": "구월아시아드 선수촌 8단지아파트 지하주차장 1층",
    "address": "인천광역시 남동구 선수촌로 8 (구월동, 구월아시아드선수촌8단지)",
    "lat": 37.44001740773136,
    "lng": 126.7150910791433,
    "region": "인천광역시"
  },
  {
    "name": "석천사거리역 지하1층",
    "address": "인천광역시 남동구 구월로 지하181, 석천사거리역 지하1층 (구월동)",
    "lat": 37.45683018390227,
    "lng": 126.71069934397646,
    "region": "인천광역시"
  },
  {
    "name": "만수역 지하1~2층",
    "address": "인천광역시 남동구 구월로 지하 367 (만수동, 만수역)",
    "lat": 37.45510142005888,
    "lng": 126.73159996116206,
    "region": "인천광역시"
  },
  {
    "name": "남동구청역 지하1~2층",
    "address": "인천광역시 남동구 인주대로 지하 889 (만수동, 남동구청역)",
    "lat": 37.44832461063074,
    "lng": 126.73623163714552,
    "region": "인천광역시"
  },
  {
    "name": "모래내시장역 지하1층(대합실)",
    "address": "인천광역시 남동구 구월로 263 (구월동)",
    "lat": 37.45601870179898,
    "lng": 126.7198570139736,
    "region": "인천광역시"
  },
  {
    "name": "인천서창LH1단지아파트 주차장 지하1층",
    "address": "인천광역시 남동구 서창남순환로 124-14 (서창동, 서창LH1단지아파트)",
    "lat": 37.429749039454606,
    "lng": 126.74285302385545,
    "region": "인천광역시"
  },
  {
    "name": "서창베라체아파트 주차장 지하1층",
    "address": "인천광역시 남동구 서창남로 17 (서창동, 서창LH11단지)",
    "lat": 37.4213024878155,
    "lng": 126.75160373821446,
    "region": "인천광역시"
  },
  {
    "name": "서창센트라스아파트 주차장 지하1층",
    "address": "인천광역시 남동구 서창남순환로 201 (서창동, 서창LH8단지)",
    "lat": 37.42417374065596,
    "lng": 126.746704032167,
    "region": "인천광역시"
  },
  {
    "name": "더포레스트아파트 주차장 지하1층",
    "address": "인천광역시 남동구 서창남순환로 140 (서창동)",
    "lat": 37.42802791501698,
    "lng": 126.74437583499146,
    "region": "인천광역시"
  },
  {
    "name": "서창베니엔아파트 주차장 지하1층",
    "address": "인천광역시 남동구 서창남순환로 110 (서창동, 서창LH3단지)",
    "lat": 37.42990534011628,
    "lng": 126.74566426498902,
    "region": "인천광역시"
  },
  {
    "name": "서창센트럴푸르지오아파트 주차장 지하1층",
    "address": "인천광역시 남동구 서창남순환로 55 (서창동, 서창센트럴푸르지오)",
    "lat": 37.428761315155285,
    "lng": 126.75058058799009,
    "region": "인천광역시"
  },
  {
    "name": "서창퍼스트뷰아파트 주차장 지하1층",
    "address": "인천광역시 남동구 서창남순환로 190-15 (서창동, 서창LH7단지아파트)",
    "lat": 37.423293877678674,
    "lng": 126.74459335208554,
    "region": "인천광역시"
  },
  {
    "name": "호반베르디움아파트 주차장 지하1층",
    "address": "인천광역시 남동구 서창남순환로 200 (서창동, 호반베르디움)",
    "lat": 37.42370024758424,
    "lng": 126.74675199001526,
    "region": "인천광역시"
  },
  {
    "name": "만수5동 행정복지센터 지하주차장 1층",
    "address": "인천광역시 남동구 만경로28번길 3(만수동)",
    "lat": 37.45797945350432,
    "lng": 126.7277398014432,
    "region": "인천광역시"
  },
  {
    "name": "시장로터리지하상가",
    "address": "인천광역시 부평구 시장로 지하42 (부평동)",
    "lat": 37.494631906410646,
    "lng": 126.72700019091934,
    "region": "인천광역시"
  },
  {
    "name": "삼보아파트 지하주차장1층",
    "address": "인천광역시 부평구 후정동로47번길 4 (삼산동)",
    "lat": 37.521714494158026,
    "lng": 126.7378409364398,
    "region": "인천광역시"
  },
  {
    "name": "부개동 한국아파트 104동지하주차장1층",
    "address": "인천광역시 부평구 동수로120번길 11 (부개동)",
    "lat": 37.48434977448378,
    "lng": 126.73191442139888,
    "region": "인천광역시"
  },
  {
    "name": "무지개아파트 1동지하주차장",
    "address": "인천광역시 부평구 부평북로 123 (청천동, 무지개아파트)",
    "lat": 37.52264745306923,
    "lng": 126.70677840977326,
    "region": "인천광역시"
  },
  {
    "name": "현대아파트 지하주차장1~2층",
    "address": "인천광역시 부평구 부평북로 407 (삼산동, 현대아파트)",
    "lat": 37.52258035073283,
    "lng": 126.73874363838895,
    "region": "인천광역시"
  },
  {
    "name": "광명아파트 102동지하주차장",
    "address": "인천광역시 부평구 평천로153번길 13 (청천동, 광명아파트)",
    "lat": 37.51889847326594,
    "lng": 126.70918579964462,
    "region": "인천광역시"
  },
  {
    "name": "미래타운1단지아파트 지하주차장1층",
    "address": "인천광역시 부평구 부평북로 431 (삼산동)",
    "lat": 37.52224786115087,
    "lng": 126.74160804559648,
    "region": "인천광역시"
  },
  {
    "name": "미래타운3단지아파트 지하주차장1층~2층",
    "address": "인천광역시 부평구 부평북로 463 (삼산동)",
    "lat": 37.52206838046828,
    "lng": 126.74513976183708,
    "region": "인천광역시"
  },
  {
    "name": "미래타운4단지아파트 지하주차장1~3층",
    "address": "인천광역시 부평구 영성중로 57 (삼산동)",
    "lat": 37.52144086202376,
    "lng": 126.74504253230296,
    "region": "인천광역시"
  },
  {
    "name": "그린힐주상복합아파트 지하주차장1층",
    "address": "인천광역시 부평구 경인로 1038 (부개동)",
    "lat": 37.48673189612418,
    "lng": 126.73506379341325,
    "region": "인천광역시"
  },
  {
    "name": "부평역(3~4번출구)",
    "address": "인천광역시 부평구 광장로 16 (부평동, 부평민자역사)",
    "lat": 37.49018996934033,
    "lng": 126.72275202611544,
    "region": "인천광역시"
  },
  {
    "name": "동수지하철역",
    "address": "인천광역시 부평구 경인로 지하 877 (부평동, 동수역)",
    "lat": 37.48529613712016,
    "lng": 126.71787841124544,
    "region": "인천광역시"
  },
  {
    "name": "부평감리교회 지하주차장1층~2층",
    "address": "인천광역시 부평구 부영로 34 (부평동)",
    "lat": 37.48837017300395,
    "lng": 126.71749307881863,
    "region": "인천광역시"
  },
  {
    "name": "부평삼거리 지하철역 지하 1층",
    "address": "인천광역시 부평구 경인로 지하 765 (십정동)",
    "lat": 37.47798259545609,
    "lng": 126.71020443191144,
    "region": "인천광역시"
  },
  {
    "name": "대주파크빌라 지하주차장 1층",
    "address": "인천광역시 부평구 마장로 49 (십정동)",
    "lat": 37.483147485917065,
    "lng": 126.70831991775086,
    "region": "인천광역시"
  },
  {
    "name": "부평구청 지하주차장",
    "address": "인천광역시 부평구 부평대로 168 (부평동, 부평구청)",
    "lat": 37.506549366043785,
    "lng": 126.7212771294961,
    "region": "인천광역시"
  },
  {
    "name": "부평시장 지하철역",
    "address": "인천광역시 부평구 부평대로 지하 69 (부평동, 부평시장역)",
    "lat": 37.49765398763331,
    "lng": 126.72220249243053,
    "region": "인천광역시"
  },
  {
    "name": "거산아파트 101동 지하주차장",
    "address": "인천광역시 부평구 세월천로115번길 21 (산곡동, 거산아파트)",
    "lat": 37.513799918135135,
    "lng": 126.6974870651438,
    "region": "인천광역시"
  },
  {
    "name": "현대1차아파트103동지하주차장",
    "address": "인천광역시 부평구 원적로269번길 15 (산곡동)",
    "lat": 37.50525482487832,
    "lng": 126.69543569238084,
    "region": "인천광역시"
  },
  {
    "name": "우성4차아파트 각 동 지층(401동외3개동)",
    "address": "인천광역시 부평구 안남로123번길 46 (산곡동, 우성아파트)",
    "lat": 37.49482154206142,
    "lng": 126.70743455768496,
    "region": "인천광역시"
  },
  {
    "name": "우성아파트 지하주차장1층",
    "address": "인천광역시 부평구 부영로 165 (산곡동)",
    "lat": 37.49997807671958,
    "lng": 126.71594700238283,
    "region": "인천광역시"
  },
  {
    "name": "경남1차아파트 지하주차장1층",
    "address": "인천광역시 부평구 안남로222번길 27 (산곡동, 경남아파트)",
    "lat": 37.50262713959209,
    "lng": 126.7102350460842,
    "region": "인천광역시"
  },
  {
    "name": "경남2차아파트 지하주자장1층",
    "address": "인천광역시 부평구 안남로222번길 30 (산곡동)",
    "lat": 37.502415620080846,
    "lng": 126.71027036454647,
    "region": "인천광역시"
  },
  {
    "name": "현대5차아파트 지하주차장1층",
    "address": "인천광역시 부평구 안남로 260 (산곡동)",
    "lat": 37.50609942980432,
    "lng": 126.70911846357862,
    "region": "인천광역시"
  },
  {
    "name": "경남4차아파트 지하주차장1~3층",
    "address": "인천광역시 부평구 안남로206번길 18 (산곡동)",
    "lat": 37.50099509584585,
    "lng": 126.7095598197585,
    "region": "인천광역시"
  },
  {
    "name": "인향아파트 지하주차장",
    "address": "인천광역시 부평구 청안로 8 (청천동)",
    "lat": 37.52188157276837,
    "lng": 126.69492274607045,
    "region": "인천광역시"
  },
  {
    "name": "우진빌딩-삼우시티빌50동지하주차장",
    "address": "인천광역시 부평구 길주로 505 (청천동)",
    "lat": 37.50781934221877,
    "lng": 126.718355235862,
    "region": "인천광역시"
  },
  {
    "name": "금호타운아파트 206~207동지하주차장",
    "address": "인천광역시 부평구 안남로 272 (청천동, 부평1차금호타운)",
    "lat": 37.50707987137933,
    "lng": 126.7093030626832,
    "region": "인천광역시"
  },
  {
    "name": "청천푸르지오아파트 지하주차장1~2층",
    "address": "인천광역시 부평구 세월천로 16 (청천동, 청천푸르지오아파트)",
    "lat": 37.513025306837264,
    "lng": 126.7077349546048,
    "region": "인천광역시"
  },
  {
    "name": "갈산지하철역",
    "address": "인천광역시 부평구 부평대로 지하 286 (청천동)",
    "lat": 37.516949107362265,
    "lng": 126.7217081951258,
    "region": "인천광역시"
  },
  {
    "name": "정광아파트 가동 지하1층",
    "address": "인천광역시 부평구 평천로306번길 27 (갈산동)",
    "lat": 37.51597778466138,
    "lng": 126.7241748770884,
    "region": "인천광역시"
  },
  {
    "name": "갈산1동 한국아파트 지하주차장1층",
    "address": "인천광역시 부평구 부평대로278번길 42 (갈산동)",
    "lat": 37.51521094112347,
    "lng": 126.72346281374344,
    "region": "인천광역시"
  },
  {
    "name": "갈산1동 태화아파트 지하주차장1층",
    "address": "인천광역시 부평구 부평북로 313 (갈산동)",
    "lat": 37.522815181221546,
    "lng": 126.72830924314148,
    "region": "인천광역시"
  },
  {
    "name": "갈산이안아파트 지하주차장1층",
    "address": "인천광역시 부평구 평천로305번길 15 (갈산동)",
    "lat": 37.51778085938375,
    "lng": 126.72388867899993,
    "region": "인천광역시"
  },
  {
    "name": "부평구청지하철역(인천1호선2번출구) 지하1층",
    "address": "인천광역시 부평구 부평대로 지하189, 부평구청역 (청천동)",
    "lat": 37.5082509921957,
    "lng": 126.72033418325236,
    "region": "인천광역시"
  },
  {
    "name": "대동1차아파트 지하주차장 1층",
    "address": "인천광역시 부평구 주부토로 193 (갈산동)",
    "lat": 37.51241677789663,
    "lng": 126.72593833660802,
    "region": "인천광역시"
  },
  {
    "name": "대동2차아파트 지하주차장 1층",
    "address": "인천광역시 부평구 주부토로 201 (갈산동)",
    "lat": 37.51298039092294,
    "lng": 126.72582482315184,
    "region": "인천광역시"
  },
  {
    "name": "하나아파트 지하주차장 1층",
    "address": "인천광역시 부평구 갈월서로 45 (갈산동)",
    "lat": 37.51146638333084,
    "lng": 126.72344204196968,
    "region": "인천광역시"
  },
  {
    "name": "태화아파트 1~7동지하주차장 1층",
    "address": "인천광역시 부평구 갈월서로 46 (갈산동)",
    "lat": 37.51131842433485,
    "lng": 126.72366661429028,
    "region": "인천광역시"
  },
  {
    "name": "두산아파트 지하주차장 1층",
    "address": "인천광역시 부평구 갈월동로 45 (갈산동)",
    "lat": 37.51120536516551,
    "lng": 126.72880924742272,
    "region": "인천광역시"
  },
  {
    "name": "팬더아파트 지하주차장 1층",
    "address": "인천광역시 부평구 갈월동로 34 (갈산동)",
    "lat": 37.51023999383077,
    "lng": 126.7290630647836,
    "region": "인천광역시"
  },
  {
    "name": "동아아파트 지하주차장 1층",
    "address": "인천광역시 부평구 갈월동로 42 (갈산동)",
    "lat": 37.51082179433893,
    "lng": 126.72908893480016,
    "region": "인천광역시"
  },
  {
    "name": "갈산 한국아파트 지하주차장 1층",
    "address": "인천광역시 부평구 갈월동로 40 (갈산동)",
    "lat": 37.51081080169338,
    "lng": 126.72908948277266,
    "region": "인천광역시"
  },
  {
    "name": "아주아파트 지하주차장 1층",
    "address": "인천광역시 부평구 갈월서로 26 (갈산동)",
    "lat": 37.50973294536121,
    "lng": 126.7230180563492,
    "region": "인천광역시"
  },
  {
    "name": "삼성아파트 지하주차장1층",
    "address": "인천광역시 부평구 수변로 74 (부개동, 삼성아파트)",
    "lat": 37.493115069830814,
    "lng": 126.7409993812347,
    "region": "인천광역시"
  },
  {
    "name": "부개주공7단지 지하주차장1~2층",
    "address": "인천광역시 부평구 동수천로 118 (부개동, 부개주공7단지아파트)",
    "lat": 37.4959915983474,
    "lng": 126.73704784844236,
    "region": "인천광역시"
  },
  {
    "name": "주공1단지아파트 지하주차장",
    "address": "인천광역시 부평구 길주남로 143 (부개동, 부개주공아파트)",
    "lat": 37.504060424644045,
    "lng": 126.73780560102652,
    "region": "인천광역시"
  },
  {
    "name": "주공3단지아파트 지하주차장",
    "address": "인천광역시 부평구 길주남로 144 (부개동, 부개주공아파트)",
    "lat": 37.50370989250752,
    "lng": 126.7376805983792,
    "region": "인천광역시"
  },
  {
    "name": "주공6단지아파트 지하주차장",
    "address": "인천광역시 부평구 부개로 12 (부개동, 부개주공아파트)",
    "lat": 37.49855442216379,
    "lng": 126.7396942672194,
    "region": "인천광역시"
  },
  {
    "name": "보람아파트 지하주차장",
    "address": "인천광역시 부평구 길주남로 175 (부개동, 신명보람아파트)",
    "lat": 37.50406846300746,
    "lng": 126.74123922424884,
    "region": "인천광역시"
  },
  {
    "name": "풍림아파트 지하주차장",
    "address": "인천광역시 부평구 일신로14번길 23 (일신동, 풍림아파트)",
    "lat": 37.4825423913882,
    "lng": 126.74306443678348,
    "region": "인천광역시"
  },
  {
    "name": "근로복지공단 인천병원 지하주차장",
    "address": "인천광역시 부평구 무네미로 446 (구산동, 중앙병원)",
    "lat": 37.47645584952635,
    "lng": 126.7527397662618,
    "region": "인천광역시"
  },
  {
    "name": "백영아파트(지하주차장)",
    "address": "인천광역시 부평구 경원대로 1086 (십정동, 백영아파트)",
    "lat": 37.49705697987705,
    "lng": 126.72591754628192,
    "region": "인천광역시"
  },
  {
    "name": "십정동한국아파트 지하주차장",
    "address": "인천광역시 부평구 이규보로95번길 24 (십정동)",
    "lat": 37.48075231447648,
    "lng": 126.7028444051194,
    "region": "인천광역시"
  },
  {
    "name": "동보아파트 지하주차장",
    "address": "인천광역시 부평구 상정로 11 (십정동)",
    "lat": 37.48137444796475,
    "lng": 126.7014599615929,
    "region": "인천광역시"
  },
  {
    "name": "신동아아파트 지하주차장1~2층",
    "address": "인천광역시 부평구 아트센터로 118 (십정동)",
    "lat": 37.4784861597838,
    "lng": 126.70384009954286,
    "region": "인천광역시"
  },
  {
    "name": "부개 백영아파트 지하주차장1~2층",
    "address": "인천광역시 부평구 수변로 115 (부개동, 백영아파트)",
    "lat": 37.49672472607856,
    "lng": 126.74150267254495,
    "region": "인천광역시"
  },
  {
    "name": "십정주공뜨란채아파트 지하주차장",
    "address": "인천광역시 부평구 이규보로 79 (십정동, 주공뜨란채아파트)",
    "lat": 37.47986309887834,
    "lng": 126.70331643240796,
    "region": "인천광역시"
  },
  {
    "name": "부평역지하상가",
    "address": "인천광역시 부평구 광장로 지하 15 (부평동, 지하부평역)",
    "lat": 37.49040902362361,
    "lng": 126.72352183255168,
    "region": "인천광역시"
  },
  {
    "name": "부평중앙지하상가",
    "address": "인천광역시 부평구 광장로 지하 30 (부평동)",
    "lat": 37.49057163085216,
    "lng": 126.72471996149268,
    "region": "인천광역시"
  },
  {
    "name": "엠코타운아파트 지하주차장1층",
    "address": "인천광역시 부평구 후정로 7 (삼산동)",
    "lat": 37.52057418668692,
    "lng": 126.73353644515336,
    "region": "인천광역시"
  },
  {
    "name": "부평자이아파트 지하주차장",
    "address": "인천광역시 부평구 일신로 120 (구산동, 부평자이)",
    "lat": 37.477161083753366,
    "lng": 126.75076903304186,
    "region": "인천광역시"
  },
  {
    "name": "행복한마을서해그랑블아파트 지하주차장1~2층",
    "address": "인천광역시 부평구 굴포로 158 (삼산동)",
    "lat": 37.511882431401,
    "lng": 126.73883311789008,
    "region": "인천광역시"
  },
  {
    "name": "인천삼산월드체육관 지하주차장1~2층",
    "address": "인천광역시 부평구 체육관로 60 (삼산동)",
    "lat": 37.50802288852191,
    "lng": 126.73820988945532,
    "region": "인천광역시"
  },
  {
    "name": "현대아파트2차 201동지하주차장",
    "address": "인천광역시 부평구 원적로269번길 55-5 (산곡동, 산곡2차현대아파트)",
    "lat": 37.50653889390956,
    "lng": 126.69327568955288,
    "region": "인천광역시"
  },
  {
    "name": "산곡세창아파트101동 지하주차장",
    "address": "인천광역시 부평구 마곡로 17 (산곡동)",
    "lat": 37.51220417463684,
    "lng": 126.69945928339418,
    "region": "인천광역시"
  },
  {
    "name": "신명스카이아파트104동 지하주차장",
    "address": "인천광역시 부평구 원적로 270 (산곡동)",
    "lat": 37.504674077592746,
    "lng": 126.69620447437448,
    "region": "인천광역시"
  },
  {
    "name": "금호이수아파트 지하주차장1~2층",
    "address": "인천광역시 부평구 원적로 344, 101,107,201,204동 (산곡동, 금호이수마운트밸리)",
    "lat": 37.50412400499594,
    "lng": 126.70446661226592,
    "region": "인천광역시"
  },
  {
    "name": "프리상뜨아파트 지하주차장1~2층",
    "address": "인천광역시 부평구 마장로220번길 65, 102동 (산곡동, 프리상뜨아파트)",
    "lat": 37.49770453635875,
    "lng": 126.70622811879416,
    "region": "인천광역시"
  },
  {
    "name": "한신휴아파트 지하주차장(1~2층)",
    "address": "인천광역시 부평구 마장로220번길 13, 102,104동 (산곡동, 한신휴아파트)",
    "lat": 37.49766452510089,
    "lng": 126.7032437708404,
    "region": "인천광역시"
  },
  {
    "name": "삼산타운7단지아파트 지하주차장1층",
    "address": "인천광역시 부평구 체육관로 27 (삼산동)",
    "lat": 37.50874828825485,
    "lng": 126.73467363805705,
    "region": "인천광역시"
  },
  {
    "name": "인천메트로 부평역(6~7번출구)",
    "address": "인천광역시 부평구 광장로 16 (부평동, 부평민자역사)",
    "lat": 37.49018996934033,
    "lng": 126.72275202611544,
    "region": "인천광역시"
  },
  {
    "name": "해마루아파트 지하주차장1~2층",
    "address": "인천광역시 부평구 장제로 27 (부평동)",
    "lat": 37.48789448423605,
    "lng": 126.72898171977388,
    "region": "인천광역시"
  },
  {
    "name": "라일실크빌아파트 지하주차장1층",
    "address": "인천광역시 부평구 경인로980번길 34 (부평동, 라일실크빌)",
    "lat": 37.48636194105989,
    "lng": 126.7278732193204,
    "region": "인천광역시"
  },
  {
    "name": "현대1차아파트 각 동 지층(101동외15개동)",
    "address": "인천광역시 부평구 경원대로 1269 (산곡동, 현대아파트)",
    "lat": 37.49028272960493,
    "lng": 126.70921951957676,
    "region": "인천광역시"
  },
  {
    "name": "현대2차아파트 각 동 지층(201동외5개동)",
    "address": "인천광역시 부평구 안남로 91(산곡동, 현대아파트)",
    "lat": 37.491878684049134,
    "lng": 126.70890530400952,
    "region": "인천광역시"
  },
  {
    "name": "현대3차아파트 각 동 지층(301동외 8개동)",
    "address": "인천광역시 부평구 마장로 121 (산곡동, 현대아파트)",
    "lat": 37.48928617924234,
    "lng": 126.70594317905643,
    "region": "인천광역시"
  },
  {
    "name": "산곡푸르지오아파트 지하주차장1~2층",
    "address": "인천광역시 부평구 안남로 269, 102,106동 (산곡동, 부평산곡푸르지오아파트)",
    "lat": 37.506950612472025,
    "lng": 126.708810523893,
    "region": "인천광역시"
  },
  {
    "name": "인천은광학교 지하주차장1층",
    "address": "인천광역시 부평구 마분로 8 (부개동, 은광원)",
    "lat": 37.48527154140976,
    "lng": 126.7378003496728,
    "region": "인천광역시"
  },
  {
    "name": "파워프라자빌딩 지하주차장1층",
    "address": "인천광역시 부평구 수변로 8 (부개동, 파워프라자)",
    "lat": 37.487281596384335,
    "lng": 126.73963019894389,
    "region": "인천광역시"
  },
  {
    "name": "부개역푸르지오아파트 지하주차장1~2층",
    "address": "인천광역시 부평구 부일로 69 (부개동, 부개역푸르지오)",
    "lat": 37.48909717154847,
    "lng": 126.7374161639252,
    "region": "인천광역시"
  },
  {
    "name": "부평금호어울림아파트 지하주차장",
    "address": "인천광역시 부평구 경원대로1110번길 20 (십정동)",
    "lat": 37.47919198870304,
    "lng": 126.69787523172717,
    "region": "인천광역시"
  },
  {
    "name": "굴포천역",
    "address": "인천광역시 부평구 길주로 지하623, 굴포천 7호선 (삼산동)",
    "lat": 37.50699312043169,
    "lng": 126.73177918834295,
    "region": "인천광역시"
  },
  {
    "name": "스위트홈 지하주차장1~2층",
    "address": "인천광역시 부평구 부흥북로 88 (부평동)",
    "lat": 37.50087641473515,
    "lng": 126.73186387533718,
    "region": "인천광역시"
  },
  {
    "name": "대준블루온 지하주차장1~2층",
    "address": "인천광역시 부평구 대정로 83 (부평동)",
    "lat": 37.49265001947388,
    "lng": 126.728601196459,
    "region": "인천광역시"
  },
  {
    "name": "라일플로리스1차 지하주차장1층",
    "address": "인천광역시 부평구 장제로 125 (부평동)",
    "lat": 37.496697608672605,
    "lng": 126.73002567676804,
    "region": "인천광역시"
  },
  {
    "name": "라일플로리스2차 지하주차장1층",
    "address": "인천광역시 부평구 장제로101번길 35 (부평동, 부평라일플로리스2차)",
    "lat": 37.49472480072385,
    "lng": 126.72783402638235,
    "region": "인천광역시"
  },
  {
    "name": "갤럭시아파트 지하주차장1~2층",
    "address": "인천광역시 부평구 장제로 160 (부평동)",
    "lat": 37.4997853183736,
    "lng": 126.73083403209304,
    "region": "인천광역시"
  },
  {
    "name": "대성유니드아파트 지하주차장1층",
    "address": "인천광역시 부평구 새갈로 57 (갈산동, 갈산동 대성유니드아파트)",
    "lat": 37.52238740288298,
    "lng": 126.73135648383096,
    "region": "인천광역시"
  },
  {
    "name": "목동휘버스아파트 101동 지하주차장",
    "address": "인천광역시 부평구 경인로701번길 49 (십정동, 동암역목동휘버스아파트)",
    "lat": 37.472190503126505,
    "lng": 126.705808768709,
    "region": "인천광역시"
  },
  {
    "name": "지하철 산곡역",
    "address": "인천광역시 부평구 길주로 지하379, 산곡역 (산곡동)",
    "lat": 37.508458826161416,
    "lng": 126.70396411201403,
    "region": "인천광역시"
  },
  {
    "name": "화성파크드림아파트 지하주차장1~2층",
    "address": "인천광역시 부평구 동수로 80(부평동, 부평역 화성파크드림)",
    "lat": 37.48551735012612,
    "lng": 126.72747977519708,
    "region": "인천광역시"
  },
  {
    "name": "부평센트럴포레스트아파트 지하주차장 (203동)",
    "address": "인천광역시 부평구 동수로120번길 43(부평동, 부평엘에이치2단지)",
    "lat": 37.483888700737225,
    "lng": 126.73010955587016,
    "region": "인천광역시"
  },
  {
    "name": "SK VIEW 해모로아파트 109동~110동 지하주차장",
    "address": "인천광역시 부평구 동수천로 71(부평동, 부평 SK VIEW 해모로 아파트)",
    "lat": 37.49192671689216,
    "lng": 126.73607542436666,
    "region": "인천광역시"
  },
  {
    "name": "신일해피트리더루츠 지하주차장",
    "address": "인천광역시 부평구 산곡로 31 (산곡동, 부평신일해피트리더루츠)",
    "lat": 37.5075178257299,
    "lng": 126.699555414106,
    "region": "인천광역시"
  },
  {
    "name": "부평두산위브더파크 지하주차장",
    "address": "인천광역시 부평구 마곡로 14 (산곡동, 부평두산위브더파크)",
    "lat": 37.5122694704741,
    "lng": 126.700034547225,
    "region": "인천광역시"
  },
  {
    "name": "부개역 코오롱하늘채 지하주차장 1~2층",
    "address": "인천광역시 부평구 부평문화로 216 (부개동, 부개역 코오롱 하늘채)",
    "lat": 37.4931378429186,
    "lng": 126.740023258854,
    "region": "인천광역시"
  },
  {
    "name": "부평중앙하이츠 프리미어아파트 지하주차장1~3층",
    "address": "인천광역시 부평구 안남로15번길 24 (부평동, 중앙하이츠 프리미어 부평)",
    "lat": 37.4851002233419,
    "lng": 126.71517545934,
    "region": "인천광역시"
  },
  {
    "name": "신트리공원 지하주차장 1층",
    "address": "인천광역시 부평구 신트리로 21, 북구도서관 (부평동)",
    "lat": 37.5059269968221,
    "lng": 126.723604730962,
    "region": "인천광역시"
  },
  {
    "name": "부평 래미안아파트 지하주차장",
    "address": "인천광역시 부평구 길주남로10번길 21 (부평동, 래미안부평)",
    "lat": 37.5038054717283,
    "lng": 126.722754550507,
    "region": "인천광역시"
  },
  {
    "name": "이편한세상 어반루체아파트 지하주차장",
    "address": "인천광역시 부평구 경인로1024번길 21 (부개동, e편한세상 부평역 어반루체)",
    "lat": 37.4859397216863,
    "lng": 126.733635119733,
    "region": "인천광역시"
  },
  {
    "name": "삼산임광그대가아파트 지하주차장 1층",
    "address": "인천광역시 부평구 영성서로 10 (삼산동, 삼산 임광 그대가 아파트)",
    "lat": 37.5189696397858,
    "lng": 126.742872344002,
    "region": "인천광역시"
  },
  {
    "name": "삼산주공미래타운 5단지 아파트 지하주차장 1층",
    "address": "인천광역시 부평구 영성중로 16 (삼산동, 삼산주공미래타운아파트)",
    "lat": 37.5179528784606,
    "lng": 126.744220276987,
    "region": "인천광역시"
  },
  {
    "name": "브라운스톤부평아파트 지하주차장 1,2층",
    "address": "인천광역시 부평구 후정로 8 (삼산동, 브라운스톤부평)",
    "lat": 37.5202861954782,
    "lng": 126.73362248506,
    "region": "인천광역시"
  },
  {
    "name": "더샵부평센트럴시티 아파트 지하주차장 1~2층",
    "address": "인천광역시 부평구 열우물로 90 (십정동, 더샵부평센트럴시티)",
    "lat": 37.4752816833158,
    "lng": 126.697816021674,
    "region": "인천광역시"
  },
  {
    "name": "부평캐슬앤더샵퍼스트 지하주차장",
    "address": "인천광역시 부평구 산청로 60, 부평캐슬&amp;더샵퍼스트 (산곡동)",
    "lat": 37.5140872488108,
    "lng": 126.701933348579,
    "region": "인천광역시"
  },
  {
    "name": "부평캐슬앤더샵퍼스트 지하주차장 1~2층",
    "address": "인천광역시 부평구 산청로 60, 부평캐슬&amp;더샵퍼스트 (산곡동)",
    "lat": 37.5140872488108,
    "lng": 126.701933348579,
    "region": "인천광역시"
  },
  {
    "name": "한양아파트1~2동 지하 1층 대피소 1층 (관리사무소)",
    "address": "인천광역시 계양구 계양대로120번길 10 (작전동, 한양아파트)",
    "lat": 37.53439633267041,
    "lng": 126.72386302015884,
    "region": "인천광역시"
  },
  {
    "name": "작전동 중앙하이츠아파트1~2 지하주차장(1층)",
    "address": "인천광역시 계양구 효서로303번길 20 (작전동, 중앙하이츠아파트)",
    "lat": 37.52963092111632,
    "lng": 126.7304591887004,
    "region": "인천광역시"
  },
  {
    "name": "현대1차아파트 101~106동 지하주차장(1층)",
    "address": "인천광역시 계양구 길마로 70 (효성동, 현대1차아파트)",
    "lat": 37.53366154663418,
    "lng": 126.71331852510866,
    "region": "인천광역시"
  },
  {
    "name": "계산현대아파트101~110동 지하주차장(1층)",
    "address": "인천광역시 계양구 계산로 171 (계산동, 현대아파트)",
    "lat": 37.53756786106158,
    "lng": 126.7317155620347,
    "region": "인천광역시"
  },
  {
    "name": "한아름아파트 1동 지하주차장(1층)",
    "address": "인천광역시 계양구 봉오대로743번길 25 (작전동, 한아름아파트)",
    "lat": 37.53266616865388,
    "lng": 126.73245835279306,
    "region": "인천광역시"
  },
  {
    "name": "현대2차아파트201~203동 지하주차장(1층)",
    "address": "인천광역시 계양구 길마로 83 (효성동, 현대2차아파트)",
    "lat": 37.53393819227931,
    "lng": 126.71503865008113,
    "region": "인천광역시"
  },
  {
    "name": "현대3차아파트101~103동 지하주차장(1층)",
    "address": "인천광역시 계양구 새벌로133번길 4 (효성동, 현대3차아파트)",
    "lat": 37.52908805472443,
    "lng": 126.71659748310306,
    "region": "인천광역시"
  },
  {
    "name": "인정프린스아파트101~102동 지하주차장(1층)",
    "address": "인천광역시 계양구 계산새로5번길 14 (계산동, 인정프린스아파트)",
    "lat": 37.53883708485678,
    "lng": 126.7288660421411,
    "region": "인천광역시"
  },
  {
    "name": "계산3동 뉴서울아파트101동 지하주차장(1층)",
    "address": "인천광역시 계양구 장제로755번길 6-10 (계산동, 뉴서울1차아파트)",
    "lat": 37.53572560055791,
    "lng": 126.73362500327516,
    "region": "인천광역시"
  },
  {
    "name": "현대3차아파트 301~302동 지하주차장(1층)",
    "address": "인천광역시 계양구 주부토로 435 (작전동, 현대아파트)",
    "lat": 37.53294335826634,
    "lng": 126.72774683005612,
    "region": "인천광역시"
  },
  {
    "name": "현광아파트101~103동 지하주차장(1층)",
    "address": "인천광역시 계양구 아나지로 388 (작전동, 현광아파트)",
    "lat": 37.525406134660535,
    "lng": 126.73525516657374,
    "region": "인천광역시"
  },
  {
    "name": "삼보아파트101~104동 지하주차장(1층)",
    "address": "인천광역시 계양구 주부토로472번길 36 (작전동, 삼보아파트)",
    "lat": 37.53459427884347,
    "lng": 126.73114916666704,
    "region": "인천광역시"
  },
  {
    "name": "현대2-2차아파트211~215 지하주차장(1층)",
    "address": "인천광역시 계양구 효서로 381 (작전동, 현대2차아파트)",
    "lat": 37.52807387923384,
    "lng": 126.73856556058428,
    "region": "인천광역시"
  },
  {
    "name": "뉴서울5차아파트501~506 지하주차장(1~2층)",
    "address": "인천광역시 계양구 아나지로 199 (효성동, 뉴서울5차아파트)",
    "lat": 37.5255108859543,
    "lng": 126.71412938825178,
    "region": "인천광역시"
  },
  {
    "name": "훼밀리코아 지하주차장(1~5층)",
    "address": "인천광역시 계양구 임학동로 38 (임학동, 훼밀리코아)",
    "lat": 37.54520811726727,
    "lng": 126.7368067390529,
    "region": "인천광역시"
  },
  {
    "name": "현대4차아파트401~405 지하주차장(1-2층)",
    "address": "인천광역시 계양구 새벌로112번길 12 (효성동, 현대4차아파트)",
    "lat": 37.52672948344075,
    "lng": 126.71787363004756,
    "region": "인천광역시"
  },
  {
    "name": "계양경찰서 지하1층 대피소",
    "address": "인천광역시 계양구 계산새로 68 (계산동, 인천계양경찰서)",
    "lat": 37.53788592253794,
    "lng": 126.73543388408132,
    "region": "인천광역시"
  },
  {
    "name": "동보1차아파트101~105, 201 지하주차장(1층)",
    "address": "인천광역시 계양구 주부토로363번길 27 (작전동, 동보아파트)",
    "lat": 37.5268225410786,
    "lng": 126.72677873102664,
    "region": "인천광역시"
  },
  {
    "name": "유호아파트101~102동 지하주차장(1층)",
    "address": "인천광역시 계양구 주부토로363번길 4 (작전동, 유호아파트)",
    "lat": 37.52699971737768,
    "lng": 126.72931532127936,
    "region": "인천광역시"
  },
  {
    "name": "효성동 중앙하이츠아파트101~102동 지하주차장(1층)",
    "address": "인천광역시 계양구 안남로572번길 17 (효성동, 중앙하이츠아파트)",
    "lat": 37.534495189344575,
    "lng": 126.7120480863226,
    "region": "인천광역시"
  },
  {
    "name": "기산아파트101동 지하주차장(1층)",
    "address": "인천광역시 계양구 어사대로 39 (계산동, 기산아파트)",
    "lat": 37.54074738634081,
    "lng": 126.72695175412322,
    "region": "인천광역시"
  },
  {
    "name": "두산아파트101~109동 지하주차장(1~2층)",
    "address": "인천광역시 계양구 안남로573번길 18 (효성동, 두산아파트)",
    "lat": 37.53541623967944,
    "lng": 126.70906761335088,
    "region": "인천광역시"
  },
  {
    "name": "백영아파트 101~102동 지하주차장(1층)",
    "address": "인천광역시 계양구 길마로11번길 3 (효성동, 백영아파트)",
    "lat": 37.53414032493425,
    "lng": 126.706556721404,
    "region": "인천광역시"
  },
  {
    "name": "신한아파트101~103동 지하주차장(1층)",
    "address": "인천광역시 계양구 봉오대로555번길 5 (효성동, 신한아파트)",
    "lat": 37.531109847166846,
    "lng": 126.71005784840524,
    "region": "인천광역시"
  },
  {
    "name": "풍림아파트101~102 지하주차장(1~2층)",
    "address": "인천광역시 계양구 아나지로213번길 22 (효성동, 풍림아파트)",
    "lat": 37.52741207841041,
    "lng": 126.7155594671059,
    "region": "인천광역시"
  },
  {
    "name": "태산아파트101~112동 지하주차장(1~3층)",
    "address": "인천광역시 계양구 봉오대로477번길 20 (효성동, 태산아파트)",
    "lat": 37.5300258836689,
    "lng": 126.70096498109794,
    "region": "인천광역시"
  },
  {
    "name": "한미삼오아파트101~102동 지하주차장(1층)",
    "address": "인천광역시 계양구 어사대로9번길 5 (계산동, 한미삼오아파트)",
    "lat": 37.542582727104495,
    "lng": 126.72533186428596,
    "region": "인천광역시"
  },
  {
    "name": "계양우체국 지하1층 주차장",
    "address": "인천광역시 계양구 계산새로 76 (계산동, 인천계양우체국)",
    "lat": 37.53783523195456,
    "lng": 126.7363805393165,
    "region": "인천광역시"
  },
  {
    "name": "신대진아파트204~209동 지하주차장(1층)",
    "address": "인천광역시 계양구 용종로 97 (용종동, 용종마을신대진아파트)",
    "lat": 37.54248319722642,
    "lng": 126.74187251753656,
    "region": "인천광역시"
  },
  {
    "name": "동아아파트320~325동 지하주차장(1층)",
    "address": "인천광역시 계양구 계산새로 109 (용종동, 초정마을동아아파트)",
    "lat": 37.53800388094046,
    "lng": 126.7403877142698,
    "region": "인천광역시"
  },
  {
    "name": "강북아파트401~403동 지하주차장(1층)",
    "address": "인천광역시 계양구 계산새로 108 (계산동, 은행마을강북.삼보아파트)",
    "lat": 37.53737582508813,
    "lng": 126.74006792780403,
    "region": "인천광역시"
  },
  {
    "name": "아주아파트409~413 지하주차장(1층)",
    "address": "인천광역시 계양구 용종로 26 (계산동, 은행마을아주아파트)",
    "lat": 37.53605861933521,
    "lng": 126.7415283511356,
    "region": "인천광역시"
  },
  {
    "name": "동보아파트501~509동 지하주차장(1층~2층)",
    "address": "인천광역시 계양구 도두리로 52 (작전동, 도두리마을동보아파트)",
    "lat": 37.533578956503135,
    "lng": 126.74000263407056,
    "region": "인천광역시"
  },
  {
    "name": "동남,롯데아파트510~521동 지하주차장(1~2층)",
    "address": "인천광역시 계양구 도두리로 62 (작전동, 도두리마을롯데.동남아파트)",
    "lat": 37.53349217438903,
    "lng": 126.74123338471036,
    "region": "인천광역시"
  },
  {
    "name": "대동아파트522~529동 지하주차장(2~3층)",
    "address": "인천광역시 계양구 도두리로 74 (작전동, 도두리마을대동아파트)",
    "lat": 37.53342071199071,
    "lng": 126.74240448411176,
    "region": "인천광역시"
  },
  {
    "name": "한진,태화아파트601~612동 지하주차장(1~2층)",
    "address": "인천광역시 계양구 효서로 393 (작전동, 까치마을태화.한진아파트)",
    "lat": 37.52853807068069,
    "lng": 126.73992209558595,
    "region": "인천광역시"
  },
  {
    "name": "신동아아파트1~17동 지하주차장(1~2층)",
    "address": "인천광역시 계양구 황어로115번길 12 (오류동, 신동아아파트)",
    "lat": 37.57965900088379,
    "lng": 126.73236297546327,
    "region": "인천광역시"
  },
  {
    "name": "학마을서원아파트125동~131동 지하주차장(1~3층)",
    "address": "인천광역시 계양구 용종로 123 (병방동, 학마을서원아파트)",
    "lat": 37.544808049321325,
    "lng": 126.742150812255,
    "region": "인천광역시"
  },
  {
    "name": "학마을서해아파트101동~112동 지하주차장(1~3층)",
    "address": "인천광역시 계양구 장제로 878 (병방동, 학마을서해.영남아파트)",
    "lat": 37.545264964272505,
    "lng": 126.73915818358908,
    "region": "인천광역시"
  },
  {
    "name": "학마을영남아파트113동~124동 지하주차장(1~2층)",
    "address": "인천광역시 계양구 장제로 878 (병방동, 학마을서해.영남아파트)",
    "lat": 37.545264964272505,
    "lng": 126.73915818358908,
    "region": "인천광역시"
  },
  {
    "name": "뉴서울아파트1~7동 지하주차장(1층)",
    "address": "인천광역시 계양구 봉오대로744번길 7 (작전동, 뉴서울아파트)",
    "lat": 37.52950417939076,
    "lng": 126.73183369590964,
    "region": "인천광역시"
  },
  {
    "name": "계산역 지하1~2층  대합실",
    "address": "인천광역시 계양구 경명대로 지하 1089 (계산동, 계산역)",
    "lat": 37.54310601359034,
    "lng": 126.72894250448788,
    "region": "인천광역시"
  },
  {
    "name": "작전역 지하1~2층 대합실",
    "address": "인천광역시 계양구 계양대로 지하 73 (작전동, 작전역)",
    "lat": 37.53094092261392,
    "lng": 126.72284230015212,
    "region": "인천광역시"
  },
  {
    "name": "박촌역 지하1~2층 대합실",
    "address": "인천광역시 계양구 장제로 지하 992 (박촌동, 박촌역)",
    "lat": 37.55438700894391,
    "lng": 126.74536866201244,
    "region": "인천광역시"
  },
  {
    "name": "임학역 지하 1층~2층 대합실",
    "address": "인천광역시 계양구 장제로 지하 875 (임학동, 임학역)",
    "lat": 37.545150779254094,
    "lng": 126.73885696502848,
    "region": "인천광역시"
  },
  {
    "name": "경인교대역 지하1~2층 대합실",
    "address": "인천광역시 계양구 계양대로 지하 162 (계산동, 경인교대역)",
    "lat": 37.53830662997599,
    "lng": 126.72260923680076,
    "region": "인천광역시"
  },
  {
    "name": "계양구청 지하1층 주차장",
    "address": "인천광역시 계양구 계산새로 88 (계산동, 계양구청)",
    "lat": 37.5375687860135,
    "lng": 126.73780116887802,
    "region": "인천광역시"
  },
  {
    "name": "대림아파트101~102동 지하주차장(1~2층)",
    "address": "인천광역시 계양구 안남로 583 (효성동, 대림아파트)",
    "lat": 37.53501385485498,
    "lng": 126.71040307610323,
    "region": "인천광역시"
  },
  {
    "name": "한화아파트101~102동 지하주차장(1층)",
    "address": "인천광역시 계양구 계산로126번길 27 (작전동, 한화아파트)",
    "lat": 37.53480069164775,
    "lng": 126.726080320848,
    "region": "인천광역시"
  },
  {
    "name": "학마을한진아파트132동~145동 지하주차장(1~2층)",
    "address": "인천광역시 계양구 용종로 124 (병방동, 학마을한진아파트)",
    "lat": 37.54487913334008,
    "lng": 126.74247191032973,
    "region": "인천광역시"
  },
  {
    "name": "우암센스뷰아파트1동 지하주차장(1층)",
    "address": "인천광역시 계양구 계산로126번길 19 (작전동, 우암센스뷰)",
    "lat": 37.5356102082349,
    "lng": 126.72606834889103,
    "region": "인천광역시"
  },
  {
    "name": "대산아파트1동 지하주차장(1층)",
    "address": "인천광역시 계양구 새벌로 120 (효성동, 대산아파트)",
    "lat": 37.52753037284524,
    "lng": 126.7168765594712,
    "region": "인천광역시"
  },
  {
    "name": "금호어울림아파트101~109 지하주차장(1층)",
    "address": "인천광역시 계양구 아나지로198번길 11 (효성동, 금호어울림아파트)",
    "lat": 37.52422520036114,
    "lng": 126.71364571747432,
    "region": "인천광역시"
  },
  {
    "name": "뉴서울6차아파트601~602 지하주차장(1~2층)",
    "address": "인천광역시 계양구 아나지로198번길 8 (효성동, 뉴서울6차아파트)",
    "lat": 37.52470287672665,
    "lng": 126.71347073886928,
    "region": "인천광역시"
  },
  {
    "name": "뉴서울3차아파트301~304 지하주차장(1층)",
    "address": "인천광역시 계양구 새벌로 88 (효성동, 뉴서울3차아파트)",
    "lat": 37.52470428351228,
    "lng": 126.71656678909848,
    "region": "인천광역시"
  },
  {
    "name": "유승그린1차아파트101동 지하주차장(1층)",
    "address": "인천광역시 계양구 아나지로197번길 9 (효성동, 유승그린아파트)",
    "lat": 37.526236714591136,
    "lng": 126.713613794653,
    "region": "인천광역시"
  },
  {
    "name": "유승2차아파트201~204 지하주차장(1~2층)",
    "address": "인천광역시 계양구 새풀로 27 (효성동, 유승아파트)",
    "lat": 37.52590264024473,
    "lng": 126.69901612708892,
    "region": "인천광역시"
  },
  {
    "name": "하나아파트1~5동 지하주차장(1~3층)",
    "address": "인천광역시 계양구 봉오대로463번길 12 (효성동, 하나아파트)",
    "lat": 37.52886806083983,
    "lng": 126.70017271353228,
    "region": "인천광역시"
  },
  {
    "name": "풍림아이원아파트101~105 지하주차장(1층)",
    "address": "인천광역시 계양구 효서로 324 (작전동, 작전동풍림아이원아파트)",
    "lat": 37.52793850334884,
    "lng": 126.73192354692912,
    "region": "인천광역시"
  },
  {
    "name": "박촌동 한화아파트101~113 지하주차장(1~2층)",
    "address": "인천광역시 계양구 동양로 10 (박촌동, 한화꿈에그린아파트)",
    "lat": 37.55637000187516,
    "lng": 126.7468640723163,
    "region": "인천광역시"
  },
  {
    "name": "귤현동 아이파크아파트101~106동 지하주차장(1층)",
    "address": "인천광역시 계양구 장군봉길 12 (귤현동, 귤현아이파크)",
    "lat": 37.56946820069799,
    "lng": 126.7488958712463,
    "region": "인천광역시"
  },
  {
    "name": "동보2차아파트101~108동 지하주차장(1층)",
    "address": "인천광역시 계양구 장제로663번길 13 (작전동, 동보2차아파트)",
    "lat": 37.5268507029767,
    "lng": 126.73159160164904,
    "region": "인천광역시"
  },
  {
    "name": "한국아파트101~102동 지하주차장(1층)",
    "address": "인천광역시 계양구 주부토로 538 (계산동, 한국아파트)",
    "lat": 37.542226334009165,
    "lng": 126.72850577064568,
    "region": "인천광역시"
  },
  {
    "name": "지산그라띠아아파트101~103동 지하주차장(1~2층)",
    "address": "인천광역시 계양구 경명대로1045번길 9-9 (계산동, 지산그라띠아아파트)",
    "lat": 37.54438691536103,
    "lng": 126.72234837089712,
    "region": "인천광역시"
  },
  {
    "name": "우림카이저팰리스아파트101,102,201~203지하주차",
    "address": "인천광역시 계양구 아나지로 332 (작전동, 계양우림카이저팰리스)",
    "lat": 37.5253577481566,
    "lng": 126.72855189573976,
    "region": "인천광역시"
  },
  {
    "name": "신도브래뉴아파트101~107동 지하주차장(1층)",
    "address": "인천광역시 계양구 계양대로 215 (계산동, 신도브래뉴아파트)",
    "lat": 37.54312015965522,
    "lng": 126.72241229948024,
    "region": "인천광역시"
  },
  {
    "name": "동양동 한진해모로아파트301~306동 지하주차장(1층)",
    "address": "인천광역시 계양구 동양로 100 (동양동, 한진해모로아파트)",
    "lat": 37.558126539034525,
    "lng": 126.75605859272184,
    "region": "인천광역시"
  },
  {
    "name": "계양센트레빌1단지아파트101~112 지하주차장(1~2)",
    "address": "인천광역시 계양구 형제봉길 100 (귤현동, 계양센트레빌1단지)",
    "lat": 37.569155037192736,
    "lng": 126.75047027629692,
    "region": "인천광역시"
  },
  {
    "name": "계산체육공원 지하 1층 공영주차장",
    "address": "인천광역시 계양구 주부토로 570, 계산체육공원 (계산동)",
    "lat": 37.545110474430885,
    "lng": 126.72891091096528,
    "region": "인천광역시"
  },
  {
    "name": "계양산파크트루엘아파트101~108 지하주차장(1~2층)",
    "address": "인천광역시 계양구 경명대로1045번길 31(계산동, 계양산파크트루엘)",
    "lat": 37.54653972892926,
    "lng": 126.7228469517508,
    "region": "인천광역시"
  },
  {
    "name": "브라운스톤계양스카이아파트101~104 지하주차장(1층)",
    "address": "인천광역시 계양구 아나지로299번길 11(작전동, 브라운스톤 계양스카이)",
    "lat": 37.5265510272772,
    "lng": 126.7250465110238,
    "region": "인천광역시"
  },
  {
    "name": "계양 임광그대가아파트101~107 지하주차장(2층)",
    "address": "인천광역시 계양구 효서로 417(서운동, 계양임광그대가)",
    "lat": 37.527517646768125,
    "lng": 126.74275397618912,
    "region": "인천광역시"
  },
  {
    "name": "진주아파트2단지아파트 지하 1층",
    "address": "인천광역시 서구 장고개로309번길 24(가좌동, 진주아파트)",
    "lat": 37.491791164915576,
    "lng": 126.68348631944136,
    "region": "인천광역시"
  },
  {
    "name": "민방위교육장 지하 1층",
    "address": "인천광역시 서구 가정로294번길 20, 석남체육공원 (석남동)",
    "lat": 37.51090639095887,
    "lng": 126.67489083143168,
    "region": "인천광역시"
  },
  {
    "name": "신명1차아파트 지하 1층",
    "address": "인천광역시 서구 건지로250번길 34 (가좌동, 신명아파트)",
    "lat": 37.496038105420624,
    "lng": 126.66961197693377,
    "region": "인천광역시"
  },
  {
    "name": "진주아파트3단지아파트 지하 1층",
    "address": "인천광역시 서구 장고개로309번길 29(가좌동, 진주아파트)",
    "lat": 37.49240862779029,
    "lng": 126.68324248614007,
    "region": "인천광역시"
  },
  {
    "name": "뉴서울아파트 지하주차장 1층~3층",
    "address": "인천광역시 서구 봉오대로283번길 6 (가정동, 가정뉴서울아파트)",
    "lat": 37.525046555000486,
    "lng": 126.68138192433662,
    "region": "인천광역시"
  },
  {
    "name": "태화아파트 지하주차장1층",
    "address": "인천광역시 서구 서달로116번길 12(석남동, 태화아파트)",
    "lat": 37.5090688964761,
    "lng": 126.6798291869128,
    "region": "인천광역시"
  },
  {
    "name": "덕산아파트 지하주차장1층",
    "address": "인천광역시 서구 서달로123번길 4(석남동, 덕산아파트)",
    "lat": 37.509742173453866,
    "lng": 126.67830905404752,
    "region": "인천광역시"
  },
  {
    "name": "신인향아파트 지하 1층",
    "address": "인천광역시 서구 건지로334번길 26(가좌동, 신인향아파트)",
    "lat": 37.49577341237988,
    "lng": 126.67880411787168,
    "region": "인천광역시"
  },
  {
    "name": "원흥아파트 지하주차장 1층",
    "address": "인천광역시 서구 율도로15번길 26-8 (신현동, 원흥아파트)",
    "lat": 37.516118639102174,
    "lng": 126.66479457668162,
    "region": "인천광역시"
  },
  {
    "name": "효성아파트 지하1층",
    "address": "인천광역시 서구 새오개로 53 (신현동, 효성아파트)",
    "lat": 37.51496416916685,
    "lng": 126.66525897043648,
    "region": "인천광역시"
  },
  {
    "name": "진주아파트4단지아파트 지하주차장 1층",
    "address": "인천광역시 서구 장고개로309번길 19(가좌동, 진주아파트)",
    "lat": 37.49140859229666,
    "lng": 126.68327711315855,
    "region": "인천광역시"
  },
  {
    "name": "진주아파트5단지아파트 지하주차장 1층",
    "address": "인천광역시 서구 장고개로337번길 13, 진주아파트 5단지 (가좌동)",
    "lat": 37.49283789542993,
    "lng": 126.6855562110864,
    "region": "인천광역시"
  },
  {
    "name": "하나3차아파트 지하주차장 1층",
    "address": "인천광역시 서구 봉오대로318번길 21 (가정동, 하나아파트)",
    "lat": 37.52584693749137,
    "lng": 126.68452339168788,
    "region": "인천광역시"
  },
  {
    "name": "한국아파트1단지 지하주차장 1층",
    "address": "인천광역시 서구 서달로163번길 16, 한국아파트 (가정동)",
    "lat": 37.51339269839408,
    "lng": 126.67703187356992,
    "region": "인천광역시"
  },
  {
    "name": "한국아파트2단지 지하주차장 1층",
    "address": "인천광역시 서구 서달로163번길 10(가정동, 한국아파트)",
    "lat": 37.51338272736829,
    "lng": 126.67763817017529,
    "region": "인천광역시"
  },
  {
    "name": "한신빌리지 지하주차장 1층",
    "address": "인천광역시 서구 서곶로 12(가정동, 한신그랜드힐빌리지)",
    "lat": 37.51989660821235,
    "lng": 126.68176535749194,
    "region": "인천광역시"
  },
  {
    "name": "동진아파트 지하주차장1층",
    "address": "인천광역시 서구 서달로130번길 25 (석남동)",
    "lat": 37.5113672257197,
    "lng": 126.68097384705592,
    "region": "인천광역시"
  },
  {
    "name": "인천광역시 서구청 지하 1층",
    "address": "인천광역시 서구 서곶로 307, 서구청 (심곡동)",
    "lat": 37.545004208243725,
    "lng": 126.6766602777039,
    "region": "인천광역시"
  },
  {
    "name": "심곡한국아파트 지하주차장 1층",
    "address": "인천광역시 서구 탁옥로74번길 3 (심곡동, 한국아파트)",
    "lat": 37.54350669261959,
    "lng": 126.67771522851947,
    "region": "인천광역시"
  },
  {
    "name": "연희동남아파트 지하주차장 1층",
    "address": "인천광역시 서구 심곡로132번길 17 (심곡동, 동남아파트)",
    "lat": 37.54554903457328,
    "lng": 126.68366595213313,
    "region": "인천광역시"
  },
  {
    "name": "신현대아파트 지하주차장 1층",
    "address": "인천광역시 서구 원적로47번길 35 (가좌동, 신현대아파트)",
    "lat": 37.49137397190611,
    "lng": 126.67629821562164,
    "region": "인천광역시"
  },
  {
    "name": "노인복지회관 지하1층",
    "address": "인천광역시 서구 신석로121번길 10, 서구노인복지관 (석남동)",
    "lat": 37.51068501631742,
    "lng": 126.67606252766784,
    "region": "인천광역시"
  },
  {
    "name": "신동아아파트 지하주차장1층",
    "address": "인천광역시 서구 서달로123번길 12-4 (석남동, 신동아아파트)",
    "lat": 37.51001757938781,
    "lng": 126.67740315501634,
    "region": "인천광역시"
  },
  {
    "name": "가좌시범공단 지하주차장 1층",
    "address": "인천광역시 서구 봉수대로 141, 현광아파트형공장 (가좌동)",
    "lat": 37.48824771730503,
    "lng": 126.66059781748264,
    "region": "인천광역시"
  },
  {
    "name": "풍림아파트 지하주차장 1층",
    "address": "인천광역시 서구 원적로47번길 6 (가좌동, 풍림아파트)",
    "lat": 37.49140706224468,
    "lng": 126.67973650597486,
    "region": "인천광역시"
  },
  {
    "name": "심곡광명아파트 지하주차장 1층",
    "address": "인천광역시 서구 심곡로 11 (심곡동, 광명아파트)",
    "lat": 37.54240443749239,
    "lng": 126.67090014649882,
    "region": "인천광역시"
  },
  {
    "name": "국민은행(백천빌딩) 지하1층",
    "address": "인천광역시 서구 가정로394번길 1-0 (가정동, 백천빌딩)",
    "lat": 37.520024863364654,
    "lng": 126.6732189500264,
    "region": "인천광역시"
  },
  {
    "name": "길운씨티빌 지하주차장 1층",
    "address": "인천광역시 서구 서곶로 11 (가정동, 길운씨티빌)",
    "lat": 37.51964532677469,
    "lng": 126.6813847586853,
    "region": "인천광역시"
  },
  {
    "name": "인천광역시인재개발원 체육관",
    "address": "인천광역시 서구 심곡로 98, 인천광역시 인재개발원, 인천연구원 (심곡동)",
    "lat": 37.54183128280764,
    "lng": 126.68063051521246,
    "region": "인천광역시"
  },
  {
    "name": "극동늘푸른아파트 지하주차장 1층",
    "address": "인천광역시 서구 승학로 198 (심곡동, 극동늘푸른아파트)",
    "lat": 37.54027606023862,
    "lng": 126.6727690574054,
    "region": "인천광역시"
  },
  {
    "name": "신현교회 지하주차장 1층",
    "address": "인천광역시 서구 신현로 13 (신현동, 신현교회)",
    "lat": 37.51463421390462,
    "lng": 126.67187798981531,
    "region": "인천광역시"
  },
  {
    "name": "현대아파트 지하주차장 1층",
    "address": "인천광역시 서구 원적로 91-0 (가좌동, 현대아파트)",
    "lat": 37.49490586183936,
    "lng": 126.68194316711676,
    "region": "인천광역시"
  },
  {
    "name": "마전동남아파트 지하주차장 1층",
    "address": "인천광역시 서구 검단로487번안길 11-14 (마전동, 동남아파트)",
    "lat": 37.60695403065707,
    "lng": 126.66101738971932,
    "region": "인천광역시"
  },
  {
    "name": "영진아파트 지하주차장 1층",
    "address": "인천광역시 서구 가현로 168(마전동, 영진아파트)",
    "lat": 37.60506987364099,
    "lng": 126.66309961195644,
    "region": "인천광역시"
  },
  {
    "name": "동남아파트 지하주차장 1층",
    "address": "인천광역시 서구 완정로 242(금곡동, 금곡동남아파트)",
    "lat": 37.60425275429866,
    "lng": 126.64993392700202,
    "region": "인천광역시"
  },
  {
    "name": "퀸스타운 신명아파트 지하주차장1층",
    "address": "인천광역시 서구 검단로 834 (불로동, 퀸스타운신명아파트)",
    "lat": 37.61797909616857,
    "lng": 126.69046855643316,
    "region": "인천광역시"
  },
  {
    "name": "탑스빌아파트 지하주차장 1층",
    "address": "인천광역시 서구 서곶로 818 (당하동, 당하탑스빌아파트)",
    "lat": 37.590335640543664,
    "lng": 126.67406303856784,
    "region": "인천광역시"
  },
  {
    "name": "동부아파트 지하주차장1층",
    "address": "인천광역시 서구 검단로 851 (불로동, 불로동부아파트)",
    "lat": 37.61929947359869,
    "lng": 126.69155236115384,
    "region": "인천광역시"
  },
  {
    "name": "서구문화회관 지하주차장 1층",
    "address": "인천광역시 서구 서달로 190 (가정동, 가정청소년문화의집,서구문화회관)",
    "lat": 37.5155583571032,
    "lng": 126.67927529803065,
    "region": "인천광역시"
  },
  {
    "name": "엘지원당자이아파트 전체 동의 지하주차장 1층",
    "address": "인천광역시 서구 원당대로839번길 34 (원당동, 엘지원당자이아파트)",
    "lat": 37.59634901845631,
    "lng": 126.69617203573112,
    "region": "인천광역시"
  },
  {
    "name": "서해그랑블아파트 전체 동의 지하주차장 1층",
    "address": "인천광역시 서구 승학로495번길 7(검암동, 서해그랑블)",
    "lat": 37.56626001821973,
    "lng": 126.67468665925584,
    "region": "인천광역시"
  },
  {
    "name": "현대아파트 지하주차장 1층",
    "address": "인천광역시 서구 완정로34번길 53, 현대아파트 (마전동)",
    "lat": 37.597668940994346,
    "lng": 126.67425916580736,
    "region": "인천광역시"
  },
  {
    "name": "월드메르디앙아파트 지하주차장 1층",
    "address": "인천광역시 서구 신석로 71 (석남동, 월드메르디앙아파트)",
    "lat": 37.51008523440029,
    "lng": 126.66995865536552,
    "region": "인천광역시"
  },
  {
    "name": "우림필유아파트 지하주차장 지하 1층",
    "address": "인천광역시 서구 염곡로 198 (석남동, 우림필유)",
    "lat": 37.5022454422048,
    "lng": 126.66809833582924,
    "region": "인천광역시"
  },
  {
    "name": "경남아너스빌아파트 지하주차장 지하 1층",
    "address": "인천광역시 서구 염곡로 172 (석남동, 경남아너스빌아파트)",
    "lat": 37.49982012568112,
    "lng": 126.66796339702444,
    "region": "인천광역시"
  },
  {
    "name": "대원레스피아2차아파트 지하주차장 1층",
    "address": "인천광역시 서구 가현로 71(마전동, 마전대원레스피아2차아파트)",
    "lat": 37.61180666516257,
    "lng": 126.66115376123908,
    "region": "인천광역시"
  },
  {
    "name": "대주파크빌아파트 지하주차장 1층",
    "address": "인천광역시 서구 마전로99번길 8(마전동, 대주파크빌아파트)",
    "lat": 37.610414910852064,
    "lng": 126.66748709138136,
    "region": "인천광역시"
  },
  {
    "name": "신현이편한세상 하늘채 아파트 지하주차장 2층",
    "address": "인천광역시 서구 가정로 387 (신현동, 신현이편한세상하늘채)",
    "lat": 37.51956197953762,
    "lng": 126.672888717231,
    "region": "인천광역시"
  },
  {
    "name": "검단 힐스테이트아파트 지하주차장 1층",
    "address": "인천광역시 서구 완정로92번길 11(마전동, 검단 힐스테이트)",
    "lat": 37.59971372926928,
    "lng": 126.66530463910964,
    "region": "인천광역시"
  },
  {
    "name": "중흥에스1단지아파트 지하주차장 1층",
    "address": "인천광역시 서구 청라라임로 131 (청라동, 중흥에스클래스)",
    "lat": 37.53929951106946,
    "lng": 126.65312879986308,
    "region": "인천광역시"
  },
  {
    "name": "중흥에스2단지아파트 지하주차장 1층",
    "address": "인천광역시 서구 청라에메랄드로 113 (청라동, 중흥에스클래스)",
    "lat": 37.53531552637149,
    "lng": 126.65630257757508,
    "region": "인천광역시"
  },
  {
    "name": "웰카운티아파트 지하주차장 1층",
    "address": "인천광역시 서구 청라에메랄드로 156 (청라동, 청라지구17단지웰카운티)",
    "lat": 37.539078328202216,
    "lng": 126.656572851178,
    "region": "인천광역시"
  },
  {
    "name": "청라자이아파트 지하주차장 1층",
    "address": "인천광역시 서구 청라에메랄드로 30 (청라동, 청라자이)",
    "lat": 37.52765269581395,
    "lng": 126.6566198106154,
    "region": "인천광역시"
  },
  {
    "name": "신안실크밸리아파트 전체 동의 지하주차장 1층",
    "address": "인천광역시 서구 원당대로840번길 22 (당하동, 신안실크벨리아파트)",
    "lat": 37.59173986876163,
    "lng": 126.69436213858332,
    "region": "인천광역시"
  },
  {
    "name": "동문굿모닝힐아파트 전체 동의 지하주차장 1층",
    "address": "인천광역시 서구 원당대로820번길 3 (당하동, 동문굿모닝힐)",
    "lat": 37.59348491850949,
    "lng": 126.69240271908151,
    "region": "인천광역시"
  },
  {
    "name": "대한항공사원임대아파트 전체 동의 지하주차장 1층",
    "address": "인천광역시 서구 고산로 19 (원당동, KAL아파트)",
    "lat": 37.5946219868108,
    "lng": 126.70112468496195,
    "region": "인천광역시"
  },
  {
    "name": "원당2차금호어울림아파트 전체 동의 지하주차장 1층",
    "address": "인천광역시 서구 고산로 13 (원당동, 원당2차금호어울림아파트)",
    "lat": 37.59395873159765,
    "lng": 126.70173145727556,
    "region": "인천광역시"
  },
  {
    "name": "풍림아이원아파트 전체 동의 지하주차장 1층",
    "address": "인천광역시 서구 원당대로840번길 21 (당하동, 풍림아이원아파트)",
    "lat": 37.5916946034873,
    "lng": 126.69462887197707,
    "region": "인천광역시"
  },
  {
    "name": "금호어울림1차아파트 전체 동의 지하주차장 1층",
    "address": "인천광역시 서구 고산후로78번길 9 (당하동, 인천원당금호어울림아파트)",
    "lat": 37.590670027417815,
    "lng": 126.69957662090866,
    "region": "인천광역시"
  },
  {
    "name": "인천서부여성회관 지하주차장1층",
    "address": "인천광역시 서구 서달로 12 (석남동, 서부여성회관)",
    "lat": 37.49928675076895,
    "lng": 126.67853934843576,
    "region": "인천광역시"
  },
  {
    "name": "서보아파트 지하주차장1층",
    "address": "인천광역시 서구 서달로 33 (석남동, 서보아파트)",
    "lat": 37.50148444058803,
    "lng": 126.6780457991699,
    "region": "인천광역시"
  },
  {
    "name": "인천원당이편한세상아파트 전체 동의 지하주차장 1층",
    "address": "인천광역시 서구 고산로40번길 12 (원당동, 원당e편한세상아파트)",
    "lat": 37.59667191977158,
    "lng": 126.70224686405248,
    "region": "인천광역시"
  },
  {
    "name": "풍림아이원2차아파트 전체동의 지하주차장 1층",
    "address": "인천광역시 서구 검암로 53(검암동, 풍림아이원2차)",
    "lat": 37.568279628044216,
    "lng": 126.68157757387154,
    "region": "인천광역시"
  },
  {
    "name": "태평샹베르1차아파트 전체 동의 지하주차장 1층",
    "address": "인천광역시 서구 도요지로 15(경서동, 태평샹베르아파트)",
    "lat": 37.55936395279189,
    "lng": 126.65207021354811,
    "region": "인천광역시"
  },
  {
    "name": "삼보해피하임1단지 지하주차장1층",
    "address": "인천광역시 서구 검단로744번3길 7 (불로동, 삼보해피하임Ⅰ아파트)",
    "lat": 37.61051626072855,
    "lng": 126.68506591718554,
    "region": "인천광역시"
  },
  {
    "name": "삼보해피하임2단지 지하주차장1층",
    "address": "인천광역시 서구 검단로744번3길 8 (불로동, 삼보해피하임Ⅱ아파트)",
    "lat": 37.6104361232438,
    "lng": 126.685272641754,
    "region": "인천광역시"
  },
  {
    "name": "월드아파트 지하주차장1층",
    "address": "인천광역시 서구 검단로 836 (불로동, 월드아파트)",
    "lat": 37.61721164828688,
    "lng": 126.69128830721678,
    "region": "인천광역시"
  },
  {
    "name": "길훈아파트 지하주차장1층",
    "address": "인천광역시 서구 검단로 786 (불로동, 퀸스타운길훈아파트)",
    "lat": 37.614977267696624,
    "lng": 126.68686362579984,
    "region": "인천광역시"
  },
  {
    "name": "백두아파트 지하주차장 1층",
    "address": "인천광역시 서구 검단로777번길 5 (불로동, 백두아파트)",
    "lat": 37.61468821769154,
    "lng": 126.6852125364936,
    "region": "인천광역시"
  },
  {
    "name": "청라 한화 꿈에그린 아파트 지하주차장 1층",
    "address": "인천광역시 서구 크리스탈로 148 (청라동, 청라한화꿈에그린)",
    "lat": 37.53832091926687,
    "lng": 126.63670232930885,
    "region": "인천광역시"
  },
  {
    "name": "청라제일풍경채아파트 지하주차장 1층",
    "address": "인천광역시 서구 청라한울로 95 (청라동, 청라제일풍경채)",
    "lat": 37.53870177452368,
    "lng": 126.64717421077198,
    "region": "인천광역시"
  },
  {
    "name": "청라LH아파트 지하주차장 1층",
    "address": "인천광역시 서구 청라커낼로 232 (청라동, 청라엘에이치)",
    "lat": 37.52910182714705,
    "lng": 126.64478879105113,
    "region": "인천광역시"
  },
  {
    "name": "청라 SK뷰 아파트 지하1층 주차장",
    "address": "인천광역시 서구 솔빛로 93 (청라동, 청라SKVIEW)",
    "lat": 37.52610186854972,
    "lng": 126.63114382555226,
    "region": "인천광역시"
  },
  {
    "name": "청라호반베르디움4차아파트 지하주차장 1층",
    "address": "인천광역시 서구 청라커낼로 163 (청라동, 청라29블럭호반베르디움)",
    "lat": 37.52601358309357,
    "lng": 126.6393171922313,
    "region": "인천광역시"
  },
  {
    "name": "영남탑스빌 아파트 지하주차장 1층",
    "address": "인천광역시 서구 완정로64번길 7 (마전동, 영남탑스빌아파트)",
    "lat": 37.59771842303686,
    "lng": 126.66834006185856,
    "region": "인천광역시"
  },
  {
    "name": "신명스카이뷰드림아파트 지하 주차장 지하 1층",
    "address": "인천광역시 서구 봉수대로1440번길 29 (왕길동, 신명스카이뷰아파트)",
    "lat": 37.602380047924925,
    "lng": 126.65186126763024,
    "region": "인천광역시"
  },
  {
    "name": "검단2차아이파크아파트 지하주차장 1층",
    "address": "인천광역시 서구 검단로540번길 59 (마전동, 검단2차아이파크)",
    "lat": 37.59990024135856,
    "lng": 126.66625816866303,
    "region": "인천광역시"
  },
  {
    "name": "연희대동아파트 지하주차장 1층",
    "address": "인천광역시 서구 심곡로 135 (심곡동, 대동아파트)",
    "lat": 37.54507391129937,
    "lng": 126.68166283802344,
    "region": "인천광역시"
  },
  {
    "name": "가재울역 지하1층",
    "address": "인천광역시 서구 열우물로 252, 가재울역 (가좌동)",
    "lat": 37.48441085592381,
    "lng": 126.68355424439554,
    "region": "인천광역시"
  },
  {
    "name": "인천가좌역 지하1층",
    "address": "인천광역시 서구 가석로 67, 인천가좌역 (가좌동)",
    "lat": 37.49055148710392,
    "lng": 126.67551640679493,
    "region": "인천광역시"
  },
  {
    "name": "서부여성회관역 대합실 지하 1층",
    "address": "인천광역시 서구 가석로 169, 서부여성회관역(인천2호선) (석남동)",
    "lat": 37.49982928418228,
    "lng": 126.6758358568708,
    "region": "인천광역시"
  },
  {
    "name": "가정중앙시장역 지하1층",
    "address": "인천광역시 서구 가남로 400, 가정중앙시장역(인천2호선) (가정동)",
    "lat": 37.51755301013856,
    "lng": 126.6768759130265,
    "region": "인천광역시"
  },
  {
    "name": "가정역 지하1층",
    "address": "인천광역시 서구 봉오대로 234, 가정역(루원시티-인천2호선) (가정동)",
    "lat": 37.52452465461236,
    "lng": 126.67577664005564,
    "region": "인천광역시"
  },
  {
    "name": "마전역 지하 1층",
    "address": "인천광역시 서구 완정로 68, 마전역(인천2호선) (마전동)",
    "lat": 37.59763125684359,
    "lng": 126.6674540909314,
    "region": "인천광역시"
  },
  {
    "name": "완정역 지하1층",
    "address": "인천광역시 서구 원당대로 650, 완정역(인천2호선) (당하동)",
    "lat": 37.593346722464574,
    "lng": 126.67350387128884,
    "region": "인천광역시"
  },
  {
    "name": "독정역 지하1층",
    "address": "인천광역시 서구 서곶로 760 (백석동)",
    "lat": 37.58537022630048,
    "lng": 126.67606148890978,
    "region": "인천광역시"
  },
  {
    "name": "석남역 지하1층",
    "address": "인천광역시 서구 가석로 257, 석남역(거북시장-인천2호선) (석남동)",
    "lat": 37.5075503273853,
    "lng": 126.67633475732352,
    "region": "인천광역시"
  },
  {
    "name": "아시아드경기장역 지하 1층",
    "address": "인천광역시 서구 서곶로 382, 아시아드경기장역(공촌사거리-인천2호선) (연희동)",
    "lat": 37.551876093689565,
    "lng": 126.6773200356326,
    "region": "인천광역시"
  },
  {
    "name": "아시아드 대광로제비앙 아파트 전체 동의 지하주차장 1층",
    "address": "인천광역시 서구 모월곶로 41(경서동, 인천 경서 아시아드 대광로제비앙)",
    "lat": 37.55609298060013,
    "lng": 126.66717897937087,
    "region": "인천광역시"
  },
  {
    "name": "풍림아이원3차아파트 전체 동의 지하주차장 1층",
    "address": "인천광역시 서구 검암로10번길 39(검암동, 풍림아이원3차아파트)",
    "lat": 37.566324104051255,
    "lng": 126.68477219138586,
    "region": "인천광역시"
  },
  {
    "name": "신광2차아파트 지하주차장 1층",
    "address": "인천광역시 서구 율도로16번길 28(석남동, 신광아파트 및 상가)",
    "lat": 37.51120666116192,
    "lng": 126.66359742445154,
    "region": "인천광역시"
  },
  {
    "name": "석남역7호선 지하1~3층",
    "address": "인천광역시 서구 길주로 지하120, 석남역 7호선 (석남동)",
    "lat": 37.50635503099785,
    "lng": 126.67553374831084,
    "region": "인천광역시"
  },
  {
    "name": "가정엘에이치3단지 아파트 지하1층",
    "address": "인천광역시 서구 봉오재3로 14(가정동, 가정엘에이치3단지)",
    "lat": 37.53205727458687,
    "lng": 126.66573125939765,
    "region": "인천광역시"
  },
  {
    "name": "검단힐스테이트4차 아파트 지하주차장 1층",
    "address": "인천광역시 서구 청마로 92(당하동, 검단 힐스테이트 4차)",
    "lat": 37.58699106970263,
    "lng": 126.67345491683648,
    "region": "인천광역시"
  },
  {
    "name": "검단오류역우방아이유쉘 지하 주차장 지하1층",
    "address": "인천광역시 서구 대촌로 26(오류동, 우방아이유쉘아파트)",
    "lat": 37.596332874954335,
    "lng": 126.6328949818685,
    "region": "인천광역시"
  },
  {
    "name": "검단금호어울림아파트 지하주차장 2층",
    "address": "인천광역시 서구 이음5로 65(원당동, 검단 금호어울림 센트럴)",
    "lat": 37.59505495978521,
    "lng": 126.71503085104976,
    "region": "인천광역시"
  },
  {
    "name": "검단푸르지오더베뉴아파트 지하주차장 2층",
    "address": "인천광역시 서구 이음6로 33(원당동, 검단신도시푸르지오더베뉴)",
    "lat": 37.59714340157001,
    "lng": 126.71107997432232,
    "region": "인천광역시"
  },
  {
    "name": "LH20단지아파트 지하주차장 1층",
    "address": "인천광역시 서구 이음3로 220(원당동, 인천검단 엘에이치 20단지)",
    "lat": 37.58922255851735,
    "lng": 126.71668931986328,
    "region": "인천광역시"
  },
  {
    "name": "유승한내들아파트 지하주차장 2층",
    "address": "인천광역시 서구 이음3로 130(당하동, 유승한내들 에듀파크)",
    "lat": 37.58818856686295,
    "lng": 126.70594816413832,
    "region": "인천광역시"
  },
  {
    "name": "청라한양수자인레이크블루 지하1층 주차장",
    "address": "인천광역시 서구 청라한내로 132(청라동, 청라국제금융단지한양수자인레이크블루)",
    "lat": 37.53699573060547,
    "lng": 126.62822550883496,
    "region": "인천광역시"
  },
  {
    "name": "신명2차아파트 지하1층",
    "address": "인천광역시 서구 가정로125번길 4(가좌동, 신명아파트)",
    "lat": 37.49591747855801,
    "lng": 126.6713246497386,
    "region": "인천광역시"
  },
  {
    "name": "주안국가산단역 지하 1~3층",
    "address": "인천광역시 서구 방축로 343, 주안국가산단역(인천J밸리) (가좌동)",
    "lat": 37.47439912706947,
    "lng": 126.68144640169491,
    "region": "인천광역시"
  },
  {
    "name": "검단 대광로제비앙 센트럴포레 지하주차장 1층",
    "address": "인천광역시 서구 검단로768번길 46(불로동, 검단 대광로제비앙 센트럴포레)",
    "lat": 37.61259858905607,
    "lng": 126.68941819079645,
    "region": "인천광역시"
  },
  {
    "name": "동성아파트 지하주차장 1층",
    "address": "인천광역시 서구 검단로 788 (불로동, 퀸스타운동성아파트)",
    "lat": 37.61497833603328,
    "lng": 126.6872916389325,
    "region": "인천광역시"
  },
  {
    "name": "청라센텀대광로제비앙아파트 지하1층 주차장",
    "address": "인천광역시 서구 비즈니스로 166(청라동, 청라국제 업무단지 센텀 대광로제비앙)",
    "lat": 37.53825229740697,
    "lng": 126.6217426642768,
    "region": "인천광역시"
  },
  {
    "name": "인천가좌두산위브트레지움아파트 지하주차장 1층",
    "address": "인천광역시 서구 여우재로 119 (가좌동, 인천가좌 두산위브 트레지움)",
    "lat": 37.48873814629806,
    "lng": 126.68652515429702,
    "region": "인천광역시"
  },
  {
    "name": "연희3차한국아파트 지하주차장 1층",
    "address": "인천광역시 서구 서곶로369번길 6 (연희동, 한국아파트)",
    "lat": 37.55079780120625,
    "lng": 126.67627836901448,
    "region": "인천광역시"
  },
  {
    "name": "청라반도유보라2차 아파트 지하1~2층 주차장",
    "address": "인천광역시 서구 비즈니스로 10(청라동, 청라반도유보라2.0)",
    "lat": 37.52465957181927,
    "lng": 126.62351311036142,
    "region": "인천광역시"
  },
  {
    "name": "검암2차신명스카이뷰아파트 전체 동의 지하주차장 1층",
    "address": "인천광역시 서구 검암로10번길 54 (검암동, 검암2차신명스카이뷰)",
    "lat": 37.566788771734025,
    "lng": 126.68619365654716,
    "region": "인천광역시"
  },
  {
    "name": "북청라하우스토리아파트 전체 동의 지하주차장 1층",
    "address": "인천광역시 서구 경서로31번길 15 (경서동, 북청라하우스토리)",
    "lat": 37.555659948180974,
    "lng": 126.65212926435689,
    "region": "인천광역시"
  },
  {
    "name": "중앙시장 가동 지하1층",
    "address": "인천광역시 강화군 강화읍 강화대로 429 (중앙시장)",
    "lat": 37.74711542461102,
    "lng": 126.48392074391016,
    "region": "인천광역시"
  },
  {
    "name": "중앙시장 나동 지하1층",
    "address": "인천광역시 강화군 강화읍 강화대로 430, 지하1층 (중앙시장)",
    "lat": 37.7473810631788,
    "lng": 126.48405572321846,
    "region": "인천광역시"
  },
  {
    "name": "세종레지던스 지하1층",
    "address": "인천광역시 강화군 길상면 전등사로 77, 세종레지던스",
    "lat": 37.63540241669366,
    "lng": 126.4914398161998,
    "region": "인천광역시"
  },
  {
    "name": "유성아파트 지하주차장 1층",
    "address": "인천광역시 강화군 강화읍 강화대로248번길 16-3, 지하1층 (유성아파트)",
    "lat": 37.74134168314927,
    "lng": 126.50282420209132,
    "region": "인천광역시"
  },
  {
    "name": "설호아파트 지하 1층",
    "address": "인천광역시 강화군 강화읍 갑룡길49번길 2, 지하1층 (설호아파트)",
    "lat": 37.74268902344247,
    "lng": 126.49836939119253,
    "region": "인천광역시"
  },
  {
    "name": "문예회관 지하1층",
    "address": "인천광역시 강화군 강화읍 고비고개로19번길 12, 지하1층 (강화문예회관)",
    "lat": 37.74531465560506,
    "lng": 126.47434199771406,
    "region": "인천광역시"
  },
  {
    "name": "현대아파트 지하1층",
    "address": "인천광역시 강화군 강화읍 강화대로 191-14, 지하1층 (강화현대아파트)",
    "lat": 37.73797299884782,
    "lng": 126.50773152501274,
    "region": "인천광역시"
  },
  {
    "name": "강화터미널 지하1층",
    "address": "인천광역시 강화군 강화읍 중앙로 43, 지하1층 (강화여객자동차터미널)",
    "lat": 37.739908930796034,
    "lng": 126.4901506965715,
    "region": "인천광역시"
  },
  {
    "name": "선원교회 지하1층",
    "address": "인천광역시 강화군 선원면 대문고개로 22-20, 지하1층 (선원교회)",
    "lat": 37.71267434598949,
    "lng": 126.48580359371935,
    "region": "인천광역시"
  },
  {
    "name": "강화군청 지하1층",
    "address": "인천광역시 강화군 강화읍 강화대로 394, 지하1층 (강화군청)",
    "lat": 37.746066710120346,
    "lng": 126.48779260587293,
    "region": "인천광역시"
  },
  {
    "name": "세광아파트 지하주차장 1층",
    "address": "인천광역시 강화군 선원면 중앙로 274, 지하2층 (세광엔리치빌1차)",
    "lat": 37.72323855322459,
    "lng": 126.47959676524756,
    "region": "인천광역시"
  },
  {
    "name": "화도농협 지하1층",
    "address": "인천광역시 강화군 화도면 마니산로 729, 지하1층 (화도농협)",
    "lat": 37.632736163392686,
    "lng": 126.4172935440189,
    "region": "인천광역시"
  },
  {
    "name": "강화2차세광아파트 지하주차장 1층",
    "address": "인천광역시 강화군 선원면 중앙로 253-1, 지하1층 (강화2차세광엔리치빌아파트)",
    "lat": 37.72407273668086,
    "lng": 126.48173220511896,
    "region": "인천광역시"
  },
  {
    "name": "그랑드빌아파트 지하주차장 1층",
    "address": "인천광역시 강화군 강화읍 갑룡길 35, 지하1층 (그랑드빌아파트)",
    "lat": 37.74346385556542,
    "lng": 126.49709766847609,
    "region": "인천광역시"
  },
  {
    "name": "솔정1리 주민대피시설 지하1층",
    "address": "인천광역시 강화군 송해면 전망대로 29, 지하1층 (송해면사무소)",
    "lat": 37.76482894702963,
    "lng": 126.4638965827574,
    "region": "인천광역시"
  },
  {
    "name": "북성1리 주민대피시설",
    "address": "인천광역시 강화군 양사면 생설미길31번길 36-0, 지하1층",
    "lat": 37.81365395112095,
    "lng": 126.40427534407162,
    "region": "인천광역시"
  },
  {
    "name": "대월초 주민대피시설 지하1층",
    "address": "인천광역시 강화군 강화읍 대월로 216, 지하1층 (대월초등학교)",
    "lat": 37.76022516896556,
    "lng": 126.49078621879076,
    "region": "인천광역시"
  },
  {
    "name": "볼음분교 주민대피시설 지하1층",
    "address": "인천광역시 강화군 서도면 볼음도길 256, 지하1층 (서도중학교볼음분교)",
    "lat": 37.67101548249686,
    "lng": 126.1889291300646,
    "region": "인천광역시"
  },
  {
    "name": "교동고 주민대피시설 지하1층",
    "address": "인천광역시 강화군 교동면 교동남로 77-0, 지하1층 (교동중고등학교)",
    "lat": 37.77710040191202,
    "lng": 126.2831453266707,
    "region": "인천광역시"
  },
  {
    "name": "지석초 주민대피시설 지하1층",
    "address": "인천광역시 강화군 교동면 교동북로 275-16, 지하1층",
    "lat": 37.800902231951255,
    "lng": 126.25622233176436,
    "region": "인천광역시"
  },
  {
    "name": "서도보건지소 주민대피시설 지하1층",
    "address": "인천광역시 강화군 서도면 주문도1길 16, 지하1층 (서도면사무소)",
    "lat": 37.650463784656125,
    "lng": 126.2394559568488,
    "region": "인천광역시"
  },
  {
    "name": "하점면사무소 주민대피시설 지하1층",
    "address": "인천광역시 강화군 하점면 강화대로 1220 (하점면사무소)",
    "lat": 37.77400449524742,
    "lng": 126.41139439164328,
    "region": "인천광역시"
  },
  {
    "name": "난정초 주민대피시설 지하1층",
    "address": "인천광역시 강화군 교동면 교동서로378번길 28, 지하1층 (난정초등학교)",
    "lat": 37.77026713688329,
    "lng": 126.23977030663433,
    "region": "인천광역시"
  },
  {
    "name": "베이힐아파트 지하주차장 1층",
    "address": "인천광역시 강화군 강화읍 강화대로 234-12, 지하1층 (강화베이힐)",
    "lat": 37.74124387243502,
    "lng": 126.50375072995496,
    "region": "인천광역시"
  },
  {
    "name": "미래지향아파트 지하주차장 1층",
    "address": "인천광역시 강화군 강화읍 남문로 41, 지하1층 (남산리이지미래지향아파트)",
    "lat": 37.741609520215626,
    "lng": 126.48786001571897,
    "region": "인천광역시"
  },
  {
    "name": "매음1리 주민대피시설 지하1층",
    "address": "인천광역시 강화군 삼산면 삼산남로 325-21, 지하1층",
    "lat": 37.66742438694288,
    "lng": 126.36363332184166,
    "region": "인천광역시"
  },
  {
    "name": "용정1리 주민대피시설 지하1층",
    "address": "인천광역시 강화군 강화읍 갑룡길 214, 지하1층",
    "lat": 37.74952573183442,
    "lng": 126.51253236286374,
    "region": "인천광역시"
  },
  {
    "name": "삼동암1리 주민대피시설 지하1층",
    "address": "인천광역시 강화군 불은면 삼동암길 191-6, 지하1층",
    "lat": 37.69832654663309,
    "lng": 126.45936537869508,
    "region": "인천광역시"
  },
  {
    "name": "고능1리 주민대피시설 지하1층",
    "address": "인천광역시 강화군 불은면 고능로260번길 14-3, 지하1층",
    "lat": 37.69086473965725,
    "lng": 126.49747239348532,
    "region": "인천광역시"
  },
  {
    "name": "하일리 주민대피시설 지하1층",
    "address": "인천광역시 강화군 양도면 강화남로 708-3, 지하1층 (농촌지도소양도지소)",
    "lat": 37.66281424987722,
    "lng": 126.42173006922964,
    "region": "인천광역시"
  },
  {
    "name": "건평리 주민대피시설 지하1층",
    "address": "인천광역시 강화군 양도면 건평로173번길 72-16, 지하1층",
    "lat": 37.67763422431926,
    "lng": 126.40390058500864,
    "region": "인천광역시"
  },
  {
    "name": "망월3리 주민대피시설",
    "address": "인천광역시 강화군 하점면 망월길202번길 4, 지하1층",
    "lat": 37.74930798130522,
    "lng": 126.36522431529696,
    "region": "인천광역시"
  },
  {
    "name": "덕하3리 주민대피시설 지하1층",
    "address": "인천광역시 강화군 양사면 덕하3길48번길 15",
    "lat": 37.80701011104932,
    "lng": 126.43598353786716,
    "region": "인천광역시"
  },
  {
    "name": "숭뢰1리 주민대피시설 지하1층",
    "address": "인천광역시 강화군 송해면 상도숭뢰길 194, 지하1층",
    "lat": 37.787537439124414,
    "lng": 126.4777514309622,
    "region": "인천광역시"
  },
  {
    "name": "석모2리 주민대피시설",
    "address": "인천광역시 강화군 삼산면 삼산북로473번길 30-10",
    "lat": 37.70452555374578,
    "lng": 126.3187106387994,
    "region": "인천광역시"
  },
  {
    "name": "주문1리 주민대피시설 지하1층",
    "address": "인천광역시 강화군 서도면 주문도길 300, 지하1층",
    "lat": 37.64253315220456,
    "lng": 126.24344343199004,
    "region": "인천광역시"
  },
  {
    "name": "덕신고 주민대피시설 지하1층",
    "address": "인천광역시 강화군 강화읍 고비고개로 45, 지하1층 (덕신고등학교)",
    "lat": 37.7449610643449,
    "lng": 126.47286009363118,
    "region": "인천광역시"
  },
  {
    "name": "삼동암2리 주민대피시설 지하1층",
    "address": "인천광역시 강화군 불은면 불은북로171번길 2, 지하1층",
    "lat": 37.69152770286677,
    "lng": 126.4635102979862,
    "region": "인천광역시"
  },
  {
    "name": "덕포2리 주민대피시설",
    "address": "인천광역시 강화군 화도면 덕포길56번길 74",
    "lat": 37.62197949413628,
    "lng": 126.45945937906426,
    "region": "인천광역시"
  },
  {
    "name": "삼흥1리 주민대피시설 지하1층",
    "address": "인천광역시 강화군 양도면 강화남로 907, 지하1층",
    "lat": 37.67847685628313,
    "lng": 126.41634218234236,
    "region": "인천광역시"
  },
  {
    "name": "고천2리 주민대피시설",
    "address": "인천광역시 강화군 내가면 강화서로227번길 42-1",
    "lat": 37.71802672793073,
    "lng": 126.38621399675806,
    "region": "인천광역시"
  },
  {
    "name": "하도2리 주민대피시설 지하1층",
    "address": "인천광역시 강화군 송해면 강화대로833번길 21-1, 지하1층",
    "lat": 37.7615236741687,
    "lng": 126.44849405176676,
    "region": "인천광역시"
  },
  {
    "name": "인화2리 주민대피시설",
    "address": "인천광역시 강화군 양사면 인화로 308-5",
    "lat": 37.7893440237029,
    "lng": 126.367127630656,
    "region": "인천광역시"
  },
  {
    "name": "신당리 주민대피시설 지하1층",
    "address": "인천광역시 강화군 송해면 당골길 123-29, 지하1층",
    "lat": 37.76257232032043,
    "lng": 126.47850117534634,
    "region": "인천광역시"
  },
  {
    "name": "아차도리 주민대피시설 지하1층",
    "address": "인천광역시 강화군 서도면 아차도길 92, 지하1층 (금성초등학교)",
    "lat": 37.66139143275945,
    "lng": 126.22704795896696,
    "region": "인천광역시"
  },
  {
    "name": "교산1리 주민대피시설 지하1층",
    "address": "인천광역시 강화군 양사면 서사길 304-15",
    "lat": 37.8023681763535,
    "lng": 126.400223632174,
    "region": "인천광역시"
  },
  {
    "name": "장흥1리 주민대피시설 지하1층",
    "address": "인천광역시 강화군 길상면 길상로 185-2, 지하1층",
    "lat": 37.63395852891063,
    "lng": 126.50378133244006,
    "region": "인천광역시"
  },
  {
    "name": "두운2리 주민대피시설 지하1층",
    "address": "인천광역시 강화군 불은면 불은남로544번길 35, 지하1층",
    "lat": 37.68448967304671,
    "lng": 126.4886897901799,
    "region": "인천광역시"
  },
  {
    "name": "지석리 주민대피시설 지하1층",
    "address": "인천광역시 강화군 교동면 교동북1길 216-1, 지하1층",
    "lat": 37.809314408454256,
    "lng": 126.24606504873108,
    "region": "인천광역시"
  },
  {
    "name": "석포리 주민대피시설 지하1층",
    "address": "인천광역시 강화군 삼산면 삼산남로 114-9, 지하1층",
    "lat": 37.68316056251157,
    "lng": 126.36401345596194,
    "region": "인천광역시"
  },
  {
    "name": "대룡1리 주민대피시설 지하1층",
    "address": "인천광역시 강화군 교동면 대룡안길45번길 27-3, 지하1층",
    "lat": 37.78319950896991,
    "lng": 126.2838406500932,
    "region": "인천광역시"
  },
  {
    "name": "당산리 주민대피시설 지하1층",
    "address": "인천광역시 강화군 송해면 전망대로 484-00, 지하1층",
    "lat": 37.80239138167351,
    "lng": 126.45625766492606,
    "region": "인천광역시"
  },
  {
    "name": "대산1리 주민대피시설",
    "address": "인천광역시 강화군 강화읍 대산길168번길 19",
    "lat": 37.77206424982878,
    "lng": 126.4965507718296,
    "region": "인천광역시"
  },
  {
    "name": "덕하1리 주민대피시설",
    "address": "인천광역시 강화군 양사면 덕하로114번길 29, 지하1층",
    "lat": 37.79900778816956,
    "lng": 126.42121443933208,
    "region": "인천광역시"
  },
  {
    "name": "철산리 주민대피시설",
    "address": "인천광역시 강화군 양사면 덕하로 361",
    "lat": 37.81479347143959,
    "lng": 126.43978143092929,
    "region": "인천광역시"
  },
  {
    "name": "월곳리 주민대피시설 지하1층",
    "address": "인천광역시 강화군 강화읍 연미정길 44 (월곳리 주민대피시설)",
    "lat": 37.77043956971468,
    "lng": 126.5064634952973,
    "region": "인천광역시"
  },
  {
    "name": "강화준프라자빌딩 지하주차장 1층",
    "address": "인천광역시 강화군 강화읍 강화대로 395 (준프라자빌딩)",
    "lat": 37.74546993107498,
    "lng": 126.48691531718426,
    "region": "인천광역시"
  },
  {
    "name": "그랑프리타워 지하주차장 1층",
    "address": "인천광역시 강화군 강화읍 강화대로404번길 7 (그랑프리)",
    "lat": 37.7466497551246,
    "lng": 126.4868151821991,
    "region": "인천광역시"
  },
  {
    "name": "덕성리 주민대피시설 지하1층",
    "address": "인천광역시 강화군 불은면 덕진로 49",
    "lat": 37.64952365263504,
    "lng": 126.52209290694437,
    "region": "인천광역시"
  },
  {
    "name": "길정리 주민대피시설 지하1층",
    "address": "인천광역시 강화군 양도면 고려왕릉로199번길 18-4",
    "lat": 37.66467267917662,
    "lng": 126.46479751391114,
    "region": "인천광역시"
  },
  {
    "name": "옥림1리 주민대피시설",
    "address": "인천광역시 강화군 강화읍 동문로 255",
    "lat": 37.7610419060572,
    "lng": 126.50669400835496,
    "region": "인천광역시"
  },
  {
    "name": "인사리 주민대피시설 지하1층",
    "address": "인천광역시 강화군 교동면 교동북로 410",
    "lat": 37.8112311868944,
    "lng": 126.26011722701143,
    "region": "인천광역시"
  },
  {
    "name": "지산2리 주민대피시설",
    "address": "인천광역시 강화군 선원면 와말길178번길 6",
    "lat": 37.71396561925503,
    "lng": 126.49597446521928,
    "region": "인천광역시"
  },
  {
    "name": "무학리 주민대피시설 지하1층",
    "address": "인천광역시 강화군 교동면 교동북2길 215",
    "lat": 37.79230682751341,
    "lng": 126.23502311183807,
    "region": "인천광역시"
  },
  {
    "name": "숭뢰2리 주민대피시설 지하1층",
    "address": "인천광역시 강화군 송해면 전망대로 303-29",
    "lat": 37.78721468181268,
    "lng": 126.45902216020754,
    "region": "인천광역시"
  },
  {
    "name": "인화1리 주민대피시설",
    "address": "인천광역시 강화군 양사면 서사길41번길 70",
    "lat": 37.79632233143533,
    "lng": 126.3793389169415,
    "region": "인천광역시"
  },
  {
    "name": "교산2리 주민대피시설",
    "address": "인천광역시 강화군 양사면 서사길 195",
    "lat": 37.79668917086463,
    "lng": 126.39072917771192,
    "region": "인천광역시"
  },
  {
    "name": "고구2리 주민대피시설",
    "address": "인천광역시 강화군 교동면 교동동로438번길 22-10",
    "lat": 37.78965927339049,
    "lng": 126.2859611618354,
    "region": "인천광역시"
  },
  {
    "name": "국화2리 주민대피시설",
    "address": "인천광역시 강화군 강화읍 고비고개로188번길 2",
    "lat": 37.7417119767935,
    "lng": 126.45864791949806,
    "region": "인천광역시"
  },
  {
    "name": "볼음1리 주민대피시설 지하1층",
    "address": "인천광역시 강화군 서도면 볼음도길 174-4",
    "lat": 37.67099060814055,
    "lng": 126.19788162465647,
    "region": "인천광역시"
  },
  {
    "name": "볼음2리 주민대피시설 지하1층",
    "address": "인천광역시 강화군 서도면 볼음도길 362",
    "lat": 37.67485378299019,
    "lng": 126.17983215728736,
    "region": "인천광역시"
  },
  {
    "name": "금월2리 주민대피시설",
    "address": "인천광역시 강화군 선원면 기세미길 13",
    "lat": 37.70666675503387,
    "lng": 126.48901158883258,
    "region": "인천광역시"
  },
  {
    "name": "북성2리 주민대피시설",
    "address": "인천광역시 강화군 양사면 전망대로1069번길 2",
    "lat": 37.81708225421615,
    "lng": 126.4202042807388,
    "region": "인천광역시"
  },
  {
    "name": "양오1리 주민대피시설 지하1층",
    "address": "인천광역시 강화군 송해면 장정양오길 312",
    "lat": 37.79138917466049,
    "lng": 126.4456824963574,
    "region": "인천광역시"
  },
  {
    "name": "봉소리 주민대피시설",
    "address": "인천광역시 강화군 교동면 교동동로 111-20, 봉소리 주민대피시설",
    "lat": 37.79206900425272,
    "lng": 126.31842419642646,
    "region": "인천광역시"
  },
  {
    "name": "삼거리 주민대피시설",
    "address": "인천광역시 강화군 하점면 고려산로181번길 10-19, 삼거리 주민대피시설",
    "lat": 37.76387873382515,
    "lng": 126.4242429868933,
    "region": "인천광역시"
  },
  {
    "name": "삼선1리 주민대피시설",
    "address": "인천광역시 강화군 교동면 교동북로170번길 9, 삼선1리 주민대피시설",
    "lat": 37.79432862739591,
    "lng": 126.2677415703978,
    "region": "인천광역시"
  },
  {
    "name": "냉정1리 주민대피시설",
    "address": "인천광역시 강화군 선원면 중앙로 468-11, 냉정1리 주민대피시설",
    "lat": 37.71433205000812,
    "lng": 126.46229288413689,
    "region": "인천광역시"
  },
  {
    "name": "내1리 주민대피시설",
    "address": "인천광역시 강화군 화도면 안골길 64",
    "lat": 37.63158183230205,
    "lng": 126.40337497095904,
    "region": "인천광역시"
  },
  {
    "name": "돌모루 주민대피시설",
    "address": "인천광역시 강화군 강화읍 해안북로567번길 44, 돌모루 주민대피시설",
    "lat": 37.77935456434255,
    "lng": 126.49859843978402,
    "region": "인천광역시"
  },
  {
    "name": "신정2리 주민대피시설",
    "address": "인천광역시 강화군 선원면 선원사지로 41, 신정2리 주민대피시설",
    "lat": 37.72553232838629,
    "lng": 126.50955770507302,
    "region": "인천광역시"
  },
  {
    "name": "신삼2리 주민대피시설",
    "address": "인천광역시 강화군 하점면 고려산로 510-31, 신삼2리 주민대피시설",
    "lat": 37.75427416552147,
    "lng": 126.3938374039603,
    "region": "인천광역시"
  },
  {
    "name": "양오2리 주민대피시설",
    "address": "인천광역시 강화군 송해면 장정양오길365번길 14, 양오2리 주민대피시설",
    "lat": 37.79543373213738,
    "lng": 126.44995348666428,
    "region": "인천광역시"
  },
  {
    "name": "길상면 주민복합센터 지하 1층",
    "address": "인천광역시 강화군 길상면 마니산로 21, 길상면 주민복합센터",
    "lat": 37.641599528003375,
    "lng": 126.48938965784548,
    "region": "인천광역시"
  },
  {
    "name": "삼산면사무소 지하1층",
    "address": "인천광역시 강화군 삼산면 삼산북로 475, 삼산면주민자치센터",
    "lat": 37.7050489283522,
    "lng": 126.32048422010786,
    "region": "인천광역시"
  },
  {
    "name": "용정2리 주민대피시설",
    "address": "인천광역시 강화군 강화읍 강화대로154번길 34",
    "lat": 37.73865736988,
    "lng": 126.515403042227,
    "region": "인천광역시"
  },
  {
    "name": "길직1리 주민대피시설",
    "address": "인천광역시 강화군 길상면 피미길32번길 20",
    "lat": 37.6606639381308,
    "lng": 126.481678773444,
    "region": "인천광역시"
  },
  {
    "name": "고천3리 주민대피시설",
    "address": "인천광역시 강화군 내가면 고비고개로741번길 21",
    "lat": 37.7205073030332,
    "lng": 126.410135706358,
    "region": "인천광역시"
  },
  {
    "name": "동산리 주민대피시설",
    "address": "인천광역시 강화군 교동면 교동서로 497-4",
    "lat": 37.760373908211,
    "lng": 126.236235973915,
    "region": "인천광역시"
  },
  {
    "name": "백령면 1호",
    "address": "인천광역시 옹진군 백령면 백령로316번길 91 (백령초등학교)",
    "lat": 37.97578707490002,
    "lng": 124.71560708933931,
    "region": "인천광역시"
  },
  {
    "name": "백령면 6호",
    "address": "인천광역시 옹진군 백령면 백령로316번길 25-31 (백령6호 대피소)",
    "lat": 37.97430216156196,
    "lng": 124.71367595365882,
    "region": "인천광역시"
  },
  {
    "name": "백령면 9호",
    "address": "인천광역시 옹진군 백령면 백령로278번길 61-2 (백령9호대피호)",
    "lat": 37.97437041906946,
    "lng": 124.7183944401644,
    "region": "인천광역시"
  },
  {
    "name": "백령면 13호",
    "address": "인천광역시 옹진군 백령면 관창길 74 (마을회관)",
    "lat": 37.97741911699993,
    "lng": 124.69265605768206,
    "region": "인천광역시"
  },
  {
    "name": "백령면 4호",
    "address": "인천광역시 옹진군 백령면 백령로 10-2",
    "lat": 37.95215361999361,
    "lng": 124.7315298895752,
    "region": "인천광역시"
  },
  {
    "name": "백령면 7호",
    "address": "인천광역시 옹진군 백령면 백령로278번길 2-8 (구목욕탕)",
    "lat": 37.97139911870488,
    "lng": 124.71837250889746,
    "region": "인천광역시"
  },
  {
    "name": "백령면 11호",
    "address": "인천광역시 옹진군 백령면 사곶로122번길 54-53 (백령11호 대피소)",
    "lat": 37.95471651338684,
    "lng": 124.71702810387008,
    "region": "인천광역시"
  },
  {
    "name": "백령면 12호",
    "address": "인천광역시 옹진군 백령면 사곶로139번길 139",
    "lat": 37.94700316638252,
    "lng": 124.71126449195678,
    "region": "인천광역시"
  },
  {
    "name": "백령면 3,5호",
    "address": "인천광역시 옹진군 백령면 백령남로 8",
    "lat": 37.96902146585378,
    "lng": 124.71772877688034,
    "region": "인천광역시"
  },
  {
    "name": "백령면 15호",
    "address": "",
    "lat": 37.96148970135817,
    "lng": 124.66917629931184,
    "region": "인천광역시"
  },
  {
    "name": "백령면 16호",
    "address": "인천광역시 옹진군 백령면 백령로 710",
    "lat": 37.96387776580042,
    "lng": 124.67501271740834,
    "region": "인천광역시"
  },
  {
    "name": "백령면 8호",
    "address": "인천광역시 옹진군 백령면 백령로254번길 132",
    "lat": 37.97495714183592,
    "lng": 124.72073674174652,
    "region": "인천광역시"
  },
  {
    "name": "백령면 10호",
    "address": "인천광역시 옹진군 백령면 백령로297번길 16-1",
    "lat": 37.97092206666628,
    "lng": 124.71507677746494,
    "region": "인천광역시"
  },
  {
    "name": "백령면 17호",
    "address": "인천광역시 옹진군 백령면 백령로 852 (백령17호 대피소)",
    "lat": 37.95836089788877,
    "lng": 124.66378793338086,
    "region": "인천광역시"
  },
  {
    "name": "연평면 5호",
    "address": "인천광역시 옹진군 연평면 연평로 314-7 (연평5호 대피소)",
    "lat": 37.67186554515786,
    "lng": 125.71063741230772,
    "region": "인천광역시"
  },
  {
    "name": "연평면 3호",
    "address": "",
    "lat": 37.663675621065245,
    "lng": 125.70257858026496,
    "region": "인천광역시"
  },
  {
    "name": "연평면 2호",
    "address": "인천광역시 옹진군 연평면 연평로 829 (연평2호 대피소)",
    "lat": 37.65868934189611,
    "lng": 125.69989953661822,
    "region": "인천광역시"
  },
  {
    "name": "연평면 4호",
    "address": "인천광역시 옹진군 연평면 연평로 196 (연평4호 대피소)",
    "lat": 37.6632425587919,
    "lng": 125.70531844802944,
    "region": "인천광역시"
  },
  {
    "name": "연평면 6호",
    "address": "인천광역시 옹진군 연평면 소연평로19번길 28-0 (소연평보건소)",
    "lat": 37.61043187276875,
    "lng": 125.70875904115678,
    "region": "인천광역시"
  },
  {
    "name": "연평면 7호",
    "address": "인천광역시 옹진군 연평면 연평중앙로24번길 3 (연평면사무소)",
    "lat": 37.6645273279396,
    "lng": 125.70232508374016,
    "region": "인천광역시"
  },
  {
    "name": "대청면 1호",
    "address": "인천광역시 옹진군 대청면 대청로244번길 116-45 (대청중고등학교)",
    "lat": 37.83213625358757,
    "lng": 124.69366593944252,
    "region": "인천광역시"
  },
  {
    "name": "대청면 2호",
    "address": "인천광역시 옹진군 대청면 대청로19번길 59",
    "lat": 37.825435168535854,
    "lng": 124.71214321109494,
    "region": "인천광역시"
  },
  {
    "name": "대청면 3호",
    "address": "인천광역시 옹진군 대청면 대청북로 103",
    "lat": 37.844119295205815,
    "lng": 124.70724584561786,
    "region": "인천광역시"
  },
  {
    "name": "대청면 4호",
    "address": "인천광역시 옹진군 대청면 대청남로 509-14",
    "lat": 37.81306314844892,
    "lng": 124.68630155324442,
    "region": "인천광역시"
  },
  {
    "name": "대청면 5호",
    "address": "인천광역시 옹진군 대청면 대청남로 91 (대청5호 대피소)",
    "lat": 37.81849203943611,
    "lng": 124.71119592381052,
    "region": "인천광역시"
  },
  {
    "name": "대청면 6호",
    "address": "인천광역시 옹진군 대청면 대청로233번길 23-9",
    "lat": 37.83228193328646,
    "lng": 124.70344848947649,
    "region": "인천광역시"
  },
  {
    "name": "대청면 7호",
    "address": "인천광역시 옹진군 대청면 대청북로85번길 217",
    "lat": 37.83543319523726,
    "lng": 124.69997996192312,
    "region": "인천광역시"
  },
  {
    "name": "대청면 8호",
    "address": "인천광역시 옹진군 대청면 소청동로 68",
    "lat": 37.77275990139882,
    "lng": 124.7512601090202,
    "region": "인천광역시"
  },
  {
    "name": "대청면 9호",
    "address": "인천광역시 옹진군 대청면 소청서로105번길 106",
    "lat": 37.76760263980202,
    "lng": 124.7405262716694,
    "region": "인천광역시"
  },
  {
    "name": "백령면 24호",
    "address": "인천광역시 옹진군 백령면 두무진로81번길 43",
    "lat": 37.96135572111049,
    "lng": 124.65095193168185,
    "region": "인천광역시"
  },
  {
    "name": "백령면 26호",
    "address": "인천광역시 옹진군 백령면 가을길 89",
    "lat": 37.95869872632845,
    "lng": 124.6600622981914,
    "region": "인천광역시"
  },
  {
    "name": "백령면 19호",
    "address": "인천광역시 옹진군 백령면 화동로 70-16",
    "lat": 37.93587550390584,
    "lng": 124.68505878471083,
    "region": "인천광역시"
  },
  {
    "name": "백령면 21호",
    "address": "인천광역시 옹진군 백령면 백령로 1078",
    "lat": 37.94757745760103,
    "lng": 124.6445005988114,
    "region": "인천광역시"
  },
  {
    "name": "백령면 22호",
    "address": "인천광역시 옹진군 백령면 두무진로 535",
    "lat": 37.97267951208298,
    "lng": 124.61908561953888,
    "region": "인천광역시"
  },
  {
    "name": "백령면 23호",
    "address": "인천광역시 옹진군 백령면 중화2길 3",
    "lat": 37.92475944309029,
    "lng": 124.65312097716958,
    "region": "인천광역시"
  },
  {
    "name": "백령면 25호",
    "address": "인천광역시 옹진군 백령면 백령로938번길 80",
    "lat": 37.95229437881393,
    "lng": 124.65236807688312,
    "region": "인천광역시"
  },
  {
    "name": "백령면 2,14호",
    "address": "인천광역시 옹진군 백령면 당후길 56",
    "lat": 37.9592624371456,
    "lng": 124.66258984019154,
    "region": "인천광역시"
  },
  {
    "name": "백령면 18호",
    "address": "인천광역시 옹진군 백령면 화동로 49-8 (화동경로당)",
    "lat": 37.93464296883842,
    "lng": 124.68386645685356,
    "region": "인천광역시"
  },
  {
    "name": "백령면 20호",
    "address": "인천광역시 옹진군 백령면 백령남로 736 (남포1리 다목적회관)",
    "lat": 37.92987495251203,
    "lng": 124.67209668707712,
    "region": "인천광역시"
  },
  {
    "name": "연평면 1호",
    "address": "인천광역시 옹진군 연평면 연평로137번길 77-11",
    "lat": 37.662932861965785,
    "lng": 125.70022950829684,
    "region": "인천광역시"
  },
  {
    "name": "백령면 27호",
    "address": "인천광역시 옹진군 백령면 백령로659번길 76",
    "lat": 37.96258900876274,
    "lng": 124.67883403271196,
    "region": "인천광역시"
  },
  {
    "name": "백령면 28호",
    "address": "인천광역시 옹진군 백령면 장촌2길 33",
    "lat": 37.92465030714023,
    "lng": 124.67405781149397,
    "region": "인천광역시"
  },
  {
    "name": "연평 바다역 지하",
    "address": "인천광역시 옹진군 연평면 연평로 8",
    "lat": 37.6548767806224,
    "lng": 125.71218421443756,
    "region": "인천광역시"
  },
  {
    "name": "연평 안보교육장 지하",
    "address": "인천광역시 옹진군 연평면 연평중앙로12번길 25",
    "lat": 37.66404932879777,
    "lng": 125.7046542195461,
    "region": "인천광역시"
  },
  {
    "name": "백령 용기포 신항 지하",
    "address": "인천광역시 옹진군 백령면 백령로 68-85",
    "lat": 37.95599214979904,
    "lng": 124.73496617033912,
    "region": "인천광역시"
  },
  {
    "name": "연평면 8호",
    "address": "인천광역시 옹진군 연평면 연평로 293",
    "lat": 37.66984533454162,
    "lng": 125.71020794488588,
    "region": "인천광역시"
  },
  {
    "name": "백령면 29호",
    "address": "",
    "lat": 37.95689197096211,
    "lng": 124.65886223955415,
    "region": "인천광역시"
  },
  {
    "name": "백령면30호",
    "address": "인천광역시 옹진군 백령면 백령로 1123 (연화아파트)",
    "lat": 37.94810114727274,
    "lng": 124.6397053312458,
    "region": "인천광역시"
  },
  {
    "name": "백령 31호 대피시설",
    "address": "인천광역시 옹진군 백령면 백령로 783(달님마을 관사)",
    "lat": 37.9617121463506,
    "lng": 124.66803536690652,
    "region": "인천광역시"
  },
  {
    "name": "연평 서부리경로당 지하",
    "address": "인천광역시 옹진군 연평면 연평로137번길 61, 연평서부리 경로당",
    "lat": 37.6620169406445,
    "lng": 125.700620542304,
    "region": "인천광역시"
  },
  {
    "name": "백령 진촌2리 경로당",
    "address": "인천광역시 옹진군 백령면 백령로316번길 8-26, 진촌2리 경로당",
    "lat": 37.9723678233633,
    "lng": 124.715392768125,
    "region": "인천광역시"
  },
  {
    "name": "대청1리 경로당",
    "address": "인천광역시 옹진군 대청면 대청로 296-54, 대청1리 경로당",
    "lat": 37.8302983442256,
    "lng": 124.696794990512,
    "region": "인천광역시"
  }
]