[
  {
    "name": "세종e편한세상 아파트 지하1층주차장",
    "address": "세종특별자치시 조치원읍 섭골길 59",
    "lat": 36.61556780694872,
    "lng": 127.28733897872124,
    "region": "세종특별자치시"
  },
  {
    "name": "신흥주공2단지아파트 지하1층주차장",
    "address": "세종특별자치시 조치원읍 이화로 5",
    "lat": 36.594499838704415,
    "lng": 127.2886083012038,
    "region": "세종특별자치시"
  },
  {
    "name": "신흥푸르지오아파트 지하1층주차장",
    "address": "세종특별자치시 조치원읍 도원1로 16(푸르지오1차)",
    "lat": 36.59159396899189,
    "lng": 127.29001889030694,
    "region": "세종특별자치시"
  },
  {
    "name": "자이아파트 지하1층주차장",
    "address": "세종특별자치시 조치원읍 도원로 16(자이아파트)",
    "lat": 36.58850484946036,
    "lng": 127.29029399220988,
    "region": "세종특별자치시"
  },
  {
    "name": "신동아파밀리에아파트 지하1층주차장",
    "address": "세종특별자치시 조치원읍 도장말길 30 (조치원신동아파밀리에)",
    "lat": 36.58960207427065,
    "lng": 127.29694768955368,
    "region": "세종특별자치시"
  },
  {
    "name": "첫마을2단지아파트 지하주차장 1층~3층",
    "address": "세종특별자치시 노을1로 16 (한솔동)",
    "lat": 36.4800938955119,
    "lng": 127.26049439756078,
    "region": "세종특별자치시"
  },
  {
    "name": "첫마을5단지아파트 지하주차장 1층",
    "address": "세종특별자치시 누리로 59 (한솔동, 첫마을5단지)",
    "lat": 36.47752952452721,
    "lng": 127.24982487785864,
    "region": "세종특별자치시"
  },
  {
    "name": "첫마을7단지아파트 지하주차장 1층~2층",
    "address": "세종특별자치시 나리로 38 (한솔동)",
    "lat": 36.47424324710431,
    "lng": 127.2553750468356,
    "region": "세종특별자치시"
  },
  {
    "name": "범지기마을8단지아파트 지하주차장 1~2층",
    "address": "세종특별자치시 달빛로 165 (아름동, 범지기마을8단지)",
    "lat": 36.51375522758172,
    "lng": 127.25018571022213,
    "region": "세종특별자치시"
  },
  {
    "name": "한뜰마을2단지아파트 어진동 지하주차장1~2층",
    "address": "세종특별자치시 갈매로 480 (어진동, 한뜰마을2단지)",
    "lat": 36.505549570457234,
    "lng": 127.2687252935366,
    "region": "세종특별자치시"
  },
  {
    "name": "도램마을8단지아파트 지하주차장 1층",
    "address": "세종특별자치시 보듬3로 7 (도담동)",
    "lat": 36.512233950378565,
    "lng": 127.25883918456594,
    "region": "세종특별자치시"
  },
  {
    "name": "가재마을 11단지 아파트 지하주차장 1층",
    "address": "세종특별자치시 도움3로 75 (종촌동)",
    "lat": 36.50410022930226,
    "lng": 127.2522211883281,
    "region": "세종특별자치시"
  },
  {
    "name": "도램마을2단지아파트 지하주차장 1층~2층",
    "address": "세종특별자치시 다솜1로 164-0 (도담동, 도램마을2단지)",
    "lat": 36.51249145702011,
    "lng": 127.25578502517902,
    "region": "세종특별자치시"
  },
  {
    "name": "도담동행정복지센터 지하주차장 1층",
    "address": "세종특별자치시 보람로 77 (도담동, 도담동복합커뮤니티센터)",
    "lat": 36.5154039444851,
    "lng": 127.2618219612913,
    "region": "세종특별자치시"
  },
  {
    "name": "아름동주민센터 지하주차장 1층",
    "address": "세종특별자치시 보듬3로 114 (아름동, 아름동주민복합센터)",
    "lat": 36.512234929515934,
    "lng": 127.2470095952638,
    "region": "세종특별자치시"
  },
  {
    "name": "어진동 복합커뮤니티센터 어진동 지하주차장 1층",
    "address": "세종특별자치시 다솜1로 31 (어진동, 복합커뮤니티센터,새만금개발청)",
    "lat": 36.50171909242506,
    "lng": 127.256472933268,
    "region": "세종특별자치시"
  },
  {
    "name": "행복코아(메가박스) 지하1층주차장",
    "address": "세종특별자치시 조치원읍 새내로 122 (메가박스)",
    "lat": 36.60281826708368,
    "lng": 127.29800358790936,
    "region": "세종특별자치시"
  },
  {
    "name": "한솔동주민센터 지하주차장 1층",
    "address": "세종특별자치시 노을3로 85 (한솔동)",
    "lat": 36.47921035244467,
    "lng": 127.25462717355872,
    "region": "세종특별자치시"
  },
  {
    "name": "두진리버빌아파트 지하주차장1층",
    "address": "세종특별자치시 금남면 용포2길 70 (금남두진리버빌아파트)",
    "lat": 36.46335798304639,
    "lng": 127.2798103176307,
    "region": "세종특별자치시"
  },
  {
    "name": "도램마을15단지아파트 지하주차장 1층~2층",
    "address": "세종특별자치시 보듬2로 43 (도담동, 도램마을15단지)",
    "lat": 36.51147607588927,
    "lng": 127.26522169644991,
    "region": "세종특별자치시"
  },
  {
    "name": "푸르지오1차오피스텔 어진동 지하주차장 1~4층",
    "address": "세종특별자치시 갈매로 364 (어진동)",
    "lat": 36.49612765105429,
    "lng": 127.26362555950868,
    "region": "세종특별자치시"
  },
  {
    "name": "범지기마을1단지아파트 지하주차장 1~2층",
    "address": "세종특별자치시 절재로 13 (아름동, 범지기마을1단지)",
    "lat": 36.50914996292158,
    "lng": 127.24290126207065,
    "region": "세종특별자치시"
  },
  {
    "name": "가락마을3단지아파트 지하주차장 1층",
    "address": "세종특별자치시 마음안로 47(고운동, 가락마을3단지)",
    "lat": 36.50677146696439,
    "lng": 127.2363054679612,
    "region": "세종특별자치시"
  },
  {
    "name": "가락마을11단지아파트 지하주차장 1층",
    "address": "세종특별자치시 마음로 152(고운동, 가락마을11단지)",
    "lat": 36.51111945157587,
    "lng": 127.22980965680304,
    "region": "세종특별자치시"
  },
  {
    "name": "가락마을17단지아파트 지하주차장 1층",
    "address": "세종특별자치시 마음안1로 167(고운동, 가락마을17단지)",
    "lat": 36.518048427438806,
    "lng": 127.23526257948596,
    "region": "세종특별자치시"
  },
  {
    "name": "종촌동주민센터 지하주차장 1층",
    "address": "세종특별자치시 도움3로 125 (종촌동)",
    "lat": 36.504900920691256,
    "lng": 127.24688565031414,
    "region": "세종특별자치시"
  },
  {
    "name": "종촌종합복지센터 지하주차장 1층",
    "address": "세종특별자치시 도움1로 116 (종촌동)",
    "lat": 36.502449878636526,
    "lng": 127.24682824295326,
    "region": "세종특별자치시"
  },
  {
    "name": "세종시청 지하주차장 1층",
    "address": "세종특별자치시 한누리대로 2130 (보람동)",
    "lat": 36.47979530387286,
    "lng": 127.28895595715352,
    "region": "세종특별자치시"
  },
  {
    "name": "첫마을1단지아파트 지하주차장 1층~2층",
    "address": "세종특별자치시 노을3로 14 (한솔동, 첫마을1단지)",
    "lat": 36.48204375658904,
    "lng": 127.25939114713658,
    "region": "세종특별자치시"
  },
  {
    "name": "첫마을3단지아파트 지하주차장 1층~2층",
    "address": "세종특별자치시 나리1로 15 (한솔동, 첫마을3단지)",
    "lat": 36.47949088024159,
    "lng": 127.26066358887144,
    "region": "세종특별자치시"
  },
  {
    "name": "첫마을4단지아파트 지하주차장 1층",
    "address": "세종특별자치시 누리로 119 (한솔동, 첫마을4단지)",
    "lat": 36.48088674161891,
    "lng": 127.25337345557573,
    "region": "세종특별자치시"
  },
  {
    "name": "첫마을6단지아파트 지하주차장 1층",
    "address": "세종특별자치시 누리로 27 (한솔동, 첫마을6단지)",
    "lat": 36.47544463331682,
    "lng": 127.25228322108168,
    "region": "세종특별자치시"
  },
  {
    "name": "새샘마을 2단지아파트 지하주차장 1층",
    "address": "세종특별자치시 남세종로 358(소담동, 새샘마을2단지)",
    "lat": 36.48113136545171,
    "lng": 127.29932083209587,
    "region": "세종특별자치시"
  },
  {
    "name": "국토연구원 지하주차장 1층",
    "address": "세종특별자치시 국책연구원로 5, 국토연구원 (반곡동)",
    "lat": 36.491543990369046,
    "lng": 127.30069775601427,
    "region": "세종특별자치시"
  },
  {
    "name": "세종 푸르지오시티2차 어진동 지하주차장 1~3층",
    "address": "세종특별자치시 가름로 255-21 (어진동, 세종시2차푸르지오시티)",
    "lat": 36.49576094541722,
    "lng": 127.26714618358687,
    "region": "세종특별자치시"
  },
  {
    "name": "세종시모닝시티1차 어진동 지하주차장 1~4층",
    "address": "세종특별자치시 가름로 170-14 (어진동, 모닝시티1차)",
    "lat": 36.49695677012785,
    "lng": 127.25863299181152,
    "region": "세종특별자치시"
  },
  {
    "name": "도램마을5단지아파트 지하주차장 1층~2층",
    "address": "세종특별자치시 다솜1로 220 (도담동, 도램마을5단지)",
    "lat": 36.517489377186784,
    "lng": 127.25632851019182,
    "region": "세종특별자치시"
  },
  {
    "name": "도램마을10단지아파트 지하주차장 1층",
    "address": "세종특별자치시 보듬4로 20 (도담동, 도램마을10단지)",
    "lat": 36.51263623482664,
    "lng": 127.26167152461196,
    "region": "세종특별자치시"
  },
  {
    "name": "도램마을7단지아파트 지하주차장 1층",
    "address": "세종특별자치시 보듬1로 12 (도담동, 도램마을7단지)",
    "lat": 36.50984815366527,
    "lng": 127.25957613672269,
    "region": "세종특별자치시"
  },
  {
    "name": "도램마을13단지아파트 지하주차장 1층~2층",
    "address": "세종특별자치시 보람로 95 (도담동, 도램마을13단지)",
    "lat": 36.51682336197522,
    "lng": 127.26221540075612,
    "region": "세종특별자치시"
  },
  {
    "name": "도램마을14단지아파트 지하주차장 1층~2층",
    "address": "세종특별자치시 보듬2로 42 (도담동, 도램마을14단지)",
    "lat": 36.5111692531626,
    "lng": 127.2651561510904,
    "region": "세종특별자치시"
  },
  {
    "name": "도램마을16단지아파트 지하주차장 1층",
    "address": "세종특별자치시 보듬4로 55 (도담동, 도램마을16단지)",
    "lat": 36.51373727468538,
    "lng": 127.26548114779726,
    "region": "세종특별자치시"
  },
  {
    "name": "한뜰마을3단지아파트 어진동 지하주차장1~2층",
    "address": "세종특별자치시 다솜로 290 (어진동, 한뜰마을3단지)",
    "lat": 36.50486865005268,
    "lng": 127.27245353068024,
    "region": "세종특별자치시"
  },
  {
    "name": "새롬종합복지센터 지하주차장 1층",
    "address": "세종특별자치시 새롬로 14, 새롬종합복지센터 (새롬동)",
    "lat": 36.48625254508779,
    "lng": 127.2562408063178,
    "region": "세종특별자치시"
  },
  {
    "name": "새뜸마을 1단지 지하주차장 1층",
    "address": "세종특별자치시 새롬남로 18(새롬동, 새뜸마을1단지)",
    "lat": 36.48264376432201,
    "lng": 127.24797710600068,
    "region": "세종특별자치시"
  },
  {
    "name": "새뜸마을 2단지 지하주차장 1층",
    "address": "세종특별자치시 새롬남로 17(새롬동, 새뜸마을2단지)",
    "lat": 36.48288639311358,
    "lng": 127.24791779298114,
    "region": "세종특별자치시"
  },
  {
    "name": "새뜸마을3단지 지하주차장 1층",
    "address": "세종특별자치시 새롬북로 14(새롬동, 새뜸마을3단지)",
    "lat": 36.4863201511318,
    "lng": 127.24656626037996,
    "region": "세종특별자치시"
  },
  {
    "name": "새뜸마을 4단지 지하주차장 1층",
    "address": "세종특별자치시 새롬북로 13(새롬동, 새뜸마을4단지)",
    "lat": 36.48655065560961,
    "lng": 127.24647322839311,
    "region": "세종특별자치시"
  },
  {
    "name": "새뜸마을 5단지 지하주차장 1층",
    "address": "세종특별자치시 새롬중앙로 19(새롬동, 새뜸마을5단지)",
    "lat": 36.48322406353923,
    "lng": 127.25296838633628,
    "region": "세종특별자치시"
  },
  {
    "name": "새뜸마을 6단지 지하주차장 1층",
    "address": "세종특별자치시 새롬중앙1로 13(새롬동, 새뜸마을6단지)",
    "lat": 36.48442826252412,
    "lng": 127.2508390457679,
    "region": "세종특별자치시"
  },
  {
    "name": "새뜸마을 10단지 지하주차장 1층",
    "address": "세종특별자치시 새롬중앙로 90(새롬동, 새뜸마을10단지)",
    "lat": 36.48890764046152,
    "lng": 127.2504933756937,
    "region": "세종특별자치시"
  },
  {
    "name": "새뜸마을 11단지 지하주차장 1층",
    "address": "세종특별자치시 새롬로 55(새롬동, 새뜸마을11단지)",
    "lat": 36.48976743797283,
    "lng": 127.25420024781148,
    "region": "세종특별자치시"
  },
  {
    "name": "새뜸마을 14단지 지하주차장 1층",
    "address": "세종특별자치시 새롬로 56(새롬동, 새뜸마을14단지)",
    "lat": 36.4899322487704,
    "lng": 127.25456350448016,
    "region": "세종특별자치시"
  },
  {
    "name": "범지기마을3단지아파트 지하주차장 1~2층",
    "address": "세종특별자치시 달빛1로 201 (아름동, 범지기마을3단지)",
    "lat": 36.51738979893554,
    "lng": 127.24540053849114,
    "region": "세종특별자치시"
  },
  {
    "name": "범지기마을4단지아파트 지하주차장 1층",
    "address": "세종특별자치시 달빛로 109 (아름동, 범지기마을4단지)",
    "lat": 36.50877868767799,
    "lng": 127.2496038268753,
    "region": "세종특별자치시"
  },
  {
    "name": "범지기마을5단지아파트 지하주차장 1층",
    "address": "세종특별자치시 달빛1로 122 (아름동, 범지기마을5단지)",
    "lat": 36.51019504626561,
    "lng": 127.24642124396316,
    "region": "세종특별자치시"
  },
  {
    "name": "범지기마을6단지아파트 지하주차장 1~2층",
    "address": "세종특별자치시 달빛로 135 (아름동, 범지기마을6단지)",
    "lat": 36.51099025765603,
    "lng": 127.24906373273264,
    "region": "세종특별자치시"
  },
  {
    "name": "범지기마을7단지아파트 지하주차장 1~2층",
    "address": "세종특별자치시 달빛1로 158 (아름동, 범지기마을7단지)",
    "lat": 36.51350334541728,
    "lng": 127.2462696401577,
    "region": "세종특별자치시"
  },
  {
    "name": "범지기마을9단지아파트 지하주차장 1~2층",
    "address": "세종특별자치시 달빛1로 206 (아름동, 범지기마을9단지)",
    "lat": 36.517748999108775,
    "lng": 127.24572512074774,
    "region": "세종특별자치시"
  },
  {
    "name": "범지기마을10단지아파트 지하주차장 1~2층",
    "address": "세종특별자치시 달빛로 211 (아름동, 범지기마을10단지)",
    "lat": 36.517856231780144,
    "lng": 127.25181351585368,
    "region": "세종특별자치시"
  },
  {
    "name": "범지기마을11단지아파트 지하주차장 1~2층",
    "address": "세종특별자치시 보듬3로 73 (아름동, 범지기마을11단지)",
    "lat": 36.511391637123324,
    "lng": 127.25143149022486,
    "region": "세종특별자치시"
  },
  {
    "name": "범지기마을12단지아파트 지하주차장 1층",
    "address": "세종특별자치시 보듬3로 74 (아름동, 범지기마을12단지)",
    "lat": 36.51172236503428,
    "lng": 127.25159146556034,
    "region": "세종특별자치시"
  },
  {
    "name": "호려울마을1단지아파트 지하주차장 1층",
    "address": "세종특별자치시 남세종로 503 (보람동, 호려울마을1단지)",
    "lat": 36.47474517433655,
    "lng": 127.28496239471885,
    "region": "세종특별자치시"
  },
  {
    "name": "호려울마을4단지아파트 지하주차장 1층",
    "address": "세종특별자치시 남세종로 469 (보람동, 호려울마을4단지)",
    "lat": 36.47616329120012,
    "lng": 127.28843345519886,
    "region": "세종특별자치시"
  },
  {
    "name": "호려울마을5단지아파트 지하주차장 1층",
    "address": "세종특별자치시 남세종로 441 (보람동, 호려울마을5단지)",
    "lat": 36.47727729405838,
    "lng": 127.29105491523956,
    "region": "세종특별자치시"
  },
  {
    "name": "호려울마을6단지아파트 지하주차장 1층",
    "address": "세종특별자치시 보람동로 13 (보람동, 호려울마을6단지)",
    "lat": 36.47786230862263,
    "lng": 127.29523879141986,
    "region": "세종특별자치시"
  },
  {
    "name": "호려울마을8단지아파트 지하주차장 1층",
    "address": "세종특별자치시 보람동로 14 (보람동, 호려울마을8단지)",
    "lat": 36.479584019674206,
    "lng": 127.29659510026872,
    "region": "세종특별자치시"
  },
  {
    "name": "호려울마을9단지아파트 지하주차장 1층",
    "address": "세종특별자치시 남세종로 384 (보람동, 호려울마을9단지)",
    "lat": 36.47990159687438,
    "lng": 127.29632796502452,
    "region": "세종특별자치시"
  },
  {
    "name": "호려울마을10단지아파트 지하주차장 1층",
    "address": "세종특별자치시 시청대로 210 (보람동, 호려울마을10단지)",
    "lat": 36.48176331270018,
    "lng": 127.29323828415272,
    "region": "세종특별자치시"
  },
  {
    "name": "가재마을 1단지 아파트 지하주차장 1층",
    "address": "세종특별자치시 도움1로 145 (종촌동, 가재마을1단지)",
    "lat": 36.50159393130597,
    "lng": 127.24338590007088,
    "region": "세종특별자치시"
  },
  {
    "name": "가재마을 2단지 아파트 지하주차장 1층",
    "address": "세종특별자치시 달빛1로 39 (종촌동, 가재마을2단지)",
    "lat": 36.50299311979484,
    "lng": 127.24470524137044,
    "region": "세종특별자치시"
  },
  {
    "name": "가재마을 3단지 아파트 지하주차장 1층",
    "address": "세종특별자치시 도움3로 159 (종촌동, 가재마을3단지)",
    "lat": 36.50501677916049,
    "lng": 127.24317629315348,
    "region": "세종특별자치시"
  },
  {
    "name": "가재마을 4단지 아파트 지하주차장 1층",
    "address": "세종특별자치시 도움3로 160 (종촌동, 가재마을4단지)",
    "lat": 36.50531358379337,
    "lng": 127.24310035598454,
    "region": "세종특별자치시"
  },
  {
    "name": "가재마을 5단지 아파트 지하주차장 1층",
    "address": "세종특별자치시 도움1로 105 (종촌동, 가재마을5단지)",
    "lat": 36.50193108818112,
    "lng": 127.24789259861618,
    "region": "세종특별자치시"
  },
  {
    "name": "가재마을 7단지 아파트 지하주차장 1층~2층",
    "address": "세종특별자치시 달빛로 77 (종촌동, 가재마을7단지)",
    "lat": 36.50590552230708,
    "lng": 127.24935067566506,
    "region": "세종특별자치시"
  },
  {
    "name": "가재마을 9단지 아파트 지하주차장 1층",
    "address": "세종특별자치시 도움1로 55 (종촌동, 가재마을9단지)",
    "lat": 36.50135964374861,
    "lng": 127.2534393247853,
    "region": "세종특별자치시"
  },
  {
    "name": "가재마을 10단지 아파트 지하주차장 1층",
    "address": "세종특별자치시 도움1로 74 (종촌동, 가재마을10단지)",
    "lat": 36.5020904366944,
    "lng": 127.25154870693538,
    "region": "세종특별자치시"
  },
  {
    "name": "가재마을 12단지 아파트 지하주차장 1층~2층",
    "address": "세종특별자치시 달빛로 80 (종촌동, 가재마을12단지)",
    "lat": 36.50607777262913,
    "lng": 127.2501437159837,
    "region": "세종특별자치시"
  },
  {
    "name": "가락마을4단지아파트 지하주차장 1층",
    "address": "세종특별자치시 마음안로 48 (고운동, 가락마을4단지)",
    "lat": 36.50703796609064,
    "lng": 127.2367144080818,
    "region": "세종특별자치시"
  },
  {
    "name": "가락마을5단지아파트 지하주차장 1층",
    "address": "세종특별자치시 마음안로 34 (고운동, 가락마을5단지)",
    "lat": 36.506296258706286,
    "lng": 127.23792467656044,
    "region": "세종특별자치시"
  },
  {
    "name": "가락마을6단지아파트 지하주차장 1층",
    "address": "세종특별자치시 마음로 14 (고운동, 가락마을6단지)",
    "lat": 36.5024649334008,
    "lng": 127.2394793348749,
    "region": "세종특별자치시"
  },
  {
    "name": "가락마을7단지아파트 지하주차장 1층",
    "address": "세종특별자치시 마음안로 13 (고운동, 가락마을7단지)",
    "lat": 36.50523123431533,
    "lng": 127.2397900526858,
    "region": "세종특별자치시"
  },
  {
    "name": "가락마을8단지아파트 지하주차장 1층",
    "address": "세종특별자치시 만남로 92 (고운동, 가락마을8단지)",
    "lat": 36.50748904524883,
    "lng": 127.2394948245862,
    "region": "세종특별자치시"
  },
  {
    "name": "가락마을9단지아파트 지하주차장 1층",
    "address": "세종특별자치시 마음로 151 (고운동, 가락마을9단지)",
    "lat": 36.511084451530415,
    "lng": 127.2294848279763,
    "region": "세종특별자치시"
  },
  {
    "name": "가락마을10단지아파트 지하주차장 1층",
    "address": "세종특별자치시 마음로 181 (고운동, 가락마을10단지)",
    "lat": 36.51380427737594,
    "lng": 127.22935336677028,
    "region": "세종특별자치시"
  },
  {
    "name": "가락마을13단지아파트 지하주차장 1층",
    "address": "세종특별자치시 마음로 182 (고운동, 가락마을13단지)",
    "lat": 36.513794723882015,
    "lng": 127.22970521447704,
    "region": "세종특별자치시"
  },
  {
    "name": "가락마을15단지아파트 지하주차장 1층",
    "address": "세종특별자치시 마음안로 190(고운동, 가락마을15단지)",
    "lat": 36.51714596374693,
    "lng": 127.23689033726548,
    "region": "세종특별자치시"
  },
  {
    "name": "가락마을16단지아파트 지하주차장 1층",
    "address": "세종특별자치시 만남로 187 (고운동, 가락마을16단지)",
    "lat": 36.5160317855431,
    "lng": 127.2390695179998,
    "region": "세종특별자치시"
  },
  {
    "name": "가락마을20단지아파트 지하주차장 1층",
    "address": "세종특별자치시 만남로 190 (고운동, 가락마을20단지)",
    "lat": 36.516185839670456,
    "lng": 127.23946674918469,
    "region": "세종특별자치시"
  },
  {
    "name": "가락마을21단지아파트 지하주차장 1층",
    "address": "세종특별자치시 마음안로 221 (고운동, 가락마을21단지)",
    "lat": 36.51753526073053,
    "lng": 127.24040716101568,
    "region": "세종특별자치시"
  },
  {
    "name": "가락마을22단지아파트 지하주차장 1층",
    "address": "세종특별자치시 마음로 322 (고운동, 가락마을22단지)",
    "lat": 36.51999688815148,
    "lng": 127.24087638048744,
    "region": "세종특별자치시"
  },
  {
    "name": "욱일아파트 지하1층주차장",
    "address": "세종특별자치시 조치원읍 충현로 159 (욱일아파트)",
    "lat": 36.60267698710216,
    "lng": 127.29382981202308,
    "region": "세종특별자치시"
  },
  {
    "name": "풍산아파트 지하1층주차장",
    "address": "세종특별자치시 조치원읍 새내8길 22-13",
    "lat": 36.59888419837751,
    "lng": 127.29999228362232,
    "region": "세종특별자치시"
  },
  {
    "name": "새샘마을 3단지아파트 지하주차장 1층",
    "address": "세종특별자치시 시청대로 236 (소담동, 새샘마을3단지)",
    "lat": 36.48495510145745,
    "lng": 127.29543056363708,
    "region": "세종특별자치시"
  },
  {
    "name": "새샘마을 5단지아파트 지하주차장 1층",
    "address": "세종특별자치시 남세종로 301 (소담동, 새샘마을5단지)",
    "lat": 36.48166102473768,
    "lng": 127.30554643551233,
    "region": "세종특별자치시"
  },
  {
    "name": "새샘마을 6단지아파트 지하주차장 1~2층",
    "address": "세종특별자치시 남세종로 302 (소담동, 새샘마을6단지)",
    "lat": 36.48192449305172,
    "lng": 127.30536408386762,
    "region": "세종특별자치시"
  },
  {
    "name": "부강면 대신하나로아파트 지하주차장 1층",
    "address": "세종특별자치시 부강면 부강로 29-12 (대신하나로아파트)",
    "lat": 36.528716359197645,
    "lng": 127.36557031948874,
    "region": "세종특별자치시"
  },
  {
    "name": "신창무궁화아파트 지하주차장 1층",
    "address": "세종특별자치시 소정면 세종로 4283 (신창무궁화아파트)",
    "lat": 36.69807344420766,
    "lng": 127.15213815086214,
    "region": "세종특별자치시"
  },
  {
    "name": "홍익대 교사A동 지하1층",
    "address": "세종특별자치시 조치원읍 세종로 2639 (홍익대학교세종캠퍼스)",
    "lat": 36.62144254548845,
    "lng": 127.29052520549908,
    "region": "세종특별자치시"
  },
  {
    "name": "고려대 학술정보관 지하1층",
    "address": "세종특별자치시 조치원읍 세종로 2511 (고려대학교세종캠퍼스)",
    "lat": 36.610387769743305,
    "lng": 127.29311536925076,
    "region": "세종특별자치시"
  },
  {
    "name": "새뜸마을 9단지 지하주차장 1층",
    "address": "세종특별자치시 새롬남로 98(새롬동, 새뜸마을9단지)",
    "lat": 36.48385973190744,
    "lng": 127.2570624409533,
    "region": "세종특별자치시"
  },
  {
    "name": "해들마을1단지 아파트 지하1~2층",
    "address": "세종특별자치시 대평1길 27 (대평동, 해들마을1단지)",
    "lat": 36.47004479822394,
    "lng": 127.2776837998168,
    "region": "세종특별자치시"
  },
  {
    "name": "해들마을2단지 아파트 지하1~2층",
    "address": "세종특별자치시 대평1길 37 (대평동, 해들마을2단지)",
    "lat": 36.4708324524443,
    "lng": 127.27715276842495,
    "region": "세종특별자치시"
  },
  {
    "name": "해들마을3단지 아파트 지하1층",
    "address": "세종특별자치시 대평1길 38 (대평동, 해들마을3단지)",
    "lat": 36.4709166515544,
    "lng": 127.27734611620204,
    "region": "세종특별자치시"
  },
  {
    "name": "해들마을4단지 아파트 지하1층",
    "address": "세종특별자치시 대평로 34 (대평동, 해들마을4단지)",
    "lat": 36.47130797809172,
    "lng": 127.28058032623116,
    "region": "세종특별자치시"
  },
  {
    "name": "해들마을5단지 아파트 지하1층",
    "address": "세종특별자치시 대평로 56 (대평동, 해들마을 5단지)",
    "lat": 36.47274671554744,
    "lng": 127.27890131725036,
    "region": "세종특별자치시"
  },
  {
    "name": "해들마을6단지 아파트 지하1~2층",
    "address": "세종특별자치시 대평로 80 (대평동, 해들마을 6단지)",
    "lat": 36.47448966707727,
    "lng": 127.27710461763432,
    "region": "세종특별자치시"
  },
  {
    "name": "신성미소지움아파트 지하주차장1층",
    "address": "세종특별자치시 금남면 용포2길 57-15 (신성미소지움아파트)",
    "lat": 36.46515559456673,
    "lng": 127.278583511476,
    "region": "세종특별자치시"
  },
  {
    "name": "성호늘푸른아파트 지하주차장 1층",
    "address": "세종특별자치시 전의면 동교동촌2길 16 (성호늘푸른아파트)",
    "lat": 36.68326086034285,
    "lng": 127.205136454981,
    "region": "세종특별자치시"
  },
  {
    "name": "가온마을1단지 아파트 지하주차장 1~2층",
    "address": "세종특별자치시 다정남로 22 (다정동, 가온마을1단지)",
    "lat": 36.49276781683337,
    "lng": 127.243208450573,
    "region": "세종특별자치시"
  },
  {
    "name": "가온마을2단지 아파트 지하주차장 1~2층",
    "address": "세종특별자치시 다정북로 110 (다정동, 가온마을2단지)",
    "lat": 36.49601419996022,
    "lng": 127.24267655791716,
    "region": "세종특별자치시"
  },
  {
    "name": "가온마을5단지 아파트 지하주차장 1층",
    "address": "세종특별자치시 다정서로 60 (다정동, 가온마을5단지)",
    "lat": 36.49509925445231,
    "lng": 127.24496506530352,
    "region": "세종특별자치시"
  },
  {
    "name": "가온마을12단지 아파트 지하주차장 1층",
    "address": "세종특별자치시 다정남로 123 (다정동, 가온마을12단지)",
    "lat": 36.49283461974552,
    "lng": 127.25422815404404,
    "region": "세종특별자치시"
  },
  {
    "name": "가온마을8단지 아파트 지하주차장 1~2층",
    "address": "세종특별자치시 다정북로 180 (다정동, 가온마을8단지)",
    "lat": 36.49568105737145,
    "lng": 127.25045640917784,
    "region": "세종특별자치시"
  },
  {
    "name": "가온마을10단지 아파트 지하주차장 1층",
    "address": "세종특별자치시 가온로 9 (다정동, 가온마을 10단지)",
    "lat": 36.49163465527438,
    "lng": 127.25399097910476,
    "region": "세종특별자치시"
  },
  {
    "name": "새롬동복합커뮤니티센터 지하주차장 1층",
    "address": "세종특별자치시 새롬중앙로 44, 새롬동복합커뮤니티센터 (새롬동)",
    "lat": 36.485033440217656,
    "lng": 127.25184197432186,
    "region": "세종특별자치시"
  },
  {
    "name": "가락마을1단지아파트 지하주차장 1층",
    "address": "세종특별자치시 마음로 67 (고운동, 가락마을1단지)",
    "lat": 36.50463503536752,
    "lng": 127.23420270199556,
    "region": "세종특별자치시"
  },
  {
    "name": "가락마을2단지아파트 지하주차장 1층",
    "address": "세종특별자치시 마음로 49 (고운동, 가락마을2단지)",
    "lat": 36.503667918715806,
    "lng": 127.2358157338302,
    "region": "세종특별자치시"
  },
  {
    "name": "가락마을14단지아파트 지하주차장 1층",
    "address": "세종특별자치시 마음안로 131 (고운동, 가락마을 14단지)",
    "lat": 36.51372331838333,
    "lng": 127.23287594652126,
    "region": "세종특별자치시"
  },
  {
    "name": "가락마을18단지아파트 지하주차장 1층",
    "address": "세종특별자치시 마음안1로 139 (고운동, 가락마을18단지)",
    "lat": 36.52193233141944,
    "lng": 127.23444461462012,
    "region": "세종특별자치시"
  },
  {
    "name": "가락마을19단지아파트 지하주차장 1층",
    "address": "세종특별자치시 밝은뜰로 15 (고운동, 가락마을19단지)",
    "lat": 36.52211265537545,
    "lng": 127.2342633453405,
    "region": "세종특별자치시"
  },
  {
    "name": "장군면사무소",
    "address": "세종특별자치시 장군면 장척로 400-1, 장군면사무소",
    "lat": 36.49682711076111,
    "lng": 127.20540010797453,
    "region": "세종특별자치시"
  },
  {
    "name": "대원네스트빌아파트 지하1층",
    "address": "세종특별자치시 연서면 당산로 290 (대원네스트빌아파트)",
    "lat": 36.55882426512796,
    "lng": 127.27856863326,
    "region": "세종특별자치시"
  },
  {
    "name": "호려울마을3단지아파트 지하주차장1~2층",
    "address": "세종특별자치시 시청대로 78 (보람동, 호려울마을3단지)",
    "lat": 36.47706062064995,
    "lng": 127.280949407953,
    "region": "세종특별자치시"
  },
  {
    "name": "호려울마을7단지아파트 지하주차장 1~2층",
    "address": "세종특별자치시 남세종로 480 (보람동, 호려울마을 7단지)",
    "lat": 36.47600649860479,
    "lng": 127.287138123807,
    "region": "세종특별자치시"
  },
  {
    "name": "소담동 복합커뮤니티센터 지하주차장 1층",
    "address": "세종특별자치시 한누리대로 2023, 소담동행정복지센터 (소담동)",
    "lat": 36.48406841240132,
    "lng": 127.29995257181665,
    "region": "세종특별자치시"
  },
  {
    "name": "다정동 복합커뮤니티센터 지하주차장 1층",
    "address": "세종특별자치시 다정남3로 10, 다정동 복합커뮤니티센터 (다정동)",
    "lat": 36.49458136537024,
    "lng": 127.24972132108672,
    "region": "세종특별자치시"
  },
  {
    "name": "가온마을3단지 아파트 지하주차장 1층",
    "address": "세종특별자치시 다정북로 109 (다정동, 가온마을3단지)",
    "lat": 36.49626707816094,
    "lng": 127.2426756959213,
    "region": "세종특별자치시"
  },
  {
    "name": "가온마을4단지 아파트 지하주차장 1층",
    "address": "세종특별자치시 다정중앙로 19 (다정동, 가온마을4단지)",
    "lat": 36.49216877455067,
    "lng": 127.24905929014344,
    "region": "세종특별자치시"
  },
  {
    "name": "가온마을6단지 아파트 지하주차장 1~2층",
    "address": "세종특별자치시 다정중앙로 77 (다정동, 가온마을6단지)",
    "lat": 36.49744119279162,
    "lng": 127.24869721673431,
    "region": "세종특별자치시"
  },
  {
    "name": "가온마을9단지 아파트 지하주차장 1층",
    "address": "세종특별자치시 다정북로 183 (다정동, 가온마을9단지)",
    "lat": 36.4959921027346,
    "lng": 127.25094518524494,
    "region": "세종특별자치시"
  },
  {
    "name": "가온마을11단지 아파트 지하주차장 1~2층",
    "address": "세종특별자치시 가온로 10 (다정동, 가온마을11단지)",
    "lat": 36.4916898513815,
    "lng": 127.2543070152006,
    "region": "세종특별자치시"
  },
  {
    "name": "대평동행정복지센터 지하1층",
    "address": "세종특별자치시 대평1길 10, 대평동행정복지센터 (대평동)",
    "lat": 36.4709111211839,
    "lng": 127.27950000008668,
    "region": "세종특별자치시"
  },
  {
    "name": "수루배마을1단지 아파트 지하주차장 1~2층",
    "address": "세종특별자치시 반곡로 14 (반곡동, 수루배마을1단지)",
    "lat": 36.49853197360452,
    "lng": 127.30785144301944,
    "region": "세종특별자치시"
  },
  {
    "name": "수루배마을2단지 아파트 지하주차장 1~2층",
    "address": "세종특별자치시 반곡1길 9 (반곡동, 수루배마을2단지)",
    "lat": 36.4966932433634,
    "lng": 127.309844067634,
    "region": "세종특별자치시"
  },
  {
    "name": "수루배마을3단지 아파트 지하주차장 1~2층",
    "address": "세종특별자치시 반곡로 15 (반곡동, 수루배마을 3단지)",
    "lat": 36.49891520225289,
    "lng": 127.30850356768808,
    "region": "세종특별자치시"
  },
  {
    "name": "수루배마을4단지 아파트 지하주차장 1층",
    "address": "세종특별자치시 시청대로 500 (반곡동, 수루배마을 4단지)",
    "lat": 36.50116897038651,
    "lng": 127.31388522296862,
    "region": "세종특별자치시"
  },
  {
    "name": "수루배마을5단지 아파트 지하주차장 1~2층",
    "address": "세종특별자치시 반곡2길 9 (반곡동, 수루배마을5단지)",
    "lat": 36.49689920138277,
    "lng": 127.31178292105864,
    "region": "세종특별자치시"
  },
  {
    "name": "수루배마을6단지 아파트 지하주차장 1층",
    "address": "세종특별자치시 시청대로 598 (반곡동, 수루배마을 6단지)",
    "lat": 36.49396977144322,
    "lng": 127.31883809749333,
    "region": "세종특별자치시"
  },
  {
    "name": "연동면사무소",
    "address": "세종특별자치시 연동면 장욱진로 7, 연동면 복합커뮤니티센터",
    "lat": 36.55515877975875,
    "lng": 127.3273710573879,
    "region": "세종특별자치시"
  },
  {
    "name": "해밀동 복합커뮤니티센터 지하주차장 1층",
    "address": "세종특별자치시 해밀1로 45, 해밀동 복합커뮤니티센터 (해밀동)",
    "lat": 36.52707378315744,
    "lng": 127.26777438966948,
    "region": "세종특별자치시"
  },
  {
    "name": "해밀마을1단지 전체 동의 지하주차장 1층",
    "address": "세종특별자치시 해밀3로 32(해밀동, 해밀마을1단지)",
    "lat": 36.52751262164527,
    "lng": 127.26417851726424,
    "region": "세종특별자치시"
  },
  {
    "name": "해밀마을2단지 전체 동의 지하주차장 1층",
    "address": "세종특별자치시 해밀3로 90(해밀동, 해밀마을2단지)",
    "lat": 36.53079074518311,
    "lng": 127.26907753311708,
    "region": "세종특별자치시"
  },
  {
    "name": "반곡동 복합커뮤니티센터 지하주차장 1층",
    "address": "세종특별자치시 반곡로 39, 반곡동 복합커뮤니티센터 (반곡동)",
    "lat": 36.49842267050271,
    "lng": 127.31069120091114,
    "region": "세종특별자치시"
  },
  {
    "name": "새나루마을1단지 아파트 지하주차장 1층",
    "address": "세종특별자치시 남세종로 160 (집현동, 새나루마을1단지)",
    "lat": 36.48570628083438,
    "lng": 127.3203689235569,
    "region": "세종특별자치시"
  },
  {
    "name": "새나루마을2단지 아파트 지하주차장 1층",
    "address": "세종특별자치시 집현서로 15(집현동, 새나루마을2단지)",
    "lat": 36.48861169295371,
    "lng": 127.32181607038132,
    "region": "세종특별자치시"
  },
  {
    "name": "새나루마을4단지 아파트 지하주차장 1층",
    "address": "세종특별자치시 집현서로 57(집현동, 새나루마을 4단지)",
    "lat": 36.4923563583285,
    "lng": 127.3220010888495,
    "region": "세종특별자치시"
  },
  {
    "name": "새나루마을3단지 아파트 지하주차장 1층",
    "address": "세종특별자치시 집현서로 45 (집현동, 새나루마을 3단지)",
    "lat": 36.49124449599259,
    "lng": 127.3215816299735,
    "region": "세종특별자치시"
  },
  {
    "name": "새나루마을9단지 아파트 지하주차장 1층",
    "address": "세종특별자치시 시청대로 642(집현동, 새나루마을 9단지)",
    "lat": 36.49284795967492,
    "lng": 127.32373908216049,
    "region": "세종특별자치시"
  },
  {
    "name": "새나루마을11단지 아파트 지하주차장 1~2층",
    "address": "세종특별자치시 집현서2로 84(집현동, 새나루마을 11단지)",
    "lat": 36.497484099629695,
    "lng": 127.32361369735229,
    "region": "세종특별자치시"
  },
  {
    "name": "새나루마을12단지 아파트 지하주차장 1층",
    "address": "세종특별자치시 집현북로 52(집현동, 새나루마을 12단지)",
    "lat": 36.50186277655631,
    "lng": 127.32560485794872,
    "region": "세종특별자치시"
  },
  {
    "name": "죽림우방유쉘아파트 지하1층주차장",
    "address": "세종특별자치시 조치원읍 산막길 17, 지하층 (우방유쉘아파트)",
    "lat": 36.59299572356874,
    "lng": 127.29526266774434,
    "region": "세종특별자치시"
  },
  {
    "name": "연남초등학교 체육관",
    "address": "세종특별자치시 연기면 연기길 2, 연남초등학교 체육관동",
    "lat": 36.54350054599615,
    "lng": 127.2771777590334,
    "region": "세종특별자치시"
  },
  {
    "name": "수왕초등학교 체육관",
    "address": "세종특별자치시 연기면 눌왕길 8-45, 수왕초등학교",
    "lat": 36.54422483452633,
    "lng": 127.25237929848052,
    "region": "세종특별자치시"
  },
  {
    "name": "조치원농협 전동지점 지하 1층",
    "address": "세종특별자치시 전동면 전동로 21, 조치원농협 전동지점",
    "lat": 36.655095016866056,
    "lng": 127.26800500914057,
    "region": "세종특별자치시"
  },
  {
    "name": "한뜰마을1단지아파트 어진동 지하주차장1~2층",
    "address": "세종특별자치시 갈매로 479 (어진동, 한뜰마을1단지)",
    "lat": 36.50690824074664,
    "lng": 127.26578388754596,
    "region": "세종특별자치시"
  },
  {
    "name": "한뜰마을4단지아파트 어진동 지하주차장1~3층",
    "address": "세종특별자치시 다솜1로 9 (어진동, 한뜰마을4단지)",
    "lat": 36.49991436046188,
    "lng": 127.2558832443538,
    "region": "세종특별자치시"
  },
  {
    "name": "한뜰마을5단지아파트 어진동 지하주차장1~3층",
    "address": "세종특별자치시 다솜로 7 (어진동, 한뜰마을5단지)",
    "lat": 36.49788624034949,
    "lng": 127.25595795093032,
    "region": "세종특별자치시"
  },
  {
    "name": "한뜰마을6단지아파트 어진동 지하주차장1~3층",
    "address": "세종특별자치시 다솜로 50 (어진동, 한뜰마을6단지)",
    "lat": 36.49558764434764,
    "lng": 127.25874546708044,
    "region": "세종특별자치시"
  },
  {
    "name": "남양유업 세종 중앙연구소",
    "address": "세종특별자치시 장군면 장기로 836-11, 남양유업㈜ 세종연구소 지하 1층",
    "lat": 36.49774397881087,
    "lng": 127.225633596667,
    "region": "세종특별자치시"
  },
  {
    "name": "수루배마을7단지 아파트 지하주차장 1~2층",
    "address": "세종특별자치시 반곡로 72 (반곡동, 수루배마을7단지)",
    "lat": 36.49876066202538,
    "lng": 127.31419126280434,
    "region": "세종특별자치시"
  },
  {
    "name": "수루배마을8단지 아파트 지하주차장 1층",
    "address": "세종특별자치시 시청대로 546 (반곡동, 수루배마을8단지)",
    "lat": 36.49831359891105,
    "lng": 127.31726691205168,
    "region": "세종특별자치시"
  },
  {
    "name": "수루배마을9단지 아파트 지하주차장 1~2층",
    "address": "세종특별자치시 시청대로 547 (반곡동)",
    "lat": 36.498518821291576,
    "lng": 127.31765300834093,
    "region": "세종특별자치시"
  },
  {
    "name": "새나루마을8단지 아파트 지하주차장 1층",
    "address": "세종특별자치시 집현서로 16 (집현동, 새나루마을8단지)",
    "lat": 36.48890356183617,
    "lng": 127.32201133949393,
    "region": "세종특별자치시"
  },
  {
    "name": "새나루마을10단지 아파트 지하주차장 1층",
    "address": "세종특별자치시 시청대로 643 (집현동, 새나루마을 10단지)",
    "lat": 36.4931770633874,
    "lng": 127.323850809003,
    "region": "세종특별자치시"
  },
  {
    "name": "나성동행정복지센터 지하주자창 1층",
    "address": "세종특별자치시 갈매로 280, 나성동주민센터 (나성동)",
    "lat": 36.488959647597376,
    "lng": 127.26410398890503,
    "region": "세종특별자치시"
  },
  {
    "name": "나릿재마을2단지아파트 지하주차장 1~2층",
    "address": "세종특별자치시 중앙공원서로 10 (나성동, 나릿재마을2단지)",
    "lat": 36.48873504378271,
    "lng": 127.2651795424444,
    "region": "세종특별자치시"
  },
  {
    "name": "나릿재마을5단지아파트 지하주차장 1~2층",
    "address": "세종특별자치시 나성북1로 23 (나성동, 나릿재마을 5단지)",
    "lat": 36.49221779500108,
    "lng": 127.25727691887506,
    "region": "세종특별자치시"
  },
  {
    "name": "세종가로수길 지하주차장 1~2층",
    "address": "세종특별자치시 나성로 38, 세종가로수길 (나성동)",
    "lat": 36.48326837191711,
    "lng": 127.26347460358409,
    "region": "세종특별자치시"
  },
  {
    "name": "삼성전기 세종사업소 기숙사",
    "address": "세종특별자치시 연동면 삼성길 25, 삼성전기 세종사업소 기숙사",
    "lat": 36.53976420162799,
    "lng": 127.3351890169052,
    "region": "세종특별자치시"
  },
  {
    "name": "산울마을2단지 전체 동의 지하주차장 1층",
    "address": "세종특별자치시 산울3로 45 (산울동, 산울마을2단지)",
    "lat": 36.5300938608012,
    "lng": 127.258461913903,
    "region": "세종특별자치시"
  },
  {
    "name": "산울마을5단지 전체 동의 지하주차장 1층",
    "address": "세종특별자치시 산울2로 40 (산울동, 산울마을5단지)",
    "lat": 36.5296593005455,
    "lng": 127.259813326378,
    "region": "세종특별자치시"
  },
  {
    "name": "산울마을6단지 전체 동의 지하주차장 1,2,3층",
    "address": "세종특별자치시 산울2로 10 (산울동, 산울마을6단지)",
    "lat": 36.5285609469889,
    "lng": 127.262684042173,
    "region": "세종특별자치시"
  },
  {
    "name": "산울마을7단지 전체 동의 지하주차장 2,3층",
    "address": "세종특별자치시 산울7로 11 (산울동, 산울마을7단지)",
    "lat": 36.5314367815471,
    "lng": 127.265272773957,
    "region": "세종특별자치시"
  },
  {
    "name": "나릿재마을1단지아파트 지하주차창 1~2층",
    "address": "세종특별자치시 국세청로 46 (나성동, 나릿재마을1단지)",
    "lat": 36.4877702138182,
    "lng": 127.2628087619,
    "region": "세종특별자치시"
  },
  {
    "name": "나릿재마을3단지아파트 지하주차장 1~2층",
    "address": "세종특별자치시 국세청로 45 (나성동, 나릿재마을3단지)",
    "lat": 36.4881558695039,
    "lng": 127.262952718937,
    "region": "세종특별자치시"
  },
  {
    "name": "나릿재마을4단지아파트 지하주차장 1~2층",
    "address": "세종특별자치시 나성북로 47 (나성동, 나릿재마을4단지)",
    "lat": 36.4901481366778,
    "lng": 127.261953266798,
    "region": "세종특별자치시"
  },
  {
    "name": "나릿재마을6단지아파트 지하주차장 1~2층",
    "address": "세종특별자치시 나성북1로 51 (나성동, 나릿재마을 6단지)",
    "lat": 36.4917869632763,
    "lng": 127.261780315762,
    "region": "세종특별자치시"
  }
]