[
  {
    "name": "동부주공아파트",
    "address": "충청북도 괴산군 괴산읍 남산1길 25",
    "lat": 36.80512719,
    "lng": 127.7940712,
    "region": "충청북도"
  },
  {
    "name": "문무아파트 2단지",
    "address": "충청북도 괴산군 괴산읍 대덕리 557",
    "lat": 36.82222167,
    "lng": 127.8033575,
    "region": "충청북도"
  },
  {
    "name": "보건소",
    "address": "충청북도 괴산군 괴산읍 동진천길 43",
    "lat": 36.80799723,
    "lng": 127.7966873,
    "region": "충청북도"
  },
  {
    "name": "문무아파트 1단지",
    "address": "충청북도 괴산군 괴산읍 서부리 902",
    "lat": 36.80095898,
    "lng": 127.7891235,
    "region": "충청북도"
  },
  {
    "name": "두진백로 아파트",
    "address": "충청북도 괴산군 괴산읍 읍내로 111-1",
    "lat": 36.79828443,
    "lng": 127.7821167,
    "region": "충청북도"
  },
  {
    "name": "괴산읍사무소",
    "address": "충청북도 괴산군 괴산읍 읍내로 13길 50",
    "lat": 36.81185074,
    "lng": 127.7906627,
    "region": "충청북도"
  },
  {
    "name": "괴산농협",
    "address": "충청북도 괴산군 괴산읍 읍내로 16길 19",
    "lat": 36.81005319,
    "lng": 127.7974999,
    "region": "충청북도"
  },
  {
    "name": "태광아파트",
    "address": "충청북도 괴산군 괴산읍 읍내로4길 51, 101동",
    "lat": 36.80807919,
    "lng": 127.7885268,
    "region": "충청북도"
  },
  {
    "name": "괴산군청",
    "address": "충청북도 괴산군 괴산읍 임꺽정로 90, 괴산군청",
    "lat": 36.81574898,
    "lng": 127.787533,
    "region": "충청북도"
  },
  {
    "name": "칠성면사무소",
    "address": "충청북도 괴산군 칠성면 도정로 61",
    "lat": 36.78813245,
    "lng": 127.8636186,
    "region": "충청북도"
  },
  {
    "name": "신성미소지움 아파트",
    "address": "충청북도 단양군 단양읍 별곡3로 39-16",
    "lat": 36.98882907,
    "lng": 128.3635409,
    "region": "충청북도"
  },
  {
    "name": "성원아파트",
    "address": "충청북도 단양군 단양읍 별곡7길 12",
    "lat": 36.98575012,
    "lng": 128.3702068,
    "region": "충청북도"
  },
  {
    "name": "부강아파트",
    "address": "충청북도 단양군 단양읍 별곡7길 4",
    "lat": 36.9851057,
    "lng": 128.3701459,
    "region": "충청북도"
  },
  {
    "name": "㈜대명콘도 단양",
    "address": "충청북도 단양군 단양읍 삼봉로 187-17",
    "lat": 36.97745496,
    "lng": 128.3619453,
    "region": "충청북도"
  },
  {
    "name": "두진아파트",
    "address": "충청북도 단양군 단양읍 상진2로 17",
    "lat": 36.97834585,
    "lng": 128.3584259,
    "region": "충청북도"
  },
  {
    "name": "다누리센터",
    "address": "충청북도 단양군 단양읍 수변로 111",
    "lat": 36.98541224,
    "lng": 128.3707534,
    "region": "충청북도"
  },
  {
    "name": "단양군청",
    "address": "충청북도 단양군 단양읍 중앙1로 10",
    "lat": 36.98455537,
    "lng": 128.3662994,
    "region": "충청북도"
  },
  {
    "name": "단양교육지원청",
    "address": "충청북도 단양군 단양읍 중앙1로 15",
    "lat": 36.98601985,
    "lng": 128.3665053,
    "region": "충청북도"
  },
  {
    "name": "㈜성신양회",
    "address": "충청북도 단양군 매포읍 매포길 18",
    "lat": 37.01026417,
    "lng": 128.3332474,
    "region": "충청북도"
  },
  {
    "name": "㈜한일시멘트",
    "address": "충청북도 단양군 매포읍 평동1길 80",
    "lat": 37.02548842,
    "lng": 128.3105352,
    "region": "충청북도"
  },
  {
    "name": "태양드림빌 아파트",
    "address": "충청북도 단양군 매포읍 평동38길 19",
    "lat": 37.03084077,
    "lng": 128.2963996,
    "region": "충청북도"
  },
  {
    "name": "한라아파트",
    "address": "충청북도 단양군 매포읍 평동4로 126",
    "lat": 37.03357678,
    "lng": 128.2976689,
    "region": "충청북도"
  },
  {
    "name": "㈜한일시멘트 독신료",
    "address": "충청북도 단양군 매포읍 평동로 7",
    "lat": 37.02501181,
    "lng": 128.308329,
    "region": "충청북도"
  },
  {
    "name": "보은군공공실버주택",
    "address": "충청북도 보은군 보은읍 군청길 110-17",
    "lat": 36.485641,
    "lng": 127.723431,
    "region": "충청북도"
  },
  {
    "name": "보은군청",
    "address": "충청북도 보은군 보은읍 군청길 38",
    "lat": 36.48970363,
    "lng": 127.7297482,
    "region": "충청북도"
  },
  {
    "name": "거성아파트",
    "address": "충청북도 보은군 보은읍 남부로 4515",
    "lat": 36.48592561,
    "lng": 127.7210159,
    "region": "충청북도"
  },
  {
    "name": "로얄팔레스",
    "address": "충청북도 보은군 보은읍 뱃들로 29",
    "lat": 36.48809073,
    "lng": 127.7259731,
    "region": "충청북도"
  },
  {
    "name": "보은교회",
    "address": "충청북도 보은군 보은읍 보은로 136",
    "lat": 36.48617495,
    "lng": 127.7185229,
    "region": "충청북도"
  },
  {
    "name": "동진아파트",
    "address": "충청북도 보은군 보은읍 보은로 235",
    "lat": 36.49523868,
    "lng": 127.7170129,
    "region": "충청북도"
  },
  {
    "name": "보은중앙교회",
    "address": "충청북도 보은군 보은읍 보청대로 1899",
    "lat": 36.48831186,
    "lng": 127.716824,
    "region": "충청북도"
  },
  {
    "name": "신한헤센아파트",
    "address": "충청북도 보은군 보은읍 보청대로 1966",
    "lat": 36.48525929,
    "lng": 127.7107162,
    "region": "충청북도"
  },
  {
    "name": "보은교육지원청",
    "address": "충청북도 보은군 보은읍 장신로 26",
    "lat": 36.48125282,
    "lng": 127.7134337,
    "region": "충청북도"
  },
  {
    "name": "보은국토관리사무소",
    "address": "충청북도 보은군 보은읍 장신로 54",
    "lat": 36.48102841,
    "lng": 127.7093564,
    "region": "충청북도"
  },
  {
    "name": "에스엠아파트",
    "address": "충청북도 보은군 보은읍 향교1길 8",
    "lat": 36.48854794,
    "lng": 127.712905,
    "region": "충청북도"
  },
  {
    "name": "서한감고을아파트",
    "address": "충청북도 영동군 영동읍 기골로 7",
    "lat": 36.17510799,
    "lng": 127.781694,
    "region": "충청북도"
  },
  {
    "name": "영동군청",
    "address": "충청북도 영동군 영동읍 동정로 1",
    "lat": 36.1750612,
    "lng": 127.7834335,
    "region": "충청북도"
  },
  {
    "name": "현대아파트 주차장",
    "address": "충청북도 영동군 영동읍 동정로 39-27",
    "lat": 36.17605639,
    "lng": 127.7848427,
    "region": "충청북도"
  },
  {
    "name": "이든팰리스",
    "address": "충청북도 영동군 영동읍 동정로 56-12",
    "lat": 36.17382665,
    "lng": 127.7867016,
    "region": "충청북도"
  },
  {
    "name": "더웰아파트2차",
    "address": "충청북도 영동군 영동읍 상부용로 20",
    "lat": 36.17889305,
    "lng": 127.771853,
    "region": "충청북도"
  },
  {
    "name": "더웰아파트1차",
    "address": "충청북도 영동군 영동읍 상부용로 7-50",
    "lat": 36.17928527,
    "lng": 127.7707607,
    "region": "충청북도"
  },
  {
    "name": "조한아파트",
    "address": "충청북도 영동군 영동읍 새심길 18",
    "lat": 36.16904121,
    "lng": 127.7870528,
    "region": "충청북도"
  },
  {
    "name": "영동경찰서",
    "address": "충청북도 영동군 영동읍 영산로 32",
    "lat": 36.17799191,
    "lng": 127.7760374,
    "region": "충청북도"
  },
  {
    "name": "영산타워",
    "address": "충청북도 영동군 영동읍 영산로 48",
    "lat": 36.17911008,
    "lng": 127.7750963,
    "region": "충청북도"
  },
  {
    "name": "남성대아파트",
    "address": "충청북도 영동군 영동읍 학산영동로 1216",
    "lat": 36.16944216,
    "lng": 127.7721266,
    "region": "충청북도"
  },
  {
    "name": "가화현대아파트 비상대피시설",
    "address": "충청북도 옥천군 옥천읍 가화3길 18",
    "lat": 36.304179,
    "lng": 127.560977,
    "region": "충청북도"
  },
  {
    "name": "다산금빛아파트 비상대피시설",
    "address": "충청북도 옥천군 옥천읍 가화3길 6",
    "lat": 36.30409852,
    "lng": 127.5624745,
    "region": "충청북도"
  },
  {
    "name": "진달래아파트 비상대피시설",
    "address": "충청북도 옥천군 옥천읍 관성로1길 18",
    "lat": 36.3032818,
    "lng": 127.572958,
    "region": "충청북도"
  },
  {
    "name": "옥천읍사무소 비상대피시설",
    "address": "충청북도 옥천군 옥천읍 동부로 15",
    "lat": 36.307271,
    "lng": 127.574891,
    "region": "충청북도"
  },
  {
    "name": "하늘빛아파트 비상대피시설",
    "address": "충청북도 옥천군 옥천읍 동부로 16",
    "lat": 36.30569707,
    "lng": 127.5744427,
    "region": "충청북도"
  },
  {
    "name": "문정주공아파트 3단지 비상대피시설",
    "address": "충청북도 옥천군 옥천읍 문장로2길 10",
    "lat": 36.30182933,
    "lng": 127.5772299,
    "region": "충청북도"
  },
  {
    "name": "문정주공아파트 2단지 비상대피시설",
    "address": "충청북도 옥천군 옥천읍 문장로2길 9",
    "lat": 36.30288528,
    "lng": 127.5768102,
    "region": "충청북도"
  },
  {
    "name": "마암현대아파트 비상대피시설",
    "address": "충청북도 옥천군 옥천읍 성암1길 30",
    "lat": 36.29551375,
    "lng": 127.5704995,
    "region": "충청북도"
  },
  {
    "name": "옥향아파트 비상대피시설",
    "address": "충청북도 옥천군 옥천읍 성왕로 1274",
    "lat": 36.31650152,
    "lng": 127.5787757,
    "region": "충청북도"
  },
  {
    "name": "장야주공아파트 1단지 비상대피시설",
    "address": "충청북도 옥천군 옥천읍 장야2길 6",
    "lat": 36.2966219,
    "lng": 127.5769466,
    "region": "충청북도"
  },
  {
    "name": "옥천군청 비상대피시설",
    "address": "충청북도 옥천군 옥천읍 중앙로 99",
    "lat": 36.306228,
    "lng": 127.5718112,
    "region": "충청북도"
  },
  {
    "name": "음성감곡휴먼시아아파트",
    "address": "충청북도 음성군 감곡면 오향로 31",
    "lat": 37.10965288,
    "lng": 127.645685,
    "region": "충청북도"
  },
  {
    "name": "덕일한마음아파트",
    "address": "충청북도 음성군 감곡면 음성로 2650-22",
    "lat": 37.11147384,
    "lng": 127.6448679,
    "region": "충청북도"
  },
  {
    "name": "주공1차아파트",
    "address": "충청북도 음성군 금왕읍 대금로 1457-7",
    "lat": 36.9889164,
    "lng": 127.5935454,
    "region": "충청북도"
  },
  {
    "name": "두진하트리움3차아파트",
    "address": "충청북도 음성군 금왕읍 대금로 1458-5",
    "lat": 36.98807256,
    "lng": 127.5943521,
    "region": "충청북도"
  },
  {
    "name": "음성금석LH아파트",
    "address": "충청북도 음성군 금왕읍 대금로 1557-13",
    "lat": 36.99101821,
    "lng": 127.6020314,
    "region": "충청북도"
  },
  {
    "name": "금왕시티프라디움",
    "address": "충청북도 음성군 금왕읍 대금로 1557-14",
    "lat": 36.99235991,
    "lng": 127.6046534,
    "region": "충청북도"
  },
  {
    "name": "유수장미아파트",
    "address": "충청북도 음성군 금왕읍 무극로 243",
    "lat": 36.99192482,
    "lng": 127.5887116,
    "region": "충청북도"
  },
  {
    "name": "금왕 주공3차아파트",
    "address": "충청북도 음성군 금왕읍 무극로324번길 15",
    "lat": 36.99359474,
    "lng": 127.5985739,
    "region": "충청북도"
  },
  {
    "name": "대소두진하트리움아파트",
    "address": "충청북도 음성군 대소면 대금로 552-12",
    "lat": 36.96556241,
    "lng": 127.4991549,
    "region": "충청북도"
  },
  {
    "name": "이안음성대소아파트",
    "address": "충청북도 음성군 대소면 대금로 686-1",
    "lat": 36.96952008,
    "lng": 127.5120523,
    "region": "충청북도"
  },
  {
    "name": "대소부영아파트",
    "address": "충청북도 음성군 대소면 대청로 17",
    "lat": 36.99154056,
    "lng": 127.4499887,
    "region": "충청북도"
  },
  {
    "name": "대소웰메이드타운",
    "address": "충청북도 음성군 대소면 대화1길 44-8",
    "lat": 36.96396501,
    "lng": 127.4958791,
    "region": "충청북도"
  },
  {
    "name": "LH쌍용예가아파트",
    "address": "충청북도 음성군 맹동면 사예로 20",
    "lat": 36.91101982,
    "lng": 127.5407624,
    "region": "충청북도"
  },
  {
    "name": "천년나무1단지아파트",
    "address": "충청북도 음성군 맹동면 이수로 31",
    "lat": 36.9149942,
    "lng": 127.5449695,
    "region": "충청북도"
  },
  {
    "name": "영무예다음3차아파트",
    "address": "충청북도 음성군 맹동면 장성1길 9",
    "lat": 36.91050998,
    "lng": 127.5371501,
    "region": "충청북도"
  },
  {
    "name": "LH이노밸리아파트",
    "address": "충청북도 음성군 맹동면 학예로 55",
    "lat": 36.91403324,
    "lng": 127.5430909,
    "region": "충청북도"
  },
  {
    "name": "음성삼성휴먼시아아파트",
    "address": "충청북도 음성군 삼성면 덕정로 29-7",
    "lat": 37.01880416,
    "lng": 127.494208,
    "region": "충청북도"
  },
  {
    "name": "금광포란재아파트",
    "address": "충청북도 음성군 음성읍 반기문로45-15",
    "lat": 36.91997918,
    "lng": 127.6880027,
    "region": "충청북도"
  },
  {
    "name": "지평더웰아파트",
    "address": "충청북도 음성군 음성읍 설성공원길 23-7",
    "lat": 36.93194589,
    "lng": 127.6897939,
    "region": "충청북도"
  },
  {
    "name": "음성지평더웰2차아파트",
    "address": "충청북도 음성군 음성읍 설성공원길 33-9",
    "lat": 36.93290212,
    "lng": 127.6896049,
    "region": "충청북도"
  },
  {
    "name": "삼보아파트",
    "address": "충청북도 음성군 음성읍 시장로 45",
    "lat": 36.93153547,
    "lng": 127.6934268,
    "region": "충청북도"
  },
  {
    "name": "음성군청 지하",
    "address": "충청북도 음성군 음성읍 중앙로 173",
    "lat": 36.94028132,
    "lng": 127.6905138,
    "region": "충청북도"
  },
  {
    "name": "신천 휴먼시아 아파트",
    "address": "충청북도 음성군 음성읍 중앙로40번길16",
    "lat": 36.92718298,
    "lng": 127.6913133,
    "region": "충청북도"
  },
  {
    "name": "센트럴코아루아파트",
    "address": "충청북도 제천시 강저로11나길 13(강제동, 센트럴코아루)",
    "lat": 37.12046095,
    "lng": 128.2035487,
    "region": "충청북도"
  },
  {
    "name": "극동아파트",
    "address": "충청북도 제천시 관전로1길 35(신백동, 극동아파트)",
    "lat": 37.12947515,
    "lng": 128.2256571,
    "region": "충청북도"
  },
  {
    "name": "장락 엘크루힐즈아파트",
    "address": "충청북도 제천시 내제로 339 (장락동, 장락 엘크루힐즈)",
    "lat": 37.14616526,
    "lng": 128.2227068,
    "region": "충청북도"
  },
  {
    "name": "제천시청",
    "address": "충청북도 제천시 내토로 295(천남동)",
    "lat": 37.13301301,
    "lng": 128.1914992,
    "region": "충청북도"
  },
  {
    "name": "무궁화아파트",
    "address": "충청북도 제천시 내토로44길 13(화산동, 무궁화아파트)",
    "lat": 37.12622091,
    "lng": 128.2140821,
    "region": "충청북도"
  },
  {
    "name": "파라디아아파트",
    "address": "충청북도 제천시 내토로57길 19(장락동, 파라디아아파트)",
    "lat": 37.14896213,
    "lng": 128.2239095,
    "region": "충청북도"
  },
  {
    "name": "신안실크밸리스카이시트",
    "address": "충청북도 제천시 내토로59길31(장락동,신안실크밸리)",
    "lat": 37.15322808,
    "lng": 128.2238309,
    "region": "충청북도"
  },
  {
    "name": "천일베리굿아파트",
    "address": "충청북도 제천시 내토로65길17(장락동, 천일베리굿)",
    "lat": 37.15573116,
    "lng": 128.2276748,
    "region": "충청북도"
  },
  {
    "name": "대원대학교",
    "address": "충청북도 제천시 대학로 316(신월동, 대원대학)",
    "lat": 37.17579528,
    "lng": 128.1905314,
    "region": "충청북도"
  },
  {
    "name": "동현현대아파트",
    "address": "충청북도 제천시 독순로 140(동현동, 현대아파트)",
    "lat": 37.1362581,
    "lng": 128.2186495,
    "region": "충청북도"
  },
  {
    "name": "건양빌딩",
    "address": "충청북도 제천시 독순로 64(중앙로2가)",
    "lat": 37.13902992,
    "lng": 128.2101767,
    "region": "충청북도"
  },
  {
    "name": "교동두진아파트",
    "address": "충청북도 제천시 독순로23길 19(교동, 두진아파트)",
    "lat": 37.13782269,
    "lng": 128.2203583,
    "region": "충청북도"
  },
  {
    "name": "신월동 행복주택아파트",
    "address": "충청북도 제천시 복합타운길 135 (신월동, 제천행복주택)",
    "lat": 37.16222426,
    "lng": 128.1859808,
    "region": "충청북도"
  },
  {
    "name": "세명대학교",
    "address": "충청북도 제천시 세명로 65(신월동, 세명대학교)",
    "lat": 37.17380696,
    "lng": 128.196148,
    "region": "충청북도"
  },
  {
    "name": "서울병원",
    "address": "충청북도 제천시 숭문로 57(서부동)",
    "lat": 37.13873644,
    "lng": 128.2064402,
    "region": "충청북도"
  },
  {
    "name": "제천여성문화센터",
    "address": "충청북도 제천시 숭의로 48(화산동, 제천시여성회관)",
    "lat": 37.13091874,
    "lng": 128.2107362,
    "region": "충청북도"
  },
  {
    "name": "선광로즈웰아파트",
    "address": "충청북도 제천시 신백로 30(신백동, 선광로즈웰아파트)",
    "lat": 37.12803227,
    "lng": 128.2254313,
    "region": "충청북도"
  },
  {
    "name": "모산로즈웰아파트",
    "address": "충청북도 제천시 신죽하로 165(모산동, 로즈웰아파트)",
    "lat": 37.16003798,
    "lng": 128.2119165,
    "region": "충청북도"
  },
  {
    "name": "롯데캐슬아파트",
    "address": "충청북도 제천시 신축하로 83-24(장락동, 장락롯데캐슬)",
    "lat": 37.15924578,
    "lng": 128.2220265,
    "region": "충청북도"
  },
  {
    "name": "하소현대아파트",
    "address": "충청북도 제천시 용두대로15길 38(하소동, 현대아파트)",
    "lat": 37.1412927,
    "lng": 128.1967432,
    "region": "충청북도"
  },
  {
    "name": "청구아파트",
    "address": "충청북도 제천시 용두대로15길 47(하소동, 청구아파트)",
    "lat": 37.13964911,
    "lng": 128.1967578,
    "region": "충청북도"
  },
  {
    "name": "제천그린코아루아파트",
    "address": "충청북도 제천시 용두대로7길 25(하소동, 그린코아루아파트)",
    "lat": 37.13336243,
    "lng": 128.1961682,
    "region": "충청북도"
  },
  {
    "name": "하소힐스테이트아파트",
    "address": "충청북도 제천시 용두대로7길 36(하소동, 힐스테이트아파트)",
    "lat": 37.13703847,
    "lng": 128.1965321,
    "region": "충청북도"
  },
  {
    "name": "성우한솔아파트",
    "address": "충청북도 제천시 용두천로 257(청전동, 성우한솔아파트)",
    "lat": 37.14920242,
    "lng": 128.2194786,
    "region": "충청북도"
  },
  {
    "name": "고암두진백로아파트",
    "address": "충청북도 제천시 용두천로 384(고암동, 고암두진백로아파트)",
    "lat": 37.15924183,
    "lng": 128.2192616,
    "region": "충청북도"
  },
  {
    "name": "보미파란채아파트",
    "address": "충청북도 제천시 용두천로46길 12(고암동, 보미파란채)",
    "lat": 37.15792614,
    "lng": 128.218583,
    "region": "충청북도"
  },
  {
    "name": "코아루아파트",
    "address": "충청북도 제천시 원뜰로 14(천남동, 코아루아파트)",
    "lat": 37.13161544,
    "lng": 128.1953574,
    "region": "충청북도"
  },
  {
    "name": "신원아침도시더퍼스트아파트",
    "address": "충청북도 제천시 원뜰로 25, 신원아침도시더퍼스트아파트 (천남동)",
    "lat": 37.13218549,
    "lng": 128.1938527,
    "region": "충청북도"
  },
  {
    "name": "서희스타힐스아파트",
    "address": "충청북도 제천시 원화산로 43(화산동, 서희스타힐스)",
    "lat": 37.12588207,
    "lng": 128.2119748,
    "region": "충청북도"
  },
  {
    "name": "제천역지하도",
    "address": "충청북도 제천시 의림대로 1(영천동)",
    "lat": 37.12845259,
    "lng": 128.2041118,
    "region": "충청북도"
  },
  {
    "name": "제천시민회관",
    "address": "충청북도 제천시 의림대로 125(중앙로2가, 제천시민회관)",
    "lat": 37.13923285,
    "lng": 128.2107742,
    "region": "충청북도"
  },
  {
    "name": "유안타증권",
    "address": "충청북도 제천시 의림대로 167(의림동)",
    "lat": 37.1425133,
    "lng": 128.2126497,
    "region": "충청북도"
  },
  {
    "name": "삼익상가",
    "address": "충청북도 제천시 의림대로2길 9(화산동, 삼익상가아파트)",
    "lat": 37.12884924,
    "lng": 128.2069268,
    "region": "충청북도"
  },
  {
    "name": "장미아파트",
    "address": "충청북도 제천시 의병대로36길 28(신백동, 장미아파트)",
    "lat": 37.13011485,
    "lng": 128.2268782,
    "region": "충청북도"
  },
  {
    "name": "덕일한마음2차아파트",
    "address": "충청북도 제천시 의병대포35길 28(신백동, 덕일한마음2차아파트)",
    "lat": 37.1342961,
    "lng": 128.2275174,
    "region": "충청북도"
  },
  {
    "name": "장락로즈웰아파트",
    "address": "충청북도 제천시 장락로 169(장락동, 로즈웰아파트)",
    "lat": 37.15774194,
    "lng": 128.2263069,
    "region": "충청북도"
  },
  {
    "name": "장락e-편한세상아파트",
    "address": "충청북도 제천시 장락로 62(장락동, 장락e-편한세상)",
    "lat": 37.1474164,
    "lng": 128.2231186,
    "region": "충청북도"
  },
  {
    "name": "장락주공1단지아파트",
    "address": "충청북도 제천시 죽하로 30(장락동, 장락주공아파트1단지)",
    "lat": 37.15516552,
    "lng": 128.2255674,
    "region": "충청북도"
  },
  {
    "name": "장락주공2단지아파트",
    "address": "충청북도 제천시 죽하로 48(장락동, 장락주공아파트2단지)",
    "lat": 37.15557728,
    "lng": 128.2254795,
    "region": "충청북도"
  },
  {
    "name": "청전두진백로2차아파트",
    "address": "충청북도 제천시 청전대로 100(청전동, 두진백로2차아파트)",
    "lat": 37.14801301,
    "lng": 128.2096381,
    "region": "충청북도"
  },
  {
    "name": "청전지하상가",
    "address": "충청북도 제천시 청전대로 166(청전동)",
    "lat": 37.15120283,
    "lng": 128.2152514,
    "region": "충청북도"
  },
  {
    "name": "미림청솔아파트",
    "address": "충청북도 제천시 청전대로 211(장락동, 미림청솔아파트)",
    "lat": 37.15278041,
    "lng": 128.2213055,
    "region": "충청북도"
  },
  {
    "name": "이형아파트",
    "address": "충청북도 제천시 청전대로14길 30(청전동, 이형아파트)",
    "lat": 37.14849455,
    "lng": 128.2136548,
    "region": "충청북도"
  },
  {
    "name": "휴먼시아3단지아파트",
    "address": "충청북도 제천시 청풍호로10길 16(강제동, 강저휴먼시아3단지)",
    "lat": 37.11994786,
    "lng": 128.2011912,
    "region": "충청북도"
  },
  {
    "name": "강저코아루파크아파트",
    "address": "충청북도 제천시 청풍호로10길 31(강제동, 강저코아루파크)",
    "lat": 37.12038268,
    "lng": 128.1977551,
    "region": "충청북도"
  },
  {
    "name": "강저롯데캐슬 프리미어아파트",
    "address": "충청북도 제천시 청풍호로10길53(강제동,롯데캐슬프리미어)",
    "lat": 37.12277658,
    "lng": 128.1980314,
    "region": "충청북도"
  },
  {
    "name": "휴먼시아2단지아파트",
    "address": "충청북도 제천시 청풍호로7길 110(강제동, 제천강저2휴먼시아)",
    "lat": 37.12121752,
    "lng": 128.2060585,
    "region": "충청북도"
  },
  {
    "name": "휴먼시아아파트",
    "address": "충청북도 제천시 청풍호로7길 20(영천동, 휴먼시아1단지아파트)",
    "lat": 37.12471179,
    "lng": 128.2058664,
    "region": "충청북도"
  },
  {
    "name": "청전두진백로1차아파트",
    "address": "충청북도 제천시 칠성로 19(청전동, 두진백로1차아파트)",
    "lat": 37.14604136,
    "lng": 128.2093115,
    "region": "충청북도"
  },
  {
    "name": "청전덕일한마음아파트",
    "address": "충청북도 제천시 칠성로 5(청전동, 덕일한마음아파트)",
    "lat": 37.14760344,
    "lng": 128.2077471,
    "region": "충청북도"
  },
  {
    "name": "신백덕일한마음아파트",
    "address": "충청북도 제천시 탑안로4길 11(신백동, 덕일한마음아파트)",
    "lat": 37.13506546,
    "lng": 128.2290919,
    "region": "충청북도"
  },
  {
    "name": "한국전력공사제천지점",
    "address": "충청북도 제천시 풍양로 57(의림동, 한국전력제천지점)",
    "lat": 37.13930026,
    "lng": 128.2066382,
    "region": "충청북도"
  },
  {
    "name": "농협중앙회제천시지부",
    "address": "충청북도 제천시 풍양로 92(명동, 농협중앙회제천시지부)",
    "lat": 37.13746463,
    "lng": 128.2099357,
    "region": "충청북도"
  },
  {
    "name": "증평군청",
    "address": "충청북도 증평군 증평읍 광장로 88",
    "lat": 36.78537913,
    "lng": 127.5815198,
    "region": "충청북도"
  },
  {
    "name": "대성베르힐A",
    "address": "충청북도 증평군 증평읍 북부두름길 80",
    "lat": 36.78928811,
    "lng": 127.5888815,
    "region": "충청북도"
  },
  {
    "name": "동진A",
    "address": "충청북도 증평군 증평읍 삼일로5길 4",
    "lat": 36.78064744,
    "lng": 127.5838746,
    "region": "충청북도"
  },
  {
    "name": "대광로제비앙A",
    "address": "충청북도 증평군 증평읍 송산로 105",
    "lat": 36.79304719,
    "lng": 127.5799398,
    "region": "충청북도"
  },
  {
    "name": "지평더웰A",
    "address": "충청북도 증평군 증평읍 송산로 11",
    "lat": 36.78916215,
    "lng": 127.5729179,
    "region": "충청북도"
  },
  {
    "name": "휴먼시아1단지A",
    "address": "충청북도 증평군 증평읍 송산로 35",
    "lat": 36.78955566,
    "lng": 127.5744315,
    "region": "충청북도"
  },
  {
    "name": "휴먼시아2단지A",
    "address": "충청북도 증평군 증평읍 송산로 53",
    "lat": 36.79025507,
    "lng": 127.5766169,
    "region": "충청북도"
  },
  {
    "name": "천년나무3단지A",
    "address": "충청북도 증평군 증평읍 송산로4길 14",
    "lat": 36.79172487,
    "lng": 127.5834867,
    "region": "충청북도"
  },
  {
    "name": "삼일A",
    "address": "충청북도 증평군 증평읍 장뜰로 110",
    "lat": 36.78700268,
    "lng": 127.5874533,
    "region": "충청북도"
  },
  {
    "name": "삼일무지개A",
    "address": "충청북도 증평군 증평읍 진지내6길 20",
    "lat": 36.78347097,
    "lng": 127.5929967,
    "region": "충청북도"
  },
  {
    "name": "파라디아2차A",
    "address": "충청북도 증평군 증평읍 창신로 8-1",
    "lat": 36.78335409,
    "lng": 127.5737613,
    "region": "충청북도"
  },
  {
    "name": "한라비발디A",
    "address": "충청북도 증평군 증평읍 초중6길 8",
    "lat": 36.77560174,
    "lng": 127.5690666,
    "region": "충청북도"
  },
  {
    "name": "파라디아1차A",
    "address": "충청북도 증평군 증평읍 충청대로 1746",
    "lat": 36.78562051,
    "lng": 127.5789569,
    "region": "충청북도"
  },
  {
    "name": "광혜원코아루아파트",
    "address": "충청북도 진천군 광혜원면 구암길 11",
    "lat": 36.99063401,
    "lng": 127.4368599,
    "region": "충청북도"
  },
  {
    "name": "광혜원면사무소",
    "address": "충청북도 진천군 광혜원면 화랑길 86",
    "lat": 36.99347623,
    "lng": 127.4358202,
    "region": "충청북도"
  },
  {
    "name": "우미린스테이아파트",
    "address": "충청북도 진천군 덕산읍 대하로 150",
    "lat": 36.90385935,
    "lng": 127.5364886,
    "region": "충청북도"
  },
  {
    "name": "영무2차아파트",
    "address": "충청북도 진천군 덕산읍 대하로 195",
    "lat": 36.9063201,
    "lng": 127.5397963,
    "region": "충청북도"
  },
  {
    "name": "영무1차아파트",
    "address": "충청북도 진천군 덕산읍 대하로 87",
    "lat": 36.90234751,
    "lng": 127.5304282,
    "region": "충청북도"
  },
  {
    "name": "덕산읍사무소",
    "address": "충청북도 진천군 덕산읍 덕금로 829",
    "lat": 36.91373821,
    "lng": 127.5091993,
    "region": "충청북도"
  },
  {
    "name": "천년나무7단지아파트",
    "address": "충청북도 진천군 덕산읍 연미로 131",
    "lat": 36.90586892,
    "lng": 127.5296267,
    "region": "충청북도"
  },
  {
    "name": "천년나무4단지아파트",
    "address": "충청북도 진천군 덕산읍 연미로 87",
    "lat": 36.90403822,
    "lng": 127.528243,
    "region": "충청북도"
  },
  {
    "name": "이월면사무소",
    "address": "충청북도 진천군 이월면 진광로 729",
    "lat": 36.9258027,
    "lng": 127.4284088,
    "region": "충청북도"
  },
  {
    "name": "영화블렌하임아파트",
    "address": "충청북도 진천군 진천읍 농다리로 1422",
    "lat": 36.84755242,
    "lng": 127.4570412,
    "region": "충청북도"
  },
  {
    "name": "지안스필유아파트",
    "address": "충청북도 진천군 진천읍 대촌1길 16",
    "lat": 36.86233648,
    "lng": 127.4469109,
    "region": "충청북도"
  },
  {
    "name": "우주동백3차 아파트 지하주차장",
    "address": "충청북도 진천군 진천읍 덕금로 55",
    "lat": 36.86628529,
    "lng": 127.4549323,
    "region": "충청북도"
  },
  {
    "name": "대명루첸아파트",
    "address": "충청북도 진천군 진천읍 문화2길 36",
    "lat": 36.85200976,
    "lng": 127.4459941,
    "region": "충청북도"
  },
  {
    "name": "벽암휴먼시아",
    "address": "충청북도 진천군 진천읍 문화로 237-19",
    "lat": 36.86095606,
    "lng": 127.437205,
    "region": "충청북도"
  },
  {
    "name": "진천군청",
    "address": "충청북도 진천군 진천읍 상산로 13",
    "lat": 36.8553694,
    "lng": 127.4356936,
    "region": "충청북도"
  },
  {
    "name": "진천읍사무소",
    "address": "충청북도 진천군 진천읍 상산로 65",
    "lat": 36.85498297,
    "lng": 127.441275,
    "region": "충청북도"
  },
  {
    "name": "부영1차아파트",
    "address": "충청북도 진천군 진천읍 장관2길 139",
    "lat": 36.87195027,
    "lng": 127.437954,
    "region": "충청북도"
  },
  {
    "name": "우주동백2차 아파트 지하 비상대피시설",
    "address": "충청북도 진천군 진천읍 장관2길 153",
    "lat": 36.87065167,
    "lng": 127.4392072,
    "region": "충청북도"
  },
  {
    "name": "남해오네뜨아파트",
    "address": "충청북도 진천군 진천읍 장관2길 159",
    "lat": 36.87205292,
    "lng": 127.4400474,
    "region": "충청북도"
  },
  {
    "name": "진도쇼핑 지하주차장",
    "address": "충청북도 진천군 진천읍 중앙동로 91",
    "lat": 36.85794917,
    "lng": 127.4442345,
    "region": "충청북도"
  },
  {
    "name": "터미널 지하대피소",
    "address": "충청북도 진천군 진천읍 중앙북1길 3",
    "lat": 36.85963968,
    "lng": 127.4383951,
    "region": "충청북도"
  },
  {
    "name": "교성주공아파트 지하주차장",
    "address": "충청북도 진천군 진천읍 중앙서로 89",
    "lat": 36.85148989,
    "lng": 127.4413894,
    "region": "충청북도"
  },
  {
    "name": "부영2차아파트",
    "address": "충청북도 진천군 진천읍 진광로 97-13",
    "lat": 36.8736409,
    "lng": 127.4398569,
    "region": "충청북도"
  },
  {
    "name": "롯데시네마(용암동)",
    "address": "충청북도 청주시 상당구 1순환로 1233 (용암동)",
    "lat": 36.60702139,
    "lng": 127.503085,
    "region": "충청북도"
  },
  {
    "name": "용암지하도",
    "address": "충청북도 청주시 상당구 1순환로 1265 (용암동)",
    "lat": 36.6091303,
    "lng": 127.5055801,
    "region": "충청북도"
  },
  {
    "name": "ABL생명빌딩",
    "address": "충청북도 청주시 상당구 교서로 1 (영동)",
    "lat": 36.63690216,
    "lng": 127.4858854,
    "region": "충청북도"
  },
  {
    "name": "덕성아파트(지하주차장)",
    "address": "충청북도 청주시 상당구 꽃산동로 15-1 (금천동, 덕성아파트)",
    "lat": 36.62473124,
    "lng": 127.5096753,
    "region": "충청북도"
  },
  {
    "name": "우미린아파트(101,106동 사이 지하주차장)",
    "address": "충청북도 청주시 상당구 꽃산동로 25 (금천동, 금천우미린)",
    "lat": 36.62400432,
    "lng": 127.5102384,
    "region": "충청북도"
  },
  {
    "name": "수정아파트(101동 옆 지하주차장 )",
    "address": "충청북도 청주시 상당구 꽃산동로 40 (금천동)",
    "lat": 36.62320469,
    "lng": 127.5075725,
    "region": "충청북도"
  },
  {
    "name": "뉴타운아파트(104동,105동사이 지하주차장)",
    "address": "충청북도 청주시 상당구 꽃산동로 41 (금천동)",
    "lat": 36.62218125,
    "lng": 127.5083617,
    "region": "충청북도"
  },
  {
    "name": "경희아파트(101동 앞 지하주차장)",
    "address": "충청북도 청주시 상당구 꽃산동로 4-2 (금천동)",
    "lat": 36.62664843,
    "lng": 127.5089277,
    "region": "충청북도"
  },
  {
    "name": "장미아파트(나동 옆 지하주차장)",
    "address": "충청북도 청주시 상당구 꽃산서로8번길 15 (금천동, 장미아파트)",
    "lat": 36.62487056,
    "lng": 127.505741,
    "region": "충청북도"
  },
  {
    "name": "상당구청",
    "address": "충청북도 청주시 상당구 남일면 단재로 466 (상당구청)",
    "lat": 36.58974701,
    "lng": 127.5051362,
    "region": "충청북도"
  },
  {
    "name": "신라송림아파트(지하주차장)",
    "address": "충청북도 청주시 상당구 단재로77번길 21-22 (영운동)",
    "lat": 36.6227406,
    "lng": 127.4971011,
    "region": "충청북도"
  },
  {
    "name": "두산하이츠타운아파트(지하주차장)",
    "address": "충청북도 청주시 상당구 단재로95번길 40 (영운동, 두산하이츠타운)",
    "lat": 36.62104234,
    "lng": 127.4989548,
    "region": "충청북도"
  },
  {
    "name": "세원아파트(지하주차장 )",
    "address": "충청북도 청주시 상당구 무농정로 90 (용암동)",
    "lat": 36.60938419,
    "lng": 127.5111257,
    "region": "충청북도"
  },
  {
    "name": "우민타워",
    "address": "충청북도 청주시 상당구 사북로 164 (북문로3가, 대우타워아파트.우민타워)",
    "lat": 36.64453409,
    "lng": 127.4891181,
    "region": "충청북도"
  },
  {
    "name": "홈플러스",
    "address": "충청북도 청주시 상당구 사직대로 346 (서문동)",
    "lat": 36.63601581,
    "lng": 127.4857948,
    "region": "충청북도"
  },
  {
    "name": "대현지하상가",
    "address": "충청북도 청주시 상당구 사직대로 지하 367-1 (영동, 대현프리몰)",
    "lat": 36.63694329,
    "lng": 127.4881666,
    "region": "충청북도"
  },
  {
    "name": "상당지하도1",
    "address": "충청북도 청주시 상당구 사직대로 지하 370-5, 대현프리몰 (영동)",
    "lat": 36.63687691,
    "lng": 127.488533,
    "region": "충청북도"
  },
  {
    "name": "국민연금공단 청주지사",
    "address": "충청북도 청주시 상당구 사직대로362번길 20 (서문동, 국민연금공단청주지사)",
    "lat": 36.63581471,
    "lng": 127.4873768,
    "region": "충청북도"
  },
  {
    "name": "LH청주탑동아파트 104동 지하주차장",
    "address": "충청북도 청주시 상당구 산성로 55 (탑동, 엘에이치청주탑동아파트)",
    "lat": 36.63014458,
    "lng": 127.5013301,
    "region": "충청북도"
  },
  {
    "name": "가좌마을부영5단지아파트",
    "address": "충청북도 청주시 상당구 산성로116번길 23 (용담동, 가좌마을5단지부영아파트)",
    "lat": 36.63293771,
    "lng": 127.5056819,
    "region": "충청북도"
  },
  {
    "name": "덕일빌딩",
    "address": "충청북도 청주시 상당구 상당로 126 (북문로2가, 수협은행)",
    "lat": 36.63938916,
    "lng": 127.4903111,
    "region": "충청북도"
  },
  {
    "name": "청주시청(후관)",
    "address": "충청북도 청주시 상당구 상당로 155 (북문로3가, 청주시청)",
    "lat": 36.64161216,
    "lng": 127.4896721,
    "region": "충청북도"
  },
  {
    "name": "한화생명보험(주)",
    "address": "충청북도 청주시 상당구 상당로 195 (북문로3가, 한화생명빌딩)",
    "lat": 36.64579926,
    "lng": 127.4891216,
    "region": "충청북도"
  },
  {
    "name": "남궁타워",
    "address": "충청북도 청주시 상당구 상당로 47 (남문로2가)",
    "lat": 36.63263764,
    "lng": 127.4903756,
    "region": "충청북도"
  },
  {
    "name": "충북도청",
    "address": "충청북도 청주시 상당구 상당로 82 (문화동, 충청북도청)",
    "lat": 36.63538716,
    "lng": 127.4914262,
    "region": "충청북도"
  },
  {
    "name": "신일아파트",
    "address": "충청북도 청주시 상당구 상당로5번길 89 (남주동, 신일아파트)",
    "lat": 36.62855409,
    "lng": 127.4858866,
    "region": "충청북도"
  },
  {
    "name": "청주시청 제2청사",
    "address": "충청북도 청주시 상당구 상당로69번길 38, 청주시청 제2청사 (북문로1가)",
    "lat": 36.63464982,
    "lng": 127.4884116,
    "region": "충청북도"
  },
  {
    "name": "상당지하도2",
    "address": "충청북도 청주시 상당구 상당로91번길 2 (북문로1가)",
    "lat": 36.63648494,
    "lng": 127.4900646,
    "region": "충청북도"
  },
  {
    "name": "금천동주민센터(지하 1층)",
    "address": "충청북도 청주시 상당구 쇠내로 50 (금천동, 금천동주민센터)",
    "lat": 36.624425,
    "lng": 127.4994283,
    "region": "충청북도"
  },
  {
    "name": "삼일아파트(102동,103동 지하주차장)",
    "address": "충청북도 청주시 상당구 수영로 136 (영운동)",
    "lat": 36.61672145,
    "lng": 127.5004517,
    "region": "충청북도"
  },
  {
    "name": "효성아파트(101동 옆 지하주차장)",
    "address": "충청북도 청주시 상당구 수영로 204 (금천동)",
    "lat": 36.62244616,
    "lng": 127.5036994,
    "region": "충청북도"
  },
  {
    "name": "장자마을e그린2차아파트(602동 앞 지하주차장)",
    "address": "충청북도 청주시 상당구 수영로 294 (금천동, 장자마을부영e그린타운2차아파트)",
    "lat": 36.63059044,
    "lng": 127.5067041,
    "region": "충청북도"
  },
  {
    "name": "장자마을부영5단지아파트(504동,505동사이 주차장)",
    "address": "충청북도 청주시 상당구 수영로 306 (금천동, 장자마을5단지부영아파트)",
    "lat": 36.63148849,
    "lng": 127.5074255,
    "region": "충청북도"
  },
  {
    "name": "세영첼시빌아파트",
    "address": "충청북도 청주시 상당구 수영로 327 (용담동, 가좌마을용담세영첼시빌)",
    "lat": 36.63313851,
    "lng": 127.5093147,
    "region": "충청북도"
  },
  {
    "name": "장자마을현대아파트(정문 옆 지하주차장)",
    "address": "충청북도 청주시 상당구 수영로 328 (금천동, 장자마을현대아파트)",
    "lat": 36.63262701,
    "lng": 127.5092353,
    "region": "충청북도"
  },
  {
    "name": "미림아파트(103동 옆 지하주차장)",
    "address": "충청북도 청주시 상당구 수영로101번길 49 (영운동)",
    "lat": 36.61784308,
    "lng": 127.4951245,
    "region": "충청북도"
  },
  {
    "name": "한진신세대아파트(지하주차장)",
    "address": "충청북도 청주시 상당구 영운천로119번길 7 (영운동)",
    "lat": 36.62070943,
    "lng": 127.510324,
    "region": "충청북도"
  },
  {
    "name": "태암수정아파트(101동 앞 지하주차장)",
    "address": "충청북도 청주시 상당구 영운천로51번길 26 (영운동)",
    "lat": 36.6185289,
    "lng": 127.5043492,
    "region": "충청북도"
  },
  {
    "name": "삼진화랑아파트(102동 옆 지하주차장)",
    "address": "충청북도 청주시 상당구 영운천로83번길 25 (영운동)",
    "lat": 36.62020198,
    "lng": 127.5059117,
    "region": "충청북도"
  },
  {
    "name": "모드니아파트",
    "address": "충청북도 청주시 상당구 용담로105번길 70 (용담동, 용담모드니아파트)",
    "lat": 36.63664179,
    "lng": 127.5008847,
    "region": "충청북도"
  },
  {
    "name": "우성아파트 103동 지하주차장",
    "address": "충청북도 청주시 상당구 용담로63번길 33 (대성동)",
    "lat": 36.63302754,
    "lng": 127.49977,
    "region": "충청북도"
  },
  {
    "name": "우성아파트 108동 지하주차장",
    "address": "충청북도 청주시 상당구 용담로63번길 33 (대성동, 우성아파트)",
    "lat": 36.63302754,
    "lng": 127.49977,
    "region": "충청북도"
  },
  {
    "name": "현대아파트(1103동 1104동 사이 주차장)",
    "address": "충청북도 청주시 상당구 용암로 23 (용암동, 현대홈타운)",
    "lat": 36.61080528,
    "lng": 127.5083854,
    "region": "충청북도"
  },
  {
    "name": "덕성아파트(105동 맞은편 주차장)",
    "address": "충청북도 청주시 상당구 용암로 3 (용암동, 덕성그린타운)",
    "lat": 36.60939907,
    "lng": 127.509333,
    "region": "충청북도"
  },
  {
    "name": "임광아파트",
    "address": "충청북도 청주시 상당구 용암로 35 (용암동, 용암임광아파트)",
    "lat": 36.61155795,
    "lng": 127.5068523,
    "region": "충청북도"
  },
  {
    "name": "롯데마트 상당점",
    "address": "충청북도 청주시 상당구 용암북로160번길 60 (용암동, 롯데마트)",
    "lat": 36.62041408,
    "lng": 127.5161307,
    "region": "충청북도"
  },
  {
    "name": "한라비발디2단지아파트 지하주차장",
    "address": "충청북도 청주시 상당구 용정로 35 (용정동, 용정 한라비발디 2단지)",
    "lat": 36.63112071,
    "lng": 127.5166806,
    "region": "충청북도"
  },
  {
    "name": "태산아파트(103동 105동 사이 주차장)",
    "address": "충청북도 청주시 상당구 원봉로 20 (용암동, 태산그린아파트)",
    "lat": 36.61363327,
    "lng": 127.511279,
    "region": "충청북도"
  },
  {
    "name": "소라아파트(104동 106동 사이 주차장)",
    "address": "충청북도 청주시 상당구 원봉로 21 (용암동, 용암소라아파트)",
    "lat": 36.61212241,
    "lng": 127.5097264,
    "region": "충청북도"
  },
  {
    "name": "현대2차아파트",
    "address": "충청북도 청주시 상당구 원봉로 41 (용암동, 용암현대2차아파트)",
    "lat": 36.612939,
    "lng": 127.5092668,
    "region": "충청북도"
  },
  {
    "name": "현대1차아파트",
    "address": "충청북도 청주시 상당구 월평로 189 (용암동, 용암현대1차아파트)",
    "lat": 36.61057191,
    "lng": 127.5064747,
    "region": "충청북도"
  },
  {
    "name": "형석아파트(105동 106동 사이 주차장)",
    "address": "충청북도 청주시 상당구 월평로 207 (용암동, 용암형석아파트)",
    "lat": 36.60879346,
    "lng": 127.5076568,
    "region": "충청북도"
  },
  {
    "name": "효성아파트(101~103동 사이 주차장)",
    "address": "충청북도 청주시 상당구 월평로 221 (용암동, 효성아파트)",
    "lat": 36.60841646,
    "lng": 127.5081551,
    "region": "충청북도"
  },
  {
    "name": "부영아파트(101~103동 사이 주차장)",
    "address": "충청북도 청주시 상당구 월평로 243 (용암동)",
    "lat": 36.60730227,
    "lng": 127.5107767,
    "region": "충청북도"
  },
  {
    "name": "장자마을부영9단지아파트(903동 뒤 지하주차장)",
    "address": "충청북도 청주시 상당구 중고개로 286 (금천동, 장자마을9단지부영아파트)",
    "lat": 36.62862391,
    "lng": 127.5097233,
    "region": "충청북도"
  },
  {
    "name": "장자마을부영7단지(702,706동사이지하주차장)",
    "address": "충청북도 청주시 상당구 중고개로 288 (금천동, 장자마을7단지부영아파트)",
    "lat": 36.62881246,
    "lng": 127.5086199,
    "region": "충청북도"
  },
  {
    "name": "중앙상가아파트 남동",
    "address": "충청북도 청주시 상당구 중앙로 18 (북문로2가, 중앙상가 아파트)",
    "lat": 36.63882775,
    "lng": 127.4892162,
    "region": "충청북도"
  },
  {
    "name": "중흥마을 부영2차아파트",
    "address": "충청북도 청주시 상당구 중흥로 196 (용암동, 중흥마을2단지부영아파트)",
    "lat": 36.6198047,
    "lng": 127.5153486,
    "region": "충청북도"
  },
  {
    "name": "용암1동 주민센터",
    "address": "충청북도 청주시 상당구 중흥로 29 (용암동)",
    "lat": 36.60883847,
    "lng": 127.5012816,
    "region": "충청북도"
  },
  {
    "name": "현대3차아파트",
    "address": "충청북도 청주시 상당구 중흥로 70 (용암동, 용암현대3차아파트)",
    "lat": 36.61125578,
    "lng": 127.5041587,
    "region": "충청북도"
  },
  {
    "name": "건영아파트",
    "address": "충청북도 청주시 상당구 중흥로 71 (용암동, 건영아파트)",
    "lat": 36.61199609,
    "lng": 127.5038327,
    "region": "충청북도"
  },
  {
    "name": "현대아파트 지하주차장",
    "address": "충청북도 청주시 상당구 탑동로 78 (탑동, 현대아파트)",
    "lat": 36.63198632,
    "lng": 127.5022275,
    "region": "충청북도"
  },
  {
    "name": "장자마을부영8단지(정문 좌측 지하주차장)",
    "address": "충청북도 청주시 상당구 호미로 261 (금천동, 장자마을부영아파트)",
    "lat": 36.62896049,
    "lng": 127.5102487,
    "region": "충청북도"
  },
  {
    "name": "가좌마을 부영e그린타운아파트",
    "address": "충청북도 청주시 상당구 호미로 317 (용담동, 가좌마을부영그린타운1차)",
    "lat": 36.63445431,
    "lng": 127.5092787,
    "region": "충청북도"
  },
  {
    "name": "가좌마을 부영2단지아파트",
    "address": "충청북도 청주시 상당구 호미로 329 (용담동, 가좌마을2단지부영아파트)",
    "lat": 36.63579546,
    "lng": 127.5083706,
    "region": "충청북도"
  },
  {
    "name": "가좌마을용담e-편한세상아파트",
    "address": "충청북도 청주시 상당구 호미로 330 (용담동, 가좌마을용담이-편한세상)",
    "lat": 36.63575761,
    "lng": 127.5096361,
    "region": "충청북도"
  },
  {
    "name": "장자마을부영10단지(1003,1005동사이 지하주차장)",
    "address": "충청북도 청주시 상당구 호미로233번길 74 (금천동, 장자마을부영아파트)",
    "lat": 36.62763652,
    "lng": 127.5105083,
    "region": "충청북도"
  },
  {
    "name": "분평주공2단지아파트",
    "address": "충청북도 청주시 서원구 1순환로1137번길 129 (분평동)",
    "lat": 36.61220291,
    "lng": 127.492294,
    "region": "충청북도"
  },
  {
    "name": "분평주공3단지아파트",
    "address": "충청북도 청주시 서원구 1순환로1137번길 130 (분평동)",
    "lat": 36.61165422,
    "lng": 127.4933591,
    "region": "충청북도"
  },
  {
    "name": "주은프레지던트아파트",
    "address": "충청북도 청주시 서원구 1순환로1137번길 79 (분평동)",
    "lat": 36.6102826,
    "lng": 127.4920761,
    "region": "충청북도"
  },
  {
    "name": "개신뜨란채2단지아파트",
    "address": "충청북도 청주시 서원구 경신로 68 (개신동)",
    "lat": 36.62169528,
    "lng": 127.4499403,
    "region": "충청북도"
  },
  {
    "name": "성화호반베르디움아파트",
    "address": "충청북도 청주시 서원구 구룡산로 24 (성화동, 성화호반베르디움)",
    "lat": 36.61485283,
    "lng": 127.4473475,
    "region": "충청북도"
  },
  {
    "name": "산남주공4차아파트",
    "address": "충청북도 청주시 서원구 구룡산로 275-13 (수곡동, 산남주공2.4단지아파트)",
    "lat": 36.61808984,
    "lng": 127.4743382,
    "region": "충청북도"
  },
  {
    "name": "목화맨션",
    "address": "충청북도 청주시 서원구 구룡산로 421 (수곡동, 목화맨션)",
    "lat": 36.61817552,
    "lng": 127.4914421,
    "region": "충청북도"
  },
  {
    "name": "한국전력공사 충북지역본부",
    "address": "충청북도 청주시 서원구 구룡산로 51 (성화동)",
    "lat": 36.61525663,
    "lng": 127.4501936,
    "region": "충청북도"
  },
  {
    "name": "덕희아파트",
    "address": "충청북도 청주시 서원구 남사로 14 (사직동, 덕희아파트)",
    "lat": 36.62975683,
    "lng": 127.4781573,
    "region": "충청북도"
  },
  {
    "name": "가마힐데스하임아파트",
    "address": "충청북도 청주시 서원구 남이면 2순환로 1717 (청주가마힐데스하임)",
    "lat": 36.5985157,
    "lng": 127.4701771,
    "region": "충청북도"
  },
  {
    "name": "삼포아파트",
    "address": "충청북도 청주시 서원구 남이면 저산척북로 636-10 (삼포아파트)",
    "lat": 36.57146994,
    "lng": 127.4232695,
    "region": "충청북도"
  },
  {
    "name": "가경주공4단지아파트",
    "address": "충청북도 청주시 서원구 대림로 459 (죽림동, 청주가경4주공아파트)",
    "lat": 36.61172701,
    "lng": 127.4427063,
    "region": "충청북도"
  },
  {
    "name": "가경주공3단지(아)301,305",
    "address": "충청북도 청주시 서원구 대림로 493 (죽림동)",
    "lat": 36.61314967,
    "lng": 127.4439798,
    "region": "충청북도"
  },
  {
    "name": "산남동 유승한내들아파트(지하주차장)",
    "address": "충청북도 청주시 서원구 두꺼비로 109 (산남동, 유승한내들아파트)",
    "lat": 36.61482273,
    "lng": 127.4637078,
    "region": "충청북도"
  },
  {
    "name": "산남푸르지오아파트(지하주차장)",
    "address": "충청북도 청주시 서원구 두꺼비로 53 (산남동, 청주산남푸르지오)",
    "lat": 36.60947587,
    "lng": 127.4640513,
    "region": "충청북도"
  },
  {
    "name": "대원칸타빌1단지아파트(지하주차장)",
    "address": "충청북도 청주시 서원구 두꺼비로 63 (산남동, 대원칸타빌1단지)",
    "lat": 36.61058327,
    "lng": 127.4638434,
    "region": "충청북도"
  },
  {
    "name": "산남퀸덤아파트(지하주차장)",
    "address": "충청북도 청주시 서원구 두꺼비로 93 (산남동, 산남퀸덤아파트)",
    "lat": 36.61288308,
    "lng": 127.4638124,
    "region": "충청북도"
  },
  {
    "name": "분평계룡리슈빌1차아파트(지하주차장)",
    "address": "충청북도 청주시 서원구 매봉로 26-1 (분평동, 분평계룡리슈빌아파트)",
    "lat": 36.6123914,
    "lng": 127.4778668,
    "region": "충청북도"
  },
  {
    "name": "분평계룡리슈빌2차아파트(지하주차장)",
    "address": "충청북도 청주시 서원구 매봉로 28 (분평동, 계룡리슈빌2단지아파트)",
    "lat": 36.61306967,
    "lng": 127.4777145,
    "region": "충청북도"
  },
  {
    "name": "선광임대아파트",
    "address": "충청북도 청주시 서원구 매봉로60번길 18 (수곡동, 선광한빛아파트)",
    "lat": 36.61503337,
    "lng": 127.4788042,
    "region": "충청북도"
  },
  {
    "name": "두진백로1차(아)101",
    "address": "충청북도 청주시 서원구 모충로 38 (개신동)",
    "lat": 36.62487675,
    "lng": 127.468061,
    "region": "충청북도"
  },
  {
    "name": "두진백로2차(아)103",
    "address": "충청북도 청주시 서원구 모충로 38 (개신동)",
    "lat": 36.62487675,
    "lng": 127.468061,
    "region": "충청북도"
  },
  {
    "name": "삼호아파트 (지하주차장)",
    "address": "충청북도 청주시 서원구 모충로104번길 25 (모충동)",
    "lat": 36.62799448,
    "lng": 127.4753917,
    "region": "충청북도"
  },
  {
    "name": "두산한솔아파트 (지하주차장)",
    "address": "충청북도 청주시 서원구 모충로124번길 53 (모충동)",
    "lat": 36.62639341,
    "lng": 127.4773584,
    "region": "충청북도"
  },
  {
    "name": "송학삼익(아)103앞",
    "address": "충청북도 청주시 서원구 모충로12번길 4 (개신동, 송학아파트)",
    "lat": 36.62450185,
    "lng": 127.4653085,
    "region": "충청북도"
  },
  {
    "name": "두산한솔1차(아)101",
    "address": "충청북도 청주시 서원구 모충로26번길 22 (개신동)",
    "lat": 36.62366746,
    "lng": 127.4666764,
    "region": "충청북도"
  },
  {
    "name": "두산한솔2차(아)202앞",
    "address": "충청북도 청주시 서원구 모충로26번길 60 (개신동)",
    "lat": 36.62339449,
    "lng": 127.4682667,
    "region": "충청북도"
  },
  {
    "name": "서원대학교 (인문사회관 지하)",
    "address": "충청북도 청주시 서원구 무심서로 377-3 (모충동, 서원대학교)",
    "lat": 36.62598136,
    "lng": 127.4821185,
    "region": "충청북도"
  },
  {
    "name": "분평주공7단지아파트",
    "address": "충청북도 청주시 서원구 분평로 18 (분평동)",
    "lat": 36.60835059,
    "lng": 127.4868061,
    "region": "충청북도"
  },
  {
    "name": "두산위브더제니스",
    "address": "충청북도 청주시 서원구 사운로 93 (사직동)",
    "lat": 36.63708076,
    "lng": 127.4782697,
    "region": "충청북도"
  },
  {
    "name": "현대코아",
    "address": "충청북도 청주시 서원구 사직대로 140 (사창동, 현대코아)",
    "lat": 36.63461207,
    "lng": 127.4626501,
    "region": "충청북도"
  },
  {
    "name": "서원구청",
    "address": "충청북도 청주시 서원구 사직대로 227 (사직동)",
    "lat": 36.63765175,
    "lng": 127.4697439,
    "region": "충청북도"
  },
  {
    "name": "교보생명",
    "address": "충청북도 청주시 서원구 사직대로 284 (사직동, 교보생명)",
    "lat": 36.63546701,
    "lng": 127.4788993,
    "region": "충청북도"
  },
  {
    "name": "국민건강보험 동부지사",
    "address": "충청북도 청주시 서원구 사직대로 308-12 (사직동, 국민건강보험공단청주동부지사)",
    "lat": 36.63575614,
    "lng": 127.4822823,
    "region": "충청북도"
  },
  {
    "name": "산남동 계룡리슈빌아파트(지하주차장)",
    "address": "충청북도 청주시 서원구 산남로 23 (산남동, 계룡리슈빌아파트)",
    "lat": 36.61105899,
    "lng": 127.4703024,
    "region": "충청북도"
  },
  {
    "name": "대원칸타빌2단지아파트(지하주차장)",
    "address": "충청북도 청주시 서원구 산미로 143 (산남동, 대원칸타빌2단지)",
    "lat": 36.60974763,
    "lng": 127.4737685,
    "region": "충청북도"
  },
  {
    "name": "성화휴먼시아5단지아파트",
    "address": "충청북도 청주시 서원구 성봉로 93 (성화동, 성화 휴먼시아5단지)",
    "lat": 36.61418775,
    "lng": 127.4516584,
    "region": "충청북도"
  },
  {
    "name": "한마음2차아파트",
    "address": "충청북도 청주시 서원구 수곡로 100 (수곡동, 한마음2차아파트)",
    "lat": 36.62113967,
    "lng": 127.4715129,
    "region": "충청북도"
  },
  {
    "name": "청주우편집중국",
    "address": "충청북도 청주시 서원구 수곡로 106 (수곡동, 청주우편집중국)",
    "lat": 36.62159001,
    "lng": 127.4715693,
    "region": "충청북도"
  },
  {
    "name": "두진하트리움아파트",
    "address": "충청북도 청주시 서원구 수곡로 36 (수곡동, 두진하트리움아파트)",
    "lat": 36.61473067,
    "lng": 127.4751806,
    "region": "충청북도"
  },
  {
    "name": "세원청실아파트",
    "address": "충청북도 청주시 서원구 수곡로 46 (수곡동, 산남세원청실아파트)",
    "lat": 36.61625691,
    "lng": 127.4738932,
    "region": "충청북도"
  },
  {
    "name": "한마음1차아파트",
    "address": "충청북도 청주시 서원구 수곡로 78 (수곡동, 한마음1차아파트)",
    "lat": 36.61911036,
    "lng": 127.4724127,
    "region": "충청북도"
  },
  {
    "name": "세원홍실아파트",
    "address": "충청북도 청주시 서원구 수곡로 88 (수곡동, 세원홍실아파트)",
    "lat": 36.61996225,
    "lng": 127.4721049,
    "region": "충청북도"
  },
  {
    "name": "세원2차아파트",
    "address": "충청북도 청주시 서원구 수영로24번길 1 (수곡동, 세원수곡2차아파트)",
    "lat": 36.6150361,
    "lng": 127.4887842,
    "region": "충청북도"
  },
  {
    "name": "수정아파트",
    "address": "충청북도 청주시 서원구 수영로36번길 5 (수곡동, 수정아파트)",
    "lat": 36.61522416,
    "lng": 127.4903861,
    "region": "충청북도"
  },
  {
    "name": "개신주공3단지",
    "address": "충청북도 청주시 서원구 신율로 43 (개신동)",
    "lat": 36.62295969,
    "lng": 127.4443848,
    "region": "충청북도"
  },
  {
    "name": "금호타운아파트",
    "address": "충청북도 청주시 서원구 쌍샘로107번길 12 (모충동)",
    "lat": 36.62629698,
    "lng": 127.4717053,
    "region": "충청북도"
  },
  {
    "name": "한국국토정보공사",
    "address": "충청북도 청주시 서원구 예체로 149 (사창동, 한국국토정보공사충청북도지역본부)",
    "lat": 36.63965744,
    "lng": 127.4684277,
    "region": "충청북도"
  },
  {
    "name": "사직동푸르지오캐슬 5단지",
    "address": "충청북도 청주시 서원구 예체로 30 (사직동, 푸르지오캐슬)",
    "lat": 36.63041979,
    "lng": 127.4691589,
    "region": "충청북도"
  },
  {
    "name": "사직동푸르지오캐슬 1단지",
    "address": "충청북도 청주시 서원구 예체로 68 (사직동, 청주푸르지오캐슬아파트)",
    "lat": 36.63374817,
    "lng": 127.4697158,
    "region": "충청북도"
  },
  {
    "name": "대원칸타빌아파트",
    "address": "충청북도 청주시 서원구 예체로67번길 87 (사창동, 사창대원칸타빌아파트)",
    "lat": 36.63291024,
    "lng": 127.4618483,
    "region": "충청북도"
  },
  {
    "name": "산남동 부영사랑으로 아파트(지하주차장)",
    "address": "충청북도 청주시 서원구 원흥로 14 (산남동, 부영사랑으로)",
    "lat": 36.60867597,
    "lng": 127.474048,
    "region": "충청북도"
  },
  {
    "name": "현대대우아파트",
    "address": "충청북도 청주시 서원구 월평로 24 (분평동, 현대대우아파트)",
    "lat": 36.60895548,
    "lng": 127.4878516,
    "region": "충청북도"
  },
  {
    "name": "분평뜨란채아파트",
    "address": "충청북도 청주시 서원구 월평로 25 (분평동, 청주분평1단지뜨란채아파트)",
    "lat": 36.61129037,
    "lng": 127.4880586,
    "region": "충청북도"
  },
  {
    "name": "남양휴튼아파트",
    "address": "충청북도 청주시 서원구 장전로 51 (성화동, 남양휴튼아파트)",
    "lat": 36.61754616,
    "lng": 127.4528763,
    "region": "충청북도"
  },
  {
    "name": "사직동푸르지오캐슬 4단지",
    "address": "충청북도 청주시 서원구 창직로 50 (사직동, 청주푸르지오캐슬)",
    "lat": 36.63031602,
    "lng": 127.4680492,
    "region": "충청북도"
  },
  {
    "name": "삼익2차(아)201앞",
    "address": "충청북도 청주시 서원구 창직로12번길 65 (개신동)",
    "lat": 36.62788958,
    "lng": 127.4645195,
    "region": "충청북도"
  },
  {
    "name": "산남동 청주현진에버빌아파트(지하주차장)",
    "address": "충청북도 청주시 서원구 탑골로 6 (산남동, 청주현진에버빌아파트)",
    "lat": 36.61143305,
    "lng": 127.4723301,
    "region": "충청북도"
  },
  {
    "name": "꽃동네대학교도서관(지하1층)",
    "address": "충청북도 청주시 서원구 현도면 상삼길 133 (꽃동네대학교)",
    "lat": 36.52197368,
    "lng": 127.4029833,
    "region": "충청북도"
  },
  {
    "name": "예술의전당",
    "address": "충청북도 청주시 서원구 흥덕로 69 (사직동)",
    "lat": 36.64209999,
    "lng": 127.469677,
    "region": "충청북도"
  },
  {
    "name": "삼일아파트",
    "address": "충청북도 청주시 청원구 1순환로341번길 50 (내덕동, 삼일아파트)",
    "lat": 36.65636374,
    "lng": 127.4776552,
    "region": "충청북도"
  },
  {
    "name": "충북지방경찰청",
    "address": "충청북도 청주시 청원구 2순환로 168 (주성동)",
    "lat": 36.67535454,
    "lng": 127.500782,
    "region": "충청북도"
  },
  {
    "name": "지하도(율량농협옆)",
    "address": "충청북도 청주시 청원구 공항로 122 (율량동)",
    "lat": 36.66807871,
    "lng": 127.4855891,
    "region": "충청북도"
  },
  {
    "name": "정도드림빌아파트",
    "address": "충청북도 청주시 청원구 공항로 159-12 (율량동)",
    "lat": 36.67092039,
    "lng": 127.4826001,
    "region": "충청북도"
  },
  {
    "name": "두진아파트",
    "address": "충청북도 청주시 청원구 공항로150번길 31-8 (율량동, 두진아파트)",
    "lat": 36.6715301,
    "lng": 127.486009,
    "region": "충청북도"
  },
  {
    "name": "한울1차아파트",
    "address": "충청북도 청주시 청원구 공항로150번길 53 (율량동)",
    "lat": 36.67091311,
    "lng": 127.4870432,
    "region": "충청북도"
  },
  {
    "name": "KT빌딩(충북본부)",
    "address": "충청북도 청주시 청원구 공항로150번길 73 (율량동, KT충청북도본부)",
    "lat": 36.67083816,
    "lng": 127.4886223,
    "region": "충청북도"
  },
  {
    "name": "이랜드해가든아파트",
    "address": "충청북도 청주시 청원구 공항로84번길 30 (내덕동, 이랜드해가든아파트)",
    "lat": 36.66488344,
    "lng": 127.4877659,
    "region": "충청북도"
  },
  {
    "name": "뿌리병원",
    "address": "충청북도 청주시 청원구 내덕로 56 (내덕동)",
    "lat": 36.65686774,
    "lng": 127.4867132,
    "region": "충청북도"
  },
  {
    "name": "우창진주2차아파트",
    "address": "충청북도 청주시 청원구 내수읍 도원세교로 63 (우창진주2차아파트)",
    "lat": 36.70973589,
    "lng": 127.540732,
    "region": "충청북도"
  },
  {
    "name": "우창진주1차아파트",
    "address": "충청북도 청주시 청원구 내수읍 도원세교로 67 (우창진주1차아파트)",
    "lat": 36.70981974,
    "lng": 127.5397297,
    "region": "충청북도"
  },
  {
    "name": "진흥2차아파트 203동",
    "address": "충청북도 청주시 청원구 내수읍 마산3길 3 (진흥2차아파트)",
    "lat": 36.72137499,
    "lng": 127.5382793,
    "region": "충청북도"
  },
  {
    "name": "내수읍사무소 지하주차장",
    "address": "충청북도 청주시 청원구 내수읍 마산3길 49 (내수읍사무소)",
    "lat": 36.72391322,
    "lng": 127.5349254,
    "region": "충청북도"
  },
  {
    "name": "은곡무지개아파트",
    "address": "충청북도 청주시 청원구 내수읍 은곡4길 6 (은곡무지개아파트)",
    "lat": 36.71851024,
    "lng": 127.52926,
    "region": "충청북도"
  },
  {
    "name": "덕일한마음아파트",
    "address": "충청북도 청주시 청원구 내수읍 은곡묵방길 28 (덕일한마음아파트)",
    "lat": 36.70930236,
    "lng": 127.5256647,
    "region": "충청북도"
  },
  {
    "name": "세원임대아파트",
    "address": "충청북도 청주시 청원구 사북로149번길 7 (우암동, 우암동세원아파트)",
    "lat": 36.64575009,
    "lng": 127.4870458,
    "region": "충청북도"
  },
  {
    "name": "평화아파트",
    "address": "충청북도 청주시 청원구 상당로244번길 6 (우암동, 평화아파트)",
    "lat": 36.64997705,
    "lng": 127.4899577,
    "region": "충청북도"
  },
  {
    "name": "덕성그린아파트",
    "address": "충청북도 청주시 청원구 새터로 187 (사천동, 덕성그린아파트)",
    "lat": 36.66358597,
    "lng": 127.4716195,
    "region": "충청북도"
  },
  {
    "name": "삼풍오피스텔",
    "address": "충청북도 청주시 청원구 새터로 27 (내덕동, 삼풍오피스텔)",
    "lat": 36.65572684,
    "lng": 127.4862899,
    "region": "충청북도"
  },
  {
    "name": "오창부영7단지아파트",
    "address": "충청북도 청주시 청원구 오창읍 2산단4로 60",
    "lat": 36.73730404,
    "lng": 127.4494408,
    "region": "충청북도"
  },
  {
    "name": "오창부영6단지아파트",
    "address": "충청북도 청주시 청원구 오창읍 2산단로 125",
    "lat": 36.73490104,
    "lng": 127.4500851,
    "region": "충청북도"
  },
  {
    "name": "대성베르힐아파트 지하주차장",
    "address": "충청북도 청주시 청원구 오창읍 2산단로 160 (오창대성베르힐아파트)",
    "lat": 36.73393905,
    "lng": 127.4528291,
    "region": "충청북도"
  },
  {
    "name": "코아루아파트",
    "address": "충청북도 청주시 청원구 오창읍 오창중앙로 27 (코아루아파트)",
    "lat": 36.70612347,
    "lng": 127.426451,
    "region": "충청북도"
  },
  {
    "name": "중앙하이츠빌아파트",
    "address": "충청북도 청주시 청원구 오창읍 오창중앙로 32",
    "lat": 36.70830481,
    "lng": 127.424256,
    "region": "충청북도"
  },
  {
    "name": "시재지하보도",
    "address": "충청북도 청주시 청원구 오창읍 중심상업1로 8-46",
    "lat": 36.71594409,
    "lng": 127.428896,
    "region": "충청북도"
  },
  {
    "name": "회암지하보도",
    "address": "충청북도 청주시 청원구 오창읍 중심상업로 17 (오창프라자)",
    "lat": 36.71244278,
    "lng": 127.429275,
    "region": "충청북도"
  },
  {
    "name": "양청지하보도",
    "address": "충청북도 청주시 청원구 오창읍 중심상업로 39 (오창온천)",
    "lat": 36.71427105,
    "lng": 127.4290524,
    "region": "충청북도"
  },
  {
    "name": "대원칸타빌1차아파트",
    "address": "충청북도 청주시 청원구 율량로 103 (주성동)",
    "lat": 36.67342138,
    "lng": 127.4984784,
    "region": "충청북도"
  },
  {
    "name": "청주율량2LH2단지아파트",
    "address": "충청북도 청주시 청원구 율량로 47 (주중동)",
    "lat": 36.67351132,
    "lng": 127.4924561,
    "region": "충청북도"
  },
  {
    "name": "지하도(신흥고)",
    "address": "충청북도 청주시 청원구 율봉로 224 (율량동)",
    "lat": 36.667754,
    "lng": 127.4935559,
    "region": "충청북도"
  },
  {
    "name": "동아아파트",
    "address": "충청북도 청주시 청원구 율봉로 27 (사천동)",
    "lat": 36.6632609,
    "lng": 127.4736041,
    "region": "충청북도"
  },
  {
    "name": "남광하우스토리아파트(1단지)",
    "address": "충청북도 청주시 청원구 율봉로 7 (사천동, 남광하우스토리A단지아파트)",
    "lat": 36.66230675,
    "lng": 127.4715267,
    "region": "충청북도"
  },
  {
    "name": "신동아아파트",
    "address": "충청북도 청주시 청원구 율봉로 77 (사천동, 신동아아파트)",
    "lat": 36.66644042,
    "lng": 127.4789256,
    "region": "충청북도"
  },
  {
    "name": "남광하우스토리아파트(2단지)",
    "address": "충청북도 청주시 청원구 율봉로 8 (사천동, 남광하우스토리B단지)",
    "lat": 36.66173505,
    "lng": 127.472078,
    "region": "충청북도"
  },
  {
    "name": "대창아파트",
    "address": "충청북도 청주시 청원구 율봉로159번길 73-1 (율량동)",
    "lat": 36.67141235,
    "lng": 127.4848315,
    "region": "충청북도"
  },
  {
    "name": "목화1차아파트",
    "address": "충청북도 청주시 청원구 율봉로167번길 65-21 (율량동, 목화아파트)",
    "lat": 36.67144045,
    "lng": 127.4867781,
    "region": "충청북도"
  },
  {
    "name": "삼정2차아파트",
    "address": "충청북도 청주시 청원구 율봉로175번길 54 (율량동, 삼정2차아파트)",
    "lat": 36.67112107,
    "lng": 127.4899485,
    "region": "충청북도"
  },
  {
    "name": "삼정1차아파트",
    "address": "충청북도 청주시 청원구 율봉로201번길 50 (율량동, 삼정아파트)",
    "lat": 36.6709661,
    "lng": 127.4925652,
    "region": "충청북도"
  },
  {
    "name": "율량대원칸타빌 4차아파트",
    "address": "충청북도 청주시 청원구 율중로 10 (율량동, 대원칸타빌4차아파트)",
    "lat": 36.66176459,
    "lng": 127.5044387,
    "region": "충청북도"
  },
  {
    "name": "율량LH9단지아파트",
    "address": "충청북도 청주시 청원구 율중로7번길 77 (율량동, 청주율량2엘에이치9단지아파트)",
    "lat": 36.66112087,
    "lng": 127.5091724,
    "region": "충청북도"
  },
  {
    "name": "재원아파트",
    "address": "충청북도 청주시 청원구 주성로 216 (율량동, 재원아파트)",
    "lat": 36.67144107,
    "lng": 127.490143,
    "region": "충청북도"
  },
  {
    "name": "삼성아파트",
    "address": "충청북도 청주시 청원구 주성로118번길 12 (율량동, 삼성아파트)",
    "lat": 36.66930718,
    "lng": 127.479525,
    "region": "충청북도"
  },
  {
    "name": "성원아파트",
    "address": "충청북도 청주시 청원구 주성로132번길 10 (율량동, 성원상떼빌)",
    "lat": 36.66999057,
    "lng": 127.4807821,
    "region": "충청북도"
  },
  {
    "name": "현대2차아파트",
    "address": "충청북도 청주시 청원구 주성로132번길 54 (율량동, 현대아파트)",
    "lat": 36.66850683,
    "lng": 127.4822405,
    "region": "충청북도"
  },
  {
    "name": "청원구청",
    "address": "충청북도 청주시 청원구 직지대로 871 (우암동, 청원구청)",
    "lat": 36.6515839,
    "lng": 127.4866262,
    "region": "충청북도"
  },
  {
    "name": "럭키3차아파트",
    "address": "충청북도 청주시 청원구 충청대로139번길 17-10 (율량동, 럭키아파트)",
    "lat": 36.66896035,
    "lng": 127.492964,
    "region": "충청북도"
  },
  {
    "name": "두진백로그린타운",
    "address": "충청북도 청주시 청원구 충청대로139번길 18 (율량동, 두진백로그린타운)",
    "lat": 36.66938504,
    "lng": 127.4931189,
    "region": "충청북도"
  },
  {
    "name": "진화하이츠아파트",
    "address": "충청북도 청주시 청원구 충청대로139번길 9 (율량동, 진화아파트)",
    "lat": 36.668529,
    "lng": 127.4935474,
    "region": "충청북도"
  },
  {
    "name": "삼일브리제하임",
    "address": "충청북도 청주시 청원구 향군로 123 (우암동, 삼일브리제하임)",
    "lat": 36.65528445,
    "lng": 127.4807264,
    "region": "충청북도"
  },
  {
    "name": "대성빌딩",
    "address": "충청북도 청주시 청원구 향군로 128 (내덕동)",
    "lat": 36.65597195,
    "lng": 127.4809633,
    "region": "충청북도"
  },
  {
    "name": "덕일한마음아파트",
    "address": "충청북도 청주시 청원구 향군로74번길 26 (우암동, 덕일한마음아파트)",
    "lat": 36.65219118,
    "lng": 127.4853193,
    "region": "충청북도"
  },
  {
    "name": "아이제이포커스",
    "address": "충청북도 청주시 흥덕구 1순환로 571 (봉명동, IJ FOCUS)",
    "lat": 36.64201032,
    "lng": 127.4621889,
    "region": "충청북도"
  },
  {
    "name": "봉명동삼정아파트",
    "address": "충청북도 청주시 흥덕구 1순환로512번길 32 (봉명동, 삼정아파트)",
    "lat": 36.64791667,
    "lng": 127.4634901,
    "region": "충청북도"
  },
  {
    "name": "신봉동삼정백조아파트",
    "address": "충청북도 청주시 흥덕구 1순환로513번길 33 (신봉동, 삼정백조아파트)",
    "lat": 36.64660241,
    "lng": 127.4677451,
    "region": "충청북도"
  },
  {
    "name": "효성1차(아)",
    "address": "충청북도 청주시 흥덕구 2순환로1050번길 13-14 (비하동, 효성아파트)",
    "lat": 36.64052023,
    "lng": 127.4207486,
    "region": "충청북도"
  },
  {
    "name": "효성2차(아)",
    "address": "충청북도 청주시 흥덕구 2순환로1050번길 24 (비하동, 효성2차아파트)",
    "lat": 36.64092247,
    "lng": 127.4201425,
    "region": "충청북도"
  },
  {
    "name": "가경푸르지오아파트",
    "address": "충청북도 청주시 흥덕구 2순환로1375번길 20 (가경동, 가경푸르지오)",
    "lat": 36.61424785,
    "lng": 127.4413927,
    "region": "충청북도"
  },
  {
    "name": "가경주공6단지아파트",
    "address": "충청북도 청주시 흥덕구 2순환로1375번길 23 (가경동)",
    "lat": 36.61566622,
    "lng": 127.438955,
    "region": "충청북도"
  },
  {
    "name": "삼일원앙(아)",
    "address": "충청북도 청주시 흥덕구 가경로 100-20 (가경동)",
    "lat": 36.62421196,
    "lng": 127.4400946,
    "region": "충청북도"
  },
  {
    "name": "가경대원(아)",
    "address": "충청북도 청주시 흥덕구 가경로 120 (가경동)",
    "lat": 36.62638302,
    "lng": 127.43881,
    "region": "충청북도"
  },
  {
    "name": "세원가경골(아)",
    "address": "충청북도 청주시 흥덕구 가경로 134 (가경동)",
    "lat": 36.62770426,
    "lng": 127.4382719,
    "region": "충청북도"
  },
  {
    "name": "형석1차아파트",
    "address": "충청북도 청주시 흥덕구 가경로 158 (가경동)",
    "lat": 36.63003728,
    "lng": 127.4370463,
    "region": "충청북도"
  },
  {
    "name": "형석2차아파트",
    "address": "충청북도 청주시 흥덕구 가경로 188 (가경동)",
    "lat": 36.63229845,
    "lng": 127.4367371,
    "region": "충청북도"
  },
  {
    "name": "가경대림아파트",
    "address": "충청북도 청주시 흥덕구 가경로 193 (가경동)",
    "lat": 36.63167161,
    "lng": 127.4346719,
    "region": "충청북도"
  },
  {
    "name": "가경주공2단지(아)",
    "address": "충청북도 청주시 흥덕구 가경로 26 (가경동)",
    "lat": 36.61821863,
    "lng": 127.4437137,
    "region": "충청북도"
  },
  {
    "name": "동부아파트",
    "address": "충청북도 청주시 흥덕구 가경로 64 (가경동)",
    "lat": 36.62152034,
    "lng": 127.441783,
    "region": "충청북도"
  },
  {
    "name": "태암수정(아)",
    "address": "충청북도 청주시 흥덕구 가경로 72 (가경동)",
    "lat": 36.62245886,
    "lng": 127.4414216,
    "region": "충청북도"
  },
  {
    "name": "가경벽산(아)",
    "address": "충청북도 청주시 흥덕구 가경로189번길 52 (가경동)",
    "lat": 36.63254418,
    "lng": 127.4336079,
    "region": "충청북도"
  },
  {
    "name": "비하동 계룡리슈빌1차아파트",
    "address": "충청북도 청주시 흥덕구 가로수로1131번길 101 (비하동, 계룡리슈빌아파트)",
    "lat": 36.63036201,
    "lng": 127.4209393,
    "region": "충청북도"
  },
  {
    "name": "청도아파트",
    "address": "충청북도 청주시 흥덕구 가로수로1144번길 72-2 (강서동, 청도아파트)",
    "lat": 36.62365483,
    "lng": 127.4237514,
    "region": "충청북도"
  },
  {
    "name": "우정아파트",
    "address": "충청북도 청주시 흥덕구 가로수로1154번길 21-5 (강서동, 우정아파트)",
    "lat": 36.62603126,
    "lng": 127.4254816,
    "region": "충청북도"
  },
  {
    "name": "우양센트럴",
    "address": "충청북도 청주시 흥덕구 가로수로1164번길 41-44 (강서동)",
    "lat": 36.62589212,
    "lng": 127.4291031,
    "region": "충청북도"
  },
  {
    "name": "미소랑1차아파트",
    "address": "충청북도 청주시 흥덕구 가로수로1164번길 41-8 (강서동, 미소랑1차아파트)",
    "lat": 36.62514862,
    "lng": 127.4273639,
    "region": "충청북도"
  },
  {
    "name": "가경동신라아파트",
    "address": "충청북도 청주시 흥덕구 가로수로1308번길 42 (가경동)",
    "lat": 36.63098093,
    "lng": 127.4372485,
    "region": "충청북도"
  },
  {
    "name": "재원아파트",
    "address": "충청북도 청주시 흥덕구 가로수로1351번길 45 (복대동, 재원아파트)",
    "lat": 36.63550746,
    "lng": 127.4423324,
    "region": "충청북도"
  },
  {
    "name": "덕성아파트",
    "address": "충청북도 청주시 흥덕구 가로수로1379번길 83 (복대동, 덕성아파트)",
    "lat": 36.63645322,
    "lng": 127.4429327,
    "region": "충청북도"
  },
  {
    "name": "청원쌍용예가아파트1차",
    "address": "충청북도 청주시 흥덕구 강내면 탑연월곡길 62-13 (청원쌍용예가 1단지아파트)",
    "lat": 36.62289496,
    "lng": 127.3647153,
    "region": "충청북도"
  },
  {
    "name": "강내태암수정아파트",
    "address": "충청북도 청주시 흥덕구 강내면 태성탑연로 264 (강내태암수정아파트)",
    "lat": 36.60796408,
    "lng": 127.353034,
    "region": "충청북도"
  },
  {
    "name": "베리굿2차아파트",
    "address": "충청북도 청주시 흥덕구 강서로 111 (강서동, 강서베리굿2차)",
    "lat": 36.62508285,
    "lng": 127.4286157,
    "region": "충청북도"
  },
  {
    "name": "가경주공1단지(아)",
    "address": "충청북도 청주시 흥덕구 경신로 11-1 (가경동)",
    "lat": 36.62033609,
    "lng": 127.4432832,
    "region": "충청북도"
  },
  {
    "name": "봉명동신라아파트",
    "address": "충청북도 청주시 흥덕구 과상미로9번길 102-14 (봉명동, 신라아파트)",
    "lat": 36.64409904,
    "lng": 127.4570753,
    "region": "충청북도"
  },
  {
    "name": "삼보맨션",
    "address": "충청북도 청주시 흥덕구 내수동로33번길 6 (복대동, 삼보맨션)",
    "lat": 36.63311175,
    "lng": 127.4515944,
    "region": "충청북도"
  },
  {
    "name": "지웰시티1차아파트",
    "address": "충청북도 청주시 흥덕구 대농로 17 (복대동, 지웰시티1차아파트)",
    "lat": 36.64273957,
    "lng": 127.4251038,
    "region": "충청북도"
  },
  {
    "name": "두산위브지웰시티2차아파트",
    "address": "충청북도 청주시 흥덕구 대농로 55 (복대동, 두산위브지웰시티2차)",
    "lat": 36.6437325,
    "lng": 127.4286564,
    "region": "충청북도"
  },
  {
    "name": "현대1차아파트",
    "address": "충청북도 청주시 흥덕구 대신로10번길 16-3 (복대동, 현대1차아파트)",
    "lat": 36.63433957,
    "lng": 127.4374597,
    "region": "충청북도"
  },
  {
    "name": "금호어울림1차아파트",
    "address": "충청북도 청주시 흥덕구 대신로73번길 14 (복대동, 금호어울림1단지아파트)",
    "lat": 36.64041541,
    "lng": 127.4338935,
    "region": "충청북도"
  },
  {
    "name": "금호어울림2차아파트",
    "address": "충청북도 청주시 흥덕구 대신로74번길 21 (복대동, 금호어울림2단지아파트)",
    "lat": 36.64038318,
    "lng": 127.4358122,
    "region": "충청북도"
  },
  {
    "name": "봉명아이파크아파트",
    "address": "충청북도 청주시 흥덕구 덕암로108번길 44 (봉명동, 현대아이파크)",
    "lat": 36.65277385,
    "lng": 127.4611393,
    "region": "충청북도"
  },
  {
    "name": "봉명두진하트리움아파트",
    "address": "충청북도 청주시 흥덕구 덕암로30번길 19 (봉명동, 두진하트리움아파트)",
    "lat": 36.6514885,
    "lng": 127.45796,
    "region": "충청북도"
  },
  {
    "name": "봉명동삼정백조아파트",
    "address": "충청북도 청주시 흥덕구 백봉로 244 (봉명동, 삼정백조아파트)",
    "lat": 36.64913577,
    "lng": 127.4623612,
    "region": "충청북도"
  },
  {
    "name": "삼일아파트",
    "address": "충청북도 청주시 흥덕구 복대로118번길 16 (복대동, 삼일아파트)",
    "lat": 36.62704949,
    "lng": 127.4418369,
    "region": "충청북도"
  },
  {
    "name": "비하계룡리슈빌2차아파트",
    "address": "충청북도 청주시 흥덕구 비하로57번길 37 (비하동, 비하계룡리슈빌2차아파트)",
    "lat": 36.63110839,
    "lng": 127.4218915,
    "region": "충청북도"
  },
  {
    "name": "오성빌딩",
    "address": "충청북도 청주시 흥덕구 사운로 204 (운천동, 오성빌딩)",
    "lat": 36.64696417,
    "lng": 127.4774093,
    "region": "충청북도"
  },
  {
    "name": "운천삼일아파트(101동~104동,105동 지하주차장)",
    "address": "충청북도 청주시 흥덕구 사운로 278 (운천동, 삼일아파트)",
    "lat": 36.65230714,
    "lng": 127.4735236,
    "region": "충청북도"
  },
  {
    "name": "신봉동두진백로아파트(지하주차장)",
    "address": "충청북도 청주시 흥덕구 사운로324번길 14 (신봉동, 두진백로아파트)",
    "lat": 36.6556871,
    "lng": 127.4710658,
    "region": "충청북도"
  },
  {
    "name": "가경e-편한세상 아파트",
    "address": "충청북도 청주시 흥덕구 서현북로 15 (가경동, 대림e편한세상아파트)",
    "lat": 36.61866738,
    "lng": 127.4254322,
    "region": "충청북도"
  },
  {
    "name": "가경대원칸타빌아파트",
    "address": "충청북도 청주시 흥덕구 서현서로 39 (가경동)",
    "lat": 36.62012154,
    "lng": 127.4260126,
    "region": "충청북도"
  },
  {
    "name": "가경한라비발디아파트",
    "address": "충청북도 청주시 흥덕구 서현서로 40 (가경동)",
    "lat": 36.62071075,
    "lng": 127.4265524,
    "region": "충청북도"
  },
  {
    "name": "가경휴먼시아아파트",
    "address": "충청북도 청주시 흥덕구 서현중로32번길 23 (가경동)",
    "lat": 36.62205929,
    "lng": 127.431434,
    "region": "충청북도"
  },
  {
    "name": "보성하이츠빌라",
    "address": "충청북도 청주시 흥덕구 신율로 77 (복대동, 보성아파트)",
    "lat": 36.62534133,
    "lng": 127.4465674,
    "region": "충청북도"
  },
  {
    "name": "신라빌라",
    "address": "충청북도 청주시 흥덕구 신율로 87 (복대동, 신라빌라)",
    "lat": 36.62583925,
    "lng": 127.4464361,
    "region": "충청북도"
  },
  {
    "name": "덕성그린아파트",
    "address": "충청북도 청주시 흥덕구 신율로180번길 34 (복대동, 덕성그린아파트)",
    "lat": 36.63271437,
    "lng": 127.4489668,
    "region": "충청북도"
  },
  {
    "name": "오송대원칸타빌아파트",
    "address": "충청북도 청주시 흥덕구 오송읍 연제만수길 17 (오송대원칸타빌)",
    "lat": 36.6268984,
    "lng": 127.326629,
    "region": "충청북도"
  },
  {
    "name": "오송휴먼시아1단지아파트",
    "address": "충청북도 청주시 흥덕구 오송읍 오송가락로 235 (청원오송휴먼시아1단지)",
    "lat": 36.62764041,
    "lng": 127.3320201,
    "region": "충청북도"
  },
  {
    "name": "오송힐데스하임아파트",
    "address": "충청북도 청주시 흥덕구 오송읍 오송생명1로 152 (오송힐데스하임)",
    "lat": 36.63274854,
    "lng": 127.3213218,
    "region": "충청북도"
  },
  {
    "name": "오송호반베르디움아파트",
    "address": "충청북도 청주시 흥덕구 오송읍 오송생명3로 111 (오송호반베르디움아파트)",
    "lat": 36.62789009,
    "lng": 127.3251342,
    "region": "충청북도"
  },
  {
    "name": "오송모아미래도아파트",
    "address": "충청북도 청주시 흥덕구 오송읍 오송생명3로 87 (모아미래도아파트)",
    "lat": 36.63071317,
    "lng": 127.3261881,
    "region": "충청북도"
  },
  {
    "name": "오송휴먼시아2단지아파트",
    "address": "충청북도 청주시 흥덕구 오송읍 오송생명5로 201 (오송마을휴먼시아2단지)",
    "lat": 36.62863502,
    "lng": 127.329527,
    "region": "충청북도"
  },
  {
    "name": "오송상록롯데캐슬아파트",
    "address": "충청북도 청주시 흥덕구 오송읍 오송생명5로 202 (오송상록롯데캐슬아파트)",
    "lat": 36.63047531,
    "lng": 127.3287944,
    "region": "충청북도"
  },
  {
    "name": "옥산코오롱하늘채아파트",
    "address": "충청북도 청주시 흥덕구 옥산면 가락길 60 (코오롱하늘채)",
    "lat": 36.67147519,
    "lng": 127.3824401,
    "region": "충청북도"
  },
  {
    "name": "하수처리과(1차 최초침전지 계단실)",
    "address": "충청북도 청주시 흥덕구 옥산면 미호로 555",
    "lat": 36.66570358,
    "lng": 127.3937448,
    "region": "충청북도"
  },
  {
    "name": "하수처리과 관사",
    "address": "충청북도 청주시 흥덕구 옥산면 미호로 555",
    "lat": 36.66570358,
    "lng": 127.3937448,
    "region": "충청북도"
  },
  {
    "name": "평생학습관",
    "address": "충청북도 청주시 흥덕구 월명로13번길 52 (복대동, 청주시평생교육원)",
    "lat": 36.63669521,
    "lng": 127.4504927,
    "region": "충청북도"
  },
  {
    "name": "형석타운아파트",
    "address": "충청북도 청주시 흥덕구 장구봉로101번길 27 (복대동, 형석아파트)",
    "lat": 36.62509704,
    "lng": 127.4434535,
    "region": "충청북도"
  },
  {
    "name": "세원아파트",
    "address": "충청북도 청주시 흥덕구 장구봉로101번길 45 (복대동, 세원아파트)",
    "lat": 36.62631785,
    "lng": 127.4427852,
    "region": "충청북도"
  },
  {
    "name": "복대두진하트리움(주)",
    "address": "충청북도 청주시 흥덕구 죽천로 27 (복대동, 복대두진하트리움)",
    "lat": 36.63954259,
    "lng": 127.4250416,
    "region": "충청북도"
  },
  {
    "name": "복대대원아파트",
    "address": "충청북도 청주시 흥덕구 죽천로146번길 7 (복대동, 대원칸타빌아파트)",
    "lat": 36.63770156,
    "lng": 127.4396972,
    "region": "충청북도"
  },
  {
    "name": "영조아름다운나날2차아파트",
    "address": "충청북도 청주시 흥덕구 증안로 100 (복대동, 영조아파트2차)",
    "lat": 36.63524485,
    "lng": 127.4333636,
    "region": "충청북도"
  },
  {
    "name": "복대동삼일아파트",
    "address": "충청북도 청주시 흥덕구 증안로 108 (복대동, 하복대삼일아파트)",
    "lat": 36.63486838,
    "lng": 127.4347927,
    "region": "충청북도"
  },
  {
    "name": "영조아름다운나날아파트",
    "address": "충청북도 청주시 흥덕구 증안로 21 (복대동, 영조아름다운나날1차아파트)",
    "lat": 36.63677926,
    "lng": 127.4256749,
    "region": "충청북도"
  },
  {
    "name": "복대두진백로아파트",
    "address": "충청북도 청주시 흥덕구 증안로 33 (복대동)",
    "lat": 36.63692069,
    "lng": 127.4274513,
    "region": "충청북도"
  },
  {
    "name": "현대2차아파트",
    "address": "충청북도 청주시 흥덕구 증안로 77 (복대동, 현대2차아파트)",
    "lat": 36.63616774,
    "lng": 127.4323356,
    "region": "충청북도"
  },
  {
    "name": "한국건강관리협회 충북,세종지부",
    "address": "충청북도 청주시 흥덕구 직지대로 631 (봉명동)",
    "lat": 36.64340868,
    "lng": 127.4631679,
    "region": "충청북도"
  },
  {
    "name": "봉명동하이젠시티",
    "address": "충청북도 청주시 흥덕구 직지대로 636 (봉명동, 하이젠시티)",
    "lat": 36.64268976,
    "lng": 127.463584,
    "region": "충청북도"
  },
  {
    "name": "지웰에스테이트오피스텔",
    "address": "충청북도 청주시 흥덕구 진재로 131 (복대동, 지웰에스테이트)",
    "lat": 36.64294209,
    "lng": 127.4309377,
    "region": "충청북도"
  },
  {
    "name": "세원느티마을아파트",
    "address": "충청북도 청주시 흥덕구 진재로 67 (복대동, 세원느티마을아파트)",
    "lat": 36.63775479,
    "lng": 127.4280508,
    "region": "충청북도"
  },
  {
    "name": "신영지웰홈스(아)",
    "address": "충청북도 청주시 흥덕구 진재로103번길 37 (복대동, 신영지웰홈스아파트)",
    "lat": 36.6401459,
    "lng": 127.4276838,
    "region": "충청북도"
  },
  {
    "name": "세원테마빌아파트",
    "address": "충청북도 청주시 흥덕구 짐대로 14 (복대동, 세원테마빌아파트)",
    "lat": 36.63484626,
    "lng": 127.4249397,
    "region": "충청북도"
  },
  {
    "name": "복대동벽산아파트",
    "address": "충청북도 청주시 흥덕구 짐대로 6 (복대동, 벽산아파트)",
    "lat": 36.63590881,
    "lng": 127.4241494,
    "region": "충청북도"
  },
  {
    "name": "대우메가폴리스",
    "address": "충청북도 청주시 흥덕구 풍산로 15 (가경동)",
    "lat": 36.62678281,
    "lng": 127.4319925,
    "region": "충청북도"
  },
  {
    "name": "청주여객터미널(시외버스)",
    "address": "충청북도 청주시 흥덕구 풍산로 6 (가경동)",
    "lat": 36.62532766,
    "lng": 127.4316937,
    "region": "충청북도"
  },
  {
    "name": "세원2차아파트",
    "address": "충청북도 청주시 흥덕구 풍산로89번길 31 (가경동)",
    "lat": 36.63004481,
    "lng": 127.4379408,
    "region": "충청북도"
  },
  {
    "name": "근현대인쇄전시관 지하주차장",
    "address": "충청북도 청주시 흥덕구 흥덕로 104 (운천동, 청주시근현대인쇄전시관)",
    "lat": 36.64403665,
    "lng": 127.4730569,
    "region": "충청북도"
  },
  {
    "name": "금속활자주조전수관 지하주차장",
    "address": "충청북도 청주시 흥덕구 흥덕로 96 (운천동, 청주시금속활자주조전수관)",
    "lat": 36.64359496,
    "lng": 127.4726382,
    "region": "충청북도"
  },
  {
    "name": "휴먼시아7단지",
    "address": "충청북도 충주시 갱고개로 230 (연수동)",
    "lat": 36.99295937,
    "lng": 127.9392482,
    "region": "충청북도"
  },
  {
    "name": "교현2(청주지방검찰청충주지청)",
    "address": "충청북도 충주시 계명대로 101 (교현동, 청주지방검찰청충주지청)",
    "lat": 36.98315869,
    "lng": 127.9255913,
    "region": "충청북도"
  },
  {
    "name": "목행(한국폴리텍 Ⅳ대학)",
    "address": "충청북도 충주시 국원대로 548 (목행동, 한국폴리텍대학충주캠퍼스)",
    "lat": 37.01580777,
    "lng": 127.9367876,
    "region": "충청북도"
  },
  {
    "name": "엘리시아@",
    "address": "충청북도 충주시 국원초1길 48 (안림동, 충주엘리시아아파트)",
    "lat": 36.98037088,
    "lng": 127.9441205,
    "region": "충청북도"
  },
  {
    "name": "연수(세원한아름아파트)",
    "address": "충청북도 충주시 금릉로 101 (연수동, 세원한아름아파트)",
    "lat": 36.98505553,
    "lng": 127.926839,
    "region": "충청북도"
  },
  {
    "name": "칠금금릉(코오롱동신아파트)",
    "address": "충청북도 충주시 금릉로 14 (칠금동)",
    "lat": 36.98319131,
    "lng": 127.9176757,
    "region": "충청북도"
  },
  {
    "name": "칠금금릉(삼일아파트)",
    "address": "충청북도 충주시 금릉로 17 (칠금동)",
    "lat": 36.98621275,
    "lng": 127.9175323,
    "region": "충청북도"
  },
  {
    "name": "칠금금릉(현대아파트)",
    "address": "충청북도 충주시 금릉로 45 (칠금동)",
    "lat": 36.98578807,
    "lng": 127.9211753,
    "region": "충청북도"
  },
  {
    "name": "칠금금릉(부영1차아파트)",
    "address": "충청북도 충주시 금릉로 46 (칠금동, 부영아파트)",
    "lat": 36.98461939,
    "lng": 127.920836,
    "region": "충청북도"
  },
  {
    "name": "중흥S클레스@",
    "address": "충청북도 충주시 금봉8길 23 (교현동)",
    "lat": 36.96787081,
    "lng": 127.9414821,
    "region": "충청북도"
  },
  {
    "name": "교현안림(안림LG아파트)",
    "address": "충청북도 충주시 금봉대로 397 (안림동)",
    "lat": 36.96997998,
    "lng": 127.9459281,
    "region": "충청북도"
  },
  {
    "name": "안림동 보성꿈에본 아파트",
    "address": "충청북도 충주시 금봉대로 425 (안림동)",
    "lat": 36.97262428,
    "lng": 127.946031,
    "region": "충청북도"
  },
  {
    "name": "칠금금릉(삼성1차아파트)",
    "address": "충청북도 충주시 금제1길 5 (금릉동, 삼성1차아파트)",
    "lat": 36.98841614,
    "lng": 127.9243431,
    "region": "충청북도"
  },
  {
    "name": "용산(용산주공3단지)",
    "address": "충청북도 충주시 남산로 114(용산동, 용산주공3단지)",
    "lat": 36.96114009,
    "lng": 127.9466766,
    "region": "충청북도"
  },
  {
    "name": "용산(용산주공2단지)",
    "address": "충청북도 충주시 남산로 125 (용산동, 용산주공(2)단지아파트)",
    "lat": 36.962947,
    "lng": 127.945983,
    "region": "충청북도"
  },
  {
    "name": "대소원(코아루퍼스트아파트)",
    "address": "충청북도 충주시 대소원면 첨단산업4로 24",
    "lat": 36.98749612,
    "lng": 127.8288082,
    "region": "충청북도"
  },
  {
    "name": "신원아침도시@",
    "address": "충청북도 충주시 만리산10길 15 (안림동, 아침도시아파트)",
    "lat": 36.97149873,
    "lng": 127.9439435,
    "region": "충청북도"
  },
  {
    "name": "목행(새한아파트)",
    "address": "충청북도 충주시 목행산단3로 13-9 (목행동, 새한아파트)",
    "lat": 37.00364986,
    "lng": 127.9175351,
    "region": "충청북도"
  },
  {
    "name": "목행(한라비발디아파트)",
    "address": "충청북도 충주시 목행산단4로 13 (목행동, 한라비발디아파트)",
    "lat": 37.00593215,
    "lng": 127.9174277,
    "region": "충청북도"
  },
  {
    "name": "목행(세중참사랑아파트)",
    "address": "충청북도 충주시 목행산단6로 71 (목행동, 세중참사랑아파트)",
    "lat": 37.004392,
    "lng": 127.919427,
    "region": "충청북도"
  },
  {
    "name": "충주푸르지오아파트",
    "address": "충청북도 충주시 봉계1길 5 (봉방동, 충주푸르지오관리사무소)",
    "lat": 36.978025,
    "lng": 127.912247,
    "region": "충청북도"
  },
  {
    "name": "교현안림(안림LH천년나무1단지)",
    "address": "충청북도 충주시 봉현로 365",
    "lat": 36.97767993,
    "lng": 127.9453046,
    "region": "충청북도"
  },
  {
    "name": "교현안림(푸르지오2차아파트)",
    "address": "충청북도 충주시 봉현로 366",
    "lat": 36.9763912,
    "lng": 127.9432941,
    "region": "충청북도"
  },
  {
    "name": "문화동 호수마을아파트",
    "address": "충청북도 충주시 사직로 114 (문화동, 호수마을아파트)",
    "lat": 36.966783,
    "lng": 127.924717,
    "region": "충청북도"
  },
  {
    "name": "교현2(성원아파트)",
    "address": "충청북도 충주시 삼원로 163 (교현동, 성원임대아파트)",
    "lat": 36.98008231,
    "lng": 127.9239952,
    "region": "충청북도"
  },
  {
    "name": "SJ오피스텔",
    "address": "충청북도 충주시 상방5길 11 (봉방동, 에스제이오피스텔)",
    "lat": 36.974111,
    "lng": 127.910642,
    "region": "충청북도"
  },
  {
    "name": "성내충인(현대쇼핑타운)",
    "address": "충청북도 충주시 성서1길 50 (성서동, 성서동현대아파트)",
    "lat": 36.97158363,
    "lng": 127.9309089,
    "region": "충청북도"
  },
  {
    "name": "호암(현대호반아파트)",
    "address": "충청북도 충주시 신촌2길 29 (호암동, 현대호반아파트)",
    "lat": 36.96027335,
    "lng": 127.9291004,
    "region": "충청북도"
  },
  {
    "name": "호암(예성세경아파트)",
    "address": "충청북도 충주시 신촌3길 21 (호암동, 예성세경아파트)",
    "lat": 36.95958713,
    "lng": 127.9302014,
    "region": "충청북도"
  },
  {
    "name": "봉방(현대자동차)",
    "address": "충청북도 충주시 애향로 10 (봉방동, 현대빌딩)",
    "lat": 36.97482984,
    "lng": 127.9110841,
    "region": "충청북도"
  },
  {
    "name": "리슈빌아파트",
    "address": "충청북도 충주시 연수동산로 12 (연수동, 연수리슈빌아파트)",
    "lat": 36.98398983,
    "lng": 127.9427185,
    "region": "충청북도"
  },
  {
    "name": "힐스테이트 아파트",
    "address": "충청북도 충주시 연수동산로 26 (연수동, 연수힐스테이트)",
    "lat": 36.98610661,
    "lng": 127.943953,
    "region": "충청북도"
  },
  {
    "name": "두진3차아파트(301동,302동)",
    "address": "충청북도 충주시 연수로 20 (연수동, 두진3차임대아파트)",
    "lat": 36.991197,
    "lng": 127.9308782,
    "region": "충청북도"
  },
  {
    "name": "두진1,2차아파트",
    "address": "충청북도 충주시 연수로 7 (연수동)",
    "lat": 36.991889,
    "lng": 127.931251,
    "region": "충청북도"
  },
  {
    "name": "아이파크아파트",
    "address": "충청북도 충주시 연수로1길 20 (연수동, 연수아이파크아파트상가)",
    "lat": 36.99311296,
    "lng": 127.9362306,
    "region": "충청북도"
  },
  {
    "name": "연수(삼성푸른아파트)",
    "address": "충청북도 충주시 연수서1길 20(연수동, 삼성푸른아파트)",
    "lat": 36.98605814,
    "lng": 127.9267632,
    "region": "충청북도"
  },
  {
    "name": "남산동일하이빌아파트",
    "address": "충청북도 충주시 염밭로 22 (용산동, 남산동일하이빌)",
    "lat": 36.95998347,
    "lng": 127.9443717,
    "region": "충청북도"
  },
  {
    "name": "연수(주공5단지)",
    "address": "충청북도 충주시 예성로 401 (연수동)",
    "lat": 36.99227752,
    "lng": 127.9315565,
    "region": "충청북도"
  },
  {
    "name": "연수주공4단지아파트",
    "address": "충청북도 충주시 예성로 401 (연수동, 연수주공4,5단지아파트)",
    "lat": 36.99227752,
    "lng": 127.9315565,
    "region": "충청북도"
  },
  {
    "name": "용산(영진아파트)",
    "address": "충청북도 충주시 용산로 33 (용산동, 영진보람아파트)",
    "lat": 36.96649914,
    "lng": 127.9371892,
    "region": "충청북도"
  },
  {
    "name": "칠금금릉(충주시청)",
    "address": "충청북도 충주시 으뜸로 21 (금릉동)",
    "lat": 36.99131739,
    "lng": 127.9252858,
    "region": "충청북도"
  },
  {
    "name": "주덕(백남진달래아파트)",
    "address": "충청북도 충주시 주덕읍 장터뒷길 48 (백남진달래아파트)",
    "lat": 36.97512761,
    "lng": 127.801306,
    "region": "충청북도"
  },
  {
    "name": "중앙탑(충주시티자이아파트)",
    "address": "충청북도 충주시 중앙탑면 원앙4길 51",
    "lat": 37.016941,
    "lng": 127.8304853,
    "region": "충청북도"
  },
  {
    "name": "중앙탑(e편한세상아파트)",
    "address": "충청북도 충주시 중앙탑면 원앙9길 15",
    "lat": 37.01571511,
    "lng": 127.8260043,
    "region": "충청북도"
  },
  {
    "name": "문화동(럭키아파트)",
    "address": "충청북도 충주시 중원대로 3379 (문화동, 럭키문화아파트)",
    "lat": 36.968558,
    "lng": 127.9216636,
    "region": "충청북도"
  },
  {
    "name": "금빛마을",
    "address": "충청북도 충주시 청운로 50 (지현동)",
    "lat": 36.96483056,
    "lng": 127.9293714,
    "region": "충청북도"
  },
  {
    "name": "칠금금릉(부영2차아파트)",
    "address": "충청북도 충주시 칠금중앙로 30 (칠금동)",
    "lat": 36.9803053,
    "lng": 127.917084,
    "region": "충청북도"
  },
  {
    "name": "달천(신한강변APT 지하주차장)",
    "address": "충청북도 충주시 풍동동막길 50",
    "lat": 36.93960533,
    "lng": 127.8993136,
    "region": "충청북도"
  },
  {
    "name": "목행(삼진동산아파트)",
    "address": "충청북도 충주시 행정10길 36 (목행동, 충주삼진동산아파트)",
    "lat": 37.01363396,
    "lng": 127.919336,
    "region": "충청북도"
  },
  {
    "name": "호암(진도아파트)",
    "address": "충청북도 충주시 호암중앙2로 27 (호암동, 진도아파트)",
    "lat": 36.95579823,
    "lng": 127.9399233,
    "region": "충청북도"
  },
  {
    "name": "호암(부강아파트)",
    "address": "충청북도 충주시 호암중앙2로 31 (호암동, 부강아파트)",
    "lat": 36.95599324,
    "lng": 127.9403299,
    "region": "충청북도"
  },
  {
    "name": "연수(부강아파트 주차장)",
    "address": "충청북도 충주시 후곡길 19 (연수동, 부강아파트상가)",
    "lat": 36.99284264,
    "lng": 127.9307321,
    "region": "충청북도"
  }
]