[
  {
    "name": "강원도청 충무시설",
    "address": "강원특별자치도 춘천시 중앙로 1(봉의동)",
    "lat": 37.88461664600646,
    "lng": 127.7300644198301,
    "region": "강원특별자치도"
  },
  {
    "name": "봉의중학교",
    "address": "강원특별자치도 춘천시 춘천로296번길 55 (후평동, 봉의중학교)",
    "lat": 37.87762443566452,
    "lng": 127.74357171864372,
    "region": "강원특별자치도"
  },
  {
    "name": "석사퇴계주공3단지아파트 지하주차장 1층",
    "address": "강원특별자치도 춘천시 퇴계로 220-19 (석사동, 퇴계(3)주공아파트)",
    "lat": 37.85464528522932,
    "lng": 127.7423248240354,
    "region": "강원특별자치도"
  },
  {
    "name": "석사퇴계주공4단지아파트 지하주차장 1층",
    "address": "강원특별자치도 춘천시 퇴계로 242 (석사동, 퇴계(4)주공아파트)",
    "lat": 37.8553988750153,
    "lng": 127.74519656749936,
    "region": "강원특별자치도"
  },
  {
    "name": "석사삼익세라믹2차아파트 지하주차장 1층",
    "address": "강원특별자치도 춘천시 공지로 69-9 (석사동, 삼익세라믹아파트)",
    "lat": 37.85317525035229,
    "lng": 127.74991594241384,
    "region": "강원특별자치도"
  },
  {
    "name": "석사극동아파트 지하주차장 1층",
    "address": "강원특별자치도 춘천시 공지로 43 (석사동, 극동아파트)",
    "lat": 37.85151471952577,
    "lng": 127.75224800941572,
    "region": "강원특별자치도"
  },
  {
    "name": "진흥아파트 지하주차장 1,2층",
    "address": "강원특별자치도 춘천시 후석로186번길 9 (석사동, 진흥아파트)",
    "lat": 37.86760609131457,
    "lng": 127.7534547592074,
    "region": "강원특별자치도"
  },
  {
    "name": "청구아파트 지하주차장 1층",
    "address": "강원특별자치도 춘천시 서부대성로 332 (석사동, 청구아파트)",
    "lat": 37.87000937251336,
    "lng": 127.75388536835908,
    "region": "강원특별자치도"
  },
  {
    "name": "석사두산아파트 지하주차장 1층",
    "address": "강원특별자치도 춘천시 후석로186번길 25 (석사동, 두산아파트)",
    "lat": 37.86752935538638,
    "lng": 127.75517702988084,
    "region": "강원특별자치도"
  },
  {
    "name": "석사부영아파트 지하주차장 1층",
    "address": "강원특별자치도 춘천시 우석로101번길 83 (석사동, 석사3지구 부영아파트)",
    "lat": 37.86933843762701,
    "lng": 127.75593021137824,
    "region": "강원특별자치도"
  },
  {
    "name": "그랜드아파트 지하주차장 1층",
    "address": "강원특별자치도 춘천시 우석로101번길 20 (석사동, 그랜드아파트)",
    "lat": 37.8665258883899,
    "lng": 127.7562938318952,
    "region": "강원특별자치도"
  },
  {
    "name": "석사대우아파트 지하주차장 1층",
    "address": "강원특별자치도 춘천시 우석로101번길 86 (석사동, 석사대우아파트)",
    "lat": 37.86945822252751,
    "lng": 127.75633478762312,
    "region": "강원특별자치도"
  },
  {
    "name": "퇴계한주아파트 지하주차장 1층",
    "address": "강원특별자치도 춘천시 안마산로 217 (퇴계동, 한주아파트)",
    "lat": 37.84998448849292,
    "lng": 127.73836056383496,
    "region": "강원특별자치도"
  },
  {
    "name": "퇴계금호아파트 지하주차장 1층",
    "address": "강원특별자치도 춘천시 안마산로 214 (퇴계동, 퇴계금호타운아파트)",
    "lat": 37.849755274311605,
    "lng": 127.73729589382845,
    "region": "강원특별자치도"
  },
  {
    "name": "퇴계현대1차아파트 지하주차장 1층",
    "address": "강원특별자치도 춘천시 춘주로 162 (퇴계동, 퇴계현대1차아파트)",
    "lat": 37.85794468677495,
    "lng": 127.7260271157828,
    "region": "강원특별자치도"
  },
  {
    "name": "그린타운아파트 지하주차장 1층",
    "address": "강원특별자치도 춘천시 춘주로 174 (퇴계동, 그린타운아파트)",
    "lat": 37.8584319428014,
    "lng": 127.727364444899,
    "region": "강원특별자치도"
  },
  {
    "name": "한진한성아파트 지하주차장 1층",
    "address": "강원특별자치도 춘천시 행촌로 11 (퇴계동, 한성아파트)",
    "lat": 37.8582885306992,
    "lng": 127.72275941346966,
    "region": "강원특별자치도"
  },
  {
    "name": "퇴계현대2차아파트 지하주차장 1층",
    "address": "강원특별자치도 춘천시 행촌로 14 (퇴계동, 현대2차아파트)",
    "lat": 37.858180096986665,
    "lng": 127.72305760549428,
    "region": "강원특별자치도"
  },
  {
    "name": "퇴계일성아파트 지하주차장 1층",
    "address": "강원특별자치도 춘천시 우묵길78번길 25 (퇴계동, 일성아파트)",
    "lat": 37.86642137413644,
    "lng": 127.72607275613748,
    "region": "강원특별자치도"
  },
  {
    "name": "퇴계주공2차아파트 지하주차장 1층",
    "address": "강원특별자치도 춘천시 퇴계로 168 (퇴계동, 퇴계(2)주공아파트)",
    "lat": 37.858123358325365,
    "lng": 127.73763477646509,
    "region": "강원특별자치도"
  },
  {
    "name": "우성아파트 지하주차장 1층",
    "address": "강원특별자치도 춘천시 국사봉길 7 (퇴계동, 우성아파트)",
    "lat": 37.85942439360563,
    "lng": 127.7300193724512,
    "region": "강원특별자치도"
  },
  {
    "name": "퇴계주공1차아파트 지하주차장 1층",
    "address": "강원특별자치도 춘천시 퇴계로 167 (퇴계동, 퇴계(1)주공아파트)",
    "lat": 37.8584840344114,
    "lng": 127.73766420648832,
    "region": "강원특별자치도"
  },
  {
    "name": "춘천지하상가",
    "address": "강원특별자치도 춘천시 중앙로 91-1(중앙로2가)",
    "lat": 37.87759261836528,
    "lng": 127.72452372934497,
    "region": "강원특별자치도"
  },
  {
    "name": "브라운5번가 지하주차장 1층",
    "address": "강원특별자치도 춘천시 중앙로67번길 18 (죽림동, 브라운가)",
    "lat": 37.87840386753352,
    "lng": 127.72780664574748,
    "region": "강원특별자치도"
  },
  {
    "name": "춘천더샾아파트 지하주차장 1~2층",
    "address": "강원특별자치도 춘천시 후석로 325 (후평동, 춘천더샵아파트)",
    "lat": 37.879983085595065,
    "lng": 127.74955659909098,
    "region": "강원특별자치도"
  },
  {
    "name": "대우아파트 지하주차장 1층",
    "address": "강원특별자치도 춘천시 후만로126번길 31 (후평동, 대우아파트)",
    "lat": 37.87489306561896,
    "lng": 127.7595955558623,
    "region": "강원특별자치도"
  },
  {
    "name": "동아아파트 지하주차장 1층",
    "address": "강원특별자치도 춘천시 서부대성로 327 (후평동, 동아아파트)",
    "lat": 37.87017436311955,
    "lng": 127.75320282790932,
    "region": "강원특별자치도"
  },
  {
    "name": "현대4차아파트 지하주차장 1층",
    "address": "강원특별자치도 춘천시 후석로326번길 44 (후평동, 현대4차아파트)",
    "lat": 37.88171378815088,
    "lng": 127.75409877391137,
    "region": "강원특별자치도"
  },
  {
    "name": "효자일성아파트 지하주차장 1층",
    "address": "강원특별자치도 춘천시 두하길 22 (효자동, 일성아파트)",
    "lat": 37.87622456280676,
    "lng": 127.74160545182228,
    "region": "강원특별자치도"
  },
  {
    "name": "LH공사 강원지역본부 지하주차장 1층",
    "address": "강원특별자치도 춘천시 공지로 337, 한국토지주택공사강원지역본부 (효자동)",
    "lat": 37.8691811670373,
    "lng": 127.72866264850484,
    "region": "강원특별자치도"
  },
  {
    "name": "소양로현대아파트 지하주차장 1층",
    "address": "강원특별자치도 춘천시 모수물길 60(소양로2가, 소양로현대아파트)",
    "lat": 37.88878002545282,
    "lng": 127.72633356305144,
    "region": "강원특별자치도"
  },
  {
    "name": "중앙하이츠빌1단지아파트 지하주차장 1층",
    "address": "강원특별자치도 춘천시 영서로2141번길 33 (퇴계동, 중앙하이츠빌1단지아파트)",
    "lat": 37.85490329483829,
    "lng": 127.73538976332722,
    "region": "강원특별자치도"
  },
  {
    "name": "중앙하이츠빌2단지아파트 지하주차장 1층",
    "address": "강원특별자치도 춘천시 영서로2141번길 25 (퇴계동, 중앙하이츠빌2단지아파트)",
    "lat": 37.85570563000617,
    "lng": 127.73657096546378,
    "region": "강원특별자치도"
  },
  {
    "name": "퇴계이안아파트 지하주차장 1층",
    "address": "강원특별자치도 춘천시 영서로 2169 (퇴계동, 퇴계이안아파트)",
    "lat": 37.85798307014005,
    "lng": 127.73066262972152,
    "region": "강원특별자치도"
  },
  {
    "name": "쌍용스윗닷홈아파트 지하주차장 1층",
    "address": "강원특별자치도 춘천시 춘주로 176-22 (퇴계동, 퇴계동 쌍용스윗닷홈)",
    "lat": 37.85813295043187,
    "lng": 127.7294955446231,
    "region": "강원특별자치도"
  },
  {
    "name": "유승한내들아파트 지하주차장 1층",
    "address": "강원특별자치도 춘천시 퇴계로 108 (퇴계동, 유승한내들아파트)",
    "lat": 37.86125917783074,
    "lng": 127.73187028670812,
    "region": "강원특별자치도"
  },
  {
    "name": "럭키아파트 (102동) 지하주차장 1층",
    "address": "강원특별자치도 춘천시 영서로 2317-0 (온의동)",
    "lat": 37.86659901180016,
    "lng": 127.71767981956636,
    "region": "강원특별자치도"
  },
  {
    "name": "한주아파트 (101동) 지하주차장 1층",
    "address": "강원특별자치도 춘천시 스포츠타운길 528-12 (온의동, 온의한주아파트)",
    "lat": 37.868119432721855,
    "lng": 127.7146499308045,
    "region": "강원특별자치도"
  },
  {
    "name": "동부아파트 지하주차장 1층",
    "address": "강원특별자치도 춘천시 충열로 32 (우두동, 동부아파트)",
    "lat": 37.89892274148236,
    "lng": 127.73140184113,
    "region": "강원특별자치도"
  },
  {
    "name": "롯데인벤스아파트 지하주차장 1층",
    "address": "강원특별자치도 춘천시 충열로 29 (우두동, 롯데인벤스아파트)",
    "lat": 37.899697375858,
    "lng": 127.73142000611034,
    "region": "강원특별자치도"
  },
  {
    "name": "두미르아파트 지하주차장 1층",
    "address": "강원특별자치도 춘천시 영서로 2793 (우두동, 두미르마을)",
    "lat": 37.90243998064712,
    "lng": 127.72752265502372,
    "region": "강원특별자치도"
  },
  {
    "name": "강변코아루아파트 지하주차장 1층",
    "address": "강원특별자치도 춘천시 새청말길 26 (우두동, 강변코아루아파트)",
    "lat": 37.897807759167314,
    "lng": 127.7368697939406,
    "region": "강원특별자치도"
  },
  {
    "name": "사농현대아파트 (104, 105동) 지하주차장 1층",
    "address": "강원특별자치도 춘천시 영서로 2920-0, 104동 (사농동, 현대아파트)",
    "lat": 37.91260455718701,
    "lng": 127.72325944388696,
    "region": "강원특별자치도"
  },
  {
    "name": "효자동보아파트 지하주차장 1층",
    "address": "강원특별자치도 춘천시 공지로200번길 13 (효자동, 동보아파트)",
    "lat": 37.86316503810907,
    "lng": 127.7413029956585,
    "region": "강원특별자치도"
  },
  {
    "name": "삼성아파트 (101, 102동) 지하주차장 1층",
    "address": "강원특별자치도 춘천시 충열로 30 (우두동, 삼성아파트)",
    "lat": 37.8992548174074,
    "lng": 127.73135699850972,
    "region": "강원특별자치도"
  },
  {
    "name": "롯데캐슬1차아파트 지하주차장 1층",
    "address": "강원특별자치도 춘천시 마장길 58 (사농동, 춘천롯데캐슬더퍼스트1단지)",
    "lat": 37.90871379688509,
    "lng": 127.72999119220334,
    "region": "강원특별자치도"
  },
  {
    "name": "롯데캐슬2차아파트 지하주차장 1층",
    "address": "강원특별자치도 춘천시 마장길 60 (사농동, 춘천롯데캐슬더퍼스트2단지)",
    "lat": 37.90868424027045,
    "lng": 127.73027154018166,
    "region": "강원특별자치도"
  },
  {
    "name": "현진에버빌1차아파트 지하주차장 1층",
    "address": "강원특별자치도 춘천시 지석로 97 (석사동, 현진에버빌1차)",
    "lat": 37.85072094521937,
    "lng": 127.74621160720784,
    "region": "강원특별자치도"
  },
  {
    "name": "현진에버빌2차아파트 지하주차장 1층",
    "address": "강원특별자치도 춘천시 지석로 67 (석사동, 현진에버빌2차)",
    "lat": 37.85143784982943,
    "lng": 127.74256799423732,
    "region": "강원특별자치도"
  },
  {
    "name": "휴먼타운아파트 지하주차장 1층",
    "address": "강원특별자치도 춘천시 지석로 29 (석사동, 휴먼타운아파트)",
    "lat": 37.85243620232843,
    "lng": 127.73849255289558,
    "region": "강원특별자치도"
  },
  {
    "name": "석사현대3차아파트 지하주차장 1층",
    "address": "강원특별자치도 춘천시 퇴계로 220-20 (석사동, 현대아파트)",
    "lat": 37.85470768768379,
    "lng": 127.74201232353832,
    "region": "강원특별자치도"
  },
  {
    "name": "후평극동늘푸른아파트 지하주차장 1~2층",
    "address": "강원특별자치도 춘천시 후석로 459 (후평동, 극동늘푸른아파트)",
    "lat": 37.8899532892142,
    "lng": 127.74126862918764,
    "region": "강원특별자치도"
  },
  {
    "name": "M타워빌딩 지하주차장 1~2층",
    "address": "강원특별자치도 춘천시 보안길 65 (후평동)",
    "lat": 37.8802542117045,
    "lng": 127.75034521405397,
    "region": "강원특별자치도"
  },
  {
    "name": "금호3차아파트 (302동) 지하주차장 1층",
    "address": "강원특별자치도 춘천시 영서로 2319 (온의동, 금호3차아파트)",
    "lat": 37.8665841983938,
    "lng": 127.71695303193717,
    "region": "강원특별자치도"
  },
  {
    "name": "중앙하이츠빌3단지아파트 지하주차장 1층",
    "address": "강원특별자치도 춘천시 지석로 10 (퇴계동, 중앙하이츠빌3단지아파트)",
    "lat": 37.85333675389432,
    "lng": 127.73680108987683,
    "region": "강원특별자치도"
  },
  {
    "name": "휴먼시아남춘천2단지아파트 지하주차장 1층",
    "address": "강원특별자치도 춘천시 퇴계로 128 (퇴계동, 휴먼시아 남춘천2단지아파트)",
    "lat": 37.86024415774514,
    "lng": 127.73363323227946,
    "region": "강원특별자치도"
  },
  {
    "name": "한신휴플러스아파트 지하주차장 1층",
    "address": "강원특별자치도 춘천시 서부대성로 34(요선동, 한신휴플러스아파트)",
    "lat": 37.88367351321918,
    "lng": 127.7268146604735,
    "region": "강원특별자치도"
  },
  {
    "name": "양우아파트 지하주차장 1층",
    "address": "강원특별자치도 춘천시 공지로317번길 11 (효자동, 내안애양우아파트)",
    "lat": 37.86750492708895,
    "lng": 127.73013463577338,
    "region": "강원특별자치도"
  },
  {
    "name": "신도브래뉴아파트 지하주차장 1층",
    "address": "강원특별자치도 춘천시 공지로 69-10 (석사동, 석사신도브래뉴)",
    "lat": 37.853414431854674,
    "lng": 127.74980907171768,
    "region": "강원특별자치도"
  },
  {
    "name": "투탑시티시너스카펠라 CGV 지하주차장 1층",
    "address": "강원특별자치도 춘천시 지석로 80 (퇴계동)",
    "lat": 37.85054231932078,
    "lng": 127.74399155035724,
    "region": "강원특별자치도"
  },
  {
    "name": "퇴계주공7차아파트 지하주차장 1층",
    "address": "강원특별자치도 춘천시 승지골길16번길 14 (퇴계동, 퇴계7단지주공아파트)",
    "lat": 37.84929800414996,
    "lng": 127.741687321595,
    "region": "강원특별자치도"
  },
  {
    "name": "퇴계주공9차아파트 지하주차장 1층",
    "address": "강원특별자치도 춘천시 안마산로 244 (퇴계동, 퇴계9단지주공아파트)",
    "lat": 37.84816090600911,
    "lng": 127.74025149579826,
    "region": "강원특별자치도"
  },
  {
    "name": "뜨란채아파트 지하주차장 1층",
    "address": "강원특별자치도 춘천시 승지골길16번길 47 (퇴계동, 뜨란채아파트)",
    "lat": 37.84885055909609,
    "lng": 127.74553321577184,
    "region": "강원특별자치도"
  },
  {
    "name": "초록지붕8차아파트 지하주차장 1층",
    "address": "강원특별자치도 춘천시 세실로 260 (후평동, 초록지붕아파트)",
    "lat": 37.88017859535449,
    "lng": 127.75524120658967,
    "region": "강원특별자치도"
  },
  {
    "name": "메가시티빌딩 지하주차장 1~3층",
    "address": "강원특별자치도 춘천시 춘천로 188 (효자동)",
    "lat": 37.8764337665189,
    "lng": 127.7351990313496,
    "region": "강원특별자치도"
  },
  {
    "name": "신성미소지움아파트 지하주차장 1,2층",
    "address": "강원특별자치도 춘천시 근화길15번길 26 (근화동, 신성근화미소지움아파트)",
    "lat": 37.87245544962134,
    "lng": 127.71801368810452,
    "region": "강원특별자치도"
  },
  {
    "name": "칠전부영사랑으로아파트 지하주차장 1층",
    "address": "강원특별자치도 춘천시 칠전서길 45 (칠전동, 칠전사랑으로부영아파트)",
    "lat": 37.84303318411108,
    "lng": 127.71250050283778,
    "region": "강원특별자치도"
  },
  {
    "name": "e편한세상아파트 지하주차장 1~2층",
    "address": "강원특별자치도 춘천시 서부대성로 33 (소양로2가)",
    "lat": 37.8839567259331,
    "lng": 127.72719491890814,
    "region": "강원특별자치도"
  },
  {
    "name": "사북면",
    "address": "강원특별자치도 춘천시 사북면 영서로 4721 (사북면사무소)",
    "lat": 38.02997545818733,
    "lng": 127.64092671638568,
    "region": "강원특별자치도"
  },
  {
    "name": "소양강양우내안애아파트 지하주차장 1층",
    "address": "강원특별자치도 춘천시 신북읍 신샘밭로 733 (소양강양우내안애아파트)",
    "lat": 37.93210598606988,
    "lng": 127.79043022237391,
    "region": "강원특별자치도"
  },
  {
    "name": "해강아파트 지하주차장 1, 2층",
    "address": "강원특별자치도 춘천시 신북읍 상천2길 52 (해강아파트)",
    "lat": 37.93288973501929,
    "lng": 127.78892144460384,
    "region": "강원특별자치도"
  },
  {
    "name": "현진에버빌3차아파트 지하주차장 2층",
    "address": "강원특별자치도 춘천시 춘천로 120 (효자동, 현진에버빌3차아파트)",
    "lat": 37.873724409433954,
    "lng": 127.72925410349808,
    "region": "강원특별자치도"
  },
  {
    "name": "만천LH아파트(102동) 지하주차장 1층",
    "address": "강원특별자치도 춘천시 동면 후석로326번길 96 (춘천만천엘에이치아파트)",
    "lat": 37.88398674384396,
    "lng": 127.75912410362852,
    "region": "강원특별자치도"
  },
  {
    "name": "장학LH1단지아파트(107동) 지하주차장 1층",
    "address": "강원특별자치도 춘천시 동면 소양강로 100 (춘천장학엘에이치1단지)",
    "lat": 37.89638913260061,
    "lng": 127.7514284981631,
    "region": "강원특별자치도"
  },
  {
    "name": "장학사랑으로부영아파트 지하주차장 1층",
    "address": "강원특별자치도 춘천시 동면 소양강로 104 (춘천장학사랑으로부영아파트)",
    "lat": 37.89598589778958,
    "lng": 127.7534762734778,
    "region": "강원특별자치도"
  },
  {
    "name": "아이파크아파트 지하주차장 1층",
    "address": "강원특별자치도 춘천시 동면 만천로 242 (춘천장학아이파크)",
    "lat": 37.889923850549465,
    "lng": 127.7557524771358,
    "region": "강원특별자치도"
  },
  {
    "name": "KCC스위첸1차아파트 지하주차장 1~2층",
    "address": "강원특별자치도 춘천시 동면 만천로 69 (KCC스위첸아파트)",
    "lat": 37.8790246940734,
    "lng": 127.76550451209768,
    "region": "강원특별자치도"
  },
  {
    "name": "산수빌아파트 지하주차장 1층",
    "address": "강원특별자치도 춘천시 동내면 향군길 23 (산수빌아파트)",
    "lat": 37.8478313910831,
    "lng": 127.76472358669167,
    "region": "강원특별자치도"
  },
  {
    "name": "초록지붕아파트 지하주차장 1층",
    "address": "강원특별자치도 춘천시 동내면 거두택지길 7 (초록지붕아파트)",
    "lat": 37.85306992320571,
    "lng": 127.75232329276012,
    "region": "강원특별자치도"
  },
  {
    "name": "거두주공아파트 지하주차장 1층",
    "address": "강원특별자치도 춘천시 동내면 거두택지길 88 (춘천거두주공아파트)",
    "lat": 37.85600565711051,
    "lng": 127.75955606386846,
    "region": "강원특별자치도"
  },
  {
    "name": "호반베르디움아파트 지하주차장 1층",
    "address": "강원특별자치도 춘천시 동내면 외솔길19번길 80-7 (호반베르디움아파트)",
    "lat": 37.85819445046043,
    "lng": 127.7589923805979,
    "region": "강원특별자치도"
  },
  {
    "name": "현대성우오스타아파트 지하주차장 1층",
    "address": "강원특별자치도 춘천시 동내면 춘천순환로 93 (현대성우오스타)",
    "lat": 37.85680512859069,
    "lng": 127.75424172990076,
    "region": "강원특별자치도"
  },
  {
    "name": "거두부영3단지아파트 지하주차장 1층",
    "address": "강원특별자치도 춘천시 동내면 거두택지길 25 (부영아파트)",
    "lat": 37.85389817160319,
    "lng": 127.75404664055873,
    "region": "강원특별자치도"
  },
  {
    "name": "대동다숲아파트 지하주차장 1~2층",
    "address": "강원특별자치도 춘천시 동면 후석로326번길 63 (대동다숲아파트)",
    "lat": 37.882795264074765,
    "lng": 127.75583717112308,
    "region": "강원특별자치도"
  },
  {
    "name": "두산위브아파트 지하주차장 1층",
    "address": "강원특별자치도 춘천시 동면 삭주로 231 (두산위브아파트)",
    "lat": 37.88789021208417,
    "lng": 127.75572750733026,
    "region": "강원특별자치도"
  },
  {
    "name": "호반베르디움에코아파트 지하주차장 1층",
    "address": "강원특별자치도 춘천시 동내면 거두택지길 80 (호반베르디움에코)",
    "lat": 37.8555703511117,
    "lng": 127.76022480040558,
    "region": "강원특별자치도"
  },
  {
    "name": "거두부영1단지아파트 지하주차장 1층",
    "address": "강원특별자치도 춘천시 동내면 춘천순환로94번길 10 (부영아파트)",
    "lat": 37.8553764199043,
    "lng": 127.75434942712508,
    "region": "강원특별자치도"
  },
  {
    "name": "거두부영2단지아파트 지하주차장 1층",
    "address": "강원특별자치도 춘천시 동내면 춘천순환로94번길 14 (부영아파트)",
    "lat": 37.85488751020292,
    "lng": 127.7547042758246,
    "region": "강원특별자치도"
  },
  {
    "name": "춘천시청 지하주차장 1~2층",
    "address": "강원특별자치도 춘천시 시청길 11, 춘천시청 (옥천동)",
    "lat": 37.880996306223295,
    "lng": 127.72937448028738,
    "region": "강원특별자치도"
  },
  {
    "name": "일성트루엘더퍼스트아파트 지하주차장 1~3층",
    "address": "강원특별자치도 춘천시 백령로 215(후평동, 춘천일성트루엘더퍼스트아파트)",
    "lat": 37.877919072530176,
    "lng": 127.74916905966704,
    "region": "강원특별자치도"
  },
  {
    "name": "후평우미린뉴시티아파트 지하주차장 1~4층",
    "address": "강원특별자치도 춘천시 보안길 36(후평동, 우미린뉴시티)",
    "lat": 37.87800745209498,
    "lng": 127.75247326109192,
    "region": "강원특별자치도"
  },
  {
    "name": "e편한세상춘천한숲시티아파트 지하주차장 1~2층",
    "address": "강원특별자치도 춘천시 안마산로 133(퇴계동, e편한세상 춘천 한숲시티)",
    "lat": 37.853205711420806,
    "lng": 127.73039408169488,
    "region": "강원특별자치도"
  },
  {
    "name": "온의롯데캐슬스카이클래스아파트 지하주차장 1~2층",
    "address": "강원특별자치도 춘천시 방송길 70(온의동, 온의 롯데캐슬 스카이클래스)",
    "lat": 37.86947959273993,
    "lng": 127.71868109784104,
    "region": "강원특별자치도"
  },
  {
    "name": "우두LH천년나무1단지아파트 지하주차장 1층",
    "address": "강원특별자치도 춘천시 우두로 130(우두동, 춘천우두엘에이치천년나무1단지)",
    "lat": 37.91128619141674,
    "lng": 127.73701656701016,
    "region": "강원특별자치도"
  },
  {
    "name": "춘천파크에뷰아파트 지하주차장 1층",
    "address": "강원특별자치도 춘천시 우두1길 129 (우두동, 춘천파크에뷰)",
    "lat": 37.910796246395584,
    "lng": 127.73571310378642,
    "region": "강원특별자치도"
  },
  {
    "name": "한일유앤아이아파트 지하주차장 2층",
    "address": "강원특별자치도 춘천시 동면 만천로 107 (한일유앤아이아파트)",
    "lat": 37.8812187434262,
    "lng": 127.762115102348,
    "region": "강원특별자치도"
  },
  {
    "name": "엘타워오피스텔1차 지하주차장 2~4층",
    "address": "강원특별자치도 춘천시 공지로 455, 춘천 L-타워 (근화동)",
    "lat": 37.8739585038236,
    "lng": 127.716582958005,
    "region": "강원특별자치도"
  },
  {
    "name": "남춘천휴먼시아1단지아파트 지하주차장 2층",
    "address": "강원특별자치도 춘천시 남춘천새길 11 (퇴계동, 휴먼시아 남춘천1단지아파트)",
    "lat": 37.8613919860791,
    "lng": 127.7344124794,
    "region": "강원특별자치도"
  },
  {
    "name": "춘천센트럴타워푸르지오아파트 지하주차장 2~6층",
    "address": "강원특별자치도 춘천시 방송길 77 (온의동, 춘천 센트럴타워 푸르지오)",
    "lat": 37.8691797668389,
    "lng": 127.719874575552,
    "region": "강원특별자치도"
  },
  {
    "name": "뉴시티코아루아파트 지하주차장 1층",
    "address": "강원특별자치도 춘천시 영서로 2922 (사농동, 춘천 뉴시티 코아루)",
    "lat": 37.9125428309285,
    "lng": 127.725455496049,
    "region": "강원특별자치도"
  },
  {
    "name": "라이프타운아파트 지하주차장 1층",
    "address": "강원특별자치도 원주시 백간길 72 (단계동, 라이프타운)",
    "lat": 37.35138052389313,
    "lng": 127.931422307212,
    "region": "강원특별자치도"
  },
  {
    "name": "벽산아파트 지하주차장 1층",
    "address": "강원특별자치도 원주시 백간길 80(단계동, 벽산아파트)",
    "lat": 37.351811339528936,
    "lng": 127.93244625448791,
    "region": "강원특별자치도"
  },
  {
    "name": "단계현진아파트 지하주차장 1층",
    "address": "강원특별자치도 원주시 봉화로 122(단계동, 현진아파트)",
    "lat": 37.35535830681636,
    "lng": 127.92853955028782,
    "region": "강원특별자치도"
  },
  {
    "name": "한주아파트 지하주차장 1층",
    "address": "강원특별자치도 원주시 무실로 91 (원동, 한주아파트)",
    "lat": 37.34471474916451,
    "lng": 127.94456481798436,
    "region": "강원특별자치도"
  },
  {
    "name": "남부상가 지하주차장 1층",
    "address": "강원특별자치도 원주시 치악로 1803 (명륜동, 남부시장)",
    "lat": 37.34326271221659,
    "lng": 127.95470425768656,
    "region": "강원특별자치도"
  },
  {
    "name": "대흥아파트 지하주차장 1층",
    "address": "강원특별자치도 원주시 단구초교길 11(단구동, 대흥아파트)",
    "lat": 37.322443753292575,
    "lng": 127.96477372419076,
    "region": "강원특별자치도"
  },
  {
    "name": "한일아파트 지하주차장 1층",
    "address": "강원특별자치도 원주시 남원로 526(단구동, 한일아파트)",
    "lat": 37.32951979624322,
    "lng": 127.94884537922424,
    "region": "강원특별자치도"
  },
  {
    "name": "원흥4차아파트 지하주차장 1층",
    "address": "강원특별자치도 원주시 치악로 1634(단구동, 원흥아파트)",
    "lat": 37.32877326963422,
    "lng": 127.9599401747748,
    "region": "강원특별자치도"
  },
  {
    "name": "구곡현대1차아파트 지하주차장 1~2층",
    "address": "강원특별자치도 원주시 남원로 492(단구동, 현대아파트)",
    "lat": 37.328028741311535,
    "lng": 127.94572242772152,
    "region": "강원특별자치도"
  },
  {
    "name": "현진에버빌1차아파트 지하주차장 1층",
    "address": "강원특별자치도 원주시 나비허리길 22 (단구동, 단구동 현진에버빌(1))",
    "lat": 37.32474876717924,
    "lng": 127.9562419521849,
    "region": "강원특별자치도"
  },
  {
    "name": "현진에버빌2차아파트 지하주차장 1층",
    "address": "강원특별자치도 원주시 늘품로 38(단구동, 현진에버빌2차아파트)",
    "lat": 37.32342771686382,
    "lng": 127.95086166016944,
    "region": "강원특별자치도"
  },
  {
    "name": "지하상가 지하 1층",
    "address": "강원특별자치도 원주시 원일로 134 (중앙동)",
    "lat": 37.35112757665468,
    "lng": 127.94779528884008,
    "region": "강원특별자치도"
  },
  {
    "name": "영진로얄타운아파트 지하주차장 1층",
    "address": "강원특별자치도 원주시 남산로218번길 34(학성동, 영진로얄타운아파트)",
    "lat": 37.35298084291098,
    "lng": 127.94367671606656,
    "region": "강원특별자치도"
  },
  {
    "name": "단계현대아파트 지하주차장 1층",
    "address": "강원특별자치도 원주시 원문로 176(단계동, 현대아파트)",
    "lat": 37.356880021645296,
    "lng": 127.93030836758832,
    "region": "강원특별자치도"
  },
  {
    "name": "단계삼익아파트 전체 동의 지하 1층",
    "address": "강원특별자치도 원주시 봉화로 74(단계동, 단계삼익아파트)",
    "lat": 37.35114390918761,
    "lng": 127.92895297987704,
    "region": "강원특별자치도"
  },
  {
    "name": "장미아파트 지하주차장 1층",
    "address": "강원특별자치도 원주시 백간길 81(단계동, 장미아파트)",
    "lat": 37.35216473264398,
    "lng": 127.932378984473,
    "region": "강원특별자치도"
  },
  {
    "name": "백간성일아파트 지하주차장 1층",
    "address": "강원특별자치도 원주시 모래내길 50(단계동, 백간성일아파트)",
    "lat": 37.352226717512295,
    "lng": 127.9331473518282,
    "region": "강원특별자치도"
  },
  {
    "name": "북원상가아파트 지하주차장 1층",
    "address": "강원특별자치도 원주시 북원상가길 9-8 (태장동)",
    "lat": 37.3847848668503,
    "lng": 127.94845402446526,
    "region": "강원특별자치도"
  },
  {
    "name": "영진2차아파트 지하주차장 1층",
    "address": "강원특별자치도 원주시 현충로 155(태장동, 영진2차아파트)",
    "lat": 37.3683760792299,
    "lng": 127.95048971863147,
    "region": "강원특별자치도"
  },
  {
    "name": "태장주공2단지아파트 지하주차장 1층",
    "address": "강원특별자치도 원주시 흥양로51번길 18(태장동, 태장주공2단지아파트)",
    "lat": 37.38477946260367,
    "lng": 127.95475178243127,
    "region": "강원특별자치도"
  },
  {
    "name": "태장주공3단지아파트 지하주차장 1층",
    "address": "강원특별자치도 원주시 흥양로51번길 16(태장동, 태장주공3단지아파트)",
    "lat": 37.384920557522335,
    "lng": 127.95453050089938,
    "region": "강원특별자치도"
  },
  {
    "name": "태장주공1단지아파트 지하주차장 1층",
    "address": "강원특별자치도 원주시 흥양로51번길 22(태장동, 태장주공1단지아파트)",
    "lat": 37.38558733320895,
    "lng": 127.95457589288392,
    "region": "강원특별자치도"
  },
  {
    "name": "두진백로아파트 지하주차장 1층",
    "address": "강원특별자치도 원주시 흥양로 64(태장동, 두진백로아파트)",
    "lat": 37.38248273661811,
    "lng": 127.9552636634832,
    "region": "강원특별자치도"
  },
  {
    "name": "삼정백조아파트 지하주차장 1층",
    "address": "강원특별자치도 원주시 흥양로102번길 22(태장동, 삼정백조아파트)",
    "lat": 37.381501163874994,
    "lng": 127.9583077106674,
    "region": "강원특별자치도"
  },
  {
    "name": "백운3차아파트 지하주차장 1층",
    "address": "강원특별자치도 원주시 태장공단길 10(태장동, 백운3차아파트)",
    "lat": 37.40129471234054,
    "lng": 127.95203375444882,
    "region": "강원특별자치도"
  },
  {
    "name": "대흥2차아파트 지하주차장 1층",
    "address": "강원특별자치도 원주시 흥양로 30(태장동, 대흥아파트)",
    "lat": 37.381028330875935,
    "lng": 127.95088125196858,
    "region": "강원특별자치도"
  },
  {
    "name": "봉산현대아파트 지하주차장 1층",
    "address": "강원특별자치도 원주시 봉산로 82(봉산동, 현대아파트)",
    "lat": 37.345183546885785,
    "lng": 127.96310280903393,
    "region": "강원특별자치도"
  },
  {
    "name": "봉산삼익아파트 지하주차장 1층",
    "address": "강원특별자치도 원주시 행구로 84(봉산동, 삼익아파트)",
    "lat": 37.34169344200114,
    "lng": 127.96627923166596,
    "region": "강원특별자치도"
  },
  {
    "name": "동신아파트 지하주차장 1층",
    "address": "강원특별자치도 원주시 행구로 102(봉산동, 동신아파트)",
    "lat": 37.34147186895094,
    "lng": 127.967813371206,
    "region": "강원특별자치도"
  },
  {
    "name": "건영아파트 지하주차장 1층",
    "address": "강원특별자치도 원주시 행구로 287 (행구동, 건영아파트)",
    "lat": 37.34306942198524,
    "lng": 127.9877582828269,
    "region": "강원특별자치도"
  },
  {
    "name": "무실주공4단지아파트 지하주차장 1층",
    "address": "강원특별자치도 원주시 시청로 88(무실동, 무실주공4단지아파트)",
    "lat": 37.33566352087251,
    "lng": 127.92679902836224,
    "region": "강원특별자치도"
  },
  {
    "name": "성일아파트 지하주차장 1층",
    "address": "강원특별자치도 원주시 단구로 418(단구동, 성일아파트)",
    "lat": 37.32125133322804,
    "lng": 127.95270179305558,
    "region": "강원특별자치도"
  },
  {
    "name": "원주시사회복지센터 지하주차장 1층",
    "address": "강원특별자치도 원주시 갈머리2길 31(학성동)",
    "lat": 37.353335319275935,
    "lng": 127.9445105319072,
    "region": "강원특별자치도"
  },
  {
    "name": "행구현대아파트 지하주차장 1층",
    "address": "강원특별자치도 원주시 행구로 216 (행구동, 현대아파트)",
    "lat": 37.34003986206478,
    "lng": 127.9791310272204,
    "region": "강원특별자치도"
  },
  {
    "name": "요진보네르카운티아파트 지하주차장 1층",
    "address": "강원특별자치도 원주시 시청로 64(무실동, 요진보네르카운티)",
    "lat": 37.33710088760239,
    "lng": 127.92545995843142,
    "region": "강원특별자치도"
  },
  {
    "name": "태장현대아파트 지하주차장 1층",
    "address": "강원특별자치도 원주시 현충로58번길 29 (태장동, 현대아파트)",
    "lat": 37.36214889127415,
    "lng": 127.9573611473784,
    "region": "강원특별자치도"
  },
  {
    "name": "동보렉스아파트 지하주차장 1층",
    "address": "강원특별자치도 원주시 치악로 2033 (태장동, 태장동보렉스아파트)",
    "lat": 37.3616322418549,
    "lng": 127.960367133009,
    "region": "강원특별자치도"
  },
  {
    "name": "성호아파트 지하주차장 1층",
    "address": "강원특별자치도 원주시 치악로 2047-0 (태장동, 성호아파트)",
    "lat": 37.3624725405746,
    "lng": 127.96124584611606,
    "region": "강원특별자치도"
  },
  {
    "name": "원동현진아파트 지하주차장 1층",
    "address": "강원특별자치도 원주시 무실로47번길 34 (원동, 원동현진아파트)",
    "lat": 37.34438128336953,
    "lng": 127.94704475490018,
    "region": "강원특별자치도"
  },
  {
    "name": "아포리배말타운아파트 지하주차장 1층",
    "address": "강원특별자치도 원주시 치악로 1883(봉산동, 아포리 배말타운)",
    "lat": 37.34934346787556,
    "lng": 127.95642599677988,
    "region": "강원특별자치도"
  },
  {
    "name": "삼천리3차아파트 지하주차장 2~3층",
    "address": "강원특별자치도 원주시 학성길 38(학성동, 삼천리3차아파트)",
    "lat": 37.35421911196804,
    "lng": 127.9379694551888,
    "region": "강원특별자치도"
  },
  {
    "name": "삼천리1차아파트 지하주차장 1층",
    "address": "강원특별자치도 원주시 학성길 46(학성동, 삼천리1차아파트)",
    "lat": 37.35356494546703,
    "lng": 127.93891628809344,
    "region": "강원특별자치도"
  },
  {
    "name": "청솔5차아파트 지하주차장 1~2층",
    "address": "강원특별자치도 원주시 시청로 524 (관설동, 원주단관청솔5차아파트)",
    "lat": 37.31441886670319,
    "lng": 127.9642549797838,
    "region": "강원특별자치도"
  },
  {
    "name": "코아루아파트 지하주차장 1층",
    "address": "강원특별자치도 원주시 시청로 496 (관설동, 단관코아루아파트)",
    "lat": 37.31449600131874,
    "lng": 127.96166997577753,
    "region": "강원특별자치도"
  },
  {
    "name": "문막현진아파트 지하주차장 1층",
    "address": "강원특별자치도 원주시 문막읍 왕건로 77(문막현진아파트)",
    "lat": 37.326353403448245,
    "lng": 127.82847949558304,
    "region": "강원특별자치도"
  },
  {
    "name": "한솔솔파크아파트 지하주차장 1~2층",
    "address": "강원특별자치도 원주시 한지공원길 102 (명륜동, 한솔솔파크)",
    "lat": 37.333516626136,
    "lng": 127.938611786022,
    "region": "강원특별자치도"
  },
  {
    "name": "원주시청사 지하 1~2층, 지하주차장 1층",
    "address": "강원특별자치도 원주시 시청로 1, 원주시청 (무실동)",
    "lat": 37.34161186843264,
    "lng": 127.92063493066482,
    "region": "강원특별자치도"
  },
  {
    "name": "현진에버빌5차아파트 지하주차장 1층",
    "address": "강원특별자치도 원주시 단구로 413(단구동, 현진에버빌5차)",
    "lat": 37.31985250145975,
    "lng": 127.95499943647472,
    "region": "강원특별자치도"
  },
  {
    "name": "현진에버빌6차아파트 지하주차장 1층",
    "address": "강원특별자치도 원주시 단구로 411 (단구동, 현진에버빌6차)",
    "lat": 37.31967060533379,
    "lng": 127.95712088119036,
    "region": "강원특별자치도"
  },
  {
    "name": "원주우체국 지하주차장 1~2층",
    "address": "강원특별자치도 원주시 서원대로 412 (단구동, 원주우체국)",
    "lat": 37.32904315784206,
    "lng": 127.95057683393352,
    "region": "강원특별자치도"
  },
  {
    "name": "단계이안1단지아파트 지하주차장 1층",
    "address": "강원특별자치도 원주시 모란1길 51 (단계동)",
    "lat": 37.36105178172573,
    "lng": 127.93453272372685,
    "region": "강원특별자치도"
  },
  {
    "name": "반곡아이파크아파트 지하주차장 1~2층",
    "address": "강원특별자치도 원주시 늘품로 199 (반곡동, 반곡아이파크아파트)",
    "lat": 37.33494044939149,
    "lng": 127.96307107559218,
    "region": "강원특별자치도"
  },
  {
    "name": "휴먼시아원주개운1단지아파트 지하주차장 1~2층",
    "address": "강원특별자치도 원주시 개운로 30 (개운동, 휴먼시아 원주개운1단지)",
    "lat": 37.33883027180992,
    "lng": 127.95448205127816,
    "region": "강원특별자치도"
  },
  {
    "name": "개운2~3단지LH아파트 지하주차장 1층",
    "address": "강원특별자치도 원주시 개운로 20 (개운동, 원주개운2단지엘에이치아파트)",
    "lat": 37.33870883440199,
    "lng": 127.95372902503526,
    "region": "강원특별자치도"
  },
  {
    "name": "시민문화센터 지하주차장 1~4층",
    "address": "강원특별자치도 원주시 원일로 139 (일산동, 시민문화센터)",
    "lat": 37.35146172121353,
    "lng": 127.9469498458913,
    "region": "강원특별자치도"
  },
  {
    "name": "무실주공8단지아파트 지하주차장 1층",
    "address": "강원특별자치도 원주시 무실로 300(무실동, 원주무실8단지엘에이치아파트)",
    "lat": 37.33529479274085,
    "lng": 127.93279255945536,
    "region": "강원특별자치도"
  },
  {
    "name": "한라비발디1차아파트 지하주차장 1층",
    "address": "강원특별자치도 원주시 모란1길 86 (우산동, 한라비발디)",
    "lat": 37.3623411660484,
    "lng": 127.93208202348578,
    "region": "강원특별자치도"
  },
  {
    "name": "신일유토빌아파트 지하주차장 1~2층",
    "address": "강원특별자치도 원주시 우산공단길 23 (우산동, 신일유토빌)",
    "lat": 37.37391614560273,
    "lng": 127.94033943192454,
    "region": "강원특별자치도"
  },
  {
    "name": "진로아파트 지하주차장 1층",
    "address": "강원특별자치도 원주시 남산로48번길 26 (원동, 원동진로아파트)",
    "lat": 37.34196239531991,
    "lng": 127.94721937997612,
    "region": "강원특별자치도"
  },
  {
    "name": "두산아파트 지하주차장 1~2층",
    "address": "강원특별자치도 원주시 남원로 496 (단구동, 두산아파트)",
    "lat": 37.32638277248808,
    "lng": 127.94820848998512,
    "region": "강원특별자치도"
  },
  {
    "name": "신성미소지움아파트 지하주차장 1층",
    "address": "강원특별자치도 원주시 나비허리길 57 (단구동, 단구신성미소지움)",
    "lat": 37.32403044460116,
    "lng": 127.95921062122248,
    "region": "강원특별자치도"
  },
  {
    "name": "한신휴플러스2차아파트 지하주차장 1~2층",
    "address": "강원특별자치도 원주시 서원대로 427 (단구동, 한신휴플러스2차아파트)",
    "lat": 37.32967466323246,
    "lng": 127.95238155020424,
    "region": "강원특별자치도"
  },
  {
    "name": "청솔6차아파트 지하주차장 1~2층",
    "address": "강원특별자치도 원주시 단관초교길 9 (관설동, 원주단관청솔6차아파트)",
    "lat": 37.31760956697534,
    "lng": 127.96501278061758,
    "region": "강원특별자치도"
  },
  {
    "name": "청솔8차아파트 지하주차장 1~2층",
    "address": "강원특별자치도 원주시 나비허리길 190 (관설동, 청솔8차아파트)",
    "lat": 37.31723430401601,
    "lng": 127.96653433054654,
    "region": "강원특별자치도"
  },
  {
    "name": "현진에버빌4차아파트 지하주차장 1층",
    "address": "강원특별자치도 원주시 시청로 494 (관설동, 현진에버빌4차아파트)",
    "lat": 37.31504710262653,
    "lng": 127.96196757576146,
    "region": "강원특별자치도"
  },
  {
    "name": "반곡벽산블루밍1차아파트 지하주차장 1~2층",
    "address": "강원특별자치도 원주시 반곡길 48 (반곡동, 반곡벽산블루밍1차아파트)",
    "lat": 37.33860459493497,
    "lng": 127.96547491060366,
    "region": "강원특별자치도"
  },
  {
    "name": "반곡벽산블루밍2차아파트 지하주차장 1~2층",
    "address": "강원특별자치도 원주시 반곡길 45 (반곡동, 반곡벽산블루밍2차아파트)",
    "lat": 37.33863164872137,
    "lng": 127.96663233913824,
    "region": "강원특별자치도"
  },
  {
    "name": "푸른숨LH3단지아파트 지하주차장 1층",
    "address": "강원특별자치도 원주시 배울로 50 (반곡동, 푸른숨엘에이치3단지)",
    "lat": 37.321287607078766,
    "lng": 127.97659691894944,
    "region": "강원특별자치도"
  },
  {
    "name": "푸른숨LH11단지아파트 지하주차장 1층",
    "address": "강원특별자치도 원주시 혁신로 400 (반곡동, 푸른숨엘에이치11단지)",
    "lat": 37.335697108411,
    "lng": 127.97561120403984,
    "region": "강원특별자치도"
  },
  {
    "name": "푸른숨휴브레스아파트 지하주차장 1층",
    "address": "강원특별자치도 원주시 혁신로 92 (반곡동, 푸른숨휴브레스)",
    "lat": 37.3221136830474,
    "lng": 127.98360932354414,
    "region": "강원특별자치도"
  },
  {
    "name": "문막극동스타클래스아파트 지하주차장 1층",
    "address": "강원특별자치도 원주시 문막읍 건등로 67(원주문막극동스타클래스)",
    "lat": 37.3154174868097,
    "lng": 127.8227050682328,
    "region": "강원특별자치도"
  },
  {
    "name": "성원아파트 지하주차장 1~2층",
    "address": "강원특별자치도 원주시 무실로 155 (명륜동, 성원아파트)",
    "lat": 37.34176934041803,
    "lng": 127.9413298904468,
    "region": "강원특별자치도"
  },
  {
    "name": "청솔2차아파트 지하주차장 1~2층",
    "address": "강원특별자치도 원주시 단구로 408 (단구동, 구곡청솔2차아파트)",
    "lat": 37.32132596143664,
    "lng": 127.95319160055604,
    "region": "강원특별자치도"
  },
  {
    "name": "개운1차한신휴플러스아파트 지하주차장 1층",
    "address": "강원특별자치도 원주시 서원대로 389 (개운동, 개운1차한신휴플러스아파트)",
    "lat": 37.33262066960694,
    "lng": 127.9500855955131,
    "region": "강원특별자치도"
  },
  {
    "name": "힐스테이트아파트 지하주차장 1층",
    "address": "강원특별자치도 원주시 행구로 54 (개운동, 원주힐스테이트아파트)",
    "lat": 37.34137590522119,
    "lng": 127.96178657603662,
    "region": "강원특별자치도"
  },
  {
    "name": "연세대학교 원주의과대학 지하1층",
    "address": "강원특별자치도 원주시 일산로 20 (일산동, 연세대학교원주의과대학기독병원)",
    "lat": 37.34901691963336,
    "lng": 127.9468100297534,
    "region": "강원특별자치도"
  },
  {
    "name": "사랑으로부영아파트 지하주차장 1~2층",
    "address": "강원특별자치도 원주시 무실로 380(무실동, 사랑으로부영아파트)",
    "lat": 37.33093078597467,
    "lng": 127.92725851498682,
    "region": "강원특별자치도"
  },
  {
    "name": "우미린아파트 지하주차장 1~2층",
    "address": "강원특별자치도 원주시 무실로 455(무실동, 무실우미린)",
    "lat": 37.32629150351014,
    "lng": 127.93171139896232,
    "region": "강원특별자치도"
  },
  {
    "name": "한라비발디2차아파트 지하주차장 1~3층",
    "address": "강원특별자치도 원주시 봉화로 231 (우산동, 한라비발디2차아파트)",
    "lat": 37.3629605374391,
    "lng": 127.93070228209878,
    "region": "강원특별자치도"
  },
  {
    "name": "현진에버빌3차아파트 지하주차장1층",
    "address": "강원특별자치도 원주시 남원로 443 (명륜동)",
    "lat": 37.32628193482963,
    "lng": 127.9394580703513,
    "region": "강원특별자치도"
  },
  {
    "name": "구곡청구아파트 지하주차장1층",
    "address": "강원특별자치도 원주시 남원로 441 (명륜동, 구곡청구아파트)",
    "lat": 37.32559937104514,
    "lng": 127.94012421710714,
    "region": "강원특별자치도"
  },
  {
    "name": "동보노빌리티2차아파트 지하주차장1층",
    "address": "강원특별자치도 원주시 시청로 267 (명륜동, 동보노빌리티2아파트)",
    "lat": 37.32396154423915,
    "lng": 127.93884383813916,
    "region": "강원특별자치도"
  },
  {
    "name": "구곡동보렉스9차아파트 지하주차장 1층",
    "address": "강원특별자치도 원주시 남원로469번길 82 (명륜동, 구곡동보렉스9차아파트)",
    "lat": 37.32674328387436,
    "lng": 127.93739768784128,
    "region": "강원특별자치도"
  },
  {
    "name": "동보노빌리티1차아파트 지하주차장1층",
    "address": "강원특별자치도 원주시 시청로 255 (명륜동, 동보노빌리티-1)",
    "lat": 37.32421396704846,
    "lng": 127.93864821395915,
    "region": "강원특별자치도"
  },
  {
    "name": "단계이안2단지아파트 지하주차장 1층",
    "address": "강원특별자치도 원주시 모란1길 52(단계동, 단계 이안아파트)",
    "lat": 37.36130051314068,
    "lng": 127.93455956357776,
    "region": "강원특별자치도"
  },
  {
    "name": "봉화산e편한세상아파트 지하주차장 1층",
    "address": "강원특별자치도 원주시 봉화로 67 (단계동, 봉화산이-편한세상)",
    "lat": 37.35039562953632,
    "lng": 127.92769449900962,
    "region": "강원특별자치도"
  },
  {
    "name": "금강아미움아파트 지하주차장 1층",
    "address": "강원특별자치도 원주시 행구로 140 (행구동, 행구금강아미움아파트)",
    "lat": 37.34066053888186,
    "lng": 127.96937657346017,
    "region": "강원특별자치도"
  },
  {
    "name": "효성백년가약아파트 지하주차장 1층",
    "address": "강원특별자치도 원주시 번재길 32 (행구동, 효성백년가약)",
    "lat": 37.34463651769336,
    "lng": 127.97261405173424,
    "region": "강원특별자치도"
  },
  {
    "name": "문막신원아침도시아파트 지하주차장 1층",
    "address": "강원특별자치도 원주시 문막읍 왕건로 20(원주문막신원아침도시)",
    "lat": 37.32223480117702,
    "lng": 127.83172891883908,
    "region": "강원특별자치도"
  },
  {
    "name": "무실6단지휴먼시아아파트 지하주차장 1층",
    "address": "강원특별자치도 원주시 만대로 119, 원주무실6단지휴먼시아 (무실동)",
    "lat": 37.33716701735954,
    "lng": 127.91974870325478,
    "region": "강원특별자치도"
  },
  {
    "name": "중흥s클래스프라디움아파트 지하주차장 1~2층",
    "address": "강원특별자치도 원주시 배울로 24 (반곡동, 중흥S클래스프라디움아파트)",
    "lat": 37.31972352233839,
    "lng": 127.97521229315414,
    "region": "강원특별자치도"
  },
  {
    "name": "모아엘가에듀퍼스트아파트 지하주차장 1층",
    "address": "강원특별자치도 원주시 세계로 111 (반곡동, 모아엘가아파트)",
    "lat": 37.33251191710234,
    "lng": 127.9915027029387,
    "region": "강원특별자치도"
  },
  {
    "name": "개운현대아파트 지하주차장 1~3층",
    "address": "강원특별자치도 원주시 남원로606번길 2 (개운동, 개운현대아파트)",
    "lat": 37.33715178105286,
    "lng": 127.95149126577292,
    "region": "강원특별자치도"
  },
  {
    "name": "세영리첼2차아파트 지하주차장 1~2층",
    "address": "강원특별자치도 원주시 무실로 415(무실동, 세영리첼2차아파트)",
    "lat": 37.32855288603863,
    "lng": 127.92950980491428,
    "region": "강원특별자치도"
  },
  {
    "name": "무실e편한세상아파트 지하주차장 1~2층",
    "address": "강원특별자치도 원주시 만대로 89(무실동, 무실 이-편한세상)",
    "lat": 37.33773033189563,
    "lng": 127.91981655572842,
    "region": "강원특별자치도"
  },
  {
    "name": "롯데캐슬더퍼스트2차아파트 지하주차장 2~3층",
    "address": "강원특별자치도 원주시 지정면 가곡로 70 (원주 롯데캐슬 더퍼스트 2차)",
    "lat": 37.3780888433619,
    "lng": 127.8759549210754,
    "region": "강원특별자치도"
  },
  {
    "name": "유보라아이비파크2단지아파트 지하주차장 1~2층",
    "address": "강원특별자치도 원주시 지정면 조엄로 397 (원주기업도시 유보라 아이비파크 2단지)",
    "lat": 37.37527609267748,
    "lng": 127.86887418450668,
    "region": "강원특별자치도"
  },
  {
    "name": "유승한내들아파트 지하주차장 1층",
    "address": "강원특별자치도 원주시 강변로 119 (단구동, 유승아파트)",
    "lat": 37.319679045183946,
    "lng": 127.96837314212868,
    "region": "강원특별자치도"
  },
  {
    "name": "더샵원주센트럴파크2단지아파트 지하주차장 1층",
    "address": "강원특별자치도 원주시 서원대로 290 (명륜동, 더샵원주센트럴파크2단지)",
    "lat": 37.337526354303,
    "lng": 127.940210900435,
    "region": "강원특별자치도"
  },
  {
    "name": "더샵원주센트럴파크3단지아파트 지하주차장 1~3층",
    "address": "강원특별자치도 원주시 한지공원길 25-2 (명륜동, 더샵 원주센트럴파크 3단지)",
    "lat": 37.330192241126,
    "lng": 127.942559281928,
    "region": "강원특별자치도"
  },
  {
    "name": "119 환동해특수재난대응단 지하훈련장 1층",
    "address": "강원특별자치도 강릉시 용지로 139, 강릉소방서 (옥천동)",
    "lat": 37.76125394117146,
    "lng": 128.90240679096485,
    "region": "강원특별자치도"
  },
  {
    "name": "강릉 의료원 지하 1층",
    "address": "강원특별자치도 강릉시 경강로 2007 (남문동, 강릉의료원)",
    "lat": 37.74913854097389,
    "lng": 128.8894222454919,
    "region": "강원특별자치도"
  },
  {
    "name": "우리 약국 지하주차장 1층",
    "address": "강원특별자치도 강릉시 주문진읍 주문로 97",
    "lat": 37.8925900135637,
    "lng": 128.8266223577568,
    "region": "강원특별자치도"
  },
  {
    "name": "삼우골든맨션 지하주차장 1층",
    "address": "강원특별자치도 강릉시 용지각길20번길 8 (포남동, 삼우골든맨션아파트)",
    "lat": 37.76110326779996,
    "lng": 128.90625590631333,
    "region": "강원특별자치도"
  },
  {
    "name": "대림맨션 아파트 지하주차장 1층",
    "address": "강원특별자치도 강릉시 남강초교2길 44 (송정동, 대림맨션아파트)",
    "lat": 37.76947953256278,
    "lng": 128.92029674308452,
    "region": "강원특별자치도"
  },
  {
    "name": "현대1차 아파트 지하주차장 1층",
    "address": "강원특별자치도 강릉시 옛강일길 41, 지하주차장층 (교동, 현대아파트)",
    "lat": 37.7642025660297,
    "lng": 128.88916545132355,
    "region": "강원특별자치도"
  },
  {
    "name": "삼우은성맨션 지하주차장 1층",
    "address": "강원특별자치도 강릉시 남강초교1길 55 (송정동, 삼우은성맨션아파트)",
    "lat": 37.77001698071059,
    "lng": 128.9211109056294,
    "region": "강원특별자치도"
  },
  {
    "name": "노암 현대 아파트 지하주차장 1층",
    "address": "강원특별자치도 강릉시 율곡로 2733, 지하주차장 1층 (노암동, 노암현대아파트)",
    "lat": 37.75096527881383,
    "lng": 128.90595328995968,
    "region": "강원특별자치도"
  },
  {
    "name": "입암 대인3차 아파트 지하주차장 1층",
    "address": "강원특별자치도 강릉시 강변로410번길 27, 지하주차장 1층 (입암동, 대인3차아파트)",
    "lat": 37.75647499797983,
    "lng": 128.91165169516378,
    "region": "강원특별자치도"
  },
  {
    "name": "남산삼익 아파트 지하주차장 1층",
    "address": "강원특별자치도 강릉시 남산초교길 43-6, 지하주차장1층 (내곡동, 남산삼익아파트)",
    "lat": 37.743571354642256,
    "lng": 128.89162911237636,
    "region": "강원특별자치도"
  },
  {
    "name": "동방타워맨션 지하주차장 1층",
    "address": "강원특별자치도 강릉시 주문진읍 매맥이아랫길 24 (동방타워맨션)",
    "lat": 37.87575276999632,
    "lng": 128.8269570629011,
    "region": "강원특별자치도"
  },
  {
    "name": "정아새솔아파트 지하주차장 1층",
    "address": "강원특별자치도 강릉시 강릉대로469번길 22 (포남동, 정아새솔아파트)",
    "lat": 37.77626841162953,
    "lng": 128.91236378307207,
    "region": "강원특별자치도"
  },
  {
    "name": "녹원 아파트 지하주차장 1층",
    "address": "강원특별자치도 강릉시 월대산로 57, 지하주차장 1층 (입암동, 녹원아파트)",
    "lat": 37.76015955291294,
    "lng": 128.9167212725138,
    "region": "강원특별자치도"
  },
  {
    "name": "정우2차 아파트 지하주차장 1층",
    "address": "강원특별자치도 강릉시 주문진읍 연주로 291-6 (정우2차아파트)",
    "lat": 37.87837104443311,
    "lng": 128.8267039022754,
    "region": "강원특별자치도"
  },
  {
    "name": "세화상가 아파트 지하주차장 1층",
    "address": "강원특별자치도 강릉시 경강로2223번길 15 (포남동, 세화상가아파트)",
    "lat": 37.76371429179096,
    "lng": 128.9050380427546,
    "region": "강원특별자치도"
  },
  {
    "name": "청송 아파트 지하주차장 1층",
    "address": "강원특별자치도 강릉시 하평길 37-0 (포남동)",
    "lat": 37.770481070685456,
    "lng": 128.9129286390425,
    "region": "강원특별자치도"
  },
  {
    "name": "노암한라1차 아파트 지하주차장 1층",
    "address": "강원특별자치도 강릉시 노암길42번길 28, 지하주차장 1층 (노암동, 노암한라1차아파트)",
    "lat": 37.745405910386026,
    "lng": 128.90252411684142,
    "region": "강원특별자치도"
  },
  {
    "name": "시외버스터미널 지하 1층",
    "address": "강원특별자치도 강릉시 하슬라로 27, 강릉시외버스터미널 지하1층 (홍제동)",
    "lat": 37.75491402392158,
    "lng": 128.87881607978412,
    "region": "강원특별자치도"
  },
  {
    "name": "일송 아파트 지하주차장 1층",
    "address": "강원특별자치도 강릉시 하평3길 37 (포남동, 일송아파트)",
    "lat": 37.77219759039006,
    "lng": 128.9149985932095,
    "region": "강원특별자치도"
  },
  {
    "name": "대인4차 아파트 지하주차장 1층",
    "address": "강원특별자치도 강릉시 강릉대로469번길 14(포남동, 대인4차아파트)",
    "lat": 37.775827378999146,
    "lng": 128.91314256939856,
    "region": "강원특별자치도"
  },
  {
    "name": "고합로얄아파트 지하주차장 1층",
    "address": "강원특별자치도 강릉시 남부로125번길 23, 지하주차장 1층 (노암동, 고합노암아파트)",
    "lat": 37.74381367979398,
    "lng": 128.89282695694854,
    "region": "강원특별자치도"
  },
  {
    "name": "송정한신휴플러스 지하주차장 1층",
    "address": "강원특별자치도 강릉시 경강로2539번길 8 (견소동, 송정한신아파트)",
    "lat": 37.77462890606965,
    "lng": 128.937611566469,
    "region": "강원특별자치도"
  },
  {
    "name": "입암현대 아파트 지하주차장 1,2층",
    "address": "강원특별자치도 강릉시 용지로 19 (입암동, 입암현대아파트)",
    "lat": 37.753539725253965,
    "lng": 128.91187369071696,
    "region": "강원특별자치도"
  },
  {
    "name": "입암6주공 아파트 지하주차장 1층",
    "address": "강원특별자치도 강릉시 성덕포남로 39 (입암동, 입암6주공아파트)",
    "lat": 37.75856181938948,
    "lng": 128.91991264450365,
    "region": "강원특별자치도"
  },
  {
    "name": "태평양 아파트 지하주차장 1층",
    "address": "강원특별자치도 강릉시 강변로410번길 31-5 (입암동, 태평양아파트)",
    "lat": 37.75604986429826,
    "lng": 128.91206910257634,
    "region": "강원특별자치도"
  },
  {
    "name": "중앙시장 지하 1층 수산물시장",
    "address": "강원특별자치도 강릉시 금성로 21 (성남동, 중앙시장)",
    "lat": 37.75399921970606,
    "lng": 128.89822400598874,
    "region": "강원특별자치도"
  },
  {
    "name": "서부시장 지하 1층 상가",
    "address": "강원특별자치도 강릉시 임영로155번길 6 (용강동, 서부시장)",
    "lat": 37.75508619427297,
    "lng": 128.8911500088525,
    "region": "강원특별자치도"
  },
  {
    "name": "내곡현대 아파트 지하주차장 1층",
    "address": "강원특별자치도 강릉시 범일로 645, 지하주차장1층 (내곡동, 내곡동 현대아파트)",
    "lat": 37.74444443529735,
    "lng": 128.88316485168153,
    "region": "강원특별자치도"
  },
  {
    "name": "내곡한라 아파트 지하주차장 1층",
    "address": "강원특별자치도 강릉시 강변로 114, 지하주차장 1층 (내곡동, 한라아파트)",
    "lat": 37.744883538315,
    "lng": 128.88147815543496,
    "region": "강원특별자치도"
  },
  {
    "name": "남산현대 아파트 지하주차장 1,2층",
    "address": "강원특별자치도 강릉시 남부로125번길 11, 지하주차장 1~2층 (노암동, 남산현대아파트)",
    "lat": 37.74290029576328,
    "lng": 128.89343646899206,
    "region": "강원특별자치도"
  },
  {
    "name": "신화 아파트 지하주차장 1층",
    "address": "강원특별자치도 강릉시 강변로 270, 지하주차장 1층 (노암동, 신화아파트)",
    "lat": 37.7492934168783,
    "lng": 128.89810483768449,
    "region": "강원특별자치도"
  },
  {
    "name": "덕원 아파트 지하주차장 1층",
    "address": "강원특별자치도 강릉시 죽헌길85번길 25, 지하주차장1층 (지변동, 덕원아파트)",
    "lat": 37.77830327481492,
    "lng": 128.87301676545812,
    "region": "강원특별자치도"
  },
  {
    "name": "부영1차 아파트 지하주차장 1층",
    "address": "강원특별자치도 강릉시 정원로 53-4, 지하주차장층 (교동, 부영아파트)",
    "lat": 37.761926853372096,
    "lng": 128.8755343309832,
    "region": "강원특별자치도"
  },
  {
    "name": "현대2차 아파트 지하주차장 1층",
    "address": "강원특별자치도 강릉시 교동광장로 138-13, 교동 2차 현대아파트 지하주차장층 (교동)",
    "lat": 37.76305821694503,
    "lng": 128.8798325528998,
    "region": "강원특별자치도"
  },
  {
    "name": "교동한신 아파트 지하주차장 1층",
    "address": "강원특별자치도 강릉시 명륜로 95-7 (교동, 교동한신아파트)",
    "lat": 37.768117233805086,
    "lng": 128.8997398723782,
    "region": "강원특별자치도"
  },
  {
    "name": "교동대림 아파트 지하주차장 1층",
    "address": "강원특별자치도 강릉시 수리골길17번길 21 (교동, 교동대림아파트)",
    "lat": 37.77211495558436,
    "lng": 128.89796466478384,
    "region": "강원특별자치도"
  },
  {
    "name": "예성 그린 2차아파트 지하주차장 1층",
    "address": "강원특별자치도 강릉시 명륜로 95-8 (교동, 예성그린2차아파트)",
    "lat": 37.76820313453487,
    "lng": 128.90025765307888,
    "region": "강원특별자치도"
  },
  {
    "name": "강릉시청 지하 1층",
    "address": "강원특별자치도 강릉시 강릉대로 33, 강릉시청 지하층 (홍제동)",
    "lat": 37.751782158116384,
    "lng": 128.8778913987208,
    "region": "강원특별자치도"
  },
  {
    "name": "교1동 주공1차아파트 지하주차장 1층",
    "address": "강원특별자치도 강릉시 가작로 78, 지하주차장층 (교동, 강릉 교동(1)주공아파트)",
    "lat": 37.76848275496816,
    "lng": 128.88447989640417,
    "region": "강원특별자치도"
  },
  {
    "name": "강원식자재마트 주문진점 지하주차장 1층",
    "address": "강원특별자치도 강릉시 주문진읍 시장길 28",
    "lat": 37.89016675726669,
    "lng": 128.8272712912706,
    "region": "강원특별자치도"
  },
  {
    "name": "부영2차 아파트 지하주차장 1층",
    "address": "강원특별자치도 강릉시 가작로 71, 지하주차장층 (교동, 부영아파트)",
    "lat": 37.76884157737051,
    "lng": 128.88375441494568,
    "region": "강원특별자치도"
  },
  {
    "name": "하이빌현대 아파트 지하주차장 1층",
    "address": "강원특별자치도 강릉시 원대로128번길 14, 지하주차장층 (교동, 현대 하이빌 아파트)",
    "lat": 37.76582346849136,
    "lng": 128.88432476705205,
    "region": "강원특별자치도"
  },
  {
    "name": "부영5차 아파트 지하주차장 1층",
    "address": "강원특별자치도 강릉시 교동광장로 163, 1층 (교동, 부영아파트)",
    "lat": 37.76357640024502,
    "lng": 128.88272594138255,
    "region": "강원특별자치도"
  },
  {
    "name": "유화 3차 아파트 지하주차장 1층",
    "address": "강원특별자치도 강릉시 연당길 82 (초당동, 초당유화3차아파트)",
    "lat": 37.78488735510339,
    "lng": 128.91474264698763,
    "region": "강원특별자치도"
  },
  {
    "name": "우성 아파트 지하주차장 1,2층",
    "address": "강원특별자치도 강릉시 연당길 67-15 (초당동, 초당우성아파트)",
    "lat": 37.78335776645421,
    "lng": 128.9140840722267,
    "region": "강원특별자치도"
  },
  {
    "name": "초당 현대 아파트 지하주차장 1층",
    "address": "강원특별자치도 강릉시 초당원길 26-2 (초당동, 초당현대아파트)",
    "lat": 37.78422963668361,
    "lng": 128.91710823166505,
    "region": "강원특별자치도"
  },
  {
    "name": "부영6차 아파트 지하주차장 1층",
    "address": "강원특별자치도 강릉시 정원로 53-5, 지하주차장층 (교동, 부영아파트)",
    "lat": 37.76167893939565,
    "lng": 128.87577317406783,
    "region": "강원특별자치도"
  },
  {
    "name": "부영3차 아파트 지하주차장 1층",
    "address": "강원특별자치도 강릉시 하슬라로 124, 지하주차장층 (교동, 부영3차아파트)",
    "lat": 37.76085719892559,
    "lng": 128.8742846136673,
    "region": "강원특별자치도"
  },
  {
    "name": "미라보 아파트 지하주차장 1층",
    "address": "강원특별자치도 강릉시 명륜로 124 (포남동, 미라보아파트)",
    "lat": 37.76919865499696,
    "lng": 128.90286826880632,
    "region": "강원특별자치도"
  },
  {
    "name": "홈플러스 지하주차장 1~5층",
    "address": "강원특별자치도 강릉시 경강로 2120 (옥천동, 씨네몰)",
    "lat": 37.7557993643243,
    "lng": 128.8991217952872,
    "region": "강원특별자치도"
  },
  {
    "name": "홍제 힐스테이트 아파트 지하주차장 1층",
    "address": "강원특별자치도 강릉시 토성로 39, 지하주차장1층 (홍제동, 홍제 힐스테이트아파트)",
    "lat": 37.750357357641086,
    "lng": 128.88222366958664,
    "region": "강원특별자치도"
  },
  {
    "name": "이편한세상아파트 지하주차장 1층",
    "address": "강원특별자치도 강릉시 종합운동장길 92 (교동, 교동 이편한세상아파트)",
    "lat": 37.77094877994596,
    "lng": 128.8965509146319,
    "region": "강원특별자치도"
  },
  {
    "name": "롯데캐슬 1단지 아파트 지하주차장 1층",
    "address": "강원특별자치도 강릉시 화부산로99번길 12, 지하주차장층 (교동, 강릉 교동 롯데캐슬 1단지)",
    "lat": 37.7656270842135,
    "lng": 128.88844430191716,
    "region": "강원특별자치도"
  },
  {
    "name": "롯데캐슬 2단지 아파트 지하주차장 1층",
    "address": "강원특별자치도 강릉시 화부산로111번길 24, 지하주차장층 (교동, 강릉 교동 롯데캐슬 2단지)",
    "lat": 37.76692535781004,
    "lng": 128.88911499242732,
    "region": "강원특별자치도"
  },
  {
    "name": "극동 아파트 지하 1층",
    "address": "강원특별자치도 강릉시 주문진읍 웃사다리4길 20 (극동아파트)",
    "lat": 37.88793081615415,
    "lng": 128.82168379881685,
    "region": "강원특별자치도"
  },
  {
    "name": "동명 아파트 지하주차장 1층",
    "address": "강원특별자치도 강릉시 주문진읍 학교1길 9 (동명아파트)",
    "lat": 37.88223488262473,
    "lng": 128.82941803183377,
    "region": "강원특별자치도"
  },
  {
    "name": "우신 그린피아아파트 지하주차장 1층",
    "address": "강원특별자치도 강릉시 주문진읍 보리골길 26 (우신그린피아아파트)",
    "lat": 37.87255216139284,
    "lng": 128.82554214592173,
    "region": "강원특별자치도"
  },
  {
    "name": "우산 아파트 지하주차장 1층",
    "address": "강원특별자치도 강릉시 토성로 51, 지하주차장1층 (홍제동, 홍제동 우산아파트)",
    "lat": 37.75074775441681,
    "lng": 128.88342403524106,
    "region": "강원특별자치도"
  },
  {
    "name": "푸르지오 아파트 지하주차장 1층",
    "address": "강원특별자치도 강릉시 홍제로71번길 1, 지하주차장1층 (홍제동, 홍제푸르지오)",
    "lat": 37.75382612873248,
    "lng": 128.88412793460446,
    "region": "강원특별자치도"
  },
  {
    "name": "양우내안애 아파트 지하주차장 1층",
    "address": "강원특별자치도 강릉시 강변로 328-8, 지하주차장 1층 (노암동, 양우내안애아파트)",
    "lat": 37.75211184707782,
    "lng": 128.90402452725334,
    "region": "강원특별자치도"
  },
  {
    "name": "포남 엘에이치 1단지 아파트 지하주차장 1층",
    "address": "강원특별자치도 강릉시 경강로2301번길 6 (포남동)",
    "lat": 37.76795998036115,
    "lng": 128.9128361189083,
    "region": "강원특별자치도"
  },
  {
    "name": "강릉 교회 지하 1층",
    "address": "강원특별자치도 강릉시 해안로 333 (강문동)",
    "lat": 37.79390389034266,
    "lng": 128.91661734244258,
    "region": "강원특별자치도"
  },
  {
    "name": "강릉 우체국 지하주차장 1층",
    "address": "강원특별자치도 강릉시 강릉대로 326 (포남동, 강릉우체국)",
    "lat": 37.76503580619409,
    "lng": 128.90356068158516,
    "region": "강원특별자치도"
  },
  {
    "name": "우미린 아파트 지하주차장 1층",
    "address": "강원특별자치도 강릉시 선수촌로 55, 107동 지하주차장 1층 (홍제동, 우미린아파트)",
    "lat": 37.75601169247858,
    "lng": 128.86999748211122,
    "region": "강원특별자치도"
  },
  {
    "name": "LH미디어촌5단지 지하주차장 1층",
    "address": "강원특별자치도 강릉시 선수촌로 11, 지하주차장1층 (홍제동, 엘에이치미디어촌5단지)",
    "lat": 37.75380327625074,
    "lng": 128.86661290028334,
    "region": "강원특별자치도"
  },
  {
    "name": "LH미디어촌6단지 지하주차장 1층",
    "address": "강원특별자치도 강릉시 선수촌로 10, 지하주차장1층 (홍제동, LH미디어촌6단지아파트)",
    "lat": 37.75359400320162,
    "lng": 128.86633231507727,
    "region": "강원특별자치도"
  },
  {
    "name": "LH미디어촌7단지 지하주차장 1층",
    "address": "강원특별자치도 강릉시 선수촌로 36, 지하주차장1층 (홍제동, 엘에이치미디어촌7단지)",
    "lat": 37.7543513049218,
    "lng": 128.86912226594737,
    "region": "강원특별자치도"
  },
  {
    "name": "LH선수촌8단지 지하주차장 1층",
    "address": "강원특별자치도 강릉시 선수촌로 113, 지하주차장1층 (유천동, 엘에이치선수촌8단지)",
    "lat": 37.76113833243448,
    "lng": 128.87003229492325,
    "region": "강원특별자치도"
  },
  {
    "name": "라일플로리스4차 지하주차장 1층",
    "address": "강원특별자치도 강릉시 주문진읍 오리나루2길 25, 지하주차장1층 (주문진 라일플로리스4차)",
    "lat": 37.90011685008129,
    "lng": 128.83160563335326,
    "region": "강원특별자치도"
  },
  {
    "name": "컨피네스오션스위트 지하주차장 1층",
    "address": "강원특별자치도 강릉시 사천면 진리항구2길 5, 지하주차장1층",
    "lat": 37.83655567514042,
    "lng": 128.87479094308355,
    "region": "강원특별자치도"
  },
  {
    "name": "연곡부영2단지아파트 지하주차장 1층",
    "address": "강원특별자치도 강릉시 연곡면 영진3길 43, 지하주차장1층 (부영사랑으로 아파트)",
    "lat": 37.86924342474303,
    "lng": 128.84247971042169,
    "region": "강원특별자치도"
  },
  {
    "name": "경포대신도브래뉴로얄카운티 지하주차장 1층",
    "address": "강원특별자치도 강릉시 해안로 93-8, 지하주차장 1층 (송정동, 경포대신도브래뉴로얄카운티아파트)",
    "lat": 37.77825534877674,
    "lng": 128.93473856047586,
    "region": "강원특별자치도"
  },
  {
    "name": "송정한신더휴 지하주차장 1층",
    "address": "강원특별자치도 강릉시 경강로 2448, 지하주차장 1층 (송정동, 강릉송정 한신더휴)",
    "lat": 37.77371415834024,
    "lng": 128.92714260957482,
    "region": "강원특별자치도"
  },
  {
    "name": "강릉아이파크 지하주차장 1층",
    "address": "강원특별자치도 강릉시 경강로 2511, 지하주차장 1층 (송정동, 강릉아이파크)",
    "lat": 37.77443551179881,
    "lng": 128.93412082841937,
    "region": "강원특별자치도"
  },
  {
    "name": "서희스타힐스리버파크 지하주차장 1층",
    "address": "강원특별자치도 강릉시 회산로 344, 지하주차장 1층 (회산동, 강릉서희스타힐스리버파크)",
    "lat": 37.739325880541855,
    "lng": 128.86596052256306,
    "region": "강원특별자치도"
  },
  {
    "name": "입암금호어울림 지하주차장 1층",
    "address": "강원특별자치도 강릉시 성덕로 328-15, 지하주차장 1층 (입암동, 강릉입암동금호어울림아파트)",
    "lat": 37.754230061152015,
    "lng": 128.91987744853353,
    "region": "강원특별자치도"
  },
  {
    "name": "동해시청 본관 지하대피소 1층",
    "address": "강원특별자치도 동해시 천곡로 77 (천곡동)",
    "lat": 37.52409652302159,
    "lng": 129.11514800224955,
    "region": "강원특별자치도"
  },
  {
    "name": "북평동행정복지센터 옆 지하1층 방공호",
    "address": "강원특별자치도 동해시 대동로 137 (북평동)",
    "lat": 37.48389353032146,
    "lng": 129.12540249381263,
    "region": "강원특별자치도"
  },
  {
    "name": "KT동해지점 지하주차장 1층",
    "address": "강원특별자치도 동해시 발한로 42 (부곡동)",
    "lat": 37.53654595160608,
    "lng": 129.10340658077337,
    "region": "강원특별자치도"
  },
  {
    "name": "동해동인병원 지하 1층",
    "address": "강원특별자치도 동해시 하평로 26 (평릉동)",
    "lat": 37.5303876472416,
    "lng": 129.10767709407767,
    "region": "강원특별자치도"
  },
  {
    "name": "동해병원 지하 1층",
    "address": "강원특별자치도 동해시 하평로 11 (평릉동, 근로복지공단동해병원)",
    "lat": 37.531218112777786,
    "lng": 129.10620900658503,
    "region": "강원특별자치도"
  },
  {
    "name": "동해해양경찰서 지하1층 회의실",
    "address": "강원특별자치도 동해시 임항로 29 (부곡동)",
    "lat": 37.53878901574474,
    "lng": 129.1053458318115,
    "region": "강원특별자치도"
  },
  {
    "name": "동해농협 지하1층",
    "address": "강원특별자치도 동해시 대동로 121 (북평동, 동해농협)",
    "lat": 37.48271189059735,
    "lng": 129.12657230143896,
    "region": "강원특별자치도"
  },
  {
    "name": "KB국민은행  지하주차장 1층",
    "address": "강원특별자치도 동해시 중앙로 250 (천곡동)",
    "lat": 37.52294527684631,
    "lng": 129.1141697266674,
    "region": "강원특별자치도"
  },
  {
    "name": "도노호텔 지하주차장 1층",
    "address": "강원특별자치도 동해시 중앙로 210-1 (천곡동)",
    "lat": 37.51982051140431,
    "lng": 129.11607005708447,
    "region": "강원특별자치도"
  },
  {
    "name": "대동아파트 지하주차장 1층",
    "address": "강원특별자치도 동해시 청운1길 29 (동회동)",
    "lat": 37.48625611753932,
    "lng": 129.10651839166275,
    "region": "강원특별자치도"
  },
  {
    "name": "동회동현대코아루아파트 지하주차장 1층",
    "address": "강원특별자치도 동해시 청운1길 29 (동회동, 대동,현대아파트)",
    "lat": 37.48625611753932,
    "lng": 129.10651839166275,
    "region": "강원특별자치도"
  },
  {
    "name": "유존아파트 지하주차장 1층",
    "address": "강원특별자치도 동해시 부곡2길 26 (부곡동)",
    "lat": 37.53791498730666,
    "lng": 129.10610056017063,
    "region": "강원특별자치도"
  },
  {
    "name": "유공타워빌딩 지하주차장 1층",
    "address": "강원특별자치도 동해시 천곡1길 3 (천곡동)",
    "lat": 37.524322641843234,
    "lng": 129.11299575742768,
    "region": "강원특별자치도"
  },
  {
    "name": "북평동행정복지센터 지하1층",
    "address": "강원특별자치도 동해시 대동로 137 (북평동)",
    "lat": 37.48389353032146,
    "lng": 129.12540249381263,
    "region": "강원특별자치도"
  },
  {
    "name": "범주성지2차아파트 지하1층 주차장",
    "address": "강원특별자치도 동해시 초원2길 5 (용정동)",
    "lat": 37.51212965946556,
    "lng": 129.12430223833815,
    "region": "강원특별자치도"
  },
  {
    "name": "승우4차아파트 지하주차장 1~2층",
    "address": "강원특별자치도 동해시 임항로 36 (부곡동)",
    "lat": 37.53832663798677,
    "lng": 129.10603582705986,
    "region": "강원특별자치도"
  },
  {
    "name": "일정아파트 지하1층",
    "address": "강원특별자치도 동해시 해안로 449 (부곡동)",
    "lat": 37.54061254808539,
    "lng": 129.10918560056493,
    "region": "강원특별자치도"
  },
  {
    "name": "승우2차아파트 지하1층",
    "address": "강원특별자치도 동해시 부곡2길 7 (부곡동, 승우2차아파트)",
    "lat": 37.53650373387881,
    "lng": 129.10530916160317,
    "region": "강원특별자치도"
  },
  {
    "name": "삼정2차아파트 지하주차장 1층",
    "address": "강원특별자치도 동해시 임항로 55 (부곡동)",
    "lat": 37.53899865064635,
    "lng": 129.108078504629,
    "region": "강원특별자치도"
  },
  {
    "name": "선샤인파크아파트 지하주차장 1~3층",
    "address": "강원특별자치도 동해시 임항로 10 (부곡동)",
    "lat": 37.53853465961174,
    "lng": 129.10302028719602,
    "region": "강원특별자치도"
  },
  {
    "name": "동해항운노조회관 지하1층 연회장",
    "address": "강원특별자치도 동해시 발한로 162 (발한동)",
    "lat": 37.546242125289645,
    "lng": 129.1045858086256,
    "region": "강원특별자치도"
  },
  {
    "name": "동진빌딩 지하주차장 1층",
    "address": "강원특별자치도 동해시 천곡로 86 (천곡동)",
    "lat": 37.523585881797295,
    "lng": 129.1146911522128,
    "region": "강원특별자치도"
  },
  {
    "name": "이도현대아파트 지하1층",
    "address": "강원특별자치도 동해시 이원길 180 (이도동)",
    "lat": 37.47934885230315,
    "lng": 129.11215801505298,
    "region": "강원특별자치도"
  },
  {
    "name": "유성타워 지하1층",
    "address": "강원특별자치도 동해시 구미택지1길 93 (구미동)",
    "lat": 37.4802920333696,
    "lng": 129.12808841841303,
    "region": "강원특별자치도"
  },
  {
    "name": "현진아파트 지하1층",
    "address": "강원특별자치도 동해시 구미4길 1 (구미동)",
    "lat": 37.48173702740776,
    "lng": 129.13053984999425,
    "region": "강원특별자치도"
  },
  {
    "name": "이도주공2차아파트 지하1층",
    "address": "강원특별자치도 동해시 이원길 180-2 (이도동)",
    "lat": 37.47839095289895,
    "lng": 129.11227628248747,
    "region": "강원특별자치도"
  },
  {
    "name": "발한삼성아파트 101~102동 지하주차장 1층",
    "address": "강원특별자치도 동해시 해안로 605, 지하층 (발한동, 발한삼성아파트)",
    "lat": 37.5538712401082,
    "lng": 129.10317636482753,
    "region": "강원특별자치도"
  },
  {
    "name": "근로자복지회관 지하 1층",
    "address": "강원특별자치도 동해시 동굴로 2 (천곡동)",
    "lat": 37.515072449854486,
    "lng": 129.10480310415574,
    "region": "강원특별자치도"
  },
  {
    "name": "삼본아파트 지하주차장 1층",
    "address": "강원특별자치도 동해시 해맞이길 231 (묵호진동, 삼본아파트)",
    "lat": 37.559078448383474,
    "lng": 129.1145390542328,
    "region": "강원특별자치도"
  },
  {
    "name": "대림아파트 지하 1층",
    "address": "강원특별자치도 동해시 관사길 6 (발한동)",
    "lat": 37.55005523436377,
    "lng": 129.1057251620975,
    "region": "강원특별자치도"
  },
  {
    "name": "쌍용삼화아파트 지하 1층",
    "address": "강원특별자치도 동해시 삼화로 48 (이로동)",
    "lat": 37.485761724124046,
    "lng": 129.06412010034197,
    "region": "강원특별자치도"
  },
  {
    "name": "대륜빌딩 지하주차장 1층",
    "address": "강원특별자치도 동해시 천곡로 86-2 (천곡동)",
    "lat": 37.522740827556206,
    "lng": 129.11515256053514,
    "region": "강원특별자치도"
  },
  {
    "name": "삼양골드3차 지하주차장 1층",
    "address": "강원특별자치도 동해시 중앙로 248 (천곡동, 삼양골드3차상가)",
    "lat": 37.52276726667041,
    "lng": 129.1143118471059,
    "region": "강원특별자치도"
  },
  {
    "name": "쌍용아파트 전체 동의 지하주차장 1층",
    "address": "강원특별자치도 동해시 동굴로 149 (천곡동)",
    "lat": 37.51956711260848,
    "lng": 129.1201702607824,
    "region": "강원특별자치도"
  },
  {
    "name": "센트로빌아파트 전체 동의 지하주차장 1층",
    "address": "강원특별자치도 동해시 한섬로 73 (천곡동)",
    "lat": 37.520210715259495,
    "lng": 129.111911386857,
    "region": "강원특별자치도"
  },
  {
    "name": "대창아파트 지하 1층",
    "address": "강원특별자치도 동해시 향로3길 43 (발한동)",
    "lat": 37.54455761884213,
    "lng": 129.10477404169814,
    "region": "강원특별자치도"
  },
  {
    "name": "동해쇄운부영아파트101~104동 지하주차장 1층",
    "address": "강원특별자치도 동해시 청운1길 30(쇄운동, 부영아파트)",
    "lat": 37.48597913704572,
    "lng": 129.1064718159328,
    "region": "강원특별자치도"
  },
  {
    "name": "동해쇄운부영아파트105~106동 지하주차장 1층",
    "address": "강원특별자치도 동해시 청운1길 30 (쇄운동, 부영아파트)",
    "lat": 37.48597913704572,
    "lng": 129.1064718159328,
    "region": "강원특별자치도"
  },
  {
    "name": "동해쇄운부영아파트 109동 지하주차장 1층",
    "address": "강원특별자치도 동해시 청운1길 30 (쇄운동, 부영아파트)",
    "lat": 37.48597913704572,
    "lng": 129.1064718159328,
    "region": "강원특별자치도"
  },
  {
    "name": "영동5차 연립주택 지하주차장 1층",
    "address": "강원특별자치도 동해시 가마골길 26-12 (부곡동, 영동5차연립주택)",
    "lat": 37.53664131971844,
    "lng": 129.1023908125608,
    "region": "강원특별자치도"
  },
  {
    "name": "송원빌딩 지하주차장 1층",
    "address": "강원특별자치도 동해시 한섬로 113-7 (천곡동)",
    "lat": 37.5222809202689,
    "lng": 129.11577662718057,
    "region": "강원특별자치도"
  },
  {
    "name": "엘리시아아파트 전체 동의 지하주차장 1층",
    "address": "강원특별자치도 동해시 평원로 107 (평릉동)",
    "lat": 37.53267408890719,
    "lng": 129.11281518203987,
    "region": "강원특별자치도"
  },
  {
    "name": "동해 하나리움아파트 전체 동의 지하주차장 1층",
    "address": "강원특별자치도 동해시 평원로 115 (평릉동)",
    "lat": 37.53333116899051,
    "lng": 129.11232313228442,
    "region": "강원특별자치도"
  },
  {
    "name": "동해해안사랑으로부영아파트 전체 동의 지하주차장 1층",
    "address": "강원특별자치도 동해시 평원로 110 (평릉동)",
    "lat": 37.532756824812594,
    "lng": 129.11309056006797,
    "region": "강원특별자치도"
  },
  {
    "name": "코아루디오션아파트 전체 동의 지하주차장 1층",
    "address": "강원특별자치도 동해시 평원로 100 (평릉동)",
    "lat": 37.532419304990405,
    "lng": 129.11575279436153,
    "region": "강원특별자치도"
  },
  {
    "name": "푸르지오아파트 전체 동의 지하주차장 1층",
    "address": "강원특별자치도 동해시 평릉1길 39 (평릉동)",
    "lat": 37.52905900395574,
    "lng": 129.09966286273476,
    "region": "강원특별자치도"
  },
  {
    "name": "금호어울림아파트 전체 동의 지하주차장 1층",
    "address": "강원특별자치도 동해시 평릉길 14 (천곡동)",
    "lat": 37.52761460196499,
    "lng": 129.1024100853616,
    "region": "강원특별자치도"
  },
  {
    "name": "묵호동행정복지센터 지하 1층",
    "address": "강원특별자치도 동해시 논골길 78, 묵호동행정복지센터 (묵호진동)",
    "lat": 37.55865131900261,
    "lng": 129.11409260932487,
    "region": "강원특별자치도"
  },
  {
    "name": "북삼2차 웰메이드타운 지하주차장 1층",
    "address": "강원특별자치도 동해시 효자로 636-2 (동회동, 북삼2차 웰메이드타운)",
    "lat": 37.490525008946605,
    "lng": 129.10471668137515,
    "region": "강원특별자치도"
  },
  {
    "name": "철암역 지하 1층",
    "address": "강원특별자치도 태백시 동태백로 389 (철암동, 철암역)",
    "lat": 37.11305781875119,
    "lng": 129.03668049807686,
    "region": "강원특별자치도"
  },
  {
    "name": "민방위교육관 지하 1층",
    "address": "강원특별자치도 태백시 태붐로 21 (황지동, 태백시청)",
    "lat": 37.16381750729912,
    "lng": 128.98694925043563,
    "region": "강원특별자치도"
  },
  {
    "name": "한국광해관리공단 강원지사 지하주차장 1층",
    "address": "강원특별자치도 태백시 황지로 68 (황지동, 광해방지사업단 강원지사)",
    "lat": 37.16481513291922,
    "lng": 128.99189462307731,
    "region": "강원특별자치도"
  },
  {
    "name": "태백산재병원 지하 1층",
    "address": "강원특별자치도 태백시 보드미길 8 (장성동, 근로복지공단태백병원)",
    "lat": 37.1039619142989,
    "lng": 129.00490572474337,
    "region": "강원특별자치도"
  },
  {
    "name": "태백우체국 지하주차장 1층",
    "address": "강원특별자치도 태백시 황지로 132 (황지동, 태백우체국)",
    "lat": 37.17055385982162,
    "lng": 128.9922237358042,
    "region": "강원특별자치도"
  },
  {
    "name": "홍익베스트빌 지하주차장 1층",
    "address": "강원특별자치도 태백시 하장성6길 42 (장성동, 홍익베스트빌아파트)",
    "lat": 37.09861828612719,
    "lng": 129.01758907457324,
    "region": "강원특별자치도"
  },
  {
    "name": "팔마아파트 지하주차장 1층",
    "address": "강원특별자치도 태백시 수아밭길 182 (화전동, 태백팔마아파트)",
    "lat": 37.18145309316205,
    "lng": 128.96921080457054,
    "region": "강원특별자치도"
  },
  {
    "name": "태백황지주공3단지아파트 지하 1층",
    "address": "강원특별자치도 태백시 고원로 279 (황지동, 태백황지주공3단지아파트)",
    "lat": 37.17626455195993,
    "lng": 128.98189176461094,
    "region": "강원특별자치도"
  },
  {
    "name": "선명2차아파트 지하주차장 1층",
    "address": "강원특별자치도 태백시 태백로 650 (화전동, 선명2차아파트)",
    "lat": 37.18221293893074,
    "lng": 128.96734531475676,
    "region": "강원특별자치도"
  },
  {
    "name": "유진1차 지하주차장 3층",
    "address": "강원특별자치도 태백시 고원로 61, 1층 101호 (황지동, 황지동유진아트빌)",
    "lat": 37.16071251948141,
    "lng": 128.9875625176984,
    "region": "강원특별자치도"
  },
  {
    "name": "유진2차 지하주차장 1층",
    "address": "강원특별자치도 태백시 번영로 156 (황지동, 유진2차아트빌)",
    "lat": 37.15756827281707,
    "lng": 128.98658740022287,
    "region": "강원특별자치도"
  },
  {
    "name": "대산아파트 지하주차장 1층",
    "address": "강원특별자치도 태백시 풀미당골길 35 (황지동, 대산하이츠빌아파트)",
    "lat": 37.17122740142722,
    "lng": 128.9948807063075,
    "region": "강원특별자치도"
  },
  {
    "name": "유브리안아파트 지하주차장 1층",
    "address": "강원특별자치도 태백시 태백로 1650 (문곡동, 유브리안아파트)",
    "lat": 37.120472081618246,
    "lng": 129.00330067446475,
    "region": "강원특별자치도"
  },
  {
    "name": "계산 지하 1층",
    "address": "강원특별자치도 태백시 계산1길 36 (장성동, 계산아파트)",
    "lat": 37.10920509861875,
    "lng": 129.00142711390333,
    "region": "강원특별자치도"
  },
  {
    "name": "한국산재의료원 강원케어센터 지하 1층",
    "address": "강원특별자치도 태백시 상철암길 10-31 (철암동, 강원케어센터)",
    "lat": 37.12398211371946,
    "lng": 129.04550010669485,
    "region": "강원특별자치도"
  },
  {
    "name": "선명5차아파트 지하주차장 1층",
    "address": "강원특별자치도 태백시 장수길 47 (황지동, 선명5차아파트)",
    "lat": 37.18047229587808,
    "lng": 128.98514698497303,
    "region": "강원특별자치도"
  },
  {
    "name": "선명빌라 지하주차장 1층",
    "address": "강원특별자치도 태백시 장수4길 13 (황지동, 선명연립주택)",
    "lat": 37.17986486580681,
    "lng": 128.98667426308185,
    "region": "강원특별자치도"
  },
  {
    "name": "예채아파트 101동~102동 지하주차장 1층",
    "address": "강원특별자치도 태백시 대학길 81-0 (황지동)",
    "lat": 37.159769371687744,
    "lng": 128.97737342410824,
    "region": "강원특별자치도"
  },
  {
    "name": "남청아파트 지하주차장 1층",
    "address": "강원특별자치도 태백시 황지남1길 17 (황지동, 태백남청아파트)",
    "lat": 37.16768707224895,
    "lng": 128.99388763111875,
    "region": "강원특별자치도"
  },
  {
    "name": "태백청소년수련관 지하 1층",
    "address": "강원특별자치도 태백시 천제단길 148 (소도동, 태백청소년수련관)",
    "lat": 37.12160371619167,
    "lng": 128.95174952691897,
    "region": "강원특별자치도"
  },
  {
    "name": "태백시청 지하 1층(식당)",
    "address": "강원특별자치도 태백시 태붐로 21 (황지동, 태백시청)",
    "lat": 37.16381750729912,
    "lng": 128.98694925043563,
    "region": "강원특별자치도"
  },
  {
    "name": "태백소방서 지하 1층 (식당)",
    "address": "강원특별자치도 태백시 태백로 1120, 태백소방서 (황지동)",
    "lat": 37.15829577638453,
    "lng": 128.98955518066973,
    "region": "강원특별자치도"
  },
  {
    "name": "예채아파트 103동~104동 지하주차장 1층",
    "address": "강원특별자치도 태백시 대학길 81, 1층 101호 (황지동, 이원예채)",
    "lat": 37.159769371687744,
    "lng": 128.97737342410824,
    "region": "강원특별자치도"
  },
  {
    "name": "유진3차아파트 지하 1층",
    "address": "강원특별자치도 태백시 번영로 150 (황지동, 유진3차 아트빌)",
    "lat": 37.15713543237746,
    "lng": 128.9870516074408,
    "region": "강원특별자치도"
  },
  {
    "name": "선명3차아파트 지하주차장 1층",
    "address": "강원특별자치도 태백시 대학길 44 (황지동, 선명3차아파트)",
    "lat": 37.15953722590133,
    "lng": 128.98173444611305,
    "region": "강원특별자치도"
  },
  {
    "name": "강원도 소방학교 지하1층",
    "address": "강원특별자치도 태백시 동태백로 289-48, 강원특별자치도 소방학교 (동점동)",
    "lat": 37.10405161182146,
    "lng": 129.04271001900452,
    "region": "강원특별자치도"
  },
  {
    "name": "아름다운나날아파트 101동 지하 1층",
    "address": "강원특별자치도 태백시 태백산로 5136, 1층 102호 (황지동, 영조아름다운나날)",
    "lat": 37.145379186029125,
    "lng": 128.9933466105129,
    "region": "강원특별자치도"
  },
  {
    "name": "아름다운나날아파트 102동 지하 1층",
    "address": "강원특별자치도 태백시 태백산로 5136 (황지동, 영조아름다운나날)",
    "lat": 37.145379186029125,
    "lng": 128.9933466105129,
    "region": "강원특별자치도"
  },
  {
    "name": "아름다운나날아파트 103동 지하1층",
    "address": "강원특별자치도 태백시 태백산로 5136, 1층 (황지동, 영조아름다운나날)",
    "lat": 37.145379186029125,
    "lng": 128.9933466105129,
    "region": "강원특별자치도"
  },
  {
    "name": "중앙하이츠빌 102동 지하주차장 1층",
    "address": "강원특별자치도 태백시 대학길 80-0, 1층 (황지동, 중앙하이츠)",
    "lat": 37.1605968387444,
    "lng": 128.9778916072534,
    "region": "강원특별자치도"
  },
  {
    "name": "중앙하이츠빌 106동 지하주차장 1층",
    "address": "강원특별자치도 태백시 대학길 80, 1층 (황지동, 중앙하이츠)",
    "lat": 37.1605968387444,
    "lng": 128.9778916072534,
    "region": "강원특별자치도"
  },
  {
    "name": "청솔아파트 101~102동 지하주차장 1층",
    "address": "강원특별자치도 태백시 청솔길 8 (황지동, 태백황지청솔아파트)",
    "lat": 37.161809783455006,
    "lng": 128.98323260474322,
    "region": "강원특별자치도"
  },
  {
    "name": "청솔아파트 104~105동 지하주차장 1층",
    "address": "강원특별자치도 태백시 청솔길 8 (황지동, 태백황지청솔아파트)",
    "lat": 37.161809783455006,
    "lng": 128.98323260474322,
    "region": "강원특별자치도"
  },
  {
    "name": "청솔아파트 103~106동 지하주차장 1층",
    "address": "강원특별자치도 태백시 청솔길 35 (황지동, 태백황지청솔아파트)",
    "lat": 37.16386924048479,
    "lng": 128.98286084370974,
    "region": "강원특별자치도"
  },
  {
    "name": "청솔아파트 107~108동 지하주차장 1층",
    "address": "강원특별자치도 태백시 청솔길 35 (황지동, 태백황지청솔아파트)",
    "lat": 37.16386924048479,
    "lng": 128.98286084370974,
    "region": "강원특별자치도"
  },
  {
    "name": "청솔아파트 109~110동 지하주차장1층",
    "address": "강원특별자치도 태백시 청솔길 35-0 (황지동, 태백황지청솔아파트)",
    "lat": 37.16386924048479,
    "lng": 128.98286084370974,
    "region": "강원특별자치도"
  },
  {
    "name": "청솔아파트 102동 지하주차장 1층",
    "address": "강원특별자치도 태백시 청솔길 8 (황지동, 태백황지청솔아파트)",
    "lat": 37.161809783455006,
    "lng": 128.98323260474322,
    "region": "강원특별자치도"
  },
  {
    "name": "타워빌아파트 지하주차장1층",
    "address": "강원특별자치도 태백시 장성1길 53-0 (장성동)",
    "lat": 37.10106048829849,
    "lng": 129.00675322883544,
    "region": "강원특별자치도"
  },
  {
    "name": "대산2차아파트 지하주차장1층",
    "address": "강원특별자치도 태백시 번영로 289 (황지동, 대산2차하이츠빌아파트)",
    "lat": 37.16886126021509,
    "lng": 128.98620124893372,
    "region": "강원특별자치도"
  },
  {
    "name": "365세이프타운청소년수련실 지하1층",
    "address": "강원특별자치도 태백시 평화길 15 (장성동, 한국청소년안전체험관)",
    "lat": 37.09987036673466,
    "lng": 129.02244729563205,
    "region": "강원특별자치도"
  },
  {
    "name": "켄싱턴호텔 지하 1층",
    "address": "강원특별자치도 속초시 설악산로 998 (설악동)",
    "lat": 38.17241908575413,
    "lng": 128.49916013939722,
    "region": "강원특별자치도"
  },
  {
    "name": "더케이설악산가족호텔 지하 1층",
    "address": "강원특별자치도 속초시 설악산로 470-7(도문동)",
    "lat": 38.16627583400121,
    "lng": 128.5547847214965,
    "region": "강원특별자치도"
  },
  {
    "name": "한화리조트 설악 지하 1층",
    "address": "강원특별자치도 속초시 미시령로2983번길 111(장사동)",
    "lat": 38.210389232382376,
    "lng": 128.5286618681559,
    "region": "강원특별자치도"
  },
  {
    "name": "한국도로공사 연수원 지하 1층",
    "address": "강원특별자치도 속초시 온천로 56, 한국도로공사연수원 (노학동)",
    "lat": 38.18930024672802,
    "lng": 128.54861024887862,
    "region": "강원특별자치도"
  },
  {
    "name": "베니키아호텔 지하 1층",
    "address": "강원특별자치도 속초시 동해대로 3707(대포동)",
    "lat": 38.16782847340426,
    "lng": 128.60747134068282,
    "region": "강원특별자치도"
  },
  {
    "name": "중앙시장 지하상가 지하주차장 1층",
    "address": "강원특별자치도 속초시 중앙로147번길 16(중앙동)",
    "lat": 38.20404632474416,
    "lng": 128.5903826712004,
    "region": "강원특별자치도"
  },
  {
    "name": "설악파인리조트 지하주차장 1층",
    "address": "강원특별자치도 속초시 관광로408번길 14(노학동)",
    "lat": 38.19630461589215,
    "lng": 128.5386945074352,
    "region": "강원특별자치도"
  },
  {
    "name": "현대수리조트 지하 1층",
    "address": "강원특별자치도 속초시 이목로 153, 현대훼미리타운휴양콘도미니엄 (노학동)",
    "lat": 38.20007343195992,
    "lng": 128.54573997864472,
    "region": "강원특별자치도"
  },
  {
    "name": "금호동주민센터 지하 1층",
    "address": "강원특별자치도 속초시 중앙시장로 43, 금호동주민센터 (중앙동)",
    "lat": 38.20683306313916,
    "lng": 128.5881874356345,
    "region": "강원특별자치도"
  },
  {
    "name": "아남프라자 지하주차장 1층",
    "address": "강원특별자치도 속초시 동해대로 4236 (교동, 아남프라자)",
    "lat": 38.19714716563538,
    "lng": 128.57773338842156,
    "region": "강원특별자치도"
  },
  {
    "name": "삼환아파트 지하주차장 1층",
    "address": "강원특별자치도 속초시 밤골3길 39(교동, 삼환아파트)",
    "lat": 38.2028279468495,
    "lng": 128.5664805637712,
    "region": "강원특별자치도"
  },
  {
    "name": "부영아파트3단지 지하주차장 1층",
    "address": "강원특별자치도 속초시 소평로 162, 부영아파트 (조양동)",
    "lat": 38.190404773687874,
    "lng": 128.57724600105007,
    "region": "강원특별자치도"
  },
  {
    "name": "동부아파트 지하주차장 1층",
    "address": "강원특별자치도 속초시 미시령로3359번길 15(교동, 동부아파트)",
    "lat": 38.20706046197554,
    "lng": 128.57403572184745,
    "region": "강원특별자치도"
  },
  {
    "name": "조양2주공아파트 지하주차장 1층",
    "address": "강원특별자치도 속초시 온정로 24(조양동, 조양2주공아파트)",
    "lat": 38.186373762523175,
    "lng": 128.59279480392394,
    "region": "강원특별자치도"
  },
  {
    "name": "대명늘푸른아파트 지하주차장 1층",
    "address": "강원특별자치도 속초시 미시령로3337번길 7(교동, 대명늘푸른아파트)",
    "lat": 38.20518213898683,
    "lng": 128.57099289310085,
    "region": "강원특별자치도"
  },
  {
    "name": "성호아파트 지하주차장",
    "address": "강원특별자치도 속초시 청대로 8(조양동, 성호아파트)",
    "lat": 38.18436990468926,
    "lng": 128.59951865371804,
    "region": "강원특별자치도"
  },
  {
    "name": "청초대우아파트 지하주차장 1층",
    "address": "강원특별자치도 속초시 동해대로 4271(교동, 청초대우아파트)",
    "lat": 38.19800518814625,
    "lng": 128.57365249041894,
    "region": "강원특별자치도"
  },
  {
    "name": "속초시청 종합민원실 지하 1층",
    "address": "강원특별자치도 속초시 중앙로 183, 속초시청 (중앙동)",
    "lat": 38.20701426442776,
    "lng": 128.59250286642552,
    "region": "강원특별자치도"
  },
  {
    "name": "속초석미모닝파크 지하주차장 1층",
    "address": "강원특별자치도 속초시 수복로 12(교동, 속초석미모닝파크)",
    "lat": 38.19404072690076,
    "lng": 128.57534083578534,
    "region": "강원특별자치도"
  },
  {
    "name": "이편한세상아파트 지하주차장 1층",
    "address": "강원특별자치도 속초시 미시령로 3439(금호동, 속초 e-편한세상)",
    "lat": 38.209252631155785,
    "lng": 128.5815039611651,
    "region": "강원특별자치도"
  },
  {
    "name": "팜파스리조트 지하 1~2층",
    "address": "강원특별자치도 속초시 동해대로 3964(조양동)",
    "lat": 38.18905501017832,
    "lng": 128.60075489490936,
    "region": "강원특별자치도"
  },
  {
    "name": "동진리조트오피스텔 지하주차장 1~2층",
    "address": "강원특별자치도 속초시 번영로 170, 동진리조트오피스텔 (영랑동)",
    "lat": 38.2138514614481,
    "lng": 128.58995032776292,
    "region": "강원특별자치도"
  },
  {
    "name": "설악비치리조텔 지하주차장 1~2층",
    "address": "강원특별자치도 속초시 중앙로 346(영랑동)",
    "lat": 38.21923123889079,
    "lng": 128.5919241216374,
    "region": "강원특별자치도"
  },
  {
    "name": "명지미래힐아파트 지하주차장 1층",
    "address": "강원특별자치도 속초시 미시령로3337번길 20 (교동)",
    "lat": 38.20586325114967,
    "lng": 128.57018401713623,
    "region": "강원특별자치도"
  },
  {
    "name": "삼성쉐르빌아파트 지하주차장 1층",
    "address": "강원특별자치도 속초시 청대로 207(조양동, 삼성 쉐르빌)",
    "lat": 38.18569575532401,
    "lng": 128.5764592923351,
    "region": "강원특별자치도"
  },
  {
    "name": "코아루아파트 지하주차장 1층",
    "address": "강원특별자치도 속초시 청대마을길 20(조양동, 속초조양코아루아파트)",
    "lat": 38.187284247914434,
    "lng": 128.57227056899094,
    "region": "강원특별자치도"
  },
  {
    "name": "속초메가박스 지하주차장 1층",
    "address": "강원특별자치도 속초시 조양로142번길 20, 메가박스 (조양동)",
    "lat": 38.189144178357154,
    "lng": 128.58556964227688,
    "region": "강원특별자치도"
  },
  {
    "name": "대광로제비앙아파트 지하주차장 1층",
    "address": "강원특별자치도 속초시 온정로1길 11-8(조양동, 대광로제비앙아파트)",
    "lat": 38.18502159633952,
    "lng": 128.5908723275942,
    "region": "강원특별자치도"
  },
  {
    "name": "산수빌아파트 지하주차장 1층",
    "address": "강원특별자치도 속초시 소평로 80(조양동, 속초조양산수빌아파트)",
    "lat": 38.18785828557523,
    "lng": 128.56834382041507,
    "region": "강원특별자치도"
  },
  {
    "name": "부영아파트1단지 지하주차장 1층",
    "address": "강원특별자치도 속초시 조양로142번길 12(조양동, 부영아파트)",
    "lat": 38.18846363354142,
    "lng": 128.58552745527695,
    "region": "강원특별자치도"
  },
  {
    "name": "보람레이크더하임아파트 지하주차장 1~2층",
    "address": "강원특별자치도 속초시 영랑호반길 115-13(금호동, 보람레이크더하임)",
    "lat": 38.21143824035972,
    "lng": 128.58231081378406,
    "region": "강원특별자치도"
  },
  {
    "name": "제일프라자 지하주차장 1층",
    "address": "강원특별자치도 속초시 동해대로 4024(조양동)",
    "lat": 38.19006312936642,
    "lng": 128.59448994988375,
    "region": "강원특별자치도"
  },
  {
    "name": "청초프라자 지하주차장 1층",
    "address": "강원특별자치도 속초시 동해대로 4030(조양동)",
    "lat": 38.19002384541615,
    "lng": 128.5938159039435,
    "region": "강원특별자치도"
  },
  {
    "name": "하우스토리아파트 지하주차장 1층",
    "address": "강원특별자치도 속초시 동해대로 4284 (교동)",
    "lat": 38.1988777682965,
    "lng": 128.57277163508058,
    "region": "강원특별자치도"
  },
  {
    "name": "마레몬스호텔 지하 1~2층",
    "address": "강원특별자치도 속초시 동해대로 3705(대포동)",
    "lat": 38.1669853294767,
    "lng": 128.60657833452615,
    "region": "강원특별자치도"
  },
  {
    "name": "생모리츠아파트 지하주차장 1~2층",
    "address": "강원특별자치도 속초시 수복로 174(금호동, 생모리츠 아파트)",
    "lat": 38.20328762730606,
    "lng": 128.58771085003949,
    "region": "강원특별자치도"
  },
  {
    "name": "속초우체국수련원 지하주차장 1층",
    "address": "강원특별자치도 속초시 교동로1길 7(교동)",
    "lat": 38.20042821862357,
    "lng": 128.5807087946437,
    "region": "강원특별자치도"
  },
  {
    "name": "청호아이파크아파트 지하주차장 1~2층",
    "address": "강원특별자치도 속초시 청호로 22(청호동, 속초청호아이파크)",
    "lat": 38.19211583747962,
    "lng": 128.59984311869343,
    "region": "강원특별자치도"
  },
  {
    "name": "한흥프라자 지하주차장(지하1층)",
    "address": "강원특별자치도 삼척시 중앙로 176 (남양동, 한흥프라자)",
    "lat": 37.43895518095083,
    "lng": 129.16805099045567,
    "region": "강원특별자치도"
  },
  {
    "name": "세연상가 지하주차장(지하1층)",
    "address": "강원특별자치도 삼척시 중앙시장1길 22-23 (남양동, 세연상가아파트)",
    "lat": 37.44118470059936,
    "lng": 129.16712291718468,
    "region": "강원특별자치도"
  },
  {
    "name": "삼원상가 지하주차장(지하1층)",
    "address": "강원특별자치도 삼척시 중앙로 185 (남양동, 용비타워)",
    "lat": 37.43990594169935,
    "lng": 129.16744561698343,
    "region": "강원특별자치도"
  },
  {
    "name": "동화3차아파트 지하주차장(지하1층)",
    "address": "강원특별자치도 삼척시 남양길 14-17 (남양동, 동화아파트3차)",
    "lat": 37.442094825413655,
    "lng": 129.16870801584665,
    "region": "강원특별자치도"
  },
  {
    "name": "동원파크3차 지하주차장(지하1층)",
    "address": "강원특별자치도 삼척시 남양안길 26 (남양동)",
    "lat": 37.44329175024362,
    "lng": 129.16925192018311,
    "region": "강원특별자치도"
  },
  {
    "name": "삼척의료원 지하1층",
    "address": "강원특별자치도 삼척시 오십천로 418 (남양동, 삼척의료원)",
    "lat": 37.44040200532813,
    "lng": 129.16392622309456,
    "region": "강원특별자치도"
  },
  {
    "name": "삼척소방서 지하1층",
    "address": "강원특별자치도 삼척시 봉황로 101 (남양동, 삼척소방서)",
    "lat": 37.44684466977657,
    "lng": 129.17085387546302,
    "region": "강원특별자치도"
  },
  {
    "name": "현대아파트 지하주차장(지하1층)",
    "address": "강원특별자치도 삼척시 오십천로 301-30 (원당동)",
    "lat": 37.43996480143282,
    "lng": 129.1523329560344,
    "region": "강원특별자치도"
  },
  {
    "name": "동부아파트 지하주차장(지하1층)",
    "address": "강원특별자치도 삼척시 동해대로 4273 (교동, 동부아파트)",
    "lat": 37.45631762049824,
    "lng": 129.1659886698516,
    "region": "강원특별자치도"
  },
  {
    "name": "유성아파트 지하주차장(지하1층)",
    "address": "강원특별자치도 삼척시 동해대로 4044-13 (정상동, 유성아파트)",
    "lat": 37.44195353335352,
    "lng": 129.1787374409917,
    "region": "강원특별자치도"
  },
  {
    "name": "현진에버빌아파트 지하주차장(지하1층)",
    "address": "강원특별자치도 삼척시 정상로 35 (정상동, 현진에버빌)",
    "lat": 37.44473310558235,
    "lng": 129.17511688139635,
    "region": "강원특별자치도"
  },
  {
    "name": "코아루아파트 지하주차장(지하1층)",
    "address": "강원특별자치도 삼척시 교동로 133 (교동, 교동코아루아파트)",
    "lat": 37.45054169523854,
    "lng": 129.17611666113527,
    "region": "강원특별자치도"
  },
  {
    "name": "신동아아파트 지하주차장(지하1층)",
    "address": "강원특별자치도 삼척시 정상로 90(교동, 신동아아파트)",
    "lat": 37.44985565923121,
    "lng": 129.17530671823553,
    "region": "강원특별자치도"
  },
  {
    "name": "대학로 지하주차장(지하1층)",
    "address": "강원특별자치도 삼척시 대학로 31 (당저동, 대학로공연장)",
    "lat": 37.44430541244446,
    "lng": 129.163063257916,
    "region": "강원특별자치도"
  },
  {
    "name": "파라다이스모텔 지하주차장(지하1층)",
    "address": "강원특별자치도 삼척시 새천년도로 131 (정하동, 파라다이스모텔)",
    "lat": 37.44264566741637,
    "lng": 129.19184592815537,
    "region": "강원특별자치도"
  },
  {
    "name": "삼표아파트 지하1층",
    "address": "강원특별자치도 삼척시 오십천로 529(정상동, 삼표아파트)",
    "lat": 37.435871510969335,
    "lng": 129.1748568593206,
    "region": "강원특별자치도"
  },
  {
    "name": "삼척중앙시장 지하주차장(지하1층)",
    "address": "강원특별자치도 삼척시 진주로 12-21 (남양동, 중앙시장)",
    "lat": 37.44180452960977,
    "lng": 129.16504742697822,
    "region": "강원특별자치도"
  },
  {
    "name": "도계새롬아파트 지하주차장(지하1층)",
    "address": "강원특별자치도 삼척시 도계읍 도계우회로2길 8 (새롬아파트)",
    "lat": 37.23770179602445,
    "lng": 129.0465035572515,
    "region": "강원특별자치도"
  },
  {
    "name": "도계LH2단지아파트 지하주차장(지하1층)",
    "address": "강원특별자치도 삼척시 도계읍 장원길 33 (삼척 도계 LH2단지)",
    "lat": 37.22681140907097,
    "lng": 129.05562966542718,
    "region": "강원특별자치도"
  },
  {
    "name": "코아루타워아파트 지하주차장(지하1층~지하3층)",
    "address": "강원특별자치도 삼척시 교동로 97 (교동, 코아루타워아파트)",
    "lat": 37.45135844982165,
    "lng": 129.17159768252492,
    "region": "강원특별자치도"
  },
  {
    "name": "호산씨크릿캐슬 지하주차장(지하1층)",
    "address": "강원특별자치도 삼척시 원덕읍 삼척로 446-23 (시크릿캐슬아파트)",
    "lat": 37.177089691655326,
    "lng": 129.33563360740987,
    "region": "강원특별자치도"
  },
  {
    "name": "행남아파트 지하주차장(지하1층)",
    "address": "강원특별자치도 삼척시 근덕면 교가2길 19 (행남아파트)",
    "lat": 37.380898858475945,
    "lng": 129.2280583594688,
    "region": "강원특별자치도"
  },
  {
    "name": "세영리첼아파트 지하주차장(지하1층~지하3층)",
    "address": "강원특별자치도 삼척시 마달길 215 (마달동, 삼척마달세영리첼아파트)",
    "lat": 37.45043383843692,
    "lng": 129.15539554804408,
    "region": "강원특별자치도"
  },
  {
    "name": "e편한세상아파트 지하주차장(지하1층~지하3층)",
    "address": "강원특별자치도 삼척시 하실길 72 (교동, e편한세상삼척교동)",
    "lat": 37.45272113399364,
    "lng": 129.17082910691445,
    "region": "강원특별자치도"
  },
  {
    "name": "동화4차아파트 지하주차장(지하1층)",
    "address": "강원특별자치도 삼척시 동해대로 3943 (정상동, 동화4차아파트)",
    "lat": 37.43496508886344,
    "lng": 129.18240282137066,
    "region": "강원특별자치도"
  },
  {
    "name": "지웰아파트 지하주차장(지하1층~지하2층)",
    "address": "강원특별자치도 삼척시 동해대로 4183 (교동, 교동지웰아파트)",
    "lat": 37.45299374330404,
    "lng": 129.17609649718392,
    "region": "강원특별자치도"
  },
  {
    "name": "원덕읍 행정복지센터 지하1층",
    "address": "강원특별자치도 삼척시 원덕읍 삼척로 440, 원덕읍 행정복지센터",
    "lat": 37.1763772484291,
    "lng": 129.335670806663,
    "region": "강원특별자치도"
  },
  {
    "name": "한국전력공사 홍천지사 지하 1층",
    "address": "강원특별자치도 홍천군 홍천읍 무궁화로 81",
    "lat": 37.685335384164816,
    "lng": 127.87729568068788,
    "region": "강원특별자치도"
  },
  {
    "name": "태림아파트 전체 동의 지하주차장 1층",
    "address": "강원특별자치도 홍천군 홍천읍 홍천로 462 (태림아파트)",
    "lat": 37.69452049407916,
    "lng": 127.89448103069046,
    "region": "강원특별자치도"
  },
  {
    "name": "홍천농협 지하주차장 1층",
    "address": "강원특별자치도 홍천군 홍천읍 꽃뫼로 87",
    "lat": 37.691340111528014,
    "lng": 127.88336135377637,
    "region": "강원특별자치도"
  },
  {
    "name": "홍천신용협동조합 지하주차장 1층",
    "address": "강원특별자치도 홍천군 홍천읍 번영로 64",
    "lat": 37.69026696751251,
    "lng": 127.88736358756776,
    "region": "강원특별자치도"
  },
  {
    "name": "신한은행 홍천지점 지하주차장 1층",
    "address": "강원특별자치도 홍천군 홍천읍 번영로 42",
    "lat": 37.6899433972431,
    "lng": 127.8849013485466,
    "region": "강원특별자치도"
  },
  {
    "name": "미진동백아파트 전체 동의 지하주차장 1층",
    "address": "강원특별자치도 홍천군 홍천읍 마지기로 95 (미진동백아파트)",
    "lat": 37.69810391130176,
    "lng": 127.88488267313086,
    "region": "강원특별자치도"
  },
  {
    "name": "홍천종합버스터미널 지하 1층",
    "address": "강원특별자치도 홍천군 홍천읍 홍천로 301 (홍천버스터미널)",
    "lat": 37.688863416665335,
    "lng": 127.87887711656948,
    "region": "강원특별자치도"
  },
  {
    "name": "KT홍천지사 지하주차장 1층",
    "address": "강원특별자치도 홍천군 홍천읍 홍천로 364 (KT홍천점)",
    "lat": 37.689086785050335,
    "lng": 127.88568858407666,
    "region": "강원특별자치도"
  },
  {
    "name": "미진3차아파트 지하주차장 1층",
    "address": "강원특별자치도 홍천군 홍천읍 너브내길 190 (미진3차아파트)",
    "lat": 37.69635441063396,
    "lng": 127.89644292330712,
    "region": "강원특별자치도"
  },
  {
    "name": "홍천군청 별관 지하 1층",
    "address": "강원특별자치도 홍천군 홍천읍 석화로 93 (홍천군청)",
    "lat": 37.69639533883953,
    "lng": 127.888812654283,
    "region": "강원특별자치도"
  },
  {
    "name": "신아1차아파트 전체 동의 지하주차장 1층",
    "address": "강원특별자치도 홍천군 홍천읍 마지기로 110 (신아아파트)",
    "lat": 37.69920227093739,
    "lng": 127.8848899820754,
    "region": "강원특별자치도"
  },
  {
    "name": "미진5차아파트 전체 동의 지하주차장 1층",
    "address": "강원특별자치도 홍천군 홍천읍 너브내길 188",
    "lat": 37.69659747873221,
    "lng": 127.89696330197364,
    "region": "강원특별자치도"
  },
  {
    "name": "홍천군 새마을회관 지하 1층",
    "address": "강원특별자치도 홍천군 홍천읍 진리로 44-0",
    "lat": 37.69419649452478,
    "lng": 127.88937285152642,
    "region": "강원특별자치도"
  },
  {
    "name": "삼호아파트 전체 동의 지하주차장 1층",
    "address": "강원특별자치도 홍천군 홍천읍 구시울1길 25 (삼호2차아파트)",
    "lat": 37.67127036255704,
    "lng": 127.85466760220235,
    "region": "강원특별자치도"
  },
  {
    "name": "홍천군청 본관 지하 1층",
    "address": "강원특별자치도 홍천군 홍천읍 석화로 93",
    "lat": 37.69639533883953,
    "lng": 127.888812654283,
    "region": "강원특별자치도"
  },
  {
    "name": "홍천읍사무소 지하주차장 1층",
    "address": "강원특별자치도 홍천군 홍천읍 홍천로 351 (홍천읍사무소)",
    "lat": 37.68903825387863,
    "lng": 127.88442237468117,
    "region": "강원특별자치도"
  },
  {
    "name": "연봉아이파크아파트 전체 동의 지하주차장 1층",
    "address": "강원특별자치도 홍천군 홍천읍 남산마을길 13-1 (연봉아이파크)",
    "lat": 37.68495631844356,
    "lng": 127.8845378395793,
    "region": "강원특별자치도"
  },
  {
    "name": "세영 더조은아파트 전체 동의 지하주차장 1층",
    "address": "강원특별자치도 홍천군 홍천읍 남산마을길 13 (세영더-조은아파트)",
    "lat": 37.68477895985216,
    "lng": 127.88407911303736,
    "region": "강원특별자치도"
  },
  {
    "name": "홍천오드카운티 아파트 전체 동의 지하주차장 1, 2층",
    "address": "강원특별자치도 홍천군 홍천읍 갈마로11길 33 (홍천오드카운티)",
    "lat": 37.6984626659042,
    "lng": 127.902452727983,
    "region": "강원특별자치도"
  },
  {
    "name": "횡성군청 지하1층",
    "address": "강원특별자치도 횡성군 횡성읍 태기로 15 (횡성군청)",
    "lat": 37.49111466763486,
    "lng": 127.9851321363428,
    "region": "강원특별자치도"
  },
  {
    "name": "대동황토방아파트 지하주차장1층",
    "address": "강원특별자치도 횡성군 횡성읍 삼일로 50 (대동황토방아파트 전동지하)",
    "lat": 37.49376244348327,
    "lng": 127.9863684815768,
    "region": "강원특별자치도"
  },
  {
    "name": "금광포란재아파트 지하주차장 1층",
    "address": "강원특별자치도 횡성군 횡성읍 읍하로25번길 17 (금광아파트 (전동지하))",
    "lat": 37.49522197790802,
    "lng": 127.98564784971188,
    "region": "강원특별자치도"
  },
  {
    "name": "보람더하임아파트 지하주차장 1층",
    "address": "강원특별자치도 횡성군 횡성읍 교항북로 17 (횡성보람더하임아파트(전동지하))",
    "lat": 37.48652458249771,
    "lng": 127.9821023426754,
    "region": "강원특별자치도"
  },
  {
    "name": "횡성군의회 지하주차장 1층",
    "address": "강원특별자치도 횡성군 횡성읍 태기로19번길 9 (횡성군의회(지하주차장))",
    "lat": 37.491805579351656,
    "lng": 127.98585991970133,
    "region": "강원특별자치도"
  },
  {
    "name": "이안횡성아파트 지하주차장 1층",
    "address": "강원특별자치도 횡성군 횡성읍 읍마북로 3 (이안횡성아파트(전동지하))",
    "lat": 37.4899008750586,
    "lng": 127.99393779685502,
    "region": "강원특별자치도"
  },
  {
    "name": "석미모닝파크아파트 지하주차장 1층",
    "address": "강원특별자치도 횡성군 횡성읍 어사매로 68 (횡성석미모닝파크(전동지하))",
    "lat": 37.49099326039117,
    "lng": 127.99504278170802,
    "region": "강원특별자치도"
  },
  {
    "name": "골드클래스아파트 지하주차장 1층",
    "address": "강원특별자치도 횡성군 횡성읍 읍마북로 13 (횡성골드클래스아파트)",
    "lat": 37.48954682889275,
    "lng": 127.99470298128492,
    "region": "강원특별자치도"
  },
  {
    "name": "코아루센트럴퍼스트아파트 지하주차장 1층",
    "address": "강원특별자치도 횡성군 횡성읍 앞들서1로 62 (횡성 코아루 센트럴퍼스트)",
    "lat": 37.48400202230295,
    "lng": 127.98068142003636,
    "region": "강원특별자치도"
  },
  {
    "name": "횡성 kt 사옥",
    "address": "강원특별자치도 횡성군 횡성읍 화성로 35, 횡성 kt 사옥",
    "lat": 37.4938678032747,
    "lng": 127.989572773647,
    "region": "강원특별자치도"
  },
  {
    "name": "횡성코아루하우스토리 아파트",
    "address": "강원특별자치도 횡성군 횡성읍 앞들서3로 77 (횡성 코아루 하우스토리)",
    "lat": 37.4852564382862,
    "lng": 127.974564962032,
    "region": "강원특별자치도"
  },
  {
    "name": "우천면행정복지센터",
    "address": "강원특별자치도 횡성군 우천면 우항1길 5-30",
    "lat": 37.4598244417648,
    "lng": 128.062850731878,
    "region": "강원특별자치도"
  },
  {
    "name": "안흥면행정복지센터",
    "address": "강원특별자치도 횡성군 안흥면 안흥로 27, 안흥면사무소",
    "lat": 37.412389456148,
    "lng": 128.156147539265,
    "region": "강원특별자치도"
  },
  {
    "name": "강림면행정복지센터",
    "address": "강원특별자치도 횡성군 강림면 태종로 42",
    "lat": 37.3601737519725,
    "lng": 128.125487080577,
    "region": "강원특별자치도"
  },
  {
    "name": "춘천지방법원 영월지원(지하1층)",
    "address": "강원특별자치도 영월군 영월읍 영월향교1길 53, 춘천지방법원/검찰청 영월지원 지하1층",
    "lat": 37.18621116785452,
    "lng": 128.4738535486958,
    "region": "강원특별자치도"
  },
  {
    "name": "춘천검찰청 영월지청(지하1층)",
    "address": "강원특별자치도 영월군 영월읍 영월향교1길 53, 춘천지방법원/검찰청 영월지원 지하1층",
    "lat": 37.18621116785452,
    "lng": 128.4738535486958,
    "region": "강원특별자치도"
  },
  {
    "name": "영월교육지원청(지하1층)",
    "address": "강원특별자치도 영월군 영월읍 영월로 1892, 강원특별자치도영월교육청 지하1층",
    "lat": 37.18300370609127,
    "lng": 128.4580266528554,
    "region": "강원특별자치도"
  },
  {
    "name": "영월농협 하나로마트(지하1층 주차장)",
    "address": "강원특별자치도 영월군 영월읍 중앙로 40, 농협하나로마트(지하주차장) 지하1층",
    "lat": 37.1834095944701,
    "lng": 128.46806283815326,
    "region": "강원특별자치도"
  },
  {
    "name": "영월종합상가(지하1층 주차장)",
    "address": "강원특별자치도 영월군 영월읍 서부시장길 16-14, 영월종합상가(지하주차장) 지하1층",
    "lat": 37.18265258439502,
    "lng": 128.46665821146323,
    "region": "강원특별자치도"
  },
  {
    "name": "영월군청(지하1층)",
    "address": "강원특별자치도 영월군 영월읍 하송로 64, 영월군청사 지하1층",
    "lat": 37.18270651166578,
    "lng": 128.46251315392294,
    "region": "강원특별자치도"
  },
  {
    "name": "영월우체국(지하1층)",
    "address": "강원특별자치도 영월군 영월읍 단종로33번길 20, 영월우체국 지하1층",
    "lat": 37.18513552396591,
    "lng": 128.46685788359486,
    "region": "강원특별자치도"
  },
  {
    "name": "동우프라자(지하1층 주차장)",
    "address": "강원특별자치도 영월군 영월읍 금강공원길 13, 동우 프라자 상가 아파트(지하주차장) 지하1층",
    "lat": 37.18410892744646,
    "lng": 128.47366672733656,
    "region": "강원특별자치도"
  },
  {
    "name": "영월KT(지하1층 주차장)",
    "address": "강원특별자치도 영월군 영월읍 단종로33번길 30, KT빌딩(지하주차장) 지하1층",
    "lat": 37.18465162876105,
    "lng": 128.46686936894696,
    "region": "강원특별자치도"
  },
  {
    "name": "금용아파트(지하1층 주차장)",
    "address": "강원특별자치도 영월군 영월읍 중리1길 108, 지하1층 (금용아파트)",
    "lat": 37.18113565559676,
    "lng": 128.48239222626083,
    "region": "강원특별자치도"
  },
  {
    "name": "영월세무서(지하1층)",
    "address": "강원특별자치도 영월군 영월읍 하송안길 49, 영월세무서(지하1층)",
    "lat": 37.18170473321237,
    "lng": 128.46558313890546,
    "region": "강원특별자치도"
  },
  {
    "name": "한국전력공사 영월지점(지하1층)",
    "address": "강원특별자치도 영월군 영월읍 중앙로 239, 한국전력공사(지하1층)",
    "lat": 37.171015970405854,
    "lng": 128.4783149939507,
    "region": "강원특별자치도"
  },
  {
    "name": "신한은행 영월지점(지하1층 주차장)",
    "address": "강원특별자치도 영월군 영월읍 관풍헌길 49, 신한은행(지하주차장) 지하1층",
    "lat": 37.18384438998574,
    "lng": 128.47007617937294,
    "region": "강원특별자치도"
  },
  {
    "name": "덕포우체국(지하1층)",
    "address": "강원특별자치도 영월군 영월읍 중앙로 128, 덕포우체국(지하1층)",
    "lat": 37.18081837261755,
    "lng": 128.4764509350027,
    "region": "강원특별자치도"
  },
  {
    "name": "제일의원(지하1층)",
    "address": "강원특별자치도 영월군 영월읍 영모전길 21, 제일의원(지하1층)",
    "lat": 37.18447337138453,
    "lng": 128.47099580413823,
    "region": "강원특별자치도"
  },
  {
    "name": "한영빌라(지하1층 주차장)",
    "address": "강원특별자치도 영월군 영월읍 영월로 2085, 한영빌라(지하주차장) 지하1층",
    "lat": 37.18146088388544,
    "lng": 128.47878222665318,
    "region": "강원특별자치도"
  },
  {
    "name": "영월웨딩홀(지하1층)",
    "address": "강원특별자치도 영월군 영월읍 중앙로 49-15, 영월웨딩홀(지하1층)",
    "lat": 37.1842035617994,
    "lng": 128.4691850072166,
    "region": "강원특별자치도"
  },
  {
    "name": "주공4차아파트(5동,지하1층)",
    "address": "강원특별자치도 영월군 영월읍 하송로 123-7, 지하1층 (하송(4)주공아파트)",
    "lat": 37.17792177651422,
    "lng": 128.45911434979004,
    "region": "강원특별자치도"
  },
  {
    "name": "푸른사랑병원(지하1층)",
    "address": "강원특별자치도 영월군 영월읍 중앙로 10, 푸른사랑병원(지하1층)",
    "lat": 37.1833228266047,
    "lng": 128.4648687392203,
    "region": "강원특별자치도"
  },
  {
    "name": "영월대교회(지하1층)",
    "address": "강원특별자치도 영월군 영월읍 중앙1로 35, 영월대교회(지하1층)",
    "lat": 37.184433739830375,
    "lng": 128.4655589706222,
    "region": "강원특별자치도"
  },
  {
    "name": "그린장모텔(지하1층)",
    "address": "강원특별자치도 영월군 영월읍 덕포시장길 60, 그린장모텔(지하1층)",
    "lat": 37.182411271582616,
    "lng": 128.47957322080524,
    "region": "강원특별자치도"
  },
  {
    "name": "상가공설 지하주차장",
    "address": "강원특별자치도 영월군 영월읍 하송안길 76, 상가공설지하주차장(지하1층)",
    "lat": 37.18199747523578,
    "lng": 128.46712939044187,
    "region": "강원특별자치도"
  },
  {
    "name": "영월청소년 수련관(지하1층)",
    "address": "강원특별자치도 영월군 영월읍 제방안길 100, 영월청소년 수련관(지하1층)",
    "lat": 37.176802898089775,
    "lng": 128.46585821890645,
    "region": "강원특별자치도"
  },
  {
    "name": "영월실내체육관(지하1층)",
    "address": "강원특별자치도 영월군 영월읍 제방안길 100, 영월스포츠파크 체육관(지하1층)",
    "lat": 37.176802898089775,
    "lng": 128.46585821890645,
    "region": "강원특별자치도"
  },
  {
    "name": "영월군보건소(지하1층 주차장)",
    "address": "강원특별자치도 영월군 영월읍 하송로 44, 영월군 보건소(지하주차장) 지하1층",
    "lat": 37.18407262751868,
    "lng": 128.46360950352175,
    "region": "강원특별자치도"
  },
  {
    "name": "영월제일교회(지하1층)",
    "address": "강원특별자치도 영월군 영월읍 은행나무3길 40, 제일교회(지하1층)",
    "lat": 37.17902255707781,
    "lng": 128.46727255833568,
    "region": "강원특별자치도"
  },
  {
    "name": "영월교육도서관(지하1층)",
    "address": "강원특별자치도 영월군 영월읍 영월로 1914-7, 영월도서관(지하1층)",
    "lat": 37.18060387751032,
    "lng": 128.4597706454723,
    "region": "강원특별자치도"
  },
  {
    "name": "영월군종합사회복지관(지하1층)",
    "address": "강원특별자치도 영월군 영월읍 단종로 12, 영월군종합사회복지관(지하1층)",
    "lat": 37.18463072267436,
    "lng": 128.4685422609372,
    "region": "강원특별자치도"
  },
  {
    "name": "영월의료원(본관식당,지하1층)",
    "address": "강원특별자치도 영월군 영월읍 중앙1로 59, 영월의료원 본관동 지하1층",
    "lat": 37.18646943532458,
    "lng": 128.46571053688243,
    "region": "강원특별자치도"
  },
  {
    "name": "도라지아파트(지하1층,지하2층)",
    "address": "강원특별자치도 영월군 영월읍 단종로9번길 33, A동 지하1,2층 (도라지마을아파트)",
    "lat": 37.184191728503656,
    "lng": 128.4664330082375,
    "region": "강원특별자치도"
  },
  {
    "name": "코아루에듀타운아파트(지하주차장)",
    "address": "강원특별자치도 영월군 영월읍 봉래산로 114, 지하주차장 지하1층 (영월 코아루 에듀타운)",
    "lat": 37.19268007231425,
    "lng": 128.47353470819962,
    "region": "강원특별자치도"
  },
  {
    "name": "축협하나로마트(지하주차장)",
    "address": "강원특별자치도 영월군 영월읍 은행나무길 112, 평창영월정선축협 하나로마트(영월점),지하주차장 지하1층",
    "lat": 37.17843132477669,
    "lng": 128.46112152821706,
    "region": "강원특별자치도"
  },
  {
    "name": "신아아파트(지하1층)",
    "address": "강원특별자치도 영월군 영월읍 청령포로 213, 지하1층 (신아아파트)",
    "lat": 37.18224071833177,
    "lng": 128.44117975488902,
    "region": "강원특별자치도"
  },
  {
    "name": "상동 연수원(하이랜드)(지하1층)",
    "address": "강원특별자치도 영월군 상동읍 태백산로 3246, 상동 연수원(하이랜드) 지하1층",
    "lat": 37.12871160143612,
    "lng": 128.83065910535305,
    "region": "강원특별자치도"
  },
  {
    "name": "산솔면사무소(지하1층)",
    "address": "강원특별자치도 영월군 산솔면 태백산로 1202, 산솔면사무소 지하1층",
    "lat": 37.14508934339599,
    "lng": 128.6805762914079,
    "region": "강원특별자치도"
  },
  {
    "name": "푸른돌 주민센터(지하1층)",
    "address": "강원특별자치도 영월군 산솔면 태백산로 1212, 푸른돌 주민센터 지하1층",
    "lat": 37.14414774289124,
    "lng": 128.6806676862616,
    "region": "강원특별자치도"
  },
  {
    "name": "영월동굴생태관(지하1층,지하2층)",
    "address": "강원특별자치도 영월군 김삿갓면 영월동로 1121-15, 영월동굴생태관 지하1,2층",
    "lat": 37.13047857448094,
    "lng": 128.53661934776224,
    "region": "강원특별자치도"
  },
  {
    "name": "아르코 공연연습센터(지하1층)",
    "address": "강원특별자치도 영월군 북면 영월로 1246, 아르코 공연연습센터",
    "lat": 37.21064611637443,
    "lng": 128.4233099415573,
    "region": "강원특별자치도"
  },
  {
    "name": "남면사무소(지하1층)",
    "address": "강원특별자치도 영월군 남면 연당로 47-6, 남면사무소 지하1층",
    "lat": 37.18611017366919,
    "lng": 128.40476871511638,
    "region": "강원특별자치도"
  },
  {
    "name": "한반도농협 남면지점(지하1층)",
    "address": "강원특별자치도 영월군 남면 연당로 127, 한반도농협남면지점 지하1층",
    "lat": 37.19082335420232,
    "lng": 128.40763043585432,
    "region": "강원특별자치도"
  },
  {
    "name": "한반도면사무소(지하1층)",
    "address": "강원특별자치도 영월군 한반도면 신천길 6-6, 한반도면사무소 지하1층",
    "lat": 37.236452656482335,
    "lng": 128.32822893655856,
    "region": "강원특별자치도"
  },
  {
    "name": "주천면사무소(지하1층)",
    "address": "강원특별자치도 영월군 주천면 주천로 103, 주천면사무소 지하1층",
    "lat": 37.271956073756535,
    "lng": 128.26926157181603,
    "region": "강원특별자치도"
  },
  {
    "name": "주천면 문화회관(지하1층)",
    "address": "강원특별자치도 영월군 주천면 주천로58번길 10-5, 주천회관 지하1층",
    "lat": 37.26850116671605,
    "lng": 128.26774927261033,
    "region": "강원특별자치도"
  },
  {
    "name": "무릉도원면사무소(지하1층)",
    "address": "강원특별자치도 영월군 무릉도원면 무릉길 70-6, 무릉도원면사무소 지하1층",
    "lat": 37.28794682324589,
    "lng": 128.26851552714328,
    "region": "강원특별자치도"
  },
  {
    "name": "영월의료원(장례식장, 지하1층 주차장)",
    "address": "강원특별자치도 영월군 영월읍 중앙1로 59, 영월의료원",
    "lat": 37.18646943532458,
    "lng": 128.46571053688243,
    "region": "강원특별자치도"
  },
  {
    "name": "영월대림다미아아파트",
    "address": "강원특별자치도 영월군 영월읍 제방안길 54",
    "lat": 37.1802654303794,
    "lng": 128.468729128295,
    "region": "강원특별자치도"
  },
  {
    "name": "레스트힐아파트(지하1층,지하2층)",
    "address": "강원특별자치도 영월군 영월읍 제방안길 64 (레스트힐)",
    "lat": 37.1795765195364,
    "lng": 128.468007725766,
    "region": "강원특별자치도"
  },
  {
    "name": "주공3차아파트 101,102,103동(지하1층)",
    "address": "강원특별자치도 영월군 영월읍 하송로 123-4, 101,102,103동 (하송(3)주공아파트)",
    "lat": 37.1783067940046,
    "lng": 128.458671139973,
    "region": "강원특별자치도"
  },
  {
    "name": "영월산업진흥원(제조업소 지하1층, 연구소 지하1층)",
    "address": "강원특별자치도 영월군 영월읍 팔괴1농공단지길 21-28, 영월산업진흥원",
    "lat": 37.1536750670511,
    "lng": 128.467822152072,
    "region": "강원특별자치도"
  },
  {
    "name": "문화예술회관(지하1층)",
    "address": "강원특별자치도 영월군 영월읍 단종로 24, 문화예술회관",
    "lat": 37.1857648992701,
    "lng": 128.468129580883,
    "region": "강원특별자치도"
  },
  {
    "name": "세경대학교 실내체육관(지하1층)",
    "address": "강원특별자치도 영월군 영월읍 하송로 197, 세경대학",
    "lat": 37.1729250741804,
    "lng": 128.453371647556,
    "region": "강원특별자치도"
  },
  {
    "name": "진부시대아파트(지하2층)",
    "address": "강원특별자치도 평창군 진부면 청송로 74 (시대진부아파트)",
    "lat": 37.63644382671908,
    "lng": 128.55466816354868,
    "region": "강원특별자치도"
  },
  {
    "name": "평창군청(지하1층)",
    "address": "강원특별자치도 평창군 평창읍 군청길 77 (평창군청)",
    "lat": 37.37066522734095,
    "lng": 128.39018838146788,
    "region": "강원특별자치도"
  },
  {
    "name": "진부농협(지하1층)",
    "address": "강원특별자치도 평창군 진부면 청송로 97 (진부농협)",
    "lat": 37.63678258415134,
    "lng": 128.55712157774775,
    "region": "강원특별자치도"
  },
  {
    "name": "(주)휘닉스평창(지하1층)",
    "address": "강원특별자치도 평창군 봉평면 태기로 174 ((주)휘닉스평창)",
    "lat": 37.58252719887739,
    "lng": 128.3267687579454,
    "region": "강원특별자치도"
  },
  {
    "name": "진부신용협동조합(지하1층)",
    "address": "강원특별자치도 평창군 진부면 청송로 90-24 (진부신협)",
    "lat": 37.636399913434765,
    "lng": 128.55730882201806,
    "region": "강원특별자치도"
  },
  {
    "name": "대관령면사무소(면사무소 지하1층)",
    "address": "강원특별자치도 평창군 대관령면 대관령로 83 (대관령면사무소)",
    "lat": 37.673542187629685,
    "lng": 128.70614537841334,
    "region": "강원특별자치도"
  },
  {
    "name": "KT 대관령 수련관(지하1층)",
    "address": "강원특별자치도 평창군 대관령면 송천2길 21 (KT대관령수련관)",
    "lat": 37.67084549075045,
    "lng": 128.7132667104568,
    "region": "강원특별자치도"
  },
  {
    "name": "평창경찰서(지하1층)",
    "address": "강원특별자치도 평창군 평창읍 군청길 55, 평창경찰서",
    "lat": 37.36944120955764,
    "lng": 128.38918883529377,
    "region": "강원특별자치도"
  },
  {
    "name": "켄싱턴플로라호텔(지하1층)",
    "address": "강원특별자치도 평창군 진부면 진고개로 231 (켄싱턴플로라호텔)",
    "lat": 37.688501714673166,
    "lng": 128.5976967658533,
    "region": "강원특별자치도"
  },
  {
    "name": "진부도서관(지하1층)",
    "address": "강원특별자치도 평창군 진부면 석두로 12-8 (진부도서관)",
    "lat": 37.63538780379224,
    "lng": 128.55426305516437,
    "region": "강원특별자치도"
  },
  {
    "name": "봉평신용협동조합(지하1층)",
    "address": "강원특별자치도 평창군 봉평면 기풍4길 5",
    "lat": 37.61583297252487,
    "lng": 128.37861913187928,
    "region": "강원특별자치도"
  },
  {
    "name": "축협봉평지소(지하1층)",
    "address": "강원특별자치도 평창군 봉평면 기풍로 163 (평창축협 봉평지점)",
    "lat": 37.61685102462973,
    "lng": 128.37713258333207,
    "region": "강원특별자치도"
  },
  {
    "name": "봉평농업협동조합(지하1층)",
    "address": "강원특별자치도 평창군 봉평면 기풍로 135 (봉평농협)",
    "lat": 37.614659320314615,
    "lng": 128.3780887397198,
    "region": "강원특별자치도"
  },
  {
    "name": "강산횡계아파트(지하 1층)",
    "address": "강원특별자치도 평창군 대관령면 대관령로 46-1 (강산 횡계아파트 상가)",
    "lat": 37.67473060524089,
    "lng": 128.7021952733975,
    "region": "강원특별자치도"
  },
  {
    "name": "힐탑아파트(지하1층)",
    "address": "강원특별자치도 평창군 대관령면 종지목길 7 (힐탑아파트)",
    "lat": 37.67438374160346,
    "lng": 128.7114480842681,
    "region": "강원특별자치도"
  },
  {
    "name": "케이에이치강원개발주식회사(지하1층)",
    "address": "강원특별자치도 평창군 대관령면 솔봉로 287 (강원특별자치도개발공사)",
    "lat": 37.66300963239105,
    "lng": 128.66537654422075,
    "region": "강원특별자치도"
  },
  {
    "name": "용평하이랜드(지하1,2층)",
    "address": "강원특별자치도 평창군 대관령면 눈마을길 47 (용평하이랜드오피스텔)",
    "lat": 37.67254736798728,
    "lng": 128.70947940849382,
    "region": "강원특별자치도"
  },
  {
    "name": "평창군문화복지센터(지하1층)",
    "address": "강원특별자치도 평창군 평창읍 평창중앙로 67",
    "lat": 37.36878427941708,
    "lng": 128.39494772658972,
    "region": "강원특별자치도"
  },
  {
    "name": "평창스카이원 아파트(지하1층)",
    "address": "강원특별자치도 평창군 평창읍 서동로 2573(평창 스카이원 아파트)",
    "lat": 37.36801112434011,
    "lng": 128.4030413939919,
    "region": "강원특별자치도"
  },
  {
    "name": "평창문화예술회관(지하1층)",
    "address": "강원특별자치도 평창군 평창읍 문화예술길 51, 문화예술회관",
    "lat": 37.3615646755766,
    "lng": 128.39080132777306,
    "region": "강원특별자치도"
  },
  {
    "name": "평창국민체육센터(지하1층)",
    "address": "강원특별자치도 평창군 평창읍 종부로 69-27, 평창종합운동장",
    "lat": 37.36087434497188,
    "lng": 128.39043691730382,
    "region": "강원특별자치도"
  },
  {
    "name": "평창중앙교회(지하1층)",
    "address": "강원특별자치도 평창군 평창읍 군청길 21",
    "lat": 37.367302011632326,
    "lng": 128.3893436424762,
    "region": "강원특별자치도"
  },
  {
    "name": "평창군농업기술센터(지하1층)",
    "address": "강원특별자치도 평창군 평창읍 여만길 46, 평창군농업기술센타",
    "lat": 37.37804309228873,
    "lng": 128.39536101490754,
    "region": "강원특별자치도"
  },
  {
    "name": "평창하진부주공아파트(지하3층)",
    "address": "강원특별자치도 평창군 진부면 경강로 3587(평창하진부주공아파트)",
    "lat": 37.635380755594646,
    "lng": 128.55807702789335,
    "region": "강원특별자치도"
  },
  {
    "name": "KT정선지사",
    "address": "강원특별자치도 정선군 정선읍 비봉로 28 (KT정선지사 지하 1층)",
    "lat": 37.38107608560649,
    "lng": 128.66136426099868,
    "region": "강원특별자치도"
  },
  {
    "name": "여량면행정복지센터",
    "address": "강원특별자치도 정선군 여량면 서동로 2885, 여량면사무소",
    "lat": 37.47047521911746,
    "lng": 128.72072094413363,
    "region": "강원특별자치도"
  },
  {
    "name": "사북읍행정복지센터",
    "address": "강원특별자치도 정선군 사북읍 사북중앙로 65 (사북읍사무소)",
    "lat": 37.227624871393424,
    "lng": 128.82182345155766,
    "region": "강원특별자치도"
  },
  {
    "name": "신동읍 함백출장소",
    "address": "강원특별자치도 정선군 신동읍 새골길 30 (신동읍함백출장소)",
    "lat": 37.21821121925206,
    "lng": 128.67108451387182,
    "region": "강원특별자치도"
  },
  {
    "name": "신동읍행정복지센터",
    "address": "강원특별자치도 정선군 신동읍 예미1길 1 (신동읍사무소)",
    "lat": 37.21182564649374,
    "lng": 128.64240715496527,
    "region": "강원특별자치도"
  },
  {
    "name": "사북 KT사음지사",
    "address": "강원특별자치도 정선군 사북읍 사북중앙로 69-1, 사북 KT사음지사",
    "lat": 37.227343642627,
    "lng": 128.822330532642,
    "region": "강원특별자치도"
  },
  {
    "name": "정선읍행정복지센터",
    "address": "강원특별자치도 정선군 정선읍 정선로 1331 (정선읍사무소)",
    "lat": 37.37960621174362,
    "lng": 128.66176226826747,
    "region": "강원특별자치도"
  },
  {
    "name": "북평면행정복지센터",
    "address": "강원특별자치도 정선군 북평면 북평6길 36 (북평면사무소)",
    "lat": 37.44889494667471,
    "lng": 128.6704136894813,
    "region": "강원특별자치도"
  },
  {
    "name": "화암면행정복지센터",
    "address": "강원특별자치도 정선군 화암면 그림바위길 40 (화암면사무소)",
    "lat": 37.340282821117135,
    "lng": 128.78823435262808,
    "region": "강원특별자치도"
  },
  {
    "name": "정선교육지원청",
    "address": "강원특별자치도 정선군 정선읍 비봉로 41 (정선교육청)",
    "lat": 37.38131990716536,
    "lng": 128.66293465491557,
    "region": "강원특별자치도"
  },
  {
    "name": "미소빌아파트",
    "address": "강원특별자치도 정선군 정선읍 정선로 1245-6 (미소빌아파트 건물 우측 지하주차장)",
    "lat": 37.37925435320524,
    "lng": 128.65351381471362,
    "region": "강원특별자치도"
  },
  {
    "name": "임계면행정복지센터",
    "address": "강원특별자치도 정선군 임계면 서동로 4575 (임계면사무소)",
    "lat": 37.49439941454952,
    "lng": 128.8520076023125,
    "region": "강원특별자치도"
  },
  {
    "name": "남면행정복지센터",
    "address": "강원특별자치도 정선군 남면 칠현로 80 (남면사무소)",
    "lat": 37.26896639189994,
    "lng": 128.7403287942476,
    "region": "강원특별자치도"
  },
  {
    "name": "정선군청",
    "address": "강원특별자치도 정선군 정선읍 봉양3길 21 (정선군청)",
    "lat": 37.38042452558138,
    "lng": 128.6609947639717,
    "region": "강원특별자치도"
  },
  {
    "name": "현대아파트",
    "address": "강원특별자치도 정선군 정선읍 정선로 1245-11 (현대아파트 101동 지하주차장)",
    "lat": 37.37976725721674,
    "lng": 128.65348072852464,
    "region": "강원특별자치도"
  },
  {
    "name": "하이원 CC",
    "address": "강원특별자치도 정선군 고한읍 고한7길 399",
    "lat": 37.17265078135016,
    "lng": 128.84286916692412,
    "region": "강원특별자치도"
  },
  {
    "name": "강원랜드 사원아파트 D동(고한읍)",
    "address": "강원특별자치도 정선군 고한읍 고한3길 6-11 (강원랜드 사원아파트 D동 지하 1층)",
    "lat": 37.20243266572487,
    "lng": 128.84898867730928,
    "region": "강원특별자치도"
  },
  {
    "name": "고한읍행정복지센터",
    "address": "강원특별자치도 정선군 고한읍 고한2길 1 (고한읍사무소)",
    "lat": 37.2045556389285,
    "lng": 128.85137987798973,
    "region": "강원특별자치도"
  },
  {
    "name": "강원랜드 메인카지노",
    "address": "강원특별자치도 정선군 사북읍 하이원길 265 (강원랜드 건물 맞은편 지하 주차장)",
    "lat": 37.211104680582736,
    "lng": 128.82182329886302,
    "region": "강원특별자치도"
  },
  {
    "name": "강원랜드 복지관",
    "address": "강원특별자치도 정선군 고한읍 고한3길 6-9 (강원랜드카지노리조트복지관)",
    "lat": 37.20212517978466,
    "lng": 128.84927335671196,
    "region": "강원특별자치도"
  },
  {
    "name": "정선종합경기장 실내체육관",
    "address": "강원특별자치도 정선군 정선읍 애산로 60",
    "lat": 37.37640946935922,
    "lng": 128.67348294382583,
    "region": "강원특별자치도"
  },
  {
    "name": "정선군종합사회복지관",
    "address": "강원특별자치도 정선군 정선읍 봉양7길 16",
    "lat": 37.37836718067524,
    "lng": 128.66430191218447,
    "region": "강원특별자치도"
  },
  {
    "name": "정선군립도서관 지하주차장",
    "address": "강원특별자치도 정선군 정선읍 녹송2길 26, 정선 군립도서관",
    "lat": 37.3817693595303,
    "lng": 128.673079310941,
    "region": "강원특별자치도"
  },
  {
    "name": "강원랜드 백운관 나동 지하2층 주차장",
    "address": "강원특별자치도 정선군 고한읍 고한10길 22 (강원랜드다목적숙소(기숙사))",
    "lat": 37.2005424675941,
    "lng": 128.856521680138,
    "region": "강원특별자치도"
  },
  {
    "name": "철원군청 지하1층",
    "address": "강원특별자치도 철원군 갈말읍 삼부연로 51, 철원군청",
    "lat": 38.14641234789904,
    "lng": 127.3135502387525,
    "region": "강원특별자치도"
  },
  {
    "name": "동송읍사무소",
    "address": "강원특별자치도 철원군 동송읍 이평로 133, 동송읍사무소",
    "lat": 38.20720312745552,
    "lng": 127.20815432633954,
    "region": "강원특별자치도"
  },
  {
    "name": "유명아파트(갈말) 지하주차장 1층",
    "address": "강원특별자치도 철원군 갈말읍 군탄로8번길 16 (유명아파트)",
    "lat": 38.147710627338384,
    "lng": 127.301434146131,
    "region": "강원특별자치도"
  },
  {
    "name": "개나리아파트 지하주차장 1층",
    "address": "강원특별자치도 철원군 동송읍 금학로136번길 18 (한국개나리아파트)",
    "lat": 38.20200867330505,
    "lng": 127.22344623784996,
    "region": "강원특별자치도"
  },
  {
    "name": "세륭아파트 지하주차장 1층",
    "address": "강원특별자치도 철원군 동송읍 오덕로30번길 13-13 (세륭아파트)",
    "lat": 38.21230184432181,
    "lng": 127.22824577727388,
    "region": "강원특별자치도"
  },
  {
    "name": "유명아파트(동송) 지하주차장 1층",
    "address": "강원특별자치도 철원군 동송읍 금학로116번길 13 (유명아파트)",
    "lat": 38.200624502179394,
    "lng": 127.2242719828156,
    "region": "강원특별자치도"
  },
  {
    "name": "서면사무소 지하1층",
    "address": "강원특별자치도 철원군 서면 신술2길 40, 서면사무소",
    "lat": 38.16477044966862,
    "lng": 127.41556166845898,
    "region": "강원특별자치도"
  },
  {
    "name": "산호아파트 지하1층",
    "address": "강원특별자치도 철원군 철원읍 금학로317번길 17",
    "lat": 38.213382817679104,
    "lng": 127.2100164085812,
    "region": "강원특별자치도"
  },
  {
    "name": "명품ESA아파트 지하주차장 1층",
    "address": "강원특별자치도 철원군 갈말읍 명성로139번길 13-22",
    "lat": 38.14312933756543,
    "lng": 127.30620281075436,
    "region": "강원특별자치도"
  },
  {
    "name": "철원종합문화복지센터 지하1층",
    "address": "강원특별자치도 철원군 철원읍 금학로330번길 12, 철원종합문화복지센터",
    "lat": 38.216723238597325,
    "lng": 127.21406650547269,
    "region": "강원특별자치도"
  },
  {
    "name": "금강아미움아파트 지하주차장 1층",
    "address": "강원특별자치도 철원군 동송읍 금학로201번길 9 (금강아미움아파트)",
    "lat": 38.20606802689411,
    "lng": 127.2182173818239,
    "region": "강원특별자치도"
  },
  {
    "name": "철원병원 지하1층",
    "address": "강원특별자치도 철원군 갈말읍 명성로 208, 철원병원",
    "lat": 38.15018688091316,
    "lng": 127.30795729205208,
    "region": "강원특별자치도"
  },
  {
    "name": "생창리 주민대피시설",
    "address": "",
    "lat": null,
    "lng": null,
    "region": "강원특별자치도"
  },
  {
    "name": "유곡리 주민대피시설",
    "address": "강원특별자치도 철원군 근북면 유곡로 545",
    "lat": 38.30095174770633,
    "lng": 127.39889454972676,
    "region": "강원특별자치도"
  },
  {
    "name": "마현1리 주민대피시설",
    "address": "강원특별자치도 철원군 근남면 마현5길 36, 마현1리 주민대피시설",
    "lat": 38.2681287460594,
    "lng": 127.544067077674,
    "region": "강원특별자치도"
  },
  {
    "name": "마현2리 주민대피시설",
    "address": "강원특별자치도 철원군 근남면 영서로 9579, 승리전망대 안내 매표소",
    "lat": 38.272877206668,
    "lng": 127.526157087534,
    "region": "강원특별자치도"
  },
  {
    "name": "정연리 주민대피시설",
    "address": "",
    "lat": null,
    "lng": null,
    "region": "강원특별자치도"
  },
  {
    "name": "대마리 주민대피시설",
    "address": "",
    "lat": null,
    "lng": null,
    "region": "강원특별자치도"
  },
  {
    "name": "양지리 주민대피시설",
    "address": "강원특별자치도 철원군 동송읍 양지2길 29, 양지리대피소",
    "lat": 38.2683018355821,
    "lng": 127.282589796816,
    "region": "강원특별자치도"
  },
  {
    "name": "이길리 주민대피시설",
    "address": "강원특별자치도 철원군 동송읍 금강산로 1556, 이길리 주민대피시설",
    "lat": 38.28318130967519,
    "lng": 127.32133523992118,
    "region": "강원특별자치도"
  },
  {
    "name": "경남아너스빌아파트 지하주차장 1층",
    "address": "강원특별자치도 철원군 동송읍 금학로157번길 35 (경남아너스빌)",
    "lat": 38.200055904210544,
    "lng": 127.21863246643068,
    "region": "강원특별자치도"
  },
  {
    "name": "화지3리 주민대피시설",
    "address": "강원특별자치도 철원군 철원읍 금학로263번길 11, 화지3리 대피소",
    "lat": 38.21115602994601,
    "lng": 127.2144156860832,
    "region": "강원특별자치도"
  },
  {
    "name": "화강문화센터 지하1층",
    "address": "강원특별자치도 철원군 서면 약수로 3",
    "lat": 38.24484888337133,
    "lng": 127.42764158506571,
    "region": "강원특별자치도"
  },
  {
    "name": "사곡2리 주민대피시설",
    "address": "강원특별자치도 철원군 근남면 신사곡2길 22-21, 사곡2리 주민대피시설",
    "lat": 38.25053023932014,
    "lng": 127.4731186506391,
    "region": "강원특별자치도"
  },
  {
    "name": "와수5리 주민대피시설",
    "address": "강원특별자치도 철원군 서면 와수로 393, 와수리대피소",
    "lat": 38.253296716036566,
    "lng": 127.4543229307868,
    "region": "강원특별자치도"
  },
  {
    "name": "도창리 주민대피시설",
    "address": "강원특별자치도 철원군 김화읍 도창로 380",
    "lat": 38.2684116462234,
    "lng": 127.354342376758,
    "region": "강원특별자치도"
  },
  {
    "name": "신철원2리 주민대피시설",
    "address": "강원특별자치도 철원군 갈말읍 명성로 178, 갈말읍사무소",
    "lat": 38.14769436498357,
    "lng": 127.30838875112592,
    "region": "강원특별자치도"
  },
  {
    "name": "리치먼드힐철원 지하주차장 1층",
    "address": "강원특별자치도 철원군 갈말읍 명성로139번길 33-46, 리치먼드힐철원",
    "lat": 38.14419993935388,
    "lng": 127.3022821657139,
    "region": "강원특별자치도"
  },
  {
    "name": "철원모닝파크포레스트 지하주차장 1층",
    "address": "강원특별자치도 철원군 갈말읍 명성로125번길 37 (철원 모닝파크 포레스트)",
    "lat": 38.14296898344001,
    "lng": 127.30338681826646,
    "region": "강원특별자치도"
  },
  {
    "name": "철원석미모닝파크2차 지하주차장 1층",
    "address": "강원특별자치도 철원군 철원읍 북원로 1525 (철원석미모닝파크2차)",
    "lat": 38.21544231446378,
    "lng": 127.21852584023296,
    "region": "강원특별자치도"
  },
  {
    "name": "철원석미모닝파크아파트 지하주차장 1층",
    "address": "강원특별자치도 철원군 갈말읍 군탄로8번길 38",
    "lat": 38.14680088239944,
    "lng": 127.3020167381852,
    "region": "강원특별자치도"
  },
  {
    "name": "철원 석미아데나 퍼스티어 지하주차장 1층",
    "address": "강원특별자치도 철원군 동송읍 이평3로 105, 철원 석미아데나 퍼스티어",
    "lat": 38.2047089831431,
    "lng": 127.222553969828,
    "region": "강원특별자치도"
  },
  {
    "name": "이길리 주민대피시설",
    "address": "강원특별자치도 철원군 동송읍 금강이길역길 4-1",
    "lat": 38.2779721904057,
    "lng": 127.306061883897,
    "region": "강원특별자치도"
  },
  {
    "name": "봉오리 주민대피소",
    "address": "강원특별자치도 화천군 상서면 봉오새싹길 39",
    "lat": 38.18805723452044,
    "lng": 127.59985991014103,
    "region": "강원특별자치도"
  },
  {
    "name": "상서119지역대청사지하",
    "address": "강원특별자치도 화천군 상서면 영서로 7759-15 (119안전센터)",
    "lat": 38.2107899511842,
    "lng": 127.66314712675052,
    "region": "강원특별자치도"
  },
  {
    "name": "서화산다목적광장 주민대피소",
    "address": "강원특별자치도 화천군 화천읍 상승로2길 25-10 (서화산다목적광장,산천어시네마)",
    "lat": 38.10614145719593,
    "lng": 127.70289789402214,
    "region": "강원특별자치도"
  },
  {
    "name": "다목보건진료소 지하",
    "address": "강원특별자치도 화천군 상서면 수피령로 1318 (다목보건진료소)",
    "lat": 38.17716308085272,
    "lng": 127.53316828826743,
    "region": "강원특별자치도"
  },
  {
    "name": "청소년문화의집 지하",
    "address": "강원특별자치도 화천군 사내면 문화마을1길 44 (청소년문화의집,대피소)",
    "lat": 38.06946924004355,
    "lng": 127.52360700848207,
    "region": "강원특별자치도"
  },
  {
    "name": "용암리경로당 지하",
    "address": "강원특별자치도 화천군 하남면 용화산로 1252 (용암리경로당)",
    "lat": 38.08354555546499,
    "lng": 127.70476542311113,
    "region": "강원특별자치도"
  },
  {
    "name": "고운채2차아파트",
    "address": "강원특별자치도 화천군 하남면 춘화로 3306 (대양고운채2차)",
    "lat": 38.09487539491848,
    "lng": 127.70271612543289,
    "region": "강원특별자치도"
  },
  {
    "name": "마현리 주민대피소",
    "address": "강원특별자치도 화천군 상서면 영서로 8090-62",
    "lat": 38.231681107360174,
    "lng": 127.63812017985936,
    "region": "강원특별자치도"
  },
  {
    "name": "데시앙아파트 지하주차장",
    "address": "강원특별자치도 화천군 화천읍 강변로 187 (육군화천상리데시앙)",
    "lat": 38.11269553858681,
    "lng": 127.7050771122544,
    "region": "강원특별자치도"
  },
  {
    "name": "사창리 주민대피소",
    "address": "강원특별자치도 화천군 사내면 포화로 1137-34",
    "lat": 38.068562497287175,
    "lng": 127.52009392964396,
    "region": "강원특별자치도"
  },
  {
    "name": "오음리 주민대피소",
    "address": "강원특별자치도 화천군 간동면 간척월명로 289",
    "lat": 38.0530197108572,
    "lng": 127.81662761412578,
    "region": "강원특별자치도"
  },
  {
    "name": "상서종합문화센터 대피소",
    "address": "강원특별자치도 화천군 상서면 영서로 7725-3",
    "lat": 38.20812745062529,
    "lng": 127.6622073920704,
    "region": "강원특별자치도"
  },
  {
    "name": "중리 주민대피소",
    "address": "강원특별자치도 화천군 화천읍 산수화로4길 25-9, 중리주민대피시설 1층",
    "lat": 38.10869007415715,
    "lng": 127.70847155042787,
    "region": "강원특별자치도"
  },
  {
    "name": "원천리 주민대피소",
    "address": "강원특별자치도 화천군 하남면 호수마을길 11, 원천리 주민대피시설",
    "lat": 38.05735650004976,
    "lng": 127.66826074244226,
    "region": "강원특별자치도"
  },
  {
    "name": "화천군청",
    "address": "강원특별자치도 화천군 화천읍 화천새싹길 45, 화천군청",
    "lat": 38.1056266403202,
    "lng": 127.707763952185,
    "region": "강원특별자치도"
  },
  {
    "name": "화천군의회",
    "address": "강원특별자치도 화천군 화천읍 화천새싹길 40, 화천군의회",
    "lat": 38.1054901589004,
    "lng": 127.707274598282,
    "region": "강원특별자치도"
  },
  {
    "name": "화천문화예술회관",
    "address": "강원특별자치도 화천군 화천읍 상승로 91, 화천문화예술회관",
    "lat": 38.1086701206716,
    "lng": 127.704752621291,
    "region": "강원특별자치도"
  },
  {
    "name": "문화체육회관 지하1층",
    "address": "강원특별자치도 양구군 양구읍 양록길23번길 17, 문화체육회관",
    "lat": 38.108339690493416,
    "lng": 127.98477449397882,
    "region": "강원특별자치도"
  },
  {
    "name": "청소년수련관 지하1층",
    "address": "강원특별자치도 양구군 양구읍 박수근로 366-27, 양구청소년수련관",
    "lat": 38.10575500679095,
    "lng": 127.9821395794531,
    "region": "강원특별자치도"
  },
  {
    "name": "보배아파트 지하1층",
    "address": "강원특별자치도 양구군 양구읍 박수근로 322(보배아파트)",
    "lat": 38.1008858051928,
    "lng": 127.98300714214189,
    "region": "강원특별자치도"
  },
  {
    "name": "문화복지센터 지하1층",
    "address": "강원특별자치도 양구군 양구읍 비봉로73번길 52, 양구문화복지센터",
    "lat": 38.109047280976256,
    "lng": 127.98413317363256,
    "region": "강원특별자치도"
  },
  {
    "name": "포미제아파트 지하1층",
    "address": "강원특별자치도 양구군 양구읍 관공서로16번길 15 (포미재아파트)",
    "lat": 38.107447544824296,
    "lng": 127.99206471979234,
    "region": "강원특별자치도"
  },
  {
    "name": "일립아파트 지하1층",
    "address": "강원특별자치도 양구군 양구읍 관공서로16번길 5-9 (일립그린아파트)",
    "lat": 38.10869703049174,
    "lng": 127.9911120232029,
    "region": "강원특별자치도"
  },
  {
    "name": "국토정중앙면 용하리",
    "address": "강원특별자치도 양구군 국토정중앙면 정중앙로 624-22, 국토정중앙면 대피소",
    "lat": 38.1087956928222,
    "lng": 128.035865491803,
    "region": "강원특별자치도"
  },
  {
    "name": "동면 임당리",
    "address": "강원특별자치도 양구군 동면 금강산로 1673",
    "lat": 38.20069938338057,
    "lng": 128.04308654686506,
    "region": "강원특별자치도"
  },
  {
    "name": "방산면 송현리",
    "address": "강원특별자치도 양구군 방산면 장거리길43번길 18",
    "lat": 38.20980713092606,
    "lng": 127.95105009954402,
    "region": "강원특별자치도"
  },
  {
    "name": "해안면 현리 제2대피소",
    "address": "강원특별자치도 양구군 해안면 펀치볼로 1341-23",
    "lat": 38.28835735986293,
    "lng": 128.1384432121419,
    "region": "강원특별자치도"
  },
  {
    "name": "석미모닝아파트 지하1층",
    "address": "강원특별자치도 양구군 양구읍 박수근로313번길 17 (양구석미모닝파크)",
    "lat": 38.10087036980042,
    "lng": 127.98125512420869,
    "region": "강원특별자치도"
  },
  {
    "name": "경림아파트 지하1층",
    "address": "강원특별자치도 양구군 양구읍 양록길23번길 11 (경림아파트)",
    "lat": 38.10760141676008,
    "lng": 127.98520115051636,
    "region": "강원특별자치도"
  },
  {
    "name": "해링턴플레이스 지하1층",
    "address": "강원특별자치도 양구군 양구읍 청춘로 49 (해링턴플레이스)",
    "lat": 38.09832558871638,
    "lng": 127.99019959990024,
    "region": "강원특별자치도"
  },
  {
    "name": "서희스타힐스 지하1층",
    "address": "강원특별자치도 양구군 양구읍 청춘로 16 (서희스타힐스)",
    "lat": 38.10090982703742,
    "lng": 127.98795934570327,
    "region": "강원특별자치도"
  },
  {
    "name": "해안면 현리 제1대피소",
    "address": "강원특별자치도 양구군 해안면 펀치볼로 1307, 해안면사무소, 해안면 복지회관",
    "lat": 38.28481254320244,
    "lng": 128.13720046126974,
    "region": "강원특별자치도"
  },
  {
    "name": "동면 팔랑리",
    "address": "강원특별자치도 양구군 동면 펀치볼로 53-6",
    "lat": 38.2168172808496,
    "lng": 128.04973569629703,
    "region": "강원특별자치도"
  },
  {
    "name": "KT인제지사 지하 1층",
    "address": "강원특별자치도 인제군 인제읍 인제로193번길 27 (KT)",
    "lat": 38.070817363074674,
    "lng": 128.1720248238757,
    "region": "강원특별자치도"
  },
  {
    "name": "남면행정복지센터 지하 1층",
    "address": "강원특별자치도 인제군 남면 신남로58번길 37 (남면사무소)",
    "lat": 37.96597215576444,
    "lng": 128.08305548876956,
    "region": "강원특별자치도"
  },
  {
    "name": "농업기술센터 지하 1층",
    "address": "강원특별자치도 인제군 인제읍 비봉로44번길 105 (농업기술센터)",
    "lat": 38.05960025605943,
    "lng": 128.16561372349153,
    "region": "강원특별자치도"
  },
  {
    "name": "인제하늘내린센터 지하 1층",
    "address": "강원특별자치도 인제군 인제읍 비봉로44번길 100 (하늘내린센터)",
    "lat": 38.06019025554856,
    "lng": 128.16587022037857,
    "region": "강원특별자치도"
  },
  {
    "name": "원통종합복지타운 지하 1층",
    "address": "강원특별자치도 인제군 북면 금강로 62 (원통종합복지타운)",
    "lat": 38.125248691913335,
    "lng": 128.20532115767688,
    "region": "강원특별자치도"
  },
  {
    "name": "기린면종합복지회관 지하 1층",
    "address": "강원특별자치도 인제군 기린면 기린로42번길 11 (기린면 종합복지회관)",
    "lat": 37.95528983025497,
    "lng": 128.31900745273882,
    "region": "강원특별자치도"
  },
  {
    "name": "상남면종합복지회관 지하 1층",
    "address": "강원특별자치도 인제군 상남면 상남로38번길 4 (상남면 종합복지회관)",
    "lat": 37.87334682379479,
    "lng": 128.26038202623408,
    "region": "강원특별자치도"
  },
  {
    "name": "천도리 주민대피시설 지상 1층",
    "address": "강원특별자치도 인제군 서화면 천도로81번길 33 (서화면 주민대피시설)",
    "lat": 38.22219066353973,
    "lng": 128.20764264303784,
    "region": "강원특별자치도"
  },
  {
    "name": "북면 주민대피시설 지상 1층",
    "address": "강원특별자치도 인제군 북면 원통로74번길 10-4 (북면 주민대피시설)",
    "lat": 38.114523055507554,
    "lng": 128.19962376438946,
    "region": "강원특별자치도"
  },
  {
    "name": "하늘내린호텔 지하 1층",
    "address": "강원특별자치도 인제군 인제읍 비봉로 43 (하늘내린호텔)",
    "lat": 38.06584470451409,
    "lng": 128.17504618429734,
    "region": "강원특별자치도"
  },
  {
    "name": "농협중앙회 인제군지점 지하 1층",
    "address": "강원특별자치도 인제군 인제읍 인제로 181 (농협중앙회 인제군지점)",
    "lat": 38.06845437002857,
    "lng": 128.17075309718152,
    "region": "강원특별자치도"
  },
  {
    "name": "인제 행복마을 아르미소아파트 지하 1층",
    "address": "강원특별자치도 인제군 인제읍 인제로 311 (행복마을 아르미소 아파트)",
    "lat": 38.075956188896924,
    "lng": 128.18206331630847,
    "region": "강원특별자치도"
  },
  {
    "name": "인제 대희지센트아파트 지하 1층",
    "address": "강원특별자치도 인제군 인제읍 인제로 110 (인제 대희지센트아파트)",
    "lat": 38.06386382911056,
    "lng": 128.1647889575683,
    "region": "강원특별자치도"
  },
  {
    "name": "북면 아르미소 아파트 지하 1층",
    "address": "강원특별자치도 인제군 북면 원통로 261-20 (북면 아르미소 아파트)",
    "lat": 38.12756268919892,
    "lng": 128.21168075783172,
    "region": "강원특별자치도"
  },
  {
    "name": "한국DMZ평화생명동산 지하 1층",
    "address": "강원특별자치도 인제군 서화면 금강로 1630 (평화생명동산)",
    "lat": 38.24042653754953,
    "lng": 128.20719742545668,
    "region": "강원특별자치도"
  },
  {
    "name": "백동그린빌 아파트 지하 1층",
    "address": "강원특별자치도 인제군 서화면 천도로152번길 35 (백동그린빌아파트)",
    "lat": 38.22527467101192,
    "lng": 128.21410008750038,
    "region": "강원특별자치도"
  },
  {
    "name": "원통 택시주차장 지하 1층",
    "address": "강원특별자치도 인제군 북면 원통로177번길 11 (택시주차장)",
    "lat": 38.12332369586922,
    "lng": 128.20264357521975,
    "region": "강원특별자치도"
  },
  {
    "name": "용대2리마을회관 지상 1층",
    "address": "강원특별자치도 인제군 북면 만해로 410-17 (용대2리마을회관)",
    "lat": 38.1948932714463,
    "lng": 128.34530221143314,
    "region": "강원특별자치도"
  },
  {
    "name": "인제군청 지하 1층",
    "address": "강원특별자치도 인제군 인제읍 인제로187번길 8-1 (인제군청)",
    "lat": 38.06953490569393,
    "lng": 128.16980413502043,
    "region": "강원특별자치도"
  },
  {
    "name": "대한노인회 인제군지부 지상 1층",
    "address": "강원특별자치도 인제군 인제읍 인제로225번길 10-3 (대한노인회 인제군지부)",
    "lat": 38.071360204049775,
    "lng": 128.1746278320237,
    "region": "강원특별자치도"
  },
  {
    "name": "원통4리 종합회관 지상 1층",
    "address": "강원특별자치도 인제군 북면 금강로33번길 42 (원통4리종합회관)",
    "lat": 38.12050349635851,
    "lng": 128.20279900168603,
    "region": "강원특별자치도"
  },
  {
    "name": "월학3리 마을회관 지상 1층",
    "address": "강원특별자치도 인제군 북면 금강로 769 (월학3리종합회관)",
    "lat": 38.172833790950975,
    "lng": 128.20556911926835,
    "region": "강원특별자치도"
  },
  {
    "name": "용늪생태학교 지상 1층",
    "address": "강원특별자치도 인제군 서화면 금강로 1106-27 (용늪생태학교)",
    "lat": 38.197264062034826,
    "lng": 128.20976517462168,
    "region": "강원특별자치도"
  },
  {
    "name": "서화중앙교회 지상 1층",
    "address": "강원특별자치도 인제군 서화면 천도로94번길 7 (서화중앙교회)",
    "lat": 38.220227580892825,
    "lng": 128.20829010002683,
    "region": "강원특별자치도"
  },
  {
    "name": "백련정사 지상 1층",
    "address": "강원특별자치도 인제군 인제읍 인제로193번길 17-12",
    "lat": 38.07118482126612,
    "lng": 128.1709875352204,
    "region": "강원특별자치도"
  },
  {
    "name": "하늘내린유치원 지상 1층",
    "address": "강원특별자치도 인제군 인제읍 인제로219번길 27 (하늘내린유치원)",
    "lat": 38.0718424980848,
    "lng": 128.1722125243728,
    "region": "강원특별자치도"
  },
  {
    "name": "남면종합복지회관 지하 1층",
    "address": "강원특별자치도 인제군 남면 신남로68번길 9-6 (남면종합복지회관)",
    "lat": 37.96826037691535,
    "lng": 128.08164209119394,
    "region": "강원특별자치도"
  },
  {
    "name": "서화리 주민대피시설 지상 1층",
    "address": "강원특별자치도 인제군 서화면 서화길 58, 서화리 주민대피시설",
    "lat": 38.25470540679919,
    "lng": 128.20458348176675,
    "region": "강원특별자치도"
  },
  {
    "name": "인제라온프라이빗 아파트 지하 1층",
    "address": "강원특별자치도 인제군 인제읍 인제로112번길 22(인제라온프라이빗)",
    "lat": 38.062809825115245,
    "lng": 128.16647305102765,
    "region": "강원특별자치도"
  },
  {
    "name": "인제양우내안애 아파트 지하 1층",
    "address": "강원특별자치도 인제군 인제읍 인제로 258(양우내안애)",
    "lat": 38.0718979052344,
    "lng": 128.17806382495976,
    "region": "강원특별자치도"
  },
  {
    "name": "상남푸르미아파트 지하 1층",
    "address": "강원특별자치도 인제군 상남면 상남로 48-3",
    "lat": 37.87386499665066,
    "lng": 128.2588405935383,
    "region": "강원특별자치도"
  },
  {
    "name": "서흥1리 경로당 지상1층",
    "address": "강원특별자치도 인제군 서화면 용늪길 8, 서흥1리 경로당",
    "lat": 38.1981218577996,
    "lng": 128.20624486017,
    "region": "강원특별자치도"
  },
  {
    "name": "농업기술센터 지하 1층",
    "address": "강원특별자치도 인제군 인제읍 덕산로 256-45, 인제군 농업기술센터",
    "lat": 38.0954327375874,
    "lng": 128.186324467088,
    "region": "강원특별자치도"
  },
  {
    "name": "거진중앙교회 지하1층",
    "address": "강원특별자치도 고성군 거진읍 거탄진로 82",
    "lat": 38.442385644640176,
    "lng": 128.4534109160441,
    "region": "강원특별자치도"
  },
  {
    "name": "고성군청 제2청사 지하1층",
    "address": "강원특별자치도 고성군 간성읍 고성중앙길 9, 고성군청",
    "lat": 38.38021716132116,
    "lng": 128.4678846699927,
    "region": "강원특별자치도"
  },
  {
    "name": "고성문화의집 지하1층",
    "address": "강원특별자치도 고성군 간성읍 간성로 71-7, 고성문화관",
    "lat": 38.37887751016585,
    "lng": 128.46693810526537,
    "region": "강원특별자치도"
  },
  {
    "name": "농업기술센터 지하1층",
    "address": "강원특별자치도 고성군 간성읍 간성북로 87, 고성군 농업기술센터",
    "lat": 38.385686783252346,
    "lng": 128.4748044028235,
    "region": "강원특별자치도"
  },
  {
    "name": "금강농협 지하1층",
    "address": "강원특별자치도 고성군 간성읍 간성로 32, 금강농협",
    "lat": 38.37907825146988,
    "lng": 128.47160963335446,
    "region": "강원특별자치도"
  },
  {
    "name": "동해1차아파트 지하1층",
    "address": "강원특별자치도 고성군 간성읍 간성로39번길 23(동해APT)",
    "lat": 38.37705533860755,
    "lng": 128.4706694332106,
    "region": "강원특별자치도"
  },
  {
    "name": "동해2차아파트 지하1층",
    "address": "강원특별자치도 고성군 간성읍 수성로 90(동해APT)",
    "lat": 38.37730601806712,
    "lng": 128.46623549504193,
    "region": "강원특별자치도"
  },
  {
    "name": "삼익아파트105동 지하1층",
    "address": "강원특별자치도 고성군 간성읍 남천마루2길 6, 105동 (삼익아파트)",
    "lat": 38.37851002115617,
    "lng": 128.47881890586854,
    "region": "강원특별자치도"
  },
  {
    "name": "삼익아파트106동 지하1층",
    "address": "강원특별자치도 고성군 간성읍 남천마루2길 6, 106동 (삼익아파트)",
    "lat": 38.37851002115617,
    "lng": 128.47881890586854,
    "region": "강원특별자치도"
  },
  {
    "name": "삼익아파트107동 지하1층",
    "address": "강원특별자치도 고성군 간성읍 남천마루2길 6, 107동 (삼익아파트)",
    "lat": 38.37851002115617,
    "lng": 128.47881890586854,
    "region": "강원특별자치도"
  },
  {
    "name": "삼익아파트108동 지하1층",
    "address": "강원특별자치도 고성군 간성읍 남천마루2길 6, 108동 (삼익아파트)",
    "lat": 38.37851002115617,
    "lng": 128.47881890586854,
    "region": "강원특별자치도"
  },
  {
    "name": "간성 대명아파트 지하1층",
    "address": "강원특별자치도 고성군 간성읍 수성로 126-5 (대명아파트)",
    "lat": 38.37831841012156,
    "lng": 128.46348944098855,
    "region": "강원특별자치도"
  },
  {
    "name": "삼익아파트 지하1층 주차장",
    "address": "강원특별자치도 고성군 간성읍 남천마루2길 6(삼익아파트)",
    "lat": 38.37851002115617,
    "lng": 128.47881890586854,
    "region": "강원특별자치도"
  },
  {
    "name": "삼익아파트101동 지하1층",
    "address": "강원특별자치도 고성군 간성읍 남천마루2길 6, 101동 (삼익아파트)",
    "lat": 38.37851002115617,
    "lng": 128.47881890586854,
    "region": "강원특별자치도"
  },
  {
    "name": "삼익아파트102동 지하1층",
    "address": "강원특별자치도 고성군 간성읍 남천마루2길 6, 102동 (삼익아파트)",
    "lat": 38.37851002115617,
    "lng": 128.47881890586854,
    "region": "강원특별자치도"
  },
  {
    "name": "삼익아파트103동 지하1층",
    "address": "강원특별자치도 고성군 간성읍 남천마루2길 6, 103동 (삼익아파트)",
    "lat": 38.37851002115617,
    "lng": 128.47881890586854,
    "region": "강원특별자치도"
  },
  {
    "name": "삼익아파트104동 지하1층",
    "address": "강원특별자치도 고성군 간성읍 남천마루2길 6, 104동 (삼익아파트)",
    "lat": 38.37851002115617,
    "lng": 128.47881890586854,
    "region": "강원특별자치도"
  },
  {
    "name": "거진 고성군문화복지센터 지하1층",
    "address": "강원특별자치도 고성군 거진읍 자산천로 240, 거진읍사무소",
    "lat": 38.43579297880184,
    "lng": 128.45253242728845,
    "region": "강원특별자치도"
  },
  {
    "name": "거진우체국 지하1층",
    "address": "강원특별자치도 고성군 거진읍 거탄진로 102, 거진우체국",
    "lat": 38.44420602389246,
    "lng": 128.4537707268111,
    "region": "강원특별자치도"
  },
  {
    "name": "고성군 여성회관 지하1층",
    "address": "강원특별자치도 고성군 간성읍 간성로 97, 여성회관",
    "lat": 38.38037283608329,
    "lng": 128.4645190125693,
    "region": "강원특별자치도"
  },
  {
    "name": "고성국민체육센터 지하1층",
    "address": "강원특별자치도 고성군 거진읍 자산천로 236, 고성국민체육센터",
    "lat": 38.435631606538806,
    "lng": 128.4528942482596,
    "region": "강원특별자치도"
  },
  {
    "name": "고성군간성하수종말처리장 지하1층",
    "address": "강원특별자치도 고성군 간성읍 간성북로 111",
    "lat": 38.38760159285311,
    "lng": 128.47540634991927,
    "region": "강원특별자치도"
  },
  {
    "name": "거진읍주민대피시설",
    "address": "강원특별자치도 고성군 거진읍 행랑골길 지하24, 거진주민대피시설",
    "lat": 38.44943965010203,
    "lng": 128.4550518437376,
    "region": "강원특별자치도"
  },
  {
    "name": "현내면주민대피시설",
    "address": "강원특별자치도 고성군 현내면 한나루로 67",
    "lat": 38.49447300851195,
    "lng": 128.42791856023004,
    "region": "강원특별자치도"
  },
  {
    "name": "죽왕면주민대피시설",
    "address": "강원특별자치도 고성군 죽왕면 오호길 11",
    "lat": 38.32854936492393,
    "lng": 128.52520602422408,
    "region": "강원특별자치도"
  },
  {
    "name": "간성읍주민대피시설",
    "address": "강원특별자치도 고성군 간성읍 간성로67번길 7-4, 간성읍주민대피시설",
    "lat": 38.3788322613183,
    "lng": 128.467609893138,
    "region": "강원특별자치도"
  },
  {
    "name": "토성면주민대피시설",
    "address": "강원특별자치도 고성군 토성면 학사촌길 지하49, 토성주민대피소",
    "lat": 38.25233204714984,
    "lng": 128.56373887215753,
    "region": "강원특별자치도"
  },
  {
    "name": "석미모닝파크 지하1층",
    "address": "강원특별자치도 고성군 간성읍 수성로 126(고성석미모닝파크)",
    "lat": 38.37823340748167,
    "lng": 128.46294853655488,
    "region": "강원특별자치도"
  },
  {
    "name": "명파리주민대피시설",
    "address": "강원특별자치도 고성군 현내면 금강산로 799-9",
    "lat": 38.538178525043925,
    "lng": 128.4016080884102,
    "region": "강원특별자치도"
  },
  {
    "name": "켄싱턴리조트 지하1층",
    "address": "강원특별자치도 고성군 토성면 동해대로 4800, 캔싱턴리조트",
    "lat": 38.24213660780356,
    "lng": 128.57228354383574,
    "region": "강원특별자치도"
  },
  {
    "name": "금강산콘도 지하1~3층",
    "address": "강원특별자치도 고성군 현내면 금강산로 416",
    "lat": 38.509715409390346,
    "lng": 128.42026458892056,
    "region": "강원특별자치도"
  },
  {
    "name": "배봉리주민대피시설",
    "address": "강원특별자치도 고성군 현내면 배봉길 12-8",
    "lat": 38.52466687649194,
    "lng": 128.39952278793172,
    "region": "강원특별자치도"
  },
  {
    "name": "화곡리주민대피시설",
    "address": "강원특별자치도 고성군 현내면 죽화로 357, 화곡리 민방공 주민대피소",
    "lat": 38.48675322478187,
    "lng": 128.39643058760393,
    "region": "강원특별자치도"
  },
  {
    "name": "마달리주민대피시설",
    "address": "강원특별자치도 고성군 현내면 마달1길 12, 마달리주민대피소",
    "lat": 38.506626125286,
    "lng": 128.39416759927462,
    "region": "강원특별자치도"
  },
  {
    "name": "반암리주민대피시설",
    "address": "강원특별자치도 고성군 거진읍 자산천로 79-22",
    "lat": 38.42386499591058,
    "lng": 128.4591855255764,
    "region": "강원특별자치도"
  },
  {
    "name": "송강리주민대피시설",
    "address": "강원특별자치도 고성군 거진읍 송강길 13-3",
    "lat": 38.43706734732916,
    "lng": 128.4025329694665,
    "region": "강원특별자치도"
  },
  {
    "name": "학야리주민대피시설",
    "address": "강원특별자치도 고성군 토성면 무릉도원로 376",
    "lat": 38.279348882691096,
    "lng": 128.51075310513116,
    "region": "강원특별자치도"
  },
  {
    "name": "석문리주민대피시설",
    "address": "강원특별자치도 고성군 거진읍 남강로 540",
    "lat": 38.41130778780826,
    "lng": 128.42601420865833,
    "region": "강원특별자치도"
  },
  {
    "name": "구성리주민대피시설",
    "address": "강원특별자치도 고성군 죽왕면 구성길 266",
    "lat": 38.325528967334606,
    "lng": 128.47215380687328,
    "region": "강원특별자치도"
  },
  {
    "name": "공현진리주민대피시설",
    "address": "강원특별자치도 고성군 죽왕면 가진해변길 252",
    "lat": 38.35747246628517,
    "lng": 128.50782203108415,
    "region": "강원특별자치도"
  },
  {
    "name": "봉포코아루오션비치APT 지하1~2층 주차장",
    "address": "강원특별자치도 고성군 토성면 학사촌길 91-7",
    "lat": 38.2543877741768,
    "lng": 128.559800798867,
    "region": "강원특별자치도"
  },
  {
    "name": "고성천진한신더휴APT 지하1~2층 주차장",
    "address": "강원특별자치도 고성군 토성면 천진7길 29 (고성천진 한신더휴)",
    "lat": 38.2557769118079,
    "lng": 128.555703852114,
    "region": "강원특별자치도"
  },
  {
    "name": "양양군청 지하1층",
    "address": "강원특별자치도 양양군 양양읍 군청길 1, 양양군청",
    "lat": 38.075374354219626,
    "lng": 128.61913228502348,
    "region": "강원특별자치도"
  },
  {
    "name": "양양군의회 지하 1층",
    "address": "강원특별자치도 양양군 양양읍 남문로 39",
    "lat": 38.074918835326834,
    "lng": 128.6184428921875,
    "region": "강원특별자치도"
  },
  {
    "name": "양양읍사무소 지하 1층",
    "address": "강원특별자치도 양양군 양양읍 관아길 32, 양양읍사무소",
    "lat": 38.08024787403223,
    "lng": 128.62354267085362,
    "region": "강원특별자치도"
  },
  {
    "name": "유화아파트",
    "address": "강원특별자치도 양양군 양양읍 청곡길 12(유화아파트)",
    "lat": 38.09269712230994,
    "lng": 128.62825757137108,
    "region": "강원특별자치도"
  },
  {
    "name": "명지푸르미아파트 지하 1층",
    "address": "강원특별자치도 양양군 양양읍 남대천로 99-14(명지푸르미아파트)",
    "lat": 38.063304116822046,
    "lng": 128.6170167378552,
    "region": "강원특별자치도"
  },
  {
    "name": "양양군노인복지관",
    "address": "강원특별자치도 양양군 양양읍 일출로 540, 양양군문화복지회관",
    "lat": 38.07657280746405,
    "lng": 128.6264661583803,
    "region": "강원특별자치도"
  },
  {
    "name": "브리드바이마티에호텔 지하 1층",
    "address": "강원특별자치도 양양군 현남면 인구항길 17",
    "lat": 37.970948416678446,
    "lng": 128.76221572794154,
    "region": "강원특별자치도"
  },
  {
    "name": "한국검인정교과서협회 지하 1층",
    "address": "강원특별자치도 양양군 현북면 송이로 86-32",
    "lat": 38.02428961487158,
    "lng": 128.7122582173457,
    "region": "강원특별자치도"
  },
  {
    "name": "양양국제공항호텔",
    "address": "강원특별자치도 양양군 손양면 동해대로 2338, 양양국제공항호텔",
    "lat": 38.057905182158734,
    "lng": 128.64413487852676,
    "region": "강원특별자치도"
  },
  {
    "name": "양양우미린디오션아파트 지하 1층",
    "address": "강원특별자치도 양양군 강현면 물치천로 70-9",
    "lat": 38.15246385669102,
    "lng": 128.59981658606435,
    "region": "강원특별자치도"
  },
  {
    "name": "양양코아루아파트 지하 1층",
    "address": "강원특별자치도 양양군 양양읍 임천1길 26-3(양양코아루)",
    "lat": 38.0716665536854,
    "lng": 128.6107398619186,
    "region": "강원특별자치도"
  },
  {
    "name": "양우내안애아파트 지하 1층",
    "address": "강원특별자치도 양양군 양양읍 미륵길 40(양우내안애)",
    "lat": 38.08026976205026,
    "lng": 128.62254206501132,
    "region": "강원특별자치도"
  },
  {
    "name": "e편한세상아파트 지하 1층",
    "address": "강원특별자치도 양양군 양양읍 한고개길 17-18(e편한세상 양양아파트)",
    "lat": 38.07859325513042,
    "lng": 128.6127040401341,
    "region": "강원특별자치도"
  },
  {
    "name": "낙산비치호텔 지하 1층",
    "address": "강원특별자치도 양양군 강현면 낙산사로 73",
    "lat": 38.12343938399452,
    "lng": 128.63081090022493,
    "region": "강원특별자치도"
  },
  {
    "name": "오색그린야드호텔 지하 1층",
    "address": "강원특별자치도 양양군 서면 대청봉길 34",
    "lat": 38.08152267734646,
    "lng": 128.4480153807064,
    "region": "강원특별자치도"
  },
  {
    "name": "양양군농업기술센터 지하 1층",
    "address": "강원특별자치도 양양군 손양면 동해대로 2558",
    "lat": 38.07444365139464,
    "lng": 128.63289995381737,
    "region": "강원특별자치도"
  },
  {
    "name": "오산선사유적박물관 지하 1층",
    "address": "강원특별자치도 양양군 손양면 학포길 33, 오산리선사유적박물관",
    "lat": 38.08613194364773,
    "lng": 128.66069027002166,
    "region": "강원특별자치도"
  },
  {
    "name": "양양한양수자인아파트 지하 1층",
    "address": "강원특별자치도 양양군 양양읍 한고개길 31-46 (한양수자인 양양아파트)",
    "lat": 38.07982287190874,
    "lng": 128.6126296373761,
    "region": "강원특별자치도"
  }
]