[
  {
    "name": "촉석맨션 지하 1층",
    "address": "경상남도 진주시 솔밭로92번길 5 (상평동, 촉석맨션)",
    "lat": 35.17742217679508,
    "lng": 128.10746330485577,
    "region": "경상남도"
  },
  {
    "name": "제일병원",
    "address": "경상남도 진주시 진주대로 885 (강남동, 제일병원)",
    "lat": 35.1795092215407,
    "lng": 128.09065682743187,
    "region": "경상남도"
  },
  {
    "name": "경상남도농업기술원 본관 지하",
    "address": "경상남도 진주시 대신로 570 (초전동, 경상남도농업기술원)",
    "lat": 35.21129725994758,
    "lng": 128.11571773148648,
    "region": "경상남도"
  },
  {
    "name": "전윤숙조리직업전문학교 지하주차장",
    "address": "경상남도 진주시 동진로 125-0 (상대동)",
    "lat": 35.17954270404108,
    "lng": 128.1048745826699,
    "region": "경상남도"
  },
  {
    "name": "상평대림아파트 지하 1층",
    "address": "경상남도 진주시 남강로 951 (상평동, 대림아파트)",
    "lat": 35.17445837283896,
    "lng": 128.09991050356606,
    "region": "경상남도"
  },
  {
    "name": "삼전3차아파트 지하 1층",
    "address": "경상남도 진주시 하대로106번길 14 (하대동, 삼전3차아파트)",
    "lat": 35.192062205280024,
    "lng": 128.12319663009265,
    "region": "경상남도"
  },
  {
    "name": "진풍빌라 지하1층",
    "address": "경상남도 진주시 진주성로178번길 8-5 (상봉동, 진풍아파트)",
    "lat": 35.20585411343446,
    "lng": 128.075218040287,
    "region": "경상남도"
  },
  {
    "name": "89국민주택3차 지하 1층",
    "address": "경상남도 진주시 남강로1069번길 4-1 (상평동, 국민주택3차)",
    "lat": 35.169048734121795,
    "lng": 128.10940267214167,
    "region": "경상남도"
  },
  {
    "name": "89국민주택1차 나동 지하 1층",
    "address": "경상남도 진주시 남강로1093번길 14, 나동 (상평동, 국민1차아파트)",
    "lat": 35.16952423761445,
    "lng": 128.11160438135715,
    "region": "경상남도"
  },
  {
    "name": "89국민주택1차 가동 지하 1층",
    "address": "경상남도 진주시 남강로1093번길 14 (상평동, 국민1차아파트)",
    "lat": 35.16952423761445,
    "lng": 128.11160438135715,
    "region": "경상남도"
  },
  {
    "name": "삼호맨션 지하 1층",
    "address": "경상남도 진주시 하대로106번길 13 (하대동, 하대삼호맨션)",
    "lat": 35.192090281268484,
    "lng": 128.123309746693,
    "region": "경상남도"
  },
  {
    "name": "89국민주택2차 지하 1층",
    "address": "경상남도 진주시 공단로236번길 24 (상평동, 89상평국민주택(2차))",
    "lat": 35.17386484892941,
    "lng": 128.12569086321503,
    "region": "경상남도"
  },
  {
    "name": "동국강변타워1 지하 1층",
    "address": "경상남도 진주시 큰들로66번길 12 (상평동, 동국강변아파트)",
    "lat": 35.17001317959074,
    "lng": 128.11015422916083,
    "region": "경상남도"
  },
  {
    "name": "무림페이퍼 지하 1층",
    "address": "경상남도 진주시 남강로 1003 (상평동)",
    "lat": 35.17095504354287,
    "lng": 128.10235693679095,
    "region": "경상남도"
  },
  {
    "name": "일신아파트 지하 1층",
    "address": "경상남도 진주시 하대로34번길 10 (하대동, 일신아파트)",
    "lat": 35.19315069357096,
    "lng": 128.11451813373094,
    "region": "경상남도"
  },
  {
    "name": "하영파크맨션 지하 1층",
    "address": "경상남도 진주시 말티고개로100번길 16-6 (하대동, 하영파크아파트)",
    "lat": 35.19638891166994,
    "lng": 128.111515612823,
    "region": "경상남도"
  },
  {
    "name": "삼전프라자아파트 지하 2층",
    "address": "경상남도 진주시 도동로 251 (하대동, 삼전프라자)",
    "lat": 35.192785760309874,
    "lng": 128.12174838057516,
    "region": "경상남도"
  },
  {
    "name": "대화맨션 지하 1층",
    "address": "경상남도 진주시 하대로105번길 4-1 (하대동, 대화파크맨션)",
    "lat": 35.19355745079492,
    "lng": 128.12348399696938,
    "region": "경상남도"
  },
  {
    "name": "그린타운(구)삼진빌라 지하주차장1층",
    "address": "경상남도 진주시 석갑로156번길 19 (신안동, 그린타운)",
    "lat": 35.182642885765574,
    "lng": 128.06410389740188,
    "region": "경상남도"
  },
  {
    "name": "하대대림아파트 지하 1층",
    "address": "경상남도 진주시 도동천로 310 (하대동, 하대대림아파트)",
    "lat": 35.193767995047565,
    "lng": 128.12697415251145,
    "region": "경상남도"
  },
  {
    "name": "동국강변타워2 지하 1층",
    "address": "경상남도 진주시 돗골로19번길 10 (상평동, 동국강변타워)",
    "lat": 35.16998760360173,
    "lng": 128.11185119637975,
    "region": "경상남도"
  },
  {
    "name": "도동대림아파트 지하 1층",
    "address": "경상남도 진주시 하대로40번길 4 (하대동, 도동대림아파트)",
    "lat": 35.19241637134164,
    "lng": 128.11522601903727,
    "region": "경상남도"
  },
  {
    "name": "흥한아파트 지하 1층",
    "address": "경상남도 진주시 선학산길 97-1 (하대동, 흥한하대아파트)",
    "lat": 35.188572660662146,
    "lng": 128.11397925083725,
    "region": "경상남도"
  },
  {
    "name": "대경아파트 지하 1층",
    "address": "경상남도 진주시 도동로264번길 31 (하대동, 대경하대아파트)",
    "lat": 35.194110963027164,
    "lng": 128.12519067719154,
    "region": "경상남도"
  },
  {
    "name": "대영아파트",
    "address": "경상남도 진주시 말티고개로 102-5 (하대동, 하대대영아파트)",
    "lat": 35.196525315201406,
    "lng": 128.11262836266184,
    "region": "경상남도"
  },
  {
    "name": "동국한양빌라 지하 1층",
    "address": "경상남도 진주시 문산읍 월아산로 1094 (한양빌라)",
    "lat": 35.168631701966945,
    "lng": 128.16258911969095,
    "region": "경상남도"
  },
  {
    "name": "삼전빌라 지하주차장1층",
    "address": "경상남도 진주시 의병로243번길 4 (봉래동, 삼전빌라)",
    "lat": 35.200218057590554,
    "lng": 128.08455496839088,
    "region": "경상남도"
  },
  {
    "name": "초전일동아파트 지하 1층",
    "address": "경상남도 진주시 초전북로 20-1 (초전동, 초전일동아파트)",
    "lat": 35.20758742099181,
    "lng": 128.10916631071677,
    "region": "경상남도"
  },
  {
    "name": "동성가든타워 지하2층",
    "address": "경상남도 진주시 진주대로 901 (강남동, 동성가든타워)",
    "lat": 35.180829963124204,
    "lng": 128.0899921418124,
    "region": "경상남도"
  },
  {
    "name": "덕산아파트 지하1층",
    "address": "경상남도 진주시 서장대로178번길 17 (이현동, 진주덕산아파트)",
    "lat": 35.18729330397386,
    "lng": 128.05875457795855,
    "region": "경상남도"
  },
  {
    "name": "판문동 현대아파트 102동 지하1층",
    "address": "경상남도 진주시 진양호로51번길 6-7 (판문동, 현대아파트)",
    "lat": 35.16765985753273,
    "lng": 128.0462555422903,
    "region": "경상남도"
  },
  {
    "name": "판문동 현대아파트 103동 지하1층",
    "address": "경상남도 진주시 진양호로51번길 6-7 (판문동, 현대아파트)",
    "lat": 35.16765985753273,
    "lng": 128.0462555422903,
    "region": "경상남도"
  },
  {
    "name": "대경그린파크 지하주차장 1층",
    "address": "경상남도 진주시 순환로573번길 21 (평거동, 대경그린파크)",
    "lat": 35.17320376282873,
    "lng": 128.0575495409722,
    "region": "경상남도"
  },
  {
    "name": "하영그린맨션A동 지하1층",
    "address": "경상남도 진주시 진양호로97번길 8-3 (평거동, 하영그린맨션)",
    "lat": 35.16796970091325,
    "lng": 128.05079267782787,
    "region": "경상남도"
  },
  {
    "name": "한보타운 지하1층",
    "address": "경상남도 진주시 진양호로97번길 19-6 (평거동, 한보타운)",
    "lat": 35.16907683387054,
    "lng": 128.04982872216252,
    "region": "경상남도"
  },
  {
    "name": "벽산동신2아파트 지하1층",
    "address": "경상남도 진주시 진양호로125번길 22-12 (평거동, 벽산동신2아파트)",
    "lat": 35.170663086345925,
    "lng": 128.0526581396183,
    "region": "경상남도"
  },
  {
    "name": "강남빌딩",
    "address": "경상남도 진주시 진주대로 977 (강남동)",
    "lat": 35.187068795113575,
    "lng": 128.0868645042826,
    "region": "경상남도"
  },
  {
    "name": "초전대림아파트 지하 1층",
    "address": "경상남도 진주시 말티고개로 113 (초전동, 초전대림아파트)",
    "lat": 35.19666673139346,
    "lng": 128.11384123520153,
    "region": "경상남도"
  },
  {
    "name": "흥한스위트아파트지하 1~3층",
    "address": "경상남도 진주시 신안로 94 (신안동, 흥한스위트)",
    "lat": 35.18658679617159,
    "lng": 128.07077525905714,
    "region": "경상남도"
  },
  {
    "name": "현대아파트 104동 지하1층",
    "address": "경상남도 진주시 천수로 315 (신안동, 현대아파트)",
    "lat": 35.184673117459845,
    "lng": 128.0717737646828,
    "region": "경상남도"
  },
  {
    "name": "현대아파트 105동 지하1층",
    "address": "경상남도 진주시 천수로 315 (신안동, 현대아파트)",
    "lat": 35.184673117459845,
    "lng": 128.0717737646828,
    "region": "경상남도"
  },
  {
    "name": "현대아파트 106동 지하1층",
    "address": "경상남도 진주시 천수로 315 (신안동, 현대아파트)",
    "lat": 35.184673117459845,
    "lng": 128.0717737646828,
    "region": "경상남도"
  },
  {
    "name": "대경강변맨션 지하1층",
    "address": "경상남도 진주시 남강로503번길 7 (신안동, 대경강변맨션)",
    "lat": 35.18316712885274,
    "lng": 128.07327963110512,
    "region": "경상남도"
  },
  {
    "name": "흥한1차아파트 지하1층",
    "address": "경상남도 진주시 진양호로328번길 4 (신안동, 신안1차흥한타운)",
    "lat": 35.181884665022096,
    "lng": 128.0671668704449,
    "region": "경상남도"
  },
  {
    "name": "흥한2차아파트 지하1층",
    "address": "경상남도 진주시 평거로139번길 11-3 (신안동, 신안흥한타운2차아파트)",
    "lat": 35.181376831411384,
    "lng": 128.06823677317757,
    "region": "경상남도"
  },
  {
    "name": "평거현대2차아파트 지하1층",
    "address": "경상남도 진주시 신안들말길 58 (신안동, 평거2차현대아파트)",
    "lat": 35.18049932060055,
    "lng": 128.06613737621802,
    "region": "경상남도"
  },
  {
    "name": "한보하이타운 지하주차장 1층",
    "address": "경상남도 진주시 순환로553번길 7 (평거동, 한보하이타운)",
    "lat": 35.17290855093926,
    "lng": 128.059335316224,
    "region": "경상남도"
  },
  {
    "name": "쌍용아파트 지하 2층",
    "address": "경상남도 진주시 말티고개로108번길 5 (하대동, 진주쌍용아파트)",
    "lat": 35.196279087417864,
    "lng": 128.11318598492332,
    "region": "경상남도"
  },
  {
    "name": "복음병원 지하1층",
    "address": "경상남도 진주시 진양호로 370 (신안동, 복음병원)",
    "lat": 35.18542742788929,
    "lng": 128.0692336552552,
    "region": "경상남도"
  },
  {
    "name": "신안한주빌라 지하1층",
    "address": "경상남도 진주시 남강로477번길 7 (신안동, 신안한주빌라)",
    "lat": 35.18093787039636,
    "lng": 128.07218099092918,
    "region": "경상남도"
  },
  {
    "name": "신안2차주공아파트 지하주차장1 층",
    "address": "경상남도 진주시 신안들말길 47 (신안동, 주공2차아파트)",
    "lat": 35.17930257723672,
    "lng": 128.06652669992363,
    "region": "경상남도"
  },
  {
    "name": "올림피아골든맨션 지하 1층",
    "address": "경상남도 진주시 모덕로270번길 12 (하대동, 올림피아골든맨션)",
    "lat": 35.188058926562576,
    "lng": 128.12345636589592,
    "region": "경상남도"
  },
  {
    "name": "성창아파트 지하 1층",
    "address": "경상남도 진주시 모덕로 283 (하대동, 성창조합주택)",
    "lat": 35.18908545760377,
    "lng": 128.12508489434308,
    "region": "경상남도"
  },
  {
    "name": "임광아파트 지하 1층",
    "address": "경상남도 진주시 모덕로 293 (하대동, 임광아파트)",
    "lat": 35.189131298469576,
    "lng": 128.12610813124988,
    "region": "경상남도"
  },
  {
    "name": "한보타워아파트 지하 1층",
    "address": "경상남도 진주시 모덕로306번길 2 (하대동, 한보타워맨션)",
    "lat": 35.18887386771419,
    "lng": 128.1273552214335,
    "region": "경상남도"
  },
  {
    "name": "삼전2차아파트 지하 1층",
    "address": "경상남도 진주시 모덕로306번길 17 (하대동, 삼전2차아파트)",
    "lat": 35.187596893330046,
    "lng": 128.1275800103584,
    "region": "경상남도"
  },
  {
    "name": "한보힐타워 지하 1층",
    "address": "경상남도 진주시 상대로143번길 11-2 (하대동, 한보힐타워맨션)",
    "lat": 35.185922822485864,
    "lng": 128.12746082778014,
    "region": "경상남도"
  },
  {
    "name": "럭키강변아파트 지하 1층",
    "address": "경상남도 진주시 남강로 1407 (하대동, 럭키강변아파트)",
    "lat": 35.18636411090651,
    "lng": 128.12855250092025,
    "region": "경상남도"
  },
  {
    "name": "하대한보아파트 지하 1층",
    "address": "경상남도 진주시 남강로 1399 (하대동, 하대한보아파트)",
    "lat": 35.185436069758275,
    "lng": 128.1286285600129,
    "region": "경상남도"
  },
  {
    "name": "하대현대아파트 지하 1층",
    "address": "경상남도 진주시 하대로 142 (하대동, 현대아파트)",
    "lat": 35.19331165755599,
    "lng": 128.1271123084752,
    "region": "경상남도"
  },
  {
    "name": "망경한보아파트 지하1층",
    "address": "경상남도 진주시 망경로 234-5 (망경동, 망경한보타운)",
    "lat": 35.182616252416054,
    "lng": 128.0795982074036,
    "region": "경상남도"
  },
  {
    "name": "상봉한주타운 지하주차장 1층",
    "address": "경상남도 진주시 진주대로1208번길 16 (상봉동, 상봉한주타운)",
    "lat": 35.19566319294111,
    "lng": 128.0707810360027,
    "region": "경상남도"
  },
  {
    "name": "화인아파트 지하주차장 1층",
    "address": "경상남도 진주시 상봉대룡길 18 (상봉동, 화인아파트)",
    "lat": 35.20143148682835,
    "lng": 128.06882827681895,
    "region": "경상남도"
  },
  {
    "name": "유곡한보아파트 지하1층",
    "address": "경상남도 진주시 진주대로1270번길 11-1 (유곡동, 유곡한보아파트)",
    "lat": 35.19446069446081,
    "lng": 128.06381606023555,
    "region": "경상남도"
  },
  {
    "name": "삼성아파트 지하1층",
    "address": "경상남도 진주시 동부로43번길 10-13 (호탄동, 삼성아파트)",
    "lat": 35.161984888506815,
    "lng": 128.1130973783364,
    "region": "경상남도"
  },
  {
    "name": "현대아파트 동 지하(초전동)",
    "address": "경상남도 진주시 초전남로 60 (초전동, 현대아파트)",
    "lat": 35.201674437144376,
    "lng": 128.11338350022262,
    "region": "경상남도"
  },
  {
    "name": "청구타운 지하 1층(초전동)",
    "address": "경상남도 진주시 대신로475번길 16-5 (초전동, 청구타운)",
    "lat": 35.20262855845769,
    "lng": 128.11442907218006,
    "region": "경상남도"
  },
  {
    "name": "상대현대아파트 지하주차장",
    "address": "경상남도 진주시 모덕로181번길 7 (상대동, 상대현대아파트)",
    "lat": 35.18754258013274,
    "lng": 128.11445026722706,
    "region": "경상남도"
  },
  {
    "name": "신안3차주공아파트 지하주차장 1층",
    "address": "경상남도 진주시 석갑로 58 (신안동, 주공3차아파트)",
    "lat": 35.17705242472891,
    "lng": 128.06487174003627,
    "region": "경상남도"
  },
  {
    "name": "들말한보아파트 지하주차장 1층",
    "address": "경상남도 진주시 평거로39번길 9 (평거동, 들말한보타운)",
    "lat": 35.174251407540865,
    "lng": 128.06388931094432,
    "region": "경상남도"
  },
  {
    "name": "옥봉대림아파트 지하주차장1층",
    "address": "경상남도 진주시 향교로115번길 10 (옥봉동, 대림아파트)",
    "lat": 35.19592136202248,
    "lng": 128.09354545200952,
    "region": "경상남도"
  },
  {
    "name": "옥봉새마을금고 지하주차장1층",
    "address": "경상남도 진주시 진산로 5 (옥봉동)",
    "lat": 35.19336938580433,
    "lng": 128.0918813909264,
    "region": "경상남도"
  },
  {
    "name": "남강한주아파트 지하주차장1층",
    "address": "경상남도 진주시 남강로736번길 6-3 (옥봉동, 남강한주타운)",
    "lat": 35.19087002985308,
    "lng": 128.09180627849412,
    "region": "경상남도"
  },
  {
    "name": "경상대학교 병원",
    "address": "경상남도 진주시 강남로 79 (칠암동, 경상대학교병원)",
    "lat": 35.17595203707683,
    "lng": 128.0965923508111,
    "region": "경상남도"
  },
  {
    "name": "문화예술회관",
    "address": "경상남도 진주시 강남로 215 (강남동)",
    "lat": 35.18654782500437,
    "lng": 128.09289125169974,
    "region": "경상남도"
  },
  {
    "name": "칠암한주아파트 지하1층",
    "address": "경상남도 진주시 강남로 101 (칠암동, 칠암한주아파트)",
    "lat": 35.17765634231753,
    "lng": 128.09775574697596,
    "region": "경상남도"
  },
  {
    "name": "대화강변아파트 지하 1층",
    "address": "경상남도 진주시 도동천로 311 (하대동, 대화강변마을)",
    "lat": 35.19418088921038,
    "lng": 128.12685610558097,
    "region": "경상남도"
  },
  {
    "name": "동서훼밀리아파트 지하주차장",
    "address": "경상남도 진주시 선학산길 22 (상대동, 동서훼밀리)",
    "lat": 35.18408051243002,
    "lng": 128.10886476494548,
    "region": "경상남도"
  },
  {
    "name": "들말대경아파트 지하주차장 1층",
    "address": "경상남도 진주시 석갑로53번길 10 (평거동, 들말대경아파트)",
    "lat": 35.176377161276136,
    "lng": 128.06426307841858,
    "region": "경상남도"
  },
  {
    "name": "신안1차주공아파트 지하주차장 1층",
    "address": "경상남도 진주시 신안들말길 17 (신안동, 주공1차아파트)",
    "lat": 35.17812107563212,
    "lng": 128.0696289414842,
    "region": "경상남도"
  },
  {
    "name": "판문동 현대아파트 101동 지하1층",
    "address": "경상남도 진주시 진양호로51번길 6-7 (판문동, 현대아파트)",
    "lat": 35.16765985753273,
    "lng": 128.0462555422903,
    "region": "경상남도"
  },
  {
    "name": "경상국립대학교 지하1층",
    "address": "경상남도 진주시 진주대로 501 (가좌동, 경상대학교)",
    "lat": 35.15240956400648,
    "lng": 128.10489256845892,
    "region": "경상남도"
  },
  {
    "name": "한보프라자 지하 1층",
    "address": "경상남도 진주시 동진로 111 (상대동, 한보프라자)",
    "lat": 35.17957079281794,
    "lng": 128.10353666777095,
    "region": "경상남도"
  },
  {
    "name": "근로자가족복지회관",
    "address": "경상남도 진주시 동진로263번길 14 (상대동, 근로자가족복지회관)",
    "lat": 35.18124448315133,
    "lng": 128.1209600339061,
    "region": "경상남도"
  },
  {
    "name": "진주소방서",
    "address": "경상남도 진주시 동진로 249 (상대동, 진주소방서)",
    "lat": 35.180244494629406,
    "lng": 128.11833825032113,
    "region": "경상남도"
  },
  {
    "name": "상대흥한아파트 지하1층",
    "address": "경상남도 진주시 대신로243번길 12 (상대동, 상대흥한아파트)",
    "lat": 35.18216512455164,
    "lng": 128.11626499014244,
    "region": "경상남도"
  },
  {
    "name": "김양수일천빌딩 지하주차장 1층",
    "address": "경상남도 진주시 진양호로 505 (중안동)",
    "lat": 35.19214480229212,
    "lng": 128.08085965757482,
    "region": "경상남도"
  },
  {
    "name": "도남빌딩 지하주차장 1층",
    "address": "경상남도 진주시 촉석로 121 (봉곡동)",
    "lat": 35.19335234134169,
    "lng": 128.0757327148863,
    "region": "경상남도"
  },
  {
    "name": "용산당 지하주차장 1층",
    "address": "경상남도 진주시 진주대로 1206 (봉곡동)",
    "lat": 35.19438844239175,
    "lng": 128.0712864264093,
    "region": "경상남도"
  },
  {
    "name": "대경빌라트 지하1층",
    "address": "경상남도 진주시 가호로 79 (호탄동, 대경빌라트)",
    "lat": 35.164537502224,
    "lng": 128.1148286972639,
    "region": "경상남도"
  },
  {
    "name": "진주시청",
    "address": "경상남도 진주시 동진로 155 (상대동, 진주시청)",
    "lat": 35.17970363897628,
    "lng": 128.10800283528653,
    "region": "경상남도"
  },
  {
    "name": "상대한보아파트 지하1,2층",
    "address": "경상남도 진주시 도동천로 120 (상대동, 상대한보아파트)",
    "lat": 35.18152884513557,
    "lng": 128.11270128750053,
    "region": "경상남도"
  },
  {
    "name": "주약한보은빛아파트 지하1,2층",
    "address": "경상남도 진주시 진주대로 789 (주약동, 한보은빛마을)",
    "lat": 35.17130755338551,
    "lng": 128.09457198332453,
    "region": "경상남도"
  },
  {
    "name": "금호석류마을 지하1층",
    "address": "경상남도 진주시 강남로 45 (주약동, 금호석류마을)",
    "lat": 35.17283936673169,
    "lng": 128.096077762612,
    "region": "경상남도"
  },
  {
    "name": "대동디지털황토아파트 지하1층",
    "address": "경상남도 진주시 가호로44번길 7 (호탄동, 대동디지털황토아파트)",
    "lat": 35.16320708389138,
    "lng": 128.11133512817707,
    "region": "경상남도"
  },
  {
    "name": "초전흥한황토방아파트 지하 1층",
    "address": "경상남도 진주시 초전남로 30 (초전동, 초전흥한황토방아파트)",
    "lat": 35.19927411511276,
    "lng": 128.11402227444705,
    "region": "경상남도"
  },
  {
    "name": "덕성빌딩 지하주차장1층",
    "address": "경상남도 진주시 진양호로 568-1 (장대동)",
    "lat": 35.19389564475202,
    "lng": 128.08741395607973,
    "region": "경상남도"
  },
  {
    "name": "진주중앙지하상가 지하1층",
    "address": "경상남도 진주시 진주대로 지하 1035 (대안동, 진주지하상가)",
    "lat": 35.192086034795786,
    "lng": 128.0846490801066,
    "region": "경상남도"
  },
  {
    "name": "가좌그린빌주공아파트 지하1층",
    "address": "경상남도 진주시 내동로348번길 10 (가좌동, 가좌그린빌주공아파트)",
    "lat": 35.14956561870336,
    "lng": 128.10236188318677,
    "region": "경상남도"
  },
  {
    "name": "가좌3주공아파트 지하1층",
    "address": "경상남도 진주시 진주대로568번길 12 (가좌동, 주공3차아파트)",
    "lat": 35.15729330230805,
    "lng": 128.10891286765815,
    "region": "경상남도"
  },
  {
    "name": "가좌제일풍경채아파트 지하1층",
    "address": "경상남도 진주시 가좌안골길21번길 5 (가좌동, 가좌제일풍경채)",
    "lat": 35.153704952038034,
    "lng": 128.10880815970216,
    "region": "경상남도"
  },
  {
    "name": "이현웰가아파트 지하1층",
    "address": "경상남도 진주시 진주대로 1317 (이현동, 이현하이클래스웰가아파트)",
    "lat": 35.193902717523486,
    "lng": 128.05897514670622,
    "region": "경상남도"
  },
  {
    "name": "영채메디컬센터 지하주차장1층",
    "address": "경상남도 진주시 향교로 13 (수정동)",
    "lat": 35.19777001377958,
    "lng": 128.08418297219626,
    "region": "경상남도"
  },
  {
    "name": "견성스타뷰 지하주차장 1층",
    "address": "경상남도 진주시 진주대로1178번길 8 (봉곡동, 견성스타뷰)",
    "lat": 35.19570643050561,
    "lng": 128.07416863611198,
    "region": "경상남도"
  },
  {
    "name": "진주문산코아루아파트 지하 1층",
    "address": "경상남도 진주시 문산읍 월아산로1117번길 5 (진주문산코아루아파트)",
    "lat": 35.170755180277496,
    "lng": 128.1610141821898,
    "region": "경상남도"
  },
  {
    "name": "상평동 동일스위트아파트 지하주차장 1층",
    "address": "경상남도 진주시 공단로 30 (상평동, 상평동동일스위트아파트)",
    "lat": 35.17481595460158,
    "lng": 128.10287300206414,
    "region": "경상남도"
  },
  {
    "name": "(주)한화갤러리아진주점 지하주차장2층",
    "address": "경상남도 진주시 진주대로 1095 (평안동, 한화갤러리아백화점)",
    "lat": 35.19696232450695,
    "lng": 128.08252356119974,
    "region": "경상남도"
  },
  {
    "name": "주약현대아파트 지하1층",
    "address": "경상남도 진주시 진주대로815번길 11 (주약동, 주약현대아파트)",
    "lat": 35.17320216105367,
    "lng": 128.0928397711688,
    "region": "경상남도"
  },
  {
    "name": "동명아파트 지하주차장",
    "address": "경상남도 진주시 돗골로 165 (상대동, 동명아파트)",
    "lat": 35.183005114681464,
    "lng": 128.11189769948723,
    "region": "경상남도"
  },
  {
    "name": "상대한주그린아파트 지하주차장",
    "address": "경상남도 진주시 선학산길 46 (상대동, 상대한주그린아파트)",
    "lat": 35.185801580333006,
    "lng": 128.11034704065767,
    "region": "경상남도"
  },
  {
    "name": "교보생명",
    "address": "경상남도 진주시 진주대로 884 (칠암동)",
    "lat": 35.17951856099437,
    "lng": 128.09107310113583,
    "region": "경상남도"
  },
  {
    "name": "대덕아파트",
    "address": "경상남도 진주시 진주대로942번길 16 (칠암동, 칠암대덕아파트)",
    "lat": 35.18466095140491,
    "lng": 128.0899810624511,
    "region": "경상남도"
  },
  {
    "name": "진주롯데인벤스 지하주차장1층",
    "address": "경상남도 진주시 향교로 3 (평안동, 진주롯데인벤스)",
    "lat": 35.197645847264695,
    "lng": 128.08306723685865,
    "region": "경상남도"
  },
  {
    "name": "에스디푸른마을 지하주차장 1층",
    "address": "경상남도 진주시 상봉대룡길 37 (상봉동, 에스디푸른마을)",
    "lat": 35.20303337280647,
    "lng": 128.06752179442458,
    "region": "경상남도"
  },
  {
    "name": "진주초전푸르지오1단지 지하 1,2층",
    "address": "경상남도 진주시 초장로14번길 27 (초전동, 진주초전푸르지오1단지)",
    "lat": 35.205222656967244,
    "lng": 128.11258164024733,
    "region": "경상남도"
  },
  {
    "name": "진주초전푸르지오2단지 지하 1,2층",
    "address": "경상남도 진주시 초장로14번길 29 (초전동, 진주초전푸르지오2단지)",
    "lat": 35.20543989520467,
    "lng": 128.1124356756752,
    "region": "경상남도"
  },
  {
    "name": "휴먼시아4단지 지하1층",
    "address": "경상남도 진주시 새평거로 75 (평거동, 평거휴먼시아4단지)",
    "lat": 35.167372657192146,
    "lng": 128.05588110309318,
    "region": "경상남도"
  },
  {
    "name": "평거엘에이치5단지 지하1층",
    "address": "경상남도 진주시 새평거로 70 (평거동, 평거엘에이치5단지)",
    "lat": 35.16712810856406,
    "lng": 128.05608319168937,
    "region": "경상남도"
  },
  {
    "name": "진주혁신도시센텀리버파크 아파트 지하주차장 1층",
    "address": "경상남도 진주시 사들로 157 (충무공동)",
    "lat": 35.18167524739384,
    "lng": 128.14898796759388,
    "region": "경상남도"
  },
  {
    "name": "진주혁신코오롱하늘채아파트 지하주차장 1층",
    "address": "경상남도 진주시 사들로 126 (충무공동)",
    "lat": 35.178846604791715,
    "lng": 128.14855020839656,
    "region": "경상남도"
  },
  {
    "name": "들말흥한아파트 지하주차장 1층",
    "address": "경상남도 진주시 석갑로 45 (평거동, 들말흥한아파트)",
    "lat": 35.17642294422506,
    "lng": 128.06567164603558,
    "region": "경상남도"
  },
  {
    "name": "평거휴먼시아3단지아파트 지하주차장 1층",
    "address": "경상남도 진주시 새평거로 111 (평거동, 평거휴먼시아3단지)",
    "lat": 35.16985086214964,
    "lng": 128.0596910273404,
    "region": "경상남도"
  },
  {
    "name": "더 퀸즈웰가 지하1층",
    "address": "경상남도 진주시 새평거로 25 (평거동, 더퀸즈웰가)",
    "lat": 35.16591096283988,
    "lng": 128.052300188302,
    "region": "경상남도"
  },
  {
    "name": "엠코타운 더 프라하 지하1층",
    "address": "경상남도 진주시 새평거로 30 (평거동, 엠코타운더프라하)",
    "lat": 35.16563786315781,
    "lng": 128.05237900615876,
    "region": "경상남도"
  },
  {
    "name": "진주초장엠코타운더이스턴파크 지하 1층",
    "address": "경상남도 진주시 초북로 77 (초전동, 진주 초장 엠코타운 더 이스턴파크)",
    "lat": 35.21322416274641,
    "lng": 128.10709019392306,
    "region": "경상남도"
  },
  {
    "name": "초전해모로루비채2단지 지하 1층",
    "address": "경상남도 진주시 초북로 88 (초전동, 초전 해모로 루비채 2단지)",
    "lat": 35.21433004897693,
    "lng": 128.10802909228147,
    "region": "경상남도"
  },
  {
    "name": "초전해모로루비채4단지 지하 1층",
    "address": "경상남도 진주시 초북로 55 (초전동, 초전 해모로 루비채 4단지)",
    "lat": 35.21272516768931,
    "lng": 128.10998305762922,
    "region": "경상남도"
  },
  {
    "name": "혁신도시엘에이치아파트5단지 지하주차장 1층~2층",
    "address": "경상남도 진주시 충의로 67 (충무공동, 혁신도시엘에이치아파트5단지)",
    "lat": 35.1779068505531,
    "lng": 128.15256311481338,
    "region": "경상남도"
  },
  {
    "name": "혁신도시엘에이치아파트8단지 지하주차장 1층",
    "address": "경상남도 진주시 사들로 35 (충무공동, 혁신도시엘에이치아파트8단지)",
    "lat": 35.17130453503962,
    "lng": 128.14731223540085,
    "region": "경상남도"
  },
  {
    "name": "한림풀에버 아파트 지하주차장 1층~2층",
    "address": "경상남도 진주시 소호로 39 (충무공동, 한림풀에버)",
    "lat": 35.172131026637,
    "lng": 128.13503921214834,
    "region": "경상남도"
  },
  {
    "name": "진주문산파란채 지하 1층",
    "address": "경상남도 진주시 문산읍 월아산로1048번길 15 (진주문산파란채아파트)",
    "lat": 35.16490839535253,
    "lng": 128.16630674782994,
    "region": "경상남도"
  },
  {
    "name": "혁신도시LH아파트9단지 지하주차장 1층",
    "address": "경상남도 진주시 사들로 13 (충무공동, 혁신도시엘에이치아파트9단지)",
    "lat": 35.17037242262437,
    "lng": 128.145341008059,
    "region": "경상남도"
  },
  {
    "name": "평거하우스토리아파트 지하주차장 1층",
    "address": "경상남도 진주시 진양호로239번길 13 (평거동, 평거하우스토리아파트)",
    "lat": 35.17578278248385,
    "lng": 128.06060096852184,
    "region": "경상남도"
  },
  {
    "name": "엘크루아파트 지하주차장 1층",
    "address": "경상남도 진주시 새평거로 112 (평거동, 진주평거엘크루)",
    "lat": 35.16964169603482,
    "lng": 128.05990041036128,
    "region": "경상남도"
  },
  {
    "name": "건영아모리움아파트 지하주차장 1층",
    "address": "경상남도 진주시 진양호로225번길 13 (평거동, 건영아모리움)",
    "lat": 35.1748485392046,
    "lng": 128.05985766228167,
    "region": "경상남도"
  },
  {
    "name": "가호에일린의뜰 지하1,2층",
    "address": "경상남도 진주시 강변길 31 (가좌동, 가호에일린의뜰아파트)",
    "lat": 35.1658200713031,
    "lng": 128.10949886028328,
    "region": "경상남도"
  },
  {
    "name": "진주금산푸르지오2단지 전동 지하1층",
    "address": "경상남도 진주시 금산면 덕의길 11 (진주푸르지오2단지)",
    "lat": 35.2183420366007,
    "lng": 128.14694083050318,
    "region": "경상남도"
  },
  {
    "name": "금산진흥더루벤스 전동 지하1층",
    "address": "경상남도 진주시 금산면 금산로 22 (진주금산 진흥 더 루벤스)",
    "lat": 35.2133864044311,
    "lng": 128.13887854737277,
    "region": "경상남도"
  },
  {
    "name": "금산흥한골든빌 전동 지하1층",
    "address": "경상남도 진주시 금산면 금산로 123 (금산흥한골든빌)",
    "lat": 35.21402602398209,
    "lng": 128.14894356321125,
    "region": "경상남도"
  },
  {
    "name": "진주금산푸르지오1단지 전동 지하1층",
    "address": "경상남도 진주시 금산면 덕의길 15 (진주푸르지오1단지)",
    "lat": 35.21845454239333,
    "lng": 128.14676902879867,
    "region": "경상남도"
  },
  {
    "name": "금산e-편한세상 전동 지하1층",
    "address": "경상남도 진주시 금산면 금산순환로80번길 16 (금산 e-편한세상)",
    "lat": 35.22048661202925,
    "lng": 128.15235224633958,
    "region": "경상남도"
  },
  {
    "name": "금산아이파크 전동 지하1층",
    "address": "경상남도 진주시 금산면 중천로 82 (금산아이파크아파트)",
    "lat": 35.21708008654202,
    "lng": 128.14526507821947,
    "region": "경상남도"
  },
  {
    "name": "진주혁신도시 대방노블랜드 더캐슬 아파트 지하주차장 1층",
    "address": "경상남도 진주시 사들로 61 (충무공동, 진주혁신도시대방노블랜드더캐슬아파트)",
    "lat": 35.17311828694445,
    "lng": 128.14874639731758,
    "region": "경상남도"
  },
  {
    "name": "진주혁신도시 라온프라이빗아파트 지하주차장 1층",
    "address": "경상남도 진주시 대밭골로 92 (충무공동, 진주혁신도시라온프라이빗아파트)",
    "lat": 35.180686931031296,
    "lng": 128.15146680759037,
    "region": "경상남도"
  },
  {
    "name": "혁신도시LH아파트3단지 지하주차장 1층",
    "address": "경상남도 진주시 대밭골로 91 (충무공동, 혁신도시LH아파트3단지)",
    "lat": 35.180607736414885,
    "lng": 128.1517932835639,
    "region": "경상남도"
  },
  {
    "name": "혁신도시엔에이치에프10단지아파트 지하주차장 1층",
    "address": "경상남도 진주시 에나로228번길 10 (충무공동, 혁신도시엔에이치에프10단지)",
    "lat": 35.1699753548506,
    "lng": 128.14310862830237,
    "region": "경상남도"
  },
  {
    "name": "충무데파트 지하주차장 1층",
    "address": "경상남도 통영시 중앙로 160 (태평동, 충무데파트)",
    "lat": 34.84588327987813,
    "lng": 128.42396164376677,
    "region": "경상남도"
  },
  {
    "name": "통영축산농협 충무지점 지하 1층",
    "address": "경상남도 통영시 중앙로 124, 성광빌딩 (항남동)",
    "lat": 34.8427647132569,
    "lng": 128.42270304855572,
    "region": "경상남도"
  },
  {
    "name": "일성아파트 2동 지하 1층",
    "address": "경상남도 통영시 도남로 200 (도남동, 일성아파트)",
    "lat": 34.82900492528422,
    "lng": 128.4256738724293,
    "region": "경상남도"
  },
  {
    "name": "동신아파트 101동 지하 1층",
    "address": "경상남도 통영시 미수해안로 54-21 (미수동)",
    "lat": 34.830384483411514,
    "lng": 128.4074022492834,
    "region": "경상남도"
  },
  {
    "name": "동신아파트 102동 지하 1층",
    "address": "경상남도 통영시 미수해안로 54-21 (미수동)",
    "lat": 34.830384483411514,
    "lng": 128.4074022492834,
    "region": "경상남도"
  },
  {
    "name": "동신아파트 103동 지하 1층",
    "address": "경상남도 통영시 미수해안로 54-21 (미수동)",
    "lat": 34.830384483411514,
    "lng": 128.4074022492834,
    "region": "경상남도"
  },
  {
    "name": "동신아파트 104동 지하 1층",
    "address": "경상남도 통영시 미수해안로 54-21 (미수동)",
    "lat": 34.830384483411514,
    "lng": 128.4074022492834,
    "region": "경상남도"
  },
  {
    "name": "동신아파트 105동 지하 1층",
    "address": "경상남도 통영시 미수해안로 54-21 (미수동)",
    "lat": 34.830384483411514,
    "lng": 128.4074022492834,
    "region": "경상남도"
  },
  {
    "name": "동신아파트 106동 지하 1층",
    "address": "경상남도 통영시 미수해안로 54-21 (미수동)",
    "lat": 34.830384483411514,
    "lng": 128.4074022492834,
    "region": "경상남도"
  },
  {
    "name": "동신아파트 107동 지하 1층",
    "address": "경상남도 통영시 미수해안로 54-21 (미수동)",
    "lat": 34.830384483411514,
    "lng": 128.4074022492834,
    "region": "경상남도"
  },
  {
    "name": "통영시청 지하 1층",
    "address": "경상남도 통영시 통영해안로 515 (무전동, 통영시청)",
    "lat": 34.853919400379034,
    "lng": 128.433792409234,
    "region": "경상남도"
  },
  {
    "name": "나포리맨션 지하 1층",
    "address": "경상남도 통영시 진남1길 15 (미수동, 만복나포리맨션)",
    "lat": 34.833324858495416,
    "lng": 128.40847509241826,
    "region": "경상남도"
  },
  {
    "name": "광우그랜드맨션 1-2동 지하 1층",
    "address": "경상남도 통영시 여황로 404-26, 1층 (북신동, 광우그랜드맨션)",
    "lat": 34.85649063858558,
    "lng": 128.42706472435282,
    "region": "경상남도"
  },
  {
    "name": "거송뉴월드맨션 지하주차장 1층",
    "address": "경상남도 통영시 북신발개등1길 11, 1층 (북신동, 거송뉴월드맨션)",
    "lat": 34.85603343524884,
    "lng": 128.42726111239278,
    "region": "경상남도"
  },
  {
    "name": "북신아파트 8-9동 지하 1층",
    "address": "경상남도 통영시 북문2길 56 (북신동, 북신아파트)",
    "lat": 34.85030024920093,
    "lng": 128.4288618390258,
    "region": "경상남도"
  },
  {
    "name": "운하맨션 지하 1층",
    "address": "경상남도 통영시 운하1길 25 (미수동)",
    "lat": 34.832072688474405,
    "lng": 128.4130275888486,
    "region": "경상남도"
  },
  {
    "name": "KT통영지점 지하주차장 1층",
    "address": "경상남도 통영시 여황로 137 (도천동, kt통영지점)",
    "lat": 34.8388784308412,
    "lng": 128.41175644702668,
    "region": "경상남도"
  },
  {
    "name": "도남주공아파트 101동, 102동 지하 1층",
    "address": "경상남도 통영시 발개로 153 (도남동, 충무도남주공아파트)",
    "lat": 34.82648928021111,
    "lng": 128.42104879956824,
    "region": "경상남도"
  },
  {
    "name": "현대아파트 101동 지하 1층",
    "address": "경상남도 통영시 미수해안로 36 (미수동)",
    "lat": 34.82890279151576,
    "lng": 128.40645951062413,
    "region": "경상남도"
  },
  {
    "name": "현대아파트 103동 지하 1층",
    "address": "경상남도 통영시 미수해안로 36 (미수동)",
    "lat": 34.82890279151576,
    "lng": 128.40645951062413,
    "region": "경상남도"
  },
  {
    "name": "현대아파트 지하주차장 1층",
    "address": "경상남도 통영시 미수해안로 36 (미수동)",
    "lat": 34.82890279151576,
    "lng": 128.40645951062413,
    "region": "경상남도"
  },
  {
    "name": "현대아파트 102동 지하 1층",
    "address": "경상남도 통영시 미수해안로 36 (미수동, 현대아파트)",
    "lat": 34.82890279151576,
    "lng": 128.40645951062413,
    "region": "경상남도"
  },
  {
    "name": "진우데파트 지하주차장 1층",
    "address": "경상남도 통영시 원문로 12, 1층 (북신동, 진우데파트)",
    "lat": 34.85738001079273,
    "lng": 128.42737320231964,
    "region": "경상남도"
  },
  {
    "name": "광우주택 3-5호, 6-7호 지하 1층",
    "address": "경상남도 통영시 봉수로 71(봉평동, 광우맨션)",
    "lat": 34.82492929085378,
    "lng": 128.41573508107473,
    "region": "경상남도"
  },
  {
    "name": "천우맨션 지하 1층",
    "address": "경상남도 통영시 봉수로 70 (봉평동, 천우맨션)",
    "lat": 34.825126135746174,
    "lng": 128.4153643315365,
    "region": "경상남도"
  },
  {
    "name": "종우라이프타운 1동, 2동 지하 1층",
    "address": "경상남도 통영시 미수해안로 167 (봉평동, 종우라이프타운)",
    "lat": 34.83214270943953,
    "lng": 128.4145525126319,
    "region": "경상남도"
  },
  {
    "name": "현대아파트 104동 지하 1층",
    "address": "경상남도 통영시 미수해안로 36 (미수동)",
    "lat": 34.82890279151576,
    "lng": 128.40645951062413,
    "region": "경상남도"
  },
  {
    "name": "성원아파트 1차 1동 지하 1층",
    "address": "경상남도 통영시 서송정길 6 (도남동, 통영성원아파트)",
    "lat": 34.83010340551751,
    "lng": 128.4215456237661,
    "region": "경상남도"
  },
  {
    "name": "봉평동행정복지센터 지하 1층",
    "address": "경상남도 통영시 도남로 185 (도남동, 봉평동주민센터)",
    "lat": 34.82952632931701,
    "lng": 128.4243868146934,
    "region": "경상남도"
  },
  {
    "name": "성원아파트 2차 3동 지하 1층",
    "address": "경상남도 통영시 데메4길 68 (도남동, 통영성원아파트)",
    "lat": 34.82647608010938,
    "lng": 128.42275177380725,
    "region": "경상남도"
  },
  {
    "name": "광우화목아파트 지하주차장 1층",
    "address": "경상남도 통영시 원문로 52 (북신동, 광우화목맨션)",
    "lat": 34.85801421677562,
    "lng": 128.4229735765373,
    "region": "경상남도"
  },
  {
    "name": "진우마리나타운 전체 동의 지하주차장 1층",
    "address": "경상남도 통영시 원문로 11, 1층 (북신동, 진우마리나타운)",
    "lat": 34.85715745224526,
    "lng": 128.4271884687821,
    "region": "경상남도"
  },
  {
    "name": "대영유토피아 지하주차장 1층",
    "address": "경상남도 통영시 운하1길 46 (미수동)",
    "lat": 34.83269427639693,
    "lng": 128.41226586247907,
    "region": "경상남도"
  },
  {
    "name": "도천희망나눔터 지하주차장 1층",
    "address": "경상남도 통영시 통영해안로 147-7 (도천동, 도천동주민센터이동민원실)",
    "lat": 34.83711144404378,
    "lng": 128.41364014176688,
    "region": "경상남도"
  },
  {
    "name": "주영라이프 지하주차장 1층",
    "address": "경상남도 통영시 비석1길 49 (태평동, 주영라이프)",
    "lat": 34.84941187294119,
    "lng": 128.42813130857053,
    "region": "경상남도"
  },
  {
    "name": "송림데파트 지하주차장 1층",
    "address": "경상남도 통영시 중앙로 264, 1층 (북신동, 송림데파트)",
    "lat": 34.85392991872288,
    "lng": 128.42899940326856,
    "region": "경상남도"
  },
  {
    "name": "해저터널 지하 1층",
    "address": "경상남도 통영시 도천1길 7 (당동)",
    "lat": 34.83631601851125,
    "lng": 128.41154146522996,
    "region": "경상남도"
  },
  {
    "name": "만복비치1차아파트 지하 1층",
    "address": "경상남도 통영시 중앙로 46 (도천동, 만복도천비취맨션1차)",
    "lat": 34.839147068947554,
    "lng": 128.41527930437678,
    "region": "경상남도"
  },
  {
    "name": "신한토탈아파트 지하주차장 1층",
    "address": "경상남도 통영시 도천상가안길 73 (도천동, 신한토탈아파트)",
    "lat": 34.839486936048125,
    "lng": 128.4166766159193,
    "region": "경상남도"
  },
  {
    "name": "영생상가아파트 나동 지하주차장 1층",
    "address": "경상남도 통영시 도천상가안길 60 (도천동, 영생상가APT2차)",
    "lat": 34.83899247223301,
    "lng": 128.41637099126797,
    "region": "경상남도"
  },
  {
    "name": "영생상가아파트 가동 지하주차장 1층",
    "address": "경상남도 통영시 도천상가안길 50 (도천동, 영생상가아파트1차)",
    "lat": 34.83864232232063,
    "lng": 128.41594999228874,
    "region": "경상남도"
  },
  {
    "name": "도천새마을금고 지하주차장 1층",
    "address": "경상남도 통영시 중앙로 36 (도천동, 도천동새마을금고)",
    "lat": 34.83855353001072,
    "lng": 128.41465604355645,
    "region": "경상남도"
  },
  {
    "name": "세인맨션아파트 3동 지하 1층",
    "address": "경상남도 통영시 데메4길 45 (도남동, 세인맨션아파트)",
    "lat": 34.82739475988384,
    "lng": 128.42327531254858,
    "region": "경상남도"
  },
  {
    "name": "도천아파트1동 지하 1층",
    "address": "경상남도 통영시 여황로 165-14 (도천동, 도천아파트)",
    "lat": 34.84019514394123,
    "lng": 128.41306419323024,
    "region": "경상남도"
  },
  {
    "name": "도천아파트2동 지하 1층",
    "address": "경상남도 통영시 여황로 165-14 (도천동, 도천아파트)",
    "lat": 34.84019514394123,
    "lng": 128.41306419323024,
    "region": "경상남도"
  },
  {
    "name": "도천아파트3동 지하 1층",
    "address": "경상남도 통영시 여황로 165-14 (도천동, 도천아파트)",
    "lat": 34.84019514394123,
    "lng": 128.41306419323024,
    "region": "경상남도"
  },
  {
    "name": "도천아파트4동 지하 1층",
    "address": "경상남도 통영시 여황로 165-14 (도천동, 도천아파트)",
    "lat": 34.84019514394123,
    "lng": 128.41306419323024,
    "region": "경상남도"
  },
  {
    "name": "동원프리텔 지하주차장 1층",
    "address": "경상남도 통영시 여황로 399-5, 동원헬스목욕탕 (북신동)",
    "lat": 34.85633625688462,
    "lng": 128.42533047956798,
    "region": "경상남도"
  },
  {
    "name": "종우원맨션 지하1층",
    "address": "경상남도 통영시 장좌로 20-6 (동호동, 종우원맨션)",
    "lat": 34.84319563277104,
    "lng": 128.42984080568925,
    "region": "경상남도"
  },
  {
    "name": "만복비치맨션 지하1층",
    "address": "경상남도 통영시 장좌로 131-7 (동호동, 만복동호비취맨션)",
    "lat": 34.84031453290793,
    "lng": 128.4342481530362,
    "region": "경상남도"
  },
  {
    "name": "종우에이원맨션 지하1층",
    "address": "경상남도 통영시 정동4길 32 (정량동, 종우에이원맨션)",
    "lat": 34.844074592008305,
    "lng": 128.43213616235172,
    "region": "경상남도"
  },
  {
    "name": "송림아파트 전체 동의 지하주차장 1층",
    "address": "경상남도 통영시 정동2길 52 (정량동, 송림하이츠맨션)",
    "lat": 34.843981946583604,
    "lng": 128.4307278501141,
    "region": "경상남도"
  },
  {
    "name": "한창마운트 지하1층",
    "address": "경상남도 통영시 멘데산업길 11 (정량동, 한창마운트맨션)",
    "lat": 34.84491531169832,
    "lng": 128.4343021537822,
    "region": "경상남도"
  },
  {
    "name": "종우원에이맨션 지하1층",
    "address": "경상남도 통영시 정동3길 65 (정량동, 종우원에이맨션)",
    "lat": 34.84308898110178,
    "lng": 128.4308897249655,
    "region": "경상남도"
  },
  {
    "name": "만복보라빌라 전체 동의 지하주차장 1층",
    "address": "경상남도 통영시 통영해안로 479 (정량동, 만복보라빌라)",
    "lat": 34.851247037723844,
    "lng": 128.431495122453,
    "region": "경상남도"
  },
  {
    "name": "대우미리내아파트 전체 동의 지하주차장 1층",
    "address": "경상남도 통영시 항북길 12-13 (정량동, 대우미리내아파트)",
    "lat": 34.84641512243416,
    "lng": 128.43044485044894,
    "region": "경상남도"
  },
  {
    "name": "신세계로병원 전체 동의 지하주차장 1층",
    "address": "경상남도 통영시 정동2길 58 (정량동, 세계로병원)",
    "lat": 34.84377984004127,
    "lng": 128.43047671780764,
    "region": "경상남도"
  },
  {
    "name": "서광빌라1동 지하 1층",
    "address": "경상남도 통영시 선금산2길 18 (미수동)",
    "lat": 34.826194820750445,
    "lng": 128.40408917377104,
    "region": "경상남도"
  },
  {
    "name": "서광빌라3동 지하 1층",
    "address": "경상남도 통영시 선금산2길 18 (미수동)",
    "lat": 34.826194820750445,
    "lng": 128.40408917377104,
    "region": "경상남도"
  },
  {
    "name": "대우슈퍼빌라 지하 1층",
    "address": "경상남도 통영시 미우지5길 6-2 (미수동)",
    "lat": 34.82610427742196,
    "lng": 128.40197661417184,
    "region": "경상남도"
  },
  {
    "name": "경남아파트 지하 1층",
    "address": "경상남도 통영시 미우지5길 17 (미수동)",
    "lat": 34.826243603051694,
    "lng": 128.40144862572853,
    "region": "경상남도"
  },
  {
    "name": "대우상가아파트 지하 1층",
    "address": "경상남도 통영시 미수로 91 (미수동)",
    "lat": 34.8240247428101,
    "lng": 128.40015376918825,
    "region": "경상남도"
  },
  {
    "name": "태영2차아파트 지하주차장 1층",
    "address": "경상남도 통영시 선금산2길 28-26 (미수동)",
    "lat": 34.82522360850268,
    "lng": 128.40361126422036,
    "region": "경상남도"
  },
  {
    "name": "태영3차아파트 지하 1층",
    "address": "경상남도 통영시 선금산2길 6 (미수동)",
    "lat": 34.82656154456557,
    "lng": 128.40356130027612,
    "region": "경상남도"
  },
  {
    "name": "대우까치아파트 지하주차장 1층",
    "address": "경상남도 통영시 선금산2길 8 (미수동)",
    "lat": 34.826405758825295,
    "lng": 128.40365875022405,
    "region": "경상남도"
  },
  {
    "name": "미수주공아파트 101동 지하 1층",
    "address": "경상남도 통영시 미우지5길 35 (미수동)",
    "lat": 34.826578830544115,
    "lng": 128.4006310866823,
    "region": "경상남도"
  },
  {
    "name": "미수주공아파트 복지동 지하 1층",
    "address": "경상남도 통영시 미우지5길 35 (미수동)",
    "lat": 34.826578830544115,
    "lng": 128.4006310866823,
    "region": "경상남도"
  },
  {
    "name": "동원비치맨션1차 지하1층",
    "address": "경상남도 통영시 동호안길 86 (동호동, 동원비치맨션)",
    "lat": 34.839284735965684,
    "lng": 128.4354600819285,
    "region": "경상남도"
  },
  {
    "name": "동원나폴리빌아파트 지하주차장 1층",
    "address": "경상남도 통영시 도천상가안길 18 (도천동, 동원나폴리빌)",
    "lat": 34.83769081113235,
    "lng": 128.4147210692205,
    "region": "경상남도"
  },
  {
    "name": "신우한실아파트 지하주차장 1층",
    "address": "경상남도 통영시 한실6길 10 (인평동, 신우한실아파트)",
    "lat": 34.84072964746821,
    "lng": 128.39893124899453,
    "region": "경상남도"
  },
  {
    "name": "신우대영그린아파트 지하 1층",
    "address": "경상남도 통영시 한실6길 16-20 (인평동, 신우.대영그린아파트)",
    "lat": 34.8410812997214,
    "lng": 128.3992659190445,
    "region": "경상남도"
  },
  {
    "name": "인평주공아파트 101동 지하 1층",
    "address": "경상남도 통영시 평인일주로 82 (인평동, 충무인평주공아파트)",
    "lat": 34.841675668717784,
    "lng": 128.39664131305088,
    "region": "경상남도"
  },
  {
    "name": "경상국립대학교 통영캠퍼스 해양누리관 지하 1층",
    "address": "경상남도 통영시 통영해안로 2-6, 경상대학교해양과학대 (인평동)",
    "lat": 34.8377283608565,
    "lng": 128.400143389394,
    "region": "경상남도"
  },
  {
    "name": "인평주공아파트 102동 지하 1층",
    "address": "경상남도 통영시 평인일주로 82 (인평동, 충무인평주공아파트)",
    "lat": 34.841675668717784,
    "lng": 128.39664131305088,
    "region": "경상남도"
  },
  {
    "name": "인평주공아파트 103동 지하 1층",
    "address": "경상남도 통영시 평인일주로 82 (인평동, 충무인평주공아파트)",
    "lat": 34.841675668717784,
    "lng": 128.39664131305088,
    "region": "경상남도"
  },
  {
    "name": "인평주공아파트 104동 지하 1층",
    "address": "경상남도 통영시 평인일주로 82 (인평동, 충무인평주공아파트)",
    "lat": 34.841675668717784,
    "lng": 128.39664131305088,
    "region": "경상남도"
  },
  {
    "name": "인평주공아파트 105동 지하 1층",
    "address": "경상남도 통영시 평인일주로 82 (인평동, 충무인평주공아파트)",
    "lat": 34.841675668717784,
    "lng": 128.39664131305088,
    "region": "경상남도"
  },
  {
    "name": "인평주공아파트 106동 지하 1층",
    "address": "경상남도 통영시 평인일주로 82 (인평동, 충무인평주공아파트)",
    "lat": 34.841675668717784,
    "lng": 128.39664131305088,
    "region": "경상남도"
  },
  {
    "name": "통영청구하이츠아파트 제1지하주차장 1층",
    "address": "경상남도 통영시 용남면 대곡길 12 (통영청구하이츠아파트)",
    "lat": 34.864471399960806,
    "lng": 128.4407321350544,
    "region": "경상남도"
  },
  {
    "name": "통영청구하이츠아파트 제2지하주차장 1층",
    "address": "경상남도 통영시 용남면 대곡길 12 (통영청구하이츠아파트)",
    "lat": 34.864471399960806,
    "lng": 128.4407321350544,
    "region": "경상남도"
  },
  {
    "name": "통영청구하이츠아파트 제3지하주차장 1층",
    "address": "경상남도 통영시 용남면 대곡길 12 (통영청구하이츠아파트)",
    "lat": 34.864471399960806,
    "lng": 128.4407321350544,
    "region": "경상남도"
  },
  {
    "name": "통영시청 제2청사 지하1층",
    "address": "경상남도 통영시 해미당1길 33 (무전동, 통영시청2청사)",
    "lat": 34.85616063936766,
    "lng": 128.43031484852554,
    "region": "경상남도"
  },
  {
    "name": "일성한솔타운 지하주차장 1층",
    "address": "경상남도 통영시 안개4길 11-6 (무전동, 일성한솔타운)",
    "lat": 34.857401573806875,
    "lng": 128.43135365933557,
    "region": "경상남도"
  },
  {
    "name": "통영정형외과 지하 1층",
    "address": "경상남도 통영시 안개로 45-10 (무전동, 통영신경외과 .통영정형외과)",
    "lat": 34.85969775976968,
    "lng": 128.43047945468527,
    "region": "경상남도"
  },
  {
    "name": "이브이모텔 지하주차장 1층",
    "address": "경상남도 통영시 안개2길 11 (무전동, 이브이모텔)",
    "lat": 34.85800999284583,
    "lng": 128.42954196053552,
    "region": "경상남도"
  },
  {
    "name": "진우하이빌1차 지하주차장 1층",
    "address": "경상남도 통영시 무전8길 13-38 (무전동, 진우하이빌 1차)",
    "lat": 34.85822222585935,
    "lng": 128.42795927670096,
    "region": "경상남도"
  },
  {
    "name": "동하피아존1차 지하주차장 1층",
    "address": "경상남도 통영시 무전6길 28 (무전동, 동하피아존1차)",
    "lat": 34.858801272481344,
    "lng": 128.42590844744157,
    "region": "경상남도"
  },
  {
    "name": "주영에이스빌1차 지하주차장 1층",
    "address": "경상남도 통영시 무전6길 14-12 (무전동, 주영에이스빌1차)",
    "lat": 34.859659799667625,
    "lng": 128.42558488254045,
    "region": "경상남도"
  },
  {
    "name": "주영에이스빌2차 지하주차장 1층",
    "address": "경상남도 통영시 무전6길 22-8 (무전동, 주영에이스빌2차)",
    "lat": 34.85916540086338,
    "lng": 128.42574280187475,
    "region": "경상남도"
  },
  {
    "name": "진우하이빌2차 지하주차장 1층",
    "address": "경상남도 통영시 무전8길 22-16 (무전동, 진우하이빌2차)",
    "lat": 34.859099937127304,
    "lng": 128.42671369486794,
    "region": "경상남도"
  },
  {
    "name": "주영에이스빌3차 지하주차장 1층",
    "address": "경상남도 통영시 무전8길 14-12 (무전동, 주영에이스빌3차)",
    "lat": 34.85954812245043,
    "lng": 128.42691765088776,
    "region": "경상남도"
  },
  {
    "name": "한진로즈힐비치 제1지하주차장 1층",
    "address": "경상남도 통영시 무전1길 23 (무전동, 한진로즈힐비치1차)",
    "lat": 34.86160048318177,
    "lng": 128.42215563889943,
    "region": "경상남도"
  },
  {
    "name": "한진로즈힐비치 제2지하주차장 1층",
    "address": "경상남도 통영시 무전1길 23 (무전동, 한진로즈힐비치1차)",
    "lat": 34.86160048318177,
    "lng": 128.42215563889943,
    "region": "경상남도"
  },
  {
    "name": "한진로즈힐비치 제3지하주차장 1층",
    "address": "경상남도 통영시 무전1길 23 (무전동, 한진로즈힐비치1차)",
    "lat": 34.86160048318177,
    "lng": 128.42215563889943,
    "region": "경상남도"
  },
  {
    "name": "한진로즈힐비치 제4지하주차장 1층",
    "address": "경상남도 통영시 무전7길 135 (무전동, 한진로즈힐비치2차)",
    "lat": 34.86400507839867,
    "lng": 128.4232565822017,
    "region": "경상남도"
  },
  {
    "name": "한진로즈힐비치 제5지하주차장 1층",
    "address": "경상남도 통영시 무전7길 135 (무전동, 한진로즈힐비치2차)",
    "lat": 34.86400507839867,
    "lng": 128.4232565822017,
    "region": "경상남도"
  },
  {
    "name": "한진로즈힐비치 제6지하주차장 1층",
    "address": "경상남도 통영시 무전7길 135 (무전동, 한진로즈힐비치2차)",
    "lat": 34.86400507839867,
    "lng": 128.4232565822017,
    "region": "경상남도"
  },
  {
    "name": "통영죽림푸르지오1차 전체 동의 지하주차장 1층",
    "address": "경상남도 통영시 광도면 죽림1로 41-42 (통영죽림1차푸르지오)",
    "lat": 34.8789175626852,
    "lng": 128.4181819215035,
    "region": "경상남도"
  },
  {
    "name": "통영죽림푸르지오2차 전체 동의 지하주차장 1층",
    "address": "경상남도 통영시 광도면 죽림2로 76-58 (푸르지오2차아파트)",
    "lat": 34.877229090020904,
    "lng": 128.42033434496358,
    "region": "경상남도"
  },
  {
    "name": "통영죽림대우푸르지오3차 전체 동의 지하주차장 1층",
    "address": "경상남도 통영시 광도면 죽림2로 31 (통영죽림3차 대우푸르지오)",
    "lat": 34.88056823181483,
    "lng": 128.41637397608702,
    "region": "경상남도"
  },
  {
    "name": "대우죽림빌라 지하주차장 1층",
    "address": "경상남도 통영시 광도면 죽림2로 14-7 (대우개발(주)죽림빌라)",
    "lat": 34.88035644994494,
    "lng": 128.41429306220326,
    "region": "경상남도"
  },
  {
    "name": "통영경찰서 지하 1층",
    "address": "경상남도 통영시 광도면 죽림3로 53 (통영경찰서)",
    "lat": 34.88252584658363,
    "lng": 128.41930185317295,
    "region": "경상남도"
  },
  {
    "name": "한국전력공사 통영지사 지하주차장 1층",
    "address": "경상남도 통영시 광도면 죽림2로 25-40 (한국전력공사통영지점)",
    "lat": 34.88222567666519,
    "lng": 128.41608926648792,
    "region": "경상남도"
  },
  {
    "name": "미수휴먼시아 지하주차장 1층",
    "address": "경상남도 통영시 미우지해안로 107 (미수동, 미수휴먼시아)",
    "lat": 34.82560513302856,
    "lng": 128.3959431764999,
    "region": "경상남도"
  },
  {
    "name": "산양읍사무소",
    "address": "경상남도 통영시 산양읍 산양일주로 1683-25, 산양읍사무소",
    "lat": 34.803879806468885,
    "lng": 128.386499944971,
    "region": "경상남도"
  },
  {
    "name": "미진이지비아2차아파트 지하주차장 2층,3층",
    "address": "경상남도 통영시 용남면 남해안대로 432(미진 이지비아2차 아파트)",
    "lat": 34.87052234736735,
    "lng": 128.44461549414382,
    "region": "경상남도"
  },
  {
    "name": "통영현대성우오스타1단지 전체 동의 지하주차장 1층",
    "address": "경상남도 통영시 광도면 안정1길 53(통영현대성우오스타1단지)",
    "lat": 34.94593828414779,
    "lng": 128.40993307259075,
    "region": "경상남도"
  },
  {
    "name": "통영현대성우오스타2단지 전체 동의 지하주차장 1층,2층",
    "address": "경상남도 통영시 광도면 안정1길 55(통영현대성우오스타2단지)",
    "lat": 34.94600781110157,
    "lng": 128.40973660874798,
    "region": "경상남도"
  },
  {
    "name": "도남청솔아파트 102동, 103동 지하 1층",
    "address": "경상남도 통영시 도남로 190(도남동, 도남청솔아파트)",
    "lat": 34.82919580069647,
    "lng": 128.42476545578623,
    "region": "경상남도"
  },
  {
    "name": "송림비치맨션아파트 3동 지하 1층",
    "address": "경상남도 통영시 해평2길 10-3 (봉평동, 송림비치맨션)",
    "lat": 34.83185560757846,
    "lng": 128.41632082563578,
    "region": "경상남도"
  },
  {
    "name": "전원맨션 지하주차장 1층",
    "address": "경상남도 사천시 사천읍 선인길 17(전원맨션)",
    "lat": 35.07965207460761,
    "lng": 128.09473740180866,
    "region": "경상남도"
  },
  {
    "name": "서일아파트 지하주차장 1층",
    "address": "경상남도 사천시 사천읍 동문로 126(서일2차아파트)",
    "lat": 35.08901147911015,
    "lng": 128.09731651662267,
    "region": "경상남도"
  },
  {
    "name": "신우아파트 지하주차장 1층",
    "address": "경상남도 사천시 사천읍 수양로 99-10(신우가든아파트)",
    "lat": 35.08770664519242,
    "lng": 128.0937054615756,
    "region": "경상남도"
  },
  {
    "name": "옥성그린아파트 지하주차장 1층",
    "address": "경상남도 사천시 사천읍 두량로 30(옥성그린아파트)",
    "lat": 35.09208179854746,
    "lng": 128.09938826602624,
    "region": "경상남도"
  },
  {
    "name": "한보훼미리 지하주차장 1층",
    "address": "경상남도 사천시 정동면 사천강1길 11(사천한보훼미리타운)",
    "lat": 35.07351201247507,
    "lng": 128.08415266918868,
    "region": "경상남도"
  },
  {
    "name": "대흥그랜져맨션 지하주차장 1층",
    "address": "경상남도 사천시 정동면 진삼로 1420(대흥그랜저맨션)",
    "lat": 35.07797643517092,
    "lng": 128.08577619282255,
    "region": "경상남도"
  },
  {
    "name": "한보타운 3차 지하주차장 1층",
    "address": "경상남도 사천시 정동면 진삼로 1386(사천3차 한보아파트)",
    "lat": 35.07535831321274,
    "lng": 128.0838634373318,
    "region": "경상남도"
  },
  {
    "name": "비룡각산타운 지하주차장 1층",
    "address": "경상남도 사천시 새동네1길 61(선구동, 비룡각산타운)",
    "lat": 34.93436933690816,
    "lng": 128.07308222245342,
    "region": "경상남도"
  },
  {
    "name": "서울병원 장례식장 지하 1층",
    "address": "경상남도 사천시 남일로 33, 삼천포서울병원 (동금동)",
    "lat": 34.932951589634655,
    "lng": 128.08016594304047,
    "region": "경상남도"
  },
  {
    "name": "송림프라자 지하주차장 1층",
    "address": "경상남도 사천시 벌리6길 29(벌리동, 송림프라자타운)",
    "lat": 34.94210661660195,
    "lng": 128.08231692951193,
    "region": "경상남도"
  },
  {
    "name": "비룡광장타운 지하주차장 1층",
    "address": "경상남도 사천시 주공로 50(벌리동, 비룡광장타운)",
    "lat": 34.94270115764997,
    "lng": 128.08693435272764,
    "region": "경상남도"
  },
  {
    "name": "성은비룡타운 지하주차장 1층",
    "address": "경상남도 사천시 주공로 56(용강동, 성은비룡타워)",
    "lat": 34.94322543129288,
    "lng": 128.08714260616992,
    "region": "경상남도"
  },
  {
    "name": "삼보신우타운 지하주차장 1층",
    "address": "경상남도 사천시 주공로 51(용강동, 삼보신우타운)",
    "lat": 34.94304919828749,
    "lng": 128.0866576052572,
    "region": "경상남도"
  },
  {
    "name": "삼천포정형외과 지하주차장 1층",
    "address": "경상남도 사천시 중앙로 129, 삼천포정형외과의원 (벌리동)",
    "lat": 34.93736848044607,
    "lng": 128.0787192597794,
    "region": "경상남도"
  },
  {
    "name": "삼천포내과 지하주차장 1층",
    "address": "경상남도 사천시 중앙로 131, 보람빌딩 (벌리동)",
    "lat": 34.93754797697477,
    "lng": 128.07881361612738,
    "region": "경상남도"
  },
  {
    "name": "용강주공1차 아파트 지하주차장 1층",
    "address": "경상남도 사천시 주공로 70(용강동, 사천용강주공아파트)",
    "lat": 34.94442657471462,
    "lng": 128.08746827208532,
    "region": "경상남도"
  },
  {
    "name": "한마음병원 장례식장 지하 1층",
    "address": "경상남도 사천시 향촌4길 127, 한마음병원 (향촌동)",
    "lat": 34.93488173266947,
    "lng": 128.09804436936423,
    "region": "경상남도"
  },
  {
    "name": "삼보송림아파트 지하주차장 1층",
    "address": "경상남도 사천시 삼천포대교로 826(송포동, 삼보송림아파트)",
    "lat": 34.96747691979318,
    "lng": 128.06249932028973,
    "region": "경상남도"
  },
  {
    "name": "신우심포니 지하주차장 1층",
    "address": "경상남도 사천시 임내길 30(죽림동, 신우심포니타운)",
    "lat": 34.969324045736414,
    "lng": 128.06479238704983,
    "region": "경상남도"
  },
  {
    "name": "남동발전아파트 관리동 지하 1층",
    "address": "경상남도 사천시 새동네1길 68(선구동)",
    "lat": 34.93480380341208,
    "lng": 128.07212035622578,
    "region": "경상남도"
  },
  {
    "name": "삼천포장례식장 지하 1층",
    "address": "경상남도 사천시 진삼로 217-13, 삼천포장례식장 (송포동)",
    "lat": 34.97645407334205,
    "lng": 128.06037234987258,
    "region": "경상남도"
  },
  {
    "name": "사천대경파미르 지하주차장 1층",
    "address": "경상남도 사천시 사천읍 사천향교로 13(사천 대경파미르)",
    "lat": 35.08567157036383,
    "lng": 128.09874227975772,
    "region": "경상남도"
  },
  {
    "name": "대경아파트 지하주차장 1층",
    "address": "경상남도 사천시 사천읍 서당길 1-5(대경아파트)",
    "lat": 35.081578396106345,
    "lng": 128.0987743199637,
    "region": "경상남도"
  },
  {
    "name": "죽림 아리안 아파트(1차) 지하주차장 1층",
    "address": "경상남도 사천시 죽계1길 6 (죽림동, 사천 죽림 아리안아파트)",
    "lat": 34.96476125730472,
    "lng": 128.0686427170713,
    "region": "경상남도"
  },
  {
    "name": "죽림 아리안 아파트(2차) 지하주차장 1층",
    "address": "경상남도 사천시 죽계1길 6(죽림동, 사천 죽림 아리안아파트)",
    "lat": 34.96476125730472,
    "lng": 128.0686427170713,
    "region": "경상남도"
  },
  {
    "name": "웰뷰 파크 지하주차장 1층",
    "address": "경상남도 사천시 대방길 138(대방동, 웰뷰파크)",
    "lat": 34.930169467289325,
    "lng": 128.05738878647207,
    "region": "경상남도"
  },
  {
    "name": "부엉이호텔 지하주차장 1층",
    "address": "경상남도 사천시 목섬길 69, 노블레스모텔 (서금동)",
    "lat": 34.92405002677291,
    "lng": 128.07520906210686,
    "region": "경상남도"
  },
  {
    "name": "덕진봄 아파트 지하주차장 1층",
    "address": "경상남도 사천시 사천읍 옥산로 97(덕진봄아파트)",
    "lat": 35.07953861077047,
    "lng": 128.09355607496704,
    "region": "경상남도"
  },
  {
    "name": "신원 아르시스 지하주차장 1층",
    "address": "경상남도 사천시 사천읍 두량로 18(신원아르시스)",
    "lat": 35.09133157483865,
    "lng": 128.09874507050958,
    "region": "경상남도"
  },
  {
    "name": "호신 유리안 지하주차장 1층",
    "address": "경상남도 사천시 문선1길 89(벌리동, 벌리 호신유리안아파트)",
    "lat": 34.93542305063663,
    "lng": 128.0802002699156,
    "region": "경상남도"
  },
  {
    "name": "한국 파크빌 지하주차장 1층",
    "address": "경상남도 사천시 숲뫼1길 74(향촌동, 한국파크빌)",
    "lat": 34.93598675547583,
    "lng": 128.086409632811,
    "region": "경상남도"
  },
  {
    "name": "용강대경 파미르 지하주차장 1층",
    "address": "경상남도 사천시 상강청길 14(용강동, 대경파미르)",
    "lat": 34.946550828977564,
    "lng": 128.08592678908454,
    "region": "경상남도"
  },
  {
    "name": "엘크루아파트 지하주차장 1층",
    "address": "경상남도 사천시 사남면 조동길 49-43(사천 엘크루아파트)",
    "lat": 35.06004440899015,
    "lng": 128.06835862736767,
    "region": "경상남도"
  },
  {
    "name": "삼천포 예미지 아파트 지하주차장 1층",
    "address": "경상남도 사천시 신항로 64(동금동, 삼천포 예미지)",
    "lat": 34.93330355039015,
    "lng": 128.08537246034257,
    "region": "경상남도"
  },
  {
    "name": "원광이안애아파트 지하주차장 1층",
    "address": "경상남도 사천시 사천읍 구암두문로 254-9 (원광 이안애 아파트)",
    "lat": 35.0871072057258,
    "lng": 128.113726543967,
    "region": "경상남도"
  },
  {
    "name": "사천 서희스타힐스 지하주차장 1층",
    "address": "경상남도 사천시 중앙로 258 (용강동, 사천 서희스타힐스)",
    "lat": 34.9493004652092,
    "lng": 128.082213011841,
    "region": "경상남도"
  },
  {
    "name": "사천 KCC 스위첸아파트 지하주차장 2층",
    "address": "경상남도 사천시 정동면 반룡1로 52 (사천 KCC 스위첸)",
    "lat": 35.0632765570838,
    "lng": 128.08526382769,
    "region": "경상남도"
  },
  {
    "name": "동강아뜨리에아파트 지하주차장",
    "address": "경상남도 사천시 용현면 죽천강길 56, 114동 지하1~2층 (동강아뜨리에)",
    "lat": 35.0464072674488,
    "lng": 128.073894463904,
    "region": "경상남도"
  },
  {
    "name": "김해세무서 지하1층",
    "address": "경상남도 김해시 호계로 440 (부원동, 김해세무서)",
    "lat": 35.2297050952366,
    "lng": 128.88497088760002,
    "region": "경상남도"
  },
  {
    "name": "인제대학교 장영실관 지하1층",
    "address": "경상남도 김해시 인제로 197 (어방동, 인제대학교)",
    "lat": 35.246755798882226,
    "lng": 128.90369466242322,
    "region": "경상남도"
  },
  {
    "name": "김해시청 본관 지하 1층",
    "address": "경상남도 김해시 김해대로 2401 (부원동, 김해시청)",
    "lat": 35.22798361889171,
    "lng": 128.88949069822854,
    "region": "경상남도"
  },
  {
    "name": "서원요양병원(지하1층)",
    "address": "경상남도 김해시 가락로 83, 지하1층 (서상동)",
    "lat": 35.234036730279385,
    "lng": 128.88135775247102,
    "region": "경상남도"
  },
  {
    "name": "가야컨트리클럽 리셥션홀동 지하1층",
    "address": "경상남도 김해시 인제로 495, 가야컨트리클럽 리셉션홀동 지하 1층 (삼방동)",
    "lat": 35.27066761342698,
    "lng": 128.89220984404935,
    "region": "경상남도"
  },
  {
    "name": "국민은행 지하1층",
    "address": "경상남도 김해시 가락로 87 (서상동, 국민은행)",
    "lat": 35.23433686626681,
    "lng": 128.88131910203322,
    "region": "경상남도"
  },
  {
    "name": "이화수로요양병원 지하1층",
    "address": "경상남도 김해시 분성로261번길 15 (봉황동)",
    "lat": 35.234091469089314,
    "lng": 128.8745307609969,
    "region": "경상남도"
  },
  {
    "name": "한성기업 지하1층",
    "address": "경상남도 김해시 삼안로 51 (안동)",
    "lat": 35.23386879075777,
    "lng": 128.9175091751393,
    "region": "경상남도"
  },
  {
    "name": "경남은행 지하주차장 1층",
    "address": "경상남도 김해시 김해대로 2341 (부원동, 경남은행)",
    "lat": 35.226654679731624,
    "lng": 128.8828668887671,
    "region": "경상남도"
  },
  {
    "name": "한덕한신타워아파트 102동 지하1층",
    "address": "경상남도 김해시 분성로48번길 16 (외동, 한덕한신타워아파트)",
    "lat": 35.23121693212492,
    "lng": 128.8530550043063,
    "region": "경상남도"
  },
  {
    "name": "대아아파트 102동 지하1층",
    "address": "경상남도 김해시 삼안로111번길 17, 지하주차장동 지하1층 (안동)",
    "lat": 35.237997188722154,
    "lng": 128.9149767529808,
    "region": "경상남도"
  },
  {
    "name": "국제쇼핑타운(지하1층)",
    "address": "경상남도 김해시 활천로267번길 13, 지하주차장층 (삼방동, 국제쇼핑타운)",
    "lat": 35.24411535373649,
    "lng": 128.90829037749506,
    "region": "경상남도"
  },
  {
    "name": "행운아트빌라 지하주차장 1층",
    "address": "경상남도 김해시 활천로24번길 40 (삼정동, 행운아트빌라)",
    "lat": 35.22999640176789,
    "lng": 128.89810736982224,
    "region": "경상남도"
  },
  {
    "name": "호성상가아파트 지하주차장 1층",
    "address": "경상남도 김해시 활천로 32 (삼정동, 호성상가아파트)",
    "lat": 35.23048355482163,
    "lng": 128.89378812667775,
    "region": "경상남도"
  },
  {
    "name": "연지마을현대1차아파트105동 지하1층",
    "address": "경상남도 김해시 구지로 55 (내동, 연지마을현대아파트)",
    "lat": 35.23975400352304,
    "lng": 128.86937402021172,
    "region": "경상남도"
  },
  {
    "name": "대동아파트(302동~303동 사이) 지하1층",
    "address": "경상남도 김해시 함박로101번길 19 (외동, 대동한마음타운)",
    "lat": 35.234001962952966,
    "lng": 128.86541362268602,
    "region": "경상남도"
  },
  {
    "name": "동일아파트(202동앞) 지하1층",
    "address": "경상남도 김해시 함박로 162 (외동, 동일아파트)",
    "lat": 35.23342274427674,
    "lng": 128.8705417185273,
    "region": "경상남도"
  },
  {
    "name": "동아그린아파트(정문입구왼쪽) 지하1층",
    "address": "경상남도 김해시 전하로 251 (외동, 동아그린아파트)",
    "lat": 35.226127319344805,
    "lng": 128.87240319113508,
    "region": "경상남도"
  },
  {
    "name": "뜨란채아파트(301동~302동사이) 지하1층",
    "address": "경상남도 김해시 우암로 36 (외동, 뜨란채아파트)",
    "lat": 35.23389053211907,
    "lng": 128.8607626459505,
    "region": "경상남도"
  },
  {
    "name": "성원아파트 302동 지하1층",
    "address": "경상남도 김해시 우암로 8 (외동, 성원아파트)",
    "lat": 35.2313095252482,
    "lng": 128.86026578909133,
    "region": "경상남도"
  },
  {
    "name": "삼성아파트(205동~207동사이) 지하1층",
    "address": "경상남도 김해시 경원로 83 (내동, 삼성아파트)",
    "lat": 35.23684315700459,
    "lng": 128.8691868458261,
    "region": "경상남도"
  },
  {
    "name": "현대자동차서비스센터 지하1층",
    "address": "경상남도 김해시 김해대로 2736 (지내동)",
    "lat": 35.22630853394709,
    "lng": 128.92449853612047,
    "region": "경상남도"
  },
  {
    "name": "삼안동행정복지센터 지하1층",
    "address": "경상남도 김해시 활천로255번길 12, 삼안동 행정복지센터 지하 1층 (삼방동)",
    "lat": 35.24376791155389,
    "lng": 128.9071703702129,
    "region": "경상남도"
  },
  {
    "name": "한국1차아파트 209동 지하1층",
    "address": "경상남도 김해시 함박로 122 (외동, 한국1차아파트)",
    "lat": 35.23182083297155,
    "lng": 128.86743708059703,
    "region": "경상남도"
  },
  {
    "name": "임호마을서광아파트 203동 지하1층",
    "address": "경상남도 김해시 함박로 149 (외동, 임호마을서광아파트)",
    "lat": 35.2324349770458,
    "lng": 128.86994833528843,
    "region": "경상남도"
  },
  {
    "name": "덕산아파트 206동 지하1층",
    "address": "경상남도 김해시 함박로119번길 6 (외동, 덕산아파트)",
    "lat": 35.23255532996041,
    "lng": 128.8674219653006,
    "region": "경상남도"
  },
  {
    "name": "한국2차아파트(301동~305동사이) 지하1층",
    "address": "경상남도 김해시 분성로 155 (외동, 한국2차아파트)",
    "lat": 35.23005496516681,
    "lng": 128.86412543169052,
    "region": "경상남도"
  },
  {
    "name": "건영아파트 307동 지하1층",
    "address": "경상남도 김해시 우암로 106 (내동, 건영아파트)",
    "lat": 35.23934564277372,
    "lng": 128.8636900741638,
    "region": "경상남도"
  },
  {
    "name": "어방동원아파트 전체 동의 지하주차장 1층",
    "address": "경상남도 김해시 활천로 181, 501동 (어방동, 어방동원아파트)",
    "lat": 35.241422524042754,
    "lng": 128.89993128205447,
    "region": "경상남도"
  },
  {
    "name": "일동한신아파트 115동옆 지하1층",
    "address": "경상남도 김해시 분성로 14 (외동, 일동한신아파트)",
    "lat": 35.233016092943274,
    "lng": 128.8487986974501,
    "region": "경상남도"
  },
  {
    "name": "구산5주공아파트(502동, 504동 앞) 지하1층",
    "address": "경상남도 김해시 가락로294번길 17-1 (구산동, 김해구산5주공아파트)",
    "lat": 35.25112282948172,
    "lng": 128.87421162538072,
    "region": "경상남도"
  },
  {
    "name": "구산5주공아파트(502동, 504동 지하주차장 1층)",
    "address": "경상남도 김해시 가락로294번길 17-1 (구산동, 김해구산5주공아파트)",
    "lat": 35.25112282948172,
    "lng": 128.87421162538072,
    "region": "경상남도"
  },
  {
    "name": "지내동원1차아파트 지하1층(관리사무소 옆)",
    "address": "경상남도 김해시 분성로727번길 16 (지내동, 지내동원1차아파트)",
    "lat": 35.23138392031236,
    "lng": 128.92287995277056,
    "region": "경상남도"
  },
  {
    "name": "협성아파트(101동, 103동, 105동앞) 지하1층",
    "address": "경상남도 김해시 진영읍 김해대로244번길 10(협성팔레스아파트)",
    "lat": 35.30600192022867,
    "lng": 128.71698923278564,
    "region": "경상남도"
  },
  {
    "name": "현대분성마을아이파크1차아파트 111동 지하1층",
    "address": "경상남도 김해시 삼계로 232 (삼계동, 현대분성마을아이파크1차아파트)",
    "lat": 35.266676718977045,
    "lng": 128.86891067276284,
    "region": "경상남도"
  },
  {
    "name": "국민건강보험공단김해지사 지하1층주차장",
    "address": "경상남도 김해시 전하로176번길 79 (전하동, 국민건강보험공단김해지사)",
    "lat": 35.22364027972563,
    "lng": 128.8746034439778,
    "region": "경상남도"
  },
  {
    "name": "부원아파트 지하주차장 1층",
    "address": "경상남도 김해시 활천로 11 (부원동, 부원아파트)",
    "lat": 35.228518806285905,
    "lng": 128.8937996854363,
    "region": "경상남도"
  },
  {
    "name": "롯데캐슬가야1단지아파트 101동 지하1층",
    "address": "경상남도 김해시 가야로451번길 9 (동상동, 롯데캐슬가야1단지아파트)",
    "lat": 35.24146130631801,
    "lng": 128.8854992612172,
    "region": "경상남도"
  },
  {
    "name": "구지마을동원아파트 103동 지하1층",
    "address": "경상남도 김해시 구산로5번길 57 (구산동, 구지마을동원아파트)",
    "lat": 35.25404962466527,
    "lng": 128.869744836075,
    "region": "경상남도"
  },
  {
    "name": "한일유앤아이아파트(207동, 214동 앞) 지하1층",
    "address": "경상남도 김해시 구산로5번길 71 (구산동, 한일유앤아이아파트)",
    "lat": 35.254989574174054,
    "lng": 128.86877570565468,
    "region": "경상남도"
  },
  {
    "name": "화정마을아이파크가야아파트 402동 지하1층",
    "address": "경상남도 김해시 해반천로168번길 23 (삼계동, 화정마을아이파크가야아파트)",
    "lat": 35.263354918144906,
    "lng": 128.86975363032448,
    "region": "경상남도"
  },
  {
    "name": "백제삼정데파트 지하주차장 1층",
    "address": "경상남도 김해시 활천로68번길 27 (삼정동, 백제삼정데파트)",
    "lat": 35.23395331924142,
    "lng": 128.89622441579942,
    "region": "경상남도"
  },
  {
    "name": "젤미마을부영1단지아파트 104동 지하주차장 1층",
    "address": "경상남도 김해시 번화2로 90 (삼문동, 젤미마을부영아파트)",
    "lat": 35.196687798564305,
    "lng": 128.80306721816257,
    "region": "경상남도"
  },
  {
    "name": "갑오마을부영4단지아파트 408동 지하주차장 1층",
    "address": "경상남도 김해시 계동로102번길 24 (대청동, 갑오마을부영아파트)",
    "lat": 35.18577410852247,
    "lng": 128.79671318511288,
    "region": "경상남도"
  },
  {
    "name": "지내동원2차아파트 201동 지하1층",
    "address": "경상남도 김해시 분성로727번길 21 (지내동, 지내동2차양지마을동원아파트)",
    "lat": 35.231773551505455,
    "lng": 128.92358870207053,
    "region": "경상남도"
  },
  {
    "name": "골든에비뉴 지하1층",
    "address": "경상남도 김해시 분성로317번길 4 (서상동)",
    "lat": 35.23380074245427,
    "lng": 128.88080664524634,
    "region": "경상남도"
  },
  {
    "name": "반도보라아파트 102동, 107동 앞 지하1층주차장",
    "address": "경상남도 김해시 전하로176번길 71 (전하동, 반도보라아파트)",
    "lat": 35.222852948970555,
    "lng": 128.87463646989252,
    "region": "경상남도"
  },
  {
    "name": "대우유토피아아파트 전체 동의 지하주차장 1층",
    "address": "경상남도 김해시 인제로 167 (어방동, 대우유토피아아파트)",
    "lat": 35.24356567831111,
    "lng": 128.9023531161626,
    "region": "경상남도"
  },
  {
    "name": "세영리첼아파트 103동 옆 지하주차장 1층",
    "address": "경상남도 김해시 덕정로 187 (관동동, 율곡마을세영리첼아파트)",
    "lat": 35.17637974165076,
    "lng": 128.80368924272642,
    "region": "경상남도"
  },
  {
    "name": "율현마을율하이편한세상 1102동 지하주차장 1층",
    "address": "경상남도 김해시 율하2로 198 (율하동, 율현마을율하이편한세상)",
    "lat": 35.17148703708541,
    "lng": 128.81995795494734,
    "region": "경상남도"
  },
  {
    "name": "중앙하이츠8단지아파트 817동 지하주차장 1층",
    "address": "경상남도 김해시 율하3로 76 (율하동, 신리마을 중앙하이츠아파트)",
    "lat": 35.1743041851711,
    "lng": 128.8163424545886,
    "region": "경상남도"
  },
  {
    "name": "율곡마을주공2단지아파트 211동 지하주차장 1층",
    "address": "경상남도 김해시 율하1로 7 (율하동, 율곡마을주공2단지아파트)",
    "lat": 35.17248733784597,
    "lng": 128.8067495745023,
    "region": "경상남도"
  },
  {
    "name": "모아미래도5단지아파트(817동 옆 지하주차장 1층)",
    "address": "경상남도 김해시 율하2로 87 (율하동, 율상마을모아미래도5단지)",
    "lat": 35.17153727732719,
    "lng": 128.81104079308992,
    "region": "경상남도"
  },
  {
    "name": "장유이편한세상아파트 104동 지하주차장 1층",
    "address": "경상남도 김해시 장유로334번길 76 (신문동, 장유e-편한세상아파트)",
    "lat": 35.19251140450812,
    "lng": 128.81024215727382,
    "region": "경상남도"
  },
  {
    "name": "장유더샵아파트 105동 지하주차장 지하1층",
    "address": "경상남도 김해시 장유로288번길 15 (무계동, 장유더샵아파트)",
    "lat": 35.19910124750366,
    "lng": 128.81398244147664,
    "region": "경상남도"
  },
  {
    "name": "장유1차푸르지오아파트 1302동 지하주차장 지하1층",
    "address": "경상남도 김해시 월산로 82-15 (부곡동, 월산마을13단지장유1차푸르지오아파트)",
    "lat": 35.20360059480942,
    "lng": 128.80492737106053,
    "region": "경상남도"
  },
  {
    "name": "율상마을푸르지오4단지 402동 지하주차장 1층",
    "address": "경상남도 김해시 율하1로 64 (율하동, 율상마을푸르지오4단지)",
    "lat": 35.17516548904411,
    "lng": 128.81137123088095,
    "region": "경상남도"
  },
  {
    "name": "진영자이아파트 301,303,310동 지하1층",
    "address": "경상남도 김해시 진영읍 김해대로361번길 31(진영자이아파트)",
    "lat": 35.30966908728347,
    "lng": 128.7296173087436,
    "region": "경상남도"
  },
  {
    "name": "진영코아루아파트 405,407,408동 지하1층",
    "address": "경상남도 김해시 진영읍 김해대로361번길 34(김해진영코아루아파트)",
    "lat": 35.309768768544004,
    "lng": 128.7299036364014,
    "region": "경상남도"
  },
  {
    "name": "중흥에스클래스1단지아파트 101,105동 지하1층",
    "address": "경상남도 김해시 진영읍 장등로 55(중흥에스클래스1단지아파트)",
    "lat": 35.3113317003713,
    "lng": 128.7353332040377,
    "region": "경상남도"
  },
  {
    "name": "중흥에스클래스2단지아파트 206,208동 지하1층",
    "address": "경상남도 김해시 진영읍 장등로19번길 18(중흥에스클래스2단지아파트)",
    "lat": 35.30849110012517,
    "lng": 128.7330986566143,
    "region": "경상남도"
  },
  {
    "name": "중흥S클래스3단지아파트 308동,311동 지하1층",
    "address": "경상남도 김해시 진영읍 장등로 94(중흥S클래스3단지아파트)",
    "lat": 35.312807952375415,
    "lng": 128.7327035860842,
    "region": "경상남도"
  },
  {
    "name": "김해진영동문굿모닝힐1차 105동,201동 지하1층",
    "address": "경상남도 김해시 진영읍 진영산복로 20(김해 진영 동문굿모닝힐 1차)",
    "lat": 35.303373674731496,
    "lng": 128.72049015911205,
    "region": "경상남도"
  },
  {
    "name": "진영신우희가로아파트 104동 지하주차장1층",
    "address": "경상남도 김해시 진영읍 김해대로332번길 79(진영신우희가로아파트)",
    "lat": 35.305436427782546,
    "lng": 128.7212290540099,
    "region": "경상남도"
  },
  {
    "name": "마루애아파트 103동 지하주차장1층",
    "address": "경상남도 김해시 진영읍 진영로 273(마루애아파트)",
    "lat": 35.30216862591413,
    "lng": 128.7428902596571,
    "region": "경상남도"
  },
  {
    "name": "진영휴먼시아아파트 101,105,106동 지하1층",
    "address": "경상남도 김해시 진영읍 김해대로 462(진영휴먼시아아파트)",
    "lat": 35.30469916564917,
    "lng": 128.7403777434151,
    "region": "경상남도"
  },
  {
    "name": "동창원IC하우스토리 102동,104동 지하1층",
    "address": "경상남도 김해시 진영읍 하계로 9-29(동창원IC하우스토리)",
    "lat": 35.29225069439073,
    "lng": 128.70906662330833,
    "region": "경상남도"
  },
  {
    "name": "부원역푸르지오아파트 104동~105동 지하주차장1층",
    "address": "경상남도 김해시 김해대로 2326 (부원동, 부원역푸르지오아파트)",
    "lat": 35.22428449034559,
    "lng": 128.88246684250169,
    "region": "경상남도"
  },
  {
    "name": "장유2동 행정복지센터 지하주차장 1층",
    "address": "경상남도 김해시 능동로 43 (삼문동, 장유2동주민센터)",
    "lat": 35.19710841151203,
    "lng": 128.79783954778566,
    "region": "경상남도"
  },
  {
    "name": "갑오마을11단지부영그린타운아파트 1101동지하주차장1층",
    "address": "경상남도 김해시 삼문로 88 (삼문동, 갑오마을11단지부영그린타운아파트)",
    "lat": 35.19166377196279,
    "lng": 128.8084095055014,
    "region": "경상남도"
  },
  {
    "name": "서김해 새마을금고 지하1층",
    "address": "경상남도 김해시 금관대로 1294 (내동)",
    "lat": 35.23968142020888,
    "lng": 128.8614124239968,
    "region": "경상남도"
  },
  {
    "name": "한일유앤아이아파트 202동 지하1층",
    "address": "경상남도 김해시 삼안로111번길 5, 지하주차장동 지하1층 (안동, 한일유앤아이아파트)",
    "lat": 35.23851876366383,
    "lng": 128.91585843504683,
    "region": "경상남도"
  },
  {
    "name": "한일아파트 109동 지하주차장1층",
    "address": "경상남도 김해시 삼안로111번길 12, 지하주차장동 지하 1층 (안동, 한일아파트)",
    "lat": 35.23840771545898,
    "lng": 128.9153956723886,
    "region": "경상남도"
  },
  {
    "name": "활천동행정복지센터 지하주차장1층",
    "address": "경상남도 김해시 인제로11번길 51 (삼정동)",
    "lat": 35.22906339229094,
    "lng": 128.89976983787514,
    "region": "경상남도"
  },
  {
    "name": "e편한세상아파트 101동 지하1층",
    "address": "경상남도 김해시 김해대로2324번길 54-27 (봉황동, 봉황역e편한세상아파트)",
    "lat": 35.22516568752822,
    "lng": 128.8769418371792,
    "region": "경상남도"
  },
  {
    "name": "남명더라우1단지 아파트 106동 지하주차장1층",
    "address": "경상남도 김해시 무계로 80 (무계동, 남명더라우아파트1단지)",
    "lat": 35.2024174171998,
    "lng": 128.818953845166,
    "region": "경상남도"
  },
  {
    "name": "내덕서희스타힐스 아파트 105동 지하주차장 지하1층",
    "address": "경상남도 김해시 금관대로 688 (내덕동, 내덕서희스타힐스아파트)",
    "lat": 35.2043628917372,
    "lng": 128.82388341979384,
    "region": "경상남도"
  },
  {
    "name": "푸르지오5단지 아파트 502동 지하주차장 1층",
    "address": "경상남도 김해시 팔판로 71 (관동동)",
    "lat": 35.17639173703848,
    "lng": 128.79482080994947,
    "region": "경상남도"
  },
  {
    "name": "구지마을푸르지오3단지아파트 302동 지하1층",
    "address": "경상남도 김해시 삼계로 35, 302동 (삼계동, 구지마을3단지푸르지오아파트)",
    "lat": 35.25755817601685,
    "lng": 128.87009763773165,
    "region": "경상남도"
  },
  {
    "name": "김해센텀큐시티 111동 지하 1층, 101동 지하 2층",
    "address": "경상남도 김해시 주촌면 선지로 85(김해센텀Q시티)",
    "lat": 35.22892704209053,
    "lng": 128.84688912744048,
    "region": "경상남도"
  },
  {
    "name": "젤미마을파크뷰아파트 801동 앞 지하주차장 1층",
    "address": "경상남도 김해시 대청로210번길 35 (삼문동, 젤미마을파크뷰아파트)",
    "lat": 35.19453760203036,
    "lng": 128.79831207028522,
    "region": "경상남도"
  },
  {
    "name": "율하자이 힐스테이트아파트 110동 지하주차장 1층",
    "address": "경상남도 김해시 율하6로 17 (장유동, 율하자이힐스테이트)",
    "lat": 35.17005581470326,
    "lng": 128.8276237745167,
    "region": "경상남도"
  },
  {
    "name": "한림면행정복지센터(지하1층 주차장)",
    "address": "경상남도 김해시 한림면 한림로 369, 한림면사무소",
    "lat": 35.320370627004,
    "lng": 128.80246197178255,
    "region": "경상남도"
  },
  {
    "name": "송정아파트 지하주차장1층",
    "address": "경상남도 김해시 진례면 송현로52번길 25-1 (송정아파트)",
    "lat": 35.24624057684205,
    "lng": 128.7542581440824,
    "region": "경상남도"
  },
  {
    "name": "진영이진캐스빌 201동 208동 210동 지하1층",
    "address": "경상남도 김해시 진영읍 진산대로 61 (진영 이진 캐스빌)",
    "lat": 35.3116474031319,
    "lng": 128.725684585147,
    "region": "경상남도"
  },
  {
    "name": "경남맨션(지하주차장1층)",
    "address": "경상남도 밀양시 가곡7길 23 (가곡동, 경남아파트)",
    "lat": 35.473284957476615,
    "lng": 128.76614035894193,
    "region": "경상남도"
  },
  {
    "name": "부전타워(주거시설지하1층)",
    "address": "경상남도 밀양시 가곡벚꽃길 7 (가곡동, 부전타워)",
    "lat": 35.479933438727194,
    "lng": 128.76200798535297,
    "region": "경상남도"
  },
  {
    "name": "대원빌라(주거시설 지하1층)",
    "address": "경상남도 밀양시 가곡9길 34 (가곡동, 대원빌라)",
    "lat": 35.47414916180268,
    "lng": 128.76328074286153,
    "region": "경상남도"
  },
  {
    "name": "휴암빌딩(지하주차장 1층)",
    "address": "경상남도 밀양시 중앙로 401 (내이동)",
    "lat": 35.49635652866697,
    "lng": 128.74899817027955,
    "region": "경상남도"
  },
  {
    "name": "청구아파트 (지하주차장 1층 2개소)",
    "address": "경상남도 밀양시 중앙로 238-8 (삼문동, 유성청구타운)",
    "lat": 35.48540175693485,
    "lng": 128.75840893898695,
    "region": "경상남도"
  },
  {
    "name": "세광아파트 (지하주차장 지하1층,2층)",
    "address": "경상남도 밀양시 삼문2길 3 (삼문동, 세광맨션)",
    "lat": 35.48639553283363,
    "lng": 128.75032477308392,
    "region": "경상남도"
  },
  {
    "name": "성조아파트 (지하주차장 지하1층)",
    "address": "경상남도 밀양시 삼문강변로 58 (삼문동, 성조에이스아파트)",
    "lat": 35.4785307504185,
    "lng": 128.7565089274447,
    "region": "경상남도"
  },
  {
    "name": "대동아파트(지하주차장 지하1층)",
    "address": "경상남도 밀양시 상남면 상남로 1187-15 (밀양예림대동타운)",
    "lat": 35.462026794818364,
    "lng": 128.75248493422092,
    "region": "경상남도"
  },
  {
    "name": "삼강그린(지하주차장 지하1층)",
    "address": "경상남도 밀양시 중앙로 149-1 (가곡동, 삼강그린)",
    "lat": 35.4786201397695,
    "lng": 128.76326287482155,
    "region": "경상남도"
  },
  {
    "name": "우영타워(주거시설 지하1층)",
    "address": "경상남도 밀양시 가곡벚꽃길 63 (가곡동, 우영타워아파트)",
    "lat": 35.475145016646074,
    "lng": 128.76218309265454,
    "region": "경상남도"
  },
  {
    "name": "대승빌라(주거시설 지하1층)",
    "address": "경상남도 밀양시 가곡4길 19 (가곡동, 대승빌라)",
    "lat": 35.472540629753674,
    "lng": 128.76893085374297,
    "region": "경상남도"
  },
  {
    "name": "주공아파트(주거시설 지하 1층)",
    "address": "경상남도 밀양시 중앙로 47 (가곡동, 가곡주공아파트)",
    "lat": 35.47267594451679,
    "lng": 128.77182274479827,
    "region": "경상남도"
  },
  {
    "name": "동보주택(지하주차장 지하1층)",
    "address": "경상남도 밀양시 삼랑진읍 삼랑진로 134(동보아파트)",
    "lat": 35.389622802285274,
    "lng": 128.83334570994262,
    "region": "경상남도"
  },
  {
    "name": "신촌부민그린타워(지하주차장 지하1층)",
    "address": "경상남도 밀양시 창밀로 3566-8 (내이동, 부민그린타워)",
    "lat": 35.50359542206123,
    "lng": 128.73751165371291,
    "region": "경상남도"
  },
  {
    "name": "밀양시청(시청지하1층)",
    "address": "경상남도 밀양시 밀양대로 2047 (교동, 밀양시청)",
    "lat": 35.50281311704438,
    "lng": 128.74699238366026,
    "region": "경상남도"
  },
  {
    "name": "현대아파트(지하주차장 지하1층,2층)",
    "address": "경상남도 밀양시 시청로2길 6 (내이동, 내이현대아파트)",
    "lat": 35.50533815678151,
    "lng": 128.74088239271885,
    "region": "경상남도"
  },
  {
    "name": "목화타워맨션(주거시설 지하1층)",
    "address": "경상남도 밀양시 교동로 93 (교동, 목화타워맨션)",
    "lat": 35.50947350084651,
    "lng": 128.75360538455053,
    "region": "경상남도"
  },
  {
    "name": "대우아파트 (지하주차장 지하1층)",
    "address": "경상남도 밀양시 중앙로 234-17 (삼문동, 밀양대우아파트)",
    "lat": 35.4844048738147,
    "lng": 128.75965639991665,
    "region": "경상남도"
  },
  {
    "name": "밀양코아루아파트 (지하주차장 지하1층)",
    "address": "경상남도 밀양시 미리벌로3길 45 (삼문동, 밀양코아루아파트)",
    "lat": 35.48354055096051,
    "lng": 128.7447022183948,
    "region": "경상남도"
  },
  {
    "name": "밀양삼문푸르지오 (지하주차장 지하 1층 2개소)",
    "address": "경상남도 밀양시 미리벌중앙로3길 47 (삼문동, 밀양삼문푸르지오)",
    "lat": 35.480667736719816,
    "lng": 128.74495553472352,
    "region": "경상남도"
  },
  {
    "name": "내이롯데인벤스가아파트(지하주차장 지하1층)",
    "address": "경상남도 밀양시 점필재로 65 (내이동, 밀양내이동롯데인벤스가)",
    "lat": 35.48858144260498,
    "lng": 128.73925936445954,
    "region": "경상남도"
  },
  {
    "name": "지엘리베라움1차 아파트 (지하주차장 지하 1층)",
    "address": "경상남도 밀양시 미리벌중앙로3길 46-0 (삼문동)",
    "lat": 35.48094011884556,
    "lng": 128.74504104821438,
    "region": "경상남도"
  },
  {
    "name": "한성 사랑채 뷰 (지하주차장 지하 1층)",
    "address": "경상남도 밀양시 미리벌중앙로 5-0 (삼문동)",
    "lat": 35.47894371193115,
    "lng": 128.75147417017843,
    "region": "경상남도"
  },
  {
    "name": "지엘리베라움2차 아파트 (지하주차장 지하1층)",
    "address": "경상남도 밀양시 미리벌로3길 11-0 (삼문동, 삼문동지엘리베라움2단지)",
    "lat": 35.48126342611791,
    "lng": 128.74678329699282,
    "region": "경상남도"
  },
  {
    "name": "내이엘에이치아파트(지하주차장 지하1층)",
    "address": "경상남도 밀양시 창밀로 3535 (내이동, 밀양내이엘에이치아파트)",
    "lat": 35.506865422790945,
    "lng": 128.73631498420346,
    "region": "경상남도"
  },
  {
    "name": "밀양도뮤토아파트(지하주차장 지하1층)",
    "address": "경상남도 밀양시 점필재로 45-25 (삼문동, 밀양domuto아파트)",
    "lat": 35.48821135906522,
    "lng": 128.74221837411758,
    "region": "경상남도"
  },
  {
    "name": "사랑채뷰아파트(지하주차장 지하1층)",
    "address": "경상남도 밀양시 하남읍 수산제방길 71",
    "lat": 35.37174546038625,
    "lng": 128.71581960114895,
    "region": "경상남도"
  },
  {
    "name": "거제시청 본관 지하1층",
    "address": "경상남도 거제시 계룡로 125 (고현동, 거제시청)",
    "lat": 34.8809615282943,
    "lng": 128.62178242227745,
    "region": "경상남도"
  },
  {
    "name": "거제축협 지하주차장 1층",
    "address": "경상남도 거제시 거제중앙로 1910 (고현동, 거제축산업현동조합)",
    "lat": 34.88849980908385,
    "lng": 128.62318956638308,
    "region": "경상남도"
  },
  {
    "name": "골드썬비취아파트 지하1층 주차장",
    "address": "경상남도 거제시 장평1로3길 10 (장평동, 골드썬비취맨션)",
    "lat": 34.89272897520717,
    "lng": 128.61565464219643,
    "region": "경상남도"
  },
  {
    "name": "대원아파트 지하1층 주차장",
    "address": "경상남도 거제시 거제대로 3801(옥포동, 대원아파트)",
    "lat": 34.894887535708726,
    "lng": 128.68563458673356,
    "region": "경상남도"
  },
  {
    "name": "세종빌딩 지하1층 주차장",
    "address": "경상남도 거제시 옥포로 227(옥포동)",
    "lat": 34.895132313167345,
    "lng": 128.6905429878234,
    "region": "경상남도"
  },
  {
    "name": "옥현상가 지하2층 주차장",
    "address": "경상남도 거제시 옥포로 250, 옥현시장 (옥포동)",
    "lat": 34.89688992067622,
    "lng": 128.6897220703618,
    "region": "경상남도"
  },
  {
    "name": "그린파크아파트 101동 지하 주차장 1층",
    "address": "경상남도 거제시 거제대로 3697-19 (옥포동, 그린파크)",
    "lat": 34.8864538103478,
    "lng": 128.690996589988,
    "region": "경상남도"
  },
  {
    "name": "크리스탈호텔 지하주차장 1층",
    "address": "경상남도 거제시 장승포로2길 29 (장승포동)",
    "lat": 34.86759914519054,
    "lng": 128.7283348647364,
    "region": "경상남도"
  },
  {
    "name": "동헌아파트 지하주차장 1층",
    "address": "경상남도 거제시 중곡2로4길 5-3 (고현동, 동헌아파트)",
    "lat": 34.89500029319296,
    "lng": 128.62746253419743,
    "region": "경상남도"
  },
  {
    "name": "미진그린타워아파트 지하주차장 1층",
    "address": "경상남도 거제시 장승포해안로 306 (능포동, 미진그린타워)",
    "lat": 34.87789799455069,
    "lng": 128.73440803295003,
    "region": "경상남도"
  },
  {
    "name": "덕산5차아파트503동 지하1층 주차장",
    "address": "경상남도 거제시 옥포로 315(옥포동, 옥포5차덕산타운)",
    "lat": 34.90198139016409,
    "lng": 128.6848726814385,
    "region": "경상남도"
  },
  {
    "name": "덕산5차아파트505동 지하1층 주차장",
    "address": "경상남도 거제시 옥포로 315(옥포동, 옥포5차덕산타운)",
    "lat": 34.90198139016409,
    "lng": 128.6848726814385,
    "region": "경상남도"
  },
  {
    "name": "덕산5차아파트507동 지하1층 주차장",
    "address": "경상남도 거제시 옥포로 328(옥포동, 옥포5차덕산타운(2단지))",
    "lat": 34.90143115281825,
    "lng": 128.68650966745764,
    "region": "경상남도"
  },
  {
    "name": "덕산5차아파트 509동 지하1층 주차장",
    "address": "경상남도 거제시 옥포로 328(옥포동, 옥포5차덕산타운(2단지))",
    "lat": 34.90143115281825,
    "lng": 128.68650966745764,
    "region": "경상남도"
  },
  {
    "name": "미진비치타워 지하1층 주차장",
    "address": "경상남도 거제시 옥포로6길 38-3, 미진비치타워 (옥포동)",
    "lat": 34.892610202060254,
    "lng": 128.69637357581257,
    "region": "경상남도"
  },
  {
    "name": "한일비치맨션 지하주차장 1층",
    "address": "경상남도 거제시 장승포로 7 (장승포동, 한일비치맨션)",
    "lat": 34.868053662617484,
    "lng": 128.7249335551782,
    "region": "경상남도"
  },
  {
    "name": "광우보람맨션 지하주차장 1층",
    "address": "경상남도 거제시 용소4길 5 (아주동, 광우보람맨션)",
    "lat": 34.87471942902665,
    "lng": 128.68899606786255,
    "region": "경상남도"
  },
  {
    "name": "청송빌라 지하1층 주차장",
    "address": "경상남도 거제시 옥포로4길 40(옥포동, 청송빌라)",
    "lat": 34.89239595994887,
    "lng": 128.69675474844374,
    "region": "경상남도"
  },
  {
    "name": "건웅데파트 지하1층 주차장",
    "address": "경상남도 거제시 옥포대첩로 45(옥포동, 건웅데파트)",
    "lat": 34.894034801097064,
    "lng": 128.69264144946806,
    "region": "경상남도"
  },
  {
    "name": "옥포제일교회 지하1층 주차장",
    "address": "경상남도 거제시 옥포중앙로 13, 옥포제일교회 (옥포동)",
    "lat": 34.89597410450922,
    "lng": 128.6873838111191,
    "region": "경상남도"
  },
  {
    "name": "덕산베스트타운 101동 지하주차장 1층",
    "address": "경상남도 거제시 중곡로 42 (고현동, 덕산베스트타운)",
    "lat": 34.896660366108925,
    "lng": 128.6304758544296,
    "region": "경상남도"
  },
  {
    "name": "덕산베스트타운 103동 지하주차장 1층",
    "address": "경상남도 거제시 중곡로 42 (고현동, 덕산베스트타운)",
    "lat": 34.896660366108925,
    "lng": 128.6304758544296,
    "region": "경상남도"
  },
  {
    "name": "덕산베스트타운 106동 지하주차장 1층",
    "address": "경상남도 거제시 중곡로 42(고현동, 덕산베스트타운)",
    "lat": 34.896660366108925,
    "lng": 128.6304758544296,
    "region": "경상남도"
  },
  {
    "name": "덕산베스트타운 108동 지하주차장 1층",
    "address": "경상남도 거제시 중곡로 42 (고현동, 덕산베스트타운)",
    "lat": 34.896660366108925,
    "lng": 128.6304758544296,
    "region": "경상남도"
  },
  {
    "name": "덕산베스트타운 110동 지하주차장 1층",
    "address": "경상남도 거제시 중곡로 42 (고현동, 덕산베스트타운)",
    "lat": 34.896660366108925,
    "lng": 128.6304758544296,
    "region": "경상남도"
  },
  {
    "name": "덕산베스트타운 113동 지하주차장 1층",
    "address": "경상남도 거제시 중곡로 42 (고현동, 덕산베스트타운)",
    "lat": 34.896660366108925,
    "lng": 128.6304758544296,
    "region": "경상남도"
  },
  {
    "name": "덕산베스트타운 116동 지하주차장 1층",
    "address": "경상남도 거제시 중곡로 42 (고현동, 덕산베스트타운)",
    "lat": 34.896660366108925,
    "lng": 128.6304758544296,
    "region": "경상남도"
  },
  {
    "name": "덕산베스트타운 118동 지하주차장 1층",
    "address": "경상남도 거제시 중곡로 42 (고현동, 덕산베스트타운)",
    "lat": 34.896660366108925,
    "lng": 128.6304758544296,
    "region": "경상남도"
  },
  {
    "name": "덕산베스트타운 105동 지하주차장 1층",
    "address": "경상남도 거제시 중곡로 42 (고현동, 덕산베스트타운)",
    "lat": 34.896660366108925,
    "lng": 128.6304758544296,
    "region": "경상남도"
  },
  {
    "name": "춘광한빛타운 전체 동 지하주차장 1층",
    "address": "경상남도 거제시 해명로6길 11(수월동, 춘광한빛타운)",
    "lat": 34.8937030636718,
    "lng": 128.6450634238613,
    "region": "경상남도"
  },
  {
    "name": "한일오피스텔 지하주차장 1층",
    "address": "경상남도 거제시 거제대로 3000 (장승포동, 한일오피스텔)",
    "lat": 34.86114116731963,
    "lng": 128.7211511153716,
    "region": "경상남도"
  },
  {
    "name": "혜성비치맨션 지하 주차장 1층",
    "address": "경상남도 거제시 옥포로5길 26 (옥포동, 혜성비치맨션)",
    "lat": 34.887345385416594,
    "lng": 128.69434363156014,
    "region": "경상남도"
  },
  {
    "name": "미진비치힐아파트 지하 주차장 1층",
    "address": "경상남도 거제시 거제대로 3679-6 (옥포동, 미진비치힐아파트)",
    "lat": 34.88578290932217,
    "lng": 128.69328740573118,
    "region": "경상남도"
  },
  {
    "name": "옥명대우아파트 108동 지하 주차장 1층",
    "address": "경상남도 거제시 능포로2길 38, 108동 지하1층 (능포동, 옥명대우아파트)",
    "lat": 34.87444508302124,
    "lng": 128.7322124103757,
    "region": "경상남도"
  },
  {
    "name": "제니스타운 101동 지하1층 주차장",
    "address": "경상남도 거제시 장평3로3길 7 (장평동, 제니스타운)",
    "lat": 34.89033390364343,
    "lng": 128.6082212279513,
    "region": "경상남도"
  },
  {
    "name": "제니스타운 103동 지하1층 주차장",
    "address": "경상남도 거제시 장평3로3길 7 (장평동, 제니스타운)",
    "lat": 34.89033390364343,
    "lng": 128.6082212279513,
    "region": "경상남도"
  },
  {
    "name": "제니스타운 105동 지하1층 주차장",
    "address": "경상남도 거제시 장평3로3길 7 (장평동, 제니스타운)",
    "lat": 34.89033390364343,
    "lng": 128.6082212279513,
    "region": "경상남도"
  },
  {
    "name": "미진무지개 지하1층 주차장",
    "address": "경상남도 거제시 옥포대첩로 85(옥포동, 미진무지개아파트)",
    "lat": 34.8945892218748,
    "lng": 128.69674703707545,
    "region": "경상남도"
  },
  {
    "name": "안성아파트 103동 지하1층 주차장",
    "address": "경상남도 거제시 옥포로 280(옥포동, 안성아파트)",
    "lat": 34.898742130870374,
    "lng": 128.68739142283323,
    "region": "경상남도"
  },
  {
    "name": "동헌하이츠 지하주차장 1층",
    "address": "경상남도 거제시 능포로4길 5 (능포동, 동헌하이츠)",
    "lat": 34.87286750232249,
    "lng": 128.7312167481287,
    "region": "경상남도"
  },
  {
    "name": "거제2차덕산베스트타운 208동 지하주차장 1층",
    "address": "경상남도 거제시 중곡2로 89 (고현동, 거제2차덕산베스트타운)",
    "lat": 34.89629081135872,
    "lng": 128.63551962084787,
    "region": "경상남도"
  },
  {
    "name": "거제2차덕산베스트타운 207동 뒤 지하주차장 1층",
    "address": "경상남도 거제시 중곡2로 89 (고현동, 거제2차덕산베스트타운)",
    "lat": 34.89629081135872,
    "lng": 128.63551962084787,
    "region": "경상남도"
  },
  {
    "name": "거제2차덕산베스트타운 209동 지하주차장 1층",
    "address": "경상남도 거제시 중곡2로 89 (고현동, 거제2차덕산베스트타운)",
    "lat": 34.89629081135872,
    "lng": 128.63551962084787,
    "region": "경상남도"
  },
  {
    "name": "거제2차덕산베스트타운 214동 지하주차장 1층",
    "address": "경상남도 거제시 중곡2로 89 (고현동, 거제2차덕산베스트타운)",
    "lat": 34.89629081135872,
    "lng": 128.63551962084787,
    "region": "경상남도"
  },
  {
    "name": "덕진휴먼빌 지하주차장 1층",
    "address": "경상남도 거제시 중곡로5길 11 (고현동, 덕진휴먼빌)",
    "lat": 34.895956466094944,
    "lng": 128.62901242113378,
    "region": "경상남도"
  },
  {
    "name": "영진엘르빌 지하1층 주차장",
    "address": "경상남도 거제시 국산로 167(옥포동, 영진엘르빌)",
    "lat": 34.899017715359285,
    "lng": 128.6942885492982,
    "region": "경상남도"
  },
  {
    "name": "기산네스트빌 지하1층 주차장",
    "address": "경상남도 거제시 옥포대첩로1길 2(옥포동, 네스트빌)",
    "lat": 34.89352364412665,
    "lng": 128.6884690470622,
    "region": "경상남도"
  },
  {
    "name": "영진자이온아파트 101동 지하 1층 주차장",
    "address": "경상남도 거제시 옥포대첩로 115(옥포동, 영진자이온)",
    "lat": 34.894951044794,
    "lng": 128.69989775108644,
    "region": "경상남도"
  },
  {
    "name": "장평코아루아파트 105동 지하 1층주차장",
    "address": "경상남도 거제시 장평3로3길 25 (장평동, 거제장평코아루아파트)",
    "lat": 34.89038033447008,
    "lng": 128.60615984391325,
    "region": "경상남도"
  },
  {
    "name": "장평코아루아파트 106동 지하1층 주차장",
    "address": "경상남도 거제시 장평3로3길 25 (장평동, 거제장평코아루아파트)",
    "lat": 34.89038033447008,
    "lng": 128.60615984391325,
    "region": "경상남도"
  },
  {
    "name": "홈플러스지하주차장",
    "address": "경상남도 거제시 장평로 12 (장평동, 디큐브백화점)",
    "lat": 34.89091499316261,
    "lng": 128.6160444273064,
    "region": "경상남도"
  },
  {
    "name": "덕산아내1차 101동 지하1층주차장",
    "address": "경상남도 거제시 장평2로 19 (장평동, 덕산아내1차)",
    "lat": 34.88695305611732,
    "lng": 128.60926438806064,
    "region": "경상남도"
  },
  {
    "name": "덕산아내1차 109동 지하1층 주차장",
    "address": "경상남도 거제시 장평2로 19 (장평동, 덕산아내1차)",
    "lat": 34.88695305611732,
    "lng": 128.60926438806064,
    "region": "경상남도"
  },
  {
    "name": "신원파크뷰 지하주차장 1층",
    "address": "경상남도 거제시 고현천로 100 (고현동, 신원파크뷰)",
    "lat": 34.88332546819688,
    "lng": 128.62799201116917,
    "region": "경상남도"
  },
  {
    "name": "거제롯데인벤스가 지하주차장 1층",
    "address": "경상남도 거제시 서문로 30 (고현동, 거제롯데인벤스家)",
    "lat": 34.88830381232672,
    "lng": 128.61947201419352,
    "region": "경상남도"
  },
  {
    "name": "삼오르네상스 아파트 102동 지하1층 주차장",
    "address": "경상남도 거제시 거제중앙로 1509-13 (문동동, 삼오르네상스)",
    "lat": 34.85790982298868,
    "lng": 128.64530754746897,
    "region": "경상남도"
  },
  {
    "name": "대동다숲 아파트 101동 지하1층 주차장",
    "address": "경상남도 거제시 상동7길 30 (상동동, 대동다숲아파트)",
    "lat": 34.86942554688094,
    "lng": 128.63170156633706,
    "region": "경상남도"
  },
  {
    "name": "대동다숲 아파트 102동 지하1층 주차장",
    "address": "경상남도 거제시 상동7길 30 (상동동, 대동다숲아파트)",
    "lat": 34.86942554688094,
    "lng": 128.63170156633706,
    "region": "경상남도"
  },
  {
    "name": "대동다숲 아파트 112동 지하1층 주차장",
    "address": "경상남도 거제시 상동7길 30 (상동동, 대동다숲아파트)",
    "lat": 34.86942554688094,
    "lng": 128.63170156633706,
    "region": "경상남도"
  },
  {
    "name": "거제자이아파트 107동,112동,115동 지하주차장1층",
    "address": "경상남도 거제시 해명로 52(수월동, 거제자이)",
    "lat": 34.89238061593064,
    "lng": 128.6445470248402,
    "region": "경상남도"
  },
  {
    "name": "두산위브아파트 101~105동 지하주차장1층",
    "address": "경상남도 거제시 수양로 435(수월동, 거제 신현 두산 위브)",
    "lat": 34.891141934500055,
    "lng": 128.64225341147238,
    "region": "경상남도"
  },
  {
    "name": "두산위브아파트 106~108동 지하주차장1층",
    "address": "경상남도 거제시 수양로 435 (수월동, 거제 신현 두산 위브)",
    "lat": 34.891141934500055,
    "lng": 128.64225341147238,
    "region": "경상남도"
  },
  {
    "name": "롯데캐슬아파트 302동 지하주차장 1층",
    "address": "경상남도 거제시 능포로2길 62 (능포동, 롯데캐슬아일랜드)",
    "lat": 34.87657116144728,
    "lng": 128.73272321178115,
    "region": "경상남도"
  },
  {
    "name": "롯데캐슬아파트 304동 지하주차장 1층",
    "address": "경상남도 거제시 능포로2길 62-0 (능포동, 롯데캐슬아일랜드)",
    "lat": 34.87657116144728,
    "lng": 128.73272321178115,
    "region": "경상남도"
  },
  {
    "name": "혜성골든타운 102동 지하주차장 1층",
    "address": "경상남도 거제시 탑곡로 80 (아주동, 혜성골든타운)",
    "lat": 34.863130003370365,
    "lng": 128.69119072119156,
    "region": "경상남도"
  },
  {
    "name": "미진참사랑아파트 지하주차장 1층",
    "address": "경상남도 거제시 탑곡로2길 17 (아주동, 미진참사랑아파트)",
    "lat": 34.864594075678845,
    "lng": 128.6937560465678,
    "region": "경상남도"
  },
  {
    "name": "거제덕산아내프리미엄1차아파트 지하주차장 1층",
    "address": "경상남도 거제시 아주로 100-10 (아주동, 거제덕산아내프리미엄)",
    "lat": 34.8661596873415,
    "lng": 128.68459466439626,
    "region": "경상남도"
  },
  {
    "name": "덕진휴먼빌아파트 지하주차장 1층",
    "address": "경상남도 거제시 탑곡로4길 7 (아주동)",
    "lat": 34.863156552458385,
    "lng": 128.6920548091953,
    "region": "경상남도"
  },
  {
    "name": "대동다숲아파트1단지 105동,106동 지하주차장 1층",
    "address": "경상남도 거제시 아주2로4길 10 (아주동, 대동다숲아파트1단지)",
    "lat": 34.86952122193115,
    "lng": 128.68246586373044,
    "region": "경상남도"
  },
  {
    "name": "대동다숲아파트2단지 205동,206동 지하주차장 1층",
    "address": "경상남도 거제시 아주2로2길 13 (아주동, 대동다숲아파트2단지)",
    "lat": 34.869082564727755,
    "lng": 128.6856179302588,
    "region": "경상남도"
  },
  {
    "name": "아주현진에버빌아파트 101동,102동 지하주차장 1층",
    "address": "경상남도 거제시 용소1길 85 (아주동, 거제아주현진에버빌아파트)",
    "lat": 34.87581643384618,
    "lng": 128.6919005291992,
    "region": "경상남도"
  },
  {
    "name": "석호해와루아파트 지하주차장 1층",
    "address": "경상남도 거제시 아주로 73 (아주동, 석호해와루아파트)",
    "lat": 34.86458986011343,
    "lng": 128.68723550297833,
    "region": "경상남도"
  },
  {
    "name": "성보체어빌아파트",
    "address": "경상남도 거제시 아주로3길 31-5 (아주동, 성보체어빌아파트)",
    "lat": 34.86440973368494,
    "lng": 128.6912612887469,
    "region": "경상남도"
  },
  {
    "name": "골든아틀란티스 지하주차장 1층",
    "address": "경상남도 거제시 거제중앙로 1930-10 (고현동)",
    "lat": 34.89043996919204,
    "lng": 128.62317915079245,
    "region": "경상남도"
  },
  {
    "name": "아주현진에버빌아파트 105동,106동 지하주차장 1층",
    "address": "경상남도 거제시 용소1길 85 (아주동, 거제아주현진에버빌아파트)",
    "lat": 34.87581643384618,
    "lng": 128.6919005291992,
    "region": "경상남도"
  },
  {
    "name": "대동다숲아파트1단지 101동,102동 지하주차장 1층",
    "address": "경상남도 거제시 아주2로4길 10 (아주동, 대동 다숲 아파트 1단지)",
    "lat": 34.86952122193115,
    "lng": 128.68246586373044,
    "region": "경상남도"
  },
  {
    "name": "대동다숲아파트1단지 103동,104동 지하주차장 1층",
    "address": "경상남도 거제시 아주2로4길 10 (아주동, 대동 다숲 아파트 1단지)",
    "lat": 34.86952122193115,
    "lng": 128.68246586373044,
    "region": "경상남도"
  },
  {
    "name": "대동다숲아파트2단지 201동,202동 지하주차장 1층",
    "address": "경상남도 거제시 아주2로2길 13 (아주동, 대동 다숲 아파트 2단지)",
    "lat": 34.869082564727755,
    "lng": 128.6856179302588,
    "region": "경상남도"
  },
  {
    "name": "대동다숲아파트2단지 203동,204동 지하주차장 1층",
    "address": "경상남도 거제시 아주2로2길 13 (아주동, 대동 다숲 아파트 2단지)",
    "lat": 34.869082564727755,
    "lng": 128.6856179302588,
    "region": "경상남도"
  },
  {
    "name": "옥명대우아파트 102동 지하주차장 1층",
    "address": "경상남도 거제시 능포로2길 38-0 (능포동, 옥명대우아파트)",
    "lat": 34.87444508302124,
    "lng": 128.7322124103757,
    "region": "경상남도"
  },
  {
    "name": "라인라데팡스아파트 지하주차장 1층 ~ 2층",
    "address": "경상남도 거제시 능포로4길 23-0 (능포동)",
    "lat": 34.87238042116383,
    "lng": 128.73295077577242,
    "region": "경상남도"
  },
  {
    "name": "삼도하이츠아파트 지하1층 주차장",
    "address": "경상남도 거제시 옥포중앙로 125(옥포동, 삼도하이츠아파트)",
    "lat": 34.89600405247628,
    "lng": 128.69940954536244,
    "region": "경상남도"
  },
  {
    "name": "KB국민은행 옥포지점 지하1층 주차장",
    "address": "경상남도 거제시 옥포대첩로 35, (주)국민은행 옥포점 (옥포동)",
    "lat": 34.893847638329824,
    "lng": 128.6913504783688,
    "region": "경상남도"
  },
  {
    "name": "미진이지비아아파트 지하주차장 1층",
    "address": "경상남도 거제시 아주로 63 (아주동, 미진이지비아)",
    "lat": 34.86459430082957,
    "lng": 128.6882410793866,
    "region": "경상남도"
  },
  {
    "name": "거제시 공공청사 지하주차장 1층",
    "address": "경상남도 거제시 거제중앙로 1849 (고현동, 거제시공공청사)",
    "lat": 34.88348601511118,
    "lng": 128.62539899867582,
    "region": "경상남도"
  },
  {
    "name": "주영에이스빌 지하주차장 1층",
    "address": "경상남도 거제시 거제중앙로7길 18 (고현동, 주영에이스빌)",
    "lat": 34.87847913256122,
    "lng": 128.6263754333328,
    "region": "경상남도"
  },
  {
    "name": "롯데마트 거제점 지하 주차장 1층",
    "address": "경상남도 거제시 서간도길 9-9 (옥포동, 거제엘크루랜드마크,롯데마트)",
    "lat": 34.88798659471,
    "lng": 128.69093655433244,
    "region": "경상남도"
  },
  {
    "name": "신부시장 지하주차장 1층",
    "address": "경상남도 거제시 장승포로 49 (장승포동, 신부월드)",
    "lat": 34.86766656802337,
    "lng": 128.72944461380936,
    "region": "경상남도"
  },
  {
    "name": "두모기숙사 지하주차장 1층",
    "address": "경상남도 거제시 두모1길 16 (두모동)",
    "lat": 34.87339683082921,
    "lng": 128.72064671564303,
    "region": "경상남도"
  },
  {
    "name": "벽산e-솔렌스힐1차 아파트 101동 지하1층 주차장",
    "address": "경상남도 거제시 상동5길 75-40 (상동동, 벽산e-솔렌스힐 1차)",
    "lat": 34.86160925861864,
    "lng": 128.63343983185953,
    "region": "경상남도"
  },
  {
    "name": "벽산e-솔렌스힐3차 아파트 302동 지하1층 주차장",
    "address": "경상남도 거제시 상동5길 117-50 (상동동, 벽산e-솔렌스힐3차)",
    "lat": 34.860209948586245,
    "lng": 128.6347375851175,
    "region": "경상남도"
  },
  {
    "name": "대아푸른솔마을 아파트 102동 지하1층 주차장",
    "address": "경상남도 거제시 거제중앙로 1509-22 (문동동, 대아푸른솔마을)",
    "lat": 34.857466415465964,
    "lng": 128.64421541764636,
    "region": "경상남도"
  },
  {
    "name": "고현이편한세상 지하주차장 1층",
    "address": "경상남도 거제시 거제대로 4500-45 (고현동, e편한세상 고현)",
    "lat": 34.895411496670896,
    "lng": 128.63990193794075,
    "region": "경상남도"
  },
  {
    "name": "고현서희스타힐스 지하주차장 1~2층",
    "address": "경상남도 거제시 고현로 138-37 (고현동, 스타힐스센트럴)",
    "lat": 34.89075255110797,
    "lng": 128.63058125950232,
    "region": "경상남도"
  },
  {
    "name": "휴엔하임오피스텔 지하주차장 1층",
    "address": "경상남도 거제시 거제중앙로13길 7 (고현동, 휴엔하임오피스텔)",
    "lat": 34.88344559197674,
    "lng": 128.62489801627214,
    "region": "경상남도"
  },
  {
    "name": "신원심포니하우스 지하 1층 주차장",
    "address": "경상남도 거제시 옥포로 365(옥포동, 신원심포니하우스)",
    "lat": 34.90342842232515,
    "lng": 128.68601572147134,
    "region": "경상남도"
  },
  {
    "name": "동성그린그린아파트 지하1층 주차장",
    "address": "경상남도 거제시 일운면 반송재로 481-9 (동성그린아파트)",
    "lat": 34.8384872311994,
    "lng": 128.68954863511374,
    "region": "경상남도"
  },
  {
    "name": "거제오션파크자이 지하주차장 1층(102동앞,107동옆)",
    "address": "경상남도 거제시 거제면 두동로 259-90 (거제오션파크자이)",
    "lat": 34.88274861156248,
    "lng": 128.58988089754274,
    "region": "경상남도"
  },
  {
    "name": "경남아너스빌 101동 지하주차장 지하1층",
    "address": "경상남도 거제시 사등면 두동로 30(경남 아너스빌)",
    "lat": 34.89770685611246,
    "lng": 128.56462821368848,
    "region": "경상남도"
  },
  {
    "name": "경남아너스빌 105동 지하주차장 지하1층",
    "address": "경상남도 거제시 사등면 두동로 30 (경남아너스빌)",
    "lat": 34.89770685611246,
    "lng": 128.56462821368848,
    "region": "경상남도"
  },
  {
    "name": "사곡영진자이온1단지 102동 지하주차장 지하1층",
    "address": "경상남도 거제시 사등면 두동로 54-42 (사곡영진자이온아파트1단지)",
    "lat": 34.89297976885745,
    "lng": 128.56803030400107,
    "region": "경상남도"
  },
  {
    "name": "거제하청엘에이치아파트 102동 지하주차장 지하1층",
    "address": "경상남도 거제시 하청면 거제북로 554 (거제하청엘에이치아파트)",
    "lat": 34.95825620809864,
    "lng": 128.65773294741322,
    "region": "경상남도"
  },
  {
    "name": "일성유수안 아파트 1동 지하주차장 1층",
    "address": "경상남도 거제시 연초면 거제북로 57 (연초 일성유수안)",
    "lat": 34.91593881733098,
    "lng": 128.6540000516154,
    "region": "경상남도"
  },
  {
    "name": "청목아델하임 지하주차장 1층",
    "address": "경상남도 거제시 거제면 거제남서로 3466 (청목 아델하임)",
    "lat": 34.84952576208296,
    "lng": 128.58617060564018,
    "region": "경상남도"
  },
  {
    "name": "라티움주상복합아파트 지하1층주차장",
    "address": "경상남도 거제시 일운면 지세포해안로 100 (라티움주상복합아파트)",
    "lat": 34.829233944403875,
    "lng": 128.70581333661218,
    "region": "경상남도"
  },
  {
    "name": "스타힐스오션시티아파트 지하주차장1층 (2주차장)",
    "address": "경상남도 거제시 일운면 소동8길 11 (스타힐스 오션시티)",
    "lat": 34.841556291797794,
    "lng": 128.69771706561178,
    "region": "경상남도"
  },
  {
    "name": "옥포e편한세상,1단지정문지하주차장",
    "address": "경상남도 거제시 성산로 33(옥포동, e편한세상 옥포아파트 1단지)",
    "lat": 34.8993509674617,
    "lng": 128.6960959278313,
    "region": "경상남도"
  },
  {
    "name": "거제수월 힐스테이트 지하주차장 2~3층 전체",
    "address": "경상남도 거제시 제산로 51(양정동, 거제 수월 힐스테이트)",
    "lat": 34.88909308455165,
    "lng": 128.6408412930793,
    "region": "경상남도"
  },
  {
    "name": "소노캄거제 (웨스트동 지하1층~3층 주차장)",
    "address": "경상남도 거제시 일운면 거제대로 2660, 대명리조트거제휴양콘도미니엄",
    "lat": 34.84274159982803,
    "lng": 128.7014832916592,
    "region": "경상남도"
  },
  {
    "name": "무지개타운아파트 지하주차장 1층",
    "address": "경상남도 양산시 옥곡6길 14-0 (남부동)",
    "lat": 35.33691200764359,
    "lng": 129.0376901278096,
    "region": "경상남도"
  },
  {
    "name": "유성요양병원 지하주차장 1층",
    "address": "경상남도 양산시 삼일로 75-0 (북부동, 외한은행)",
    "lat": 35.34392664293956,
    "lng": 129.03569210580338,
    "region": "경상남도"
  },
  {
    "name": "대승하이아트1차아파트 103동, 105동 지하주차장1층",
    "address": "경상남도 양산시 웅상대로 866 (덕계동, 대승하이아트1차아파트)",
    "lat": 35.37679465965783,
    "lng": 129.15779103488913,
    "region": "경상남도"
  },
  {
    "name": "대승하이아트2차아파트 202동 지하주차장 1층",
    "address": "경상남도 양산시 덕계북길 9 (덕계동, 대승하이아트2차)",
    "lat": 35.38444095299845,
    "lng": 129.15638464689087,
    "region": "경상남도"
  },
  {
    "name": "태원아파트 103동 105동 지하주차장 1층",
    "address": "경상남도 양산시 신명로 73 (평산동, 태원아파트)",
    "lat": 35.386145872540055,
    "lng": 129.14497040787276,
    "region": "경상남도"
  },
  {
    "name": "봉우아파트 202동, 205동 지하주차장 1층",
    "address": "경상남도 양산시 신명로 87 (평산동, 봉우아파트)",
    "lat": 35.386867816872254,
    "lng": 129.14373931039165,
    "region": "경상남도"
  },
  {
    "name": "황전아파트 전체 동의 지하주차장 1층",
    "address": "경상남도 양산시 물금읍 오봉로 15 (황전범어타운)",
    "lat": 35.326622231765086,
    "lng": 128.99936920188327,
    "region": "경상남도"
  },
  {
    "name": "덕계종합상설시장 지하주차장 1층",
    "address": "경상남도 양산시 덕계2길 7 (덕계동, 덕계종합상설시장)",
    "lat": 35.37001979028823,
    "lng": 129.14740874901662,
    "region": "경상남도"
  },
  {
    "name": "대동서안한마음타운 107동 앞 지하주차장 1층",
    "address": "경상남도 양산시 신기서길 14 (신기동, 대동서안한마음타운)",
    "lat": 35.35243053452425,
    "lng": 129.03931897606552,
    "region": "경상남도"
  },
  {
    "name": "대동1차아파트 전체 동의 지하주차장 1층",
    "address": "경상남도 양산시 북정중앙로 62 (북정동, 양산북정대동아파트)",
    "lat": 35.36400708592107,
    "lng": 129.04934705446436,
    "region": "경상남도"
  },
  {
    "name": "대동황토방아파트 전체 동의 지하주차장 1층",
    "address": "경상남도 양산시 양주로 154 (중부동, 대동황토방아파트)",
    "lat": 35.338799263837416,
    "lng": 129.03240023360203,
    "region": "경상남도"
  },
  {
    "name": "현대아파트 전체 동의 지하주차장 1층",
    "address": "경상남도 양산시 양주로 114 (중부동, 현대아파트)",
    "lat": 35.335274479700566,
    "lng": 129.03202646371315,
    "region": "경상남도"
  },
  {
    "name": "양산신도시뜰안채아파트 101동 앞 지하주차장 1층",
    "address": "경상남도 양산시 양주로 113 (중부동, 양산신도시뜰안채아파트)",
    "lat": 35.33523663985876,
    "lng": 129.03171227608095,
    "region": "경상남도"
  },
  {
    "name": "천성리버타운아파트 전체 동의 지하주차장 1층",
    "address": "경상남도 양산시 소주회야1길 8 (소주동, 천성리버타운)",
    "lat": 35.40785367351814,
    "lng": 129.1585003404361,
    "region": "경상남도"
  },
  {
    "name": "부영벽산아파트 102동, 106동 지하주차장 1층",
    "address": "경상남도 양산시 덕계11길 12 (덕계동, 부영벽산아파트)",
    "lat": 35.37571726414144,
    "lng": 129.15103506063818,
    "region": "경상남도"
  },
  {
    "name": "양산신도시쌍용아파트 106동 앞 지하주차장 1층",
    "address": "경상남도 양산시 양주로 97 (남부동, 양산신도시쌍용아파트)",
    "lat": 35.33381966469534,
    "lng": 129.031553228042,
    "region": "경상남도"
  },
  {
    "name": "양산신도시청어람아파트 전체 동의 지하주차장 1층",
    "address": "경상남도 양산시 양주로 94 (남부동, 양산신도시아파트청어람)",
    "lat": 35.33336750588663,
    "lng": 129.03176239558965,
    "region": "경상남도"
  },
  {
    "name": "양산코아루아파트 105동, 110동 지하주차장 1층",
    "address": "경상남도 양산시 평산북로 54 (평산동, 양산코아루아파트)",
    "lat": 35.3894615003378,
    "lng": 129.15002900914308,
    "region": "경상남도"
  },
  {
    "name": "일신건영휴먼빌아파트 전체 동의 지하주차장 1층",
    "address": "경상남도 양산시 물금읍 범어로 11 (일신건영휴먼빌아파트)",
    "lat": 35.332382442401936,
    "lng": 129.01075181110693,
    "region": "경상남도"
  },
  {
    "name": "우남퍼스트빌 아파트 전체 동의 지하주차장 1층",
    "address": "경상남도 양산시 물금읍 신주로 40 (우남퍼스트빌)",
    "lat": 35.33302958448554,
    "lng": 129.0155366216306,
    "region": "경상남도"
  },
  {
    "name": "새롬성원네오파트아파트 105동 지하주차장 1층",
    "address": "경상남도 양산시 북정서길 16 (북정동, 새롬성원네오파트)",
    "lat": 35.35939141783164,
    "lng": 129.0431528096829,
    "region": "경상남도"
  },
  {
    "name": "화성파크드림아파트 104동 105동 지하주차장 1층",
    "address": "경상남도 양산시 대운5길 7 (명동, 웅상신도시화성파크드림)",
    "lat": 35.40097741401711,
    "lng": 129.1717925920234,
    "region": "경상남도"
  },
  {
    "name": "웅상신도시푸르지오아파트 전동 지하주차장 1층",
    "address": "경상남도 양산시 삼호로 74 (삼호동, 웅상신도시푸르지오)",
    "lat": 35.407432593557054,
    "lng": 129.17199029875553,
    "region": "경상남도"
  },
  {
    "name": "동일스위트 2차 아파트 전체동 지하주차장 1층",
    "address": "경상남도 양산시 덕계5길 14 (덕계동, 동일스위트2차아파트)",
    "lat": 35.37304426172106,
    "lng": 129.14812084350712,
    "region": "경상남도"
  },
  {
    "name": "효성백년가약 아파트 전체 동의 지하주차장 1층",
    "address": "경상남도 양산시 물금읍 범어로 33 (효성백년가약아파트)",
    "lat": 35.33094068019437,
    "lng": 129.01242217724322,
    "region": "경상남도"
  },
  {
    "name": "신창비바패밀리 아파트 전체 동의 지하주차장 1층",
    "address": "경상남도 양산시 물금읍 신주로 69-0 (신창비바패밀리)",
    "lat": 35.33139225859781,
    "lng": 129.01833741106302,
    "region": "경상남도"
  },
  {
    "name": "교동일동미라주아파트 전체 동의 지하주차장 1층",
    "address": "경상남도 양산시 회현1길 48 (교동, 일동미라주아파트)",
    "lat": 35.34553977492292,
    "lng": 129.02284801888837,
    "region": "경상남도"
  },
  {
    "name": "신원아침도시 아파트102동, 107동지하주차장 1~2층",
    "address": "경상남도 양산시 대평들5길 16-0 (주남동, 양산웅상신원아침도시)",
    "lat": 35.4161305810555,
    "lng": 129.16447064367742,
    "region": "경상남도"
  },
  {
    "name": "상록경남아너스빌 아파트 전체 동의 지하주차장 1층",
    "address": "경상남도 양산시 양주로 16 (남부동, 상록경남아너스빌)",
    "lat": 35.331849825094444,
    "lng": 129.02456581722552,
    "region": "경상남도"
  },
  {
    "name": "이편한세상1차 아파트 104동 앞 지하주차장 1층",
    "address": "경상남도 양산시 양주로 33 (남부동, 양산1차이-편한세상)",
    "lat": 35.33313965206782,
    "lng": 129.02539157942448,
    "region": "경상남도"
  },
  {
    "name": "양산신도시주공3단지아파트 312동 앞 지하주차장 1층",
    "address": "경상남도 양산시 양주로 153 (중부동, 양산신도시주공3단지아파트)",
    "lat": 35.3388142969543,
    "lng": 129.03208533766667,
    "region": "경상남도"
  },
  {
    "name": "녹원아파트 전체 동의 지하주차장 1층",
    "address": "경상남도 양산시 고향의봄로 80 (북정동)",
    "lat": 35.35724667064402,
    "lng": 129.0460281143478,
    "region": "경상남도"
  },
  {
    "name": "양주동 행정복지센터 건물 지하 1층",
    "address": "경상남도 양산시 양주로 130, 양주동행정복지센터 (중부동)",
    "lat": 35.33652504388497,
    "lng": 129.03217748476473,
    "region": "경상남도"
  },
  {
    "name": "양산아이유쉘아파트 전체 동의 지하주차장 1층",
    "address": "경상남도 양산시 신기강변1길 11 (신기동, 양산우방아이유쉘)",
    "lat": 35.35200063297826,
    "lng": 129.03604734429106,
    "region": "경상남도"
  },
  {
    "name": "대우마리나아파트 전체 동의 지하주차장 1층",
    "address": "경상남도 양산시 상북면 감결길 17 (대우마리나아파트)",
    "lat": 35.38840979508164,
    "lng": 129.04937692920635,
    "region": "경상남도"
  },
  {
    "name": "대석휴먼시아아파트 106동, 110동 지하주차장 1층",
    "address": "경상남도 양산시 상북면 양산대로 1360 (양산대석휴먼시아)",
    "lat": 35.39011962817849,
    "lng": 129.05228092767905,
    "region": "경상남도"
  },
  {
    "name": "양산이지더원 리버포레 301동 및 303동 지하 1층",
    "address": "경상남도 양산시 동면 금오16길 100",
    "lat": 35.32236475343047,
    "lng": 129.02695965704373,
    "region": "경상남도"
  },
  {
    "name": "금산 휴먼시아 104동 및 105동 지하 1층",
    "address": "경상남도 양산시 동면 금산2길 12 (양산금산휴먼시아)",
    "lat": 35.30317907111462,
    "lng": 129.0260393807335,
    "region": "경상남도"
  },
  {
    "name": "통도환타지아 콘도 지하1층",
    "address": "경상남도 양산시 하북면 통도7길 68 (통도환타지아)",
    "lat": 35.49829829109311,
    "lng": 129.0801992349342,
    "region": "경상남도"
  },
  {
    "name": "의령군청 본청 지하 1층",
    "address": "경상남도 의령군 의령읍 충익로 63",
    "lat": 35.321919643176024,
    "lng": 128.26179842751327,
    "region": "경상남도"
  },
  {
    "name": "삼영타운 지하주차장 지하 1층",
    "address": "경상남도 의령군 의령읍 남산로 7-15",
    "lat": 35.31791792628874,
    "lng": 128.26733694862958,
    "region": "경상남도"
  },
  {
    "name": "의령병원 지하 1층",
    "address": "경상남도 의령군 의령읍 의병로14길 10-0",
    "lat": 35.31864304854638,
    "lng": 128.2589193783389,
    "region": "경상남도"
  },
  {
    "name": "서광아파트 지하주차장 지하 1층",
    "address": "경상남도 의령군 의령읍 의병로14길 18-0",
    "lat": 35.31795131348243,
    "lng": 128.25908616704922,
    "region": "경상남도"
  },
  {
    "name": "의령군보건소 지하 1층",
    "address": "경상남도 의령군 의령읍 의병로8길 16",
    "lat": 35.31778540638077,
    "lng": 128.25479274979332,
    "region": "경상남도"
  },
  {
    "name": "종합사회복지관 지하 1층",
    "address": "경상남도 의령군 의령읍 의병로8길 44",
    "lat": 35.31615138710713,
    "lng": 128.25750480148895,
    "region": "경상남도"
  },
  {
    "name": "희가로아파트 지하주차장 지하 1층",
    "address": "경상남도 의령군 의령읍 행복로 7 (신우희가로아파트)",
    "lat": 35.320818974272285,
    "lng": 128.26927792727437,
    "region": "경상남도"
  },
  {
    "name": "지정면 복지회관 지하 1층",
    "address": "경상남도 의령군 지정면 함의로 1508, 지정면복지회관",
    "lat": 35.38206643840637,
    "lng": 128.388420126325,
    "region": "경상남도"
  },
  {
    "name": "함안군청 지하 1층",
    "address": "경상남도 함안군 가야읍 말산로 1 (함안군청)",
    "lat": 35.27297369355744,
    "lng": 128.40678070692434,
    "region": "경상남도"
  },
  {
    "name": "경상남도함안교육지원청 지하 1층",
    "address": "경상남도 함안군 가야읍 함안대로 497 (함안교육청)",
    "lat": 35.271579434704094,
    "lng": 128.40833070350158,
    "region": "경상남도"
  },
  {
    "name": "함안군의회 지하 1층",
    "address": "경상남도 함안군 가야읍 말산로 5 (함안군의회)",
    "lat": 35.27314186735762,
    "lng": 128.40736218764806,
    "region": "경상남도"
  },
  {
    "name": "남경타운 지하주차장 1층",
    "address": "경상남도 함안군 가야읍 가야15길 26 (남경타운)",
    "lat": 35.279503752193044,
    "lng": 128.41176490159955,
    "region": "경상남도"
  },
  {
    "name": "한국아파트 지하주차장 1층",
    "address": "경상남도 함안군 가야읍 남경길 186 (함안가야한국아파트)",
    "lat": 35.28062664595122,
    "lng": 128.41742730451912,
    "region": "경상남도"
  },
  {
    "name": "안흥빌라트 지하주차장 1층",
    "address": "경상남도 함안군 가야읍 장터길 53 (안흥빌라트)",
    "lat": 35.27734559036769,
    "lng": 128.4081790373405,
    "region": "경상남도"
  },
  {
    "name": "함안군보건소 지하 1층",
    "address": "경상남도 함안군 가야읍 중앙남4길 10 (함안군보건소)",
    "lat": 35.27568506835235,
    "lng": 128.4102540519746,
    "region": "경상남도"
  },
  {
    "name": "함안군종합사회복지관 지하 1층",
    "address": "경상남도 함안군 칠원읍 삼칠로 155 (함안종합사회복지관)",
    "lat": 35.30941036458522,
    "lng": 128.5173056106264,
    "region": "경상남도"
  },