[
  {
    "name": "제주시 열린정보센터(지하주차장 1층)",
    "address": "제주특별자치도 제주시 광양9길 17, 제주시열린정보센터 지하1층 (이도이동)",
    "lat": 33.50030359450421,
    "lng": 126.53144425183494,
    "region": "제주특별자치도"
  },
  {
    "name": "한국은행(지하주차장 1층~2층)",
    "address": "제주특별자치도 제주시 복지로1길 20, 한국은행제주본부 지하주차장 1층~2층 (도남동)",
    "lat": 33.48796325113057,
    "lng": 126.51999963032736,
    "region": "제주특별자치도"
  },
  {
    "name": "중앙여자고등학교(지하 1층)",
    "address": "제주특별자치도 제주시 구남동5길 11, 제주중앙여자고등학교 지하1층 (이도이동)",
    "lat": 33.48993888383244,
    "lng": 126.539678543879,
    "region": "제주특별자치도"
  },
  {
    "name": "전원예식장(지하 1층)",
    "address": "제주특별자치도 제주시 가령골2길 19-4, 전원예식장 지하1층 (이도이동)",
    "lat": 33.50363141669304,
    "lng": 126.53895962168232,
    "region": "제주특별자치도"
  },
  {
    "name": "제주종합경기장야구장(지하 1층)",
    "address": "제주특별자치도 제주시 서광로2길 24, 야구장 (오라일동)",
    "lat": 33.4980863097239,
    "lng": 126.51287327690832,
    "region": "제주특별자치도"
  },
  {
    "name": "동방운수(지하 1층)",
    "address": "제주특별자치도 제주시 선반로2길 5-3 (화북일동)",
    "lat": 33.51426085020033,
    "lng": 126.56020345808656,
    "region": "제주특별자치도"
  },
  {
    "name": "우일아파트(지하주차장 1층)",
    "address": "제주특별자치도 제주시 만덕로3길 19 (건입동, 우일아파트)",
    "lat": 33.515911583299264,
    "lng": 126.53311394334736,
    "region": "제주특별자치도"
  },
  {
    "name": "제주아트플랫폼 (지하주차장 1층~2층)",
    "address": "제주특별자치도 제주시 중앙로14길 18 (삼도이동, 아카데미극장)",
    "lat": 33.5114816553921,
    "lng": 126.52252972739178,
    "region": "제주특별자치도"
  },
  {
    "name": "오리엔탈호텔(지하주차장 1층~2층)",
    "address": "제주특별자치도 제주시 탑동로 47 (삼도이동, 제주오리엔탈호텔)",
    "lat": 33.51782289011482,
    "lng": 126.51987874156517,
    "region": "제주특별자치도"
  },
  {
    "name": "한국병원(지하 1층)",
    "address": "제주특별자치도 제주시 서광로 193 (삼도일동)",
    "lat": 33.50013433690454,
    "lng": 126.51710367236944,
    "region": "제주특별자치도"
  },
  {
    "name": "세진아파트(지하주차장 1층)",
    "address": "제주특별자치도 제주시 평전2길 5 (삼도일동)",
    "lat": 33.500780730112005,
    "lng": 126.51846468436254,
    "region": "제주특별자치도"
  },
  {
    "name": "농협중앙회제주지역본부(지하주차장 1층)",
    "address": "제주특별자치도 제주시 서사로 56 (삼도일동)",
    "lat": 33.50752972526018,
    "lng": 126.51979723564598,
    "region": "제주특별자치도"
  },
  {
    "name": "하이제주(지하 1층)",
    "address": "제주특별자치도 제주시 선반남2길 29 (화북일동)",
    "lat": 33.51238133856093,
    "lng": 126.56263346835108,
    "region": "제주특별자치도"
  },
  {
    "name": "제주우체국(지하 1층)",
    "address": "제주특별자치도 제주시 관덕로 33 (삼도이동, 제주우체국)",
    "lat": 33.51337333112514,
    "lng": 126.5228128756976,
    "region": "제주특별자치도"
  },
  {
    "name": "영락교회(지하 1층)",
    "address": "제주특별자치도 제주시 동광로23길 15 (일도이동, 제주영락교회)",
    "lat": 33.511135967232654,
    "lng": 126.54342729794324,
    "region": "제주특별자치도"
  },
  {
    "name": "용두암현대2차아파트 201동(지하주차장 1층)",
    "address": "제주특별자치도 제주시 용담로5길 5 (용담삼동)",
    "lat": 33.51327599273402,
    "lng": 126.50816896470984,
    "region": "제주특별자치도"
  },
  {
    "name": "성신빌라(지하주차장 1층)",
    "address": "제주특별자치도 제주시 사라봉3길 15 (건입동, 성신빌라)",
    "lat": 33.51711691188051,
    "lng": 126.54090176964851,
    "region": "제주특별자치도"
  },
  {
    "name": "사라미화맨션(지하주차장 1층)",
    "address": "제주특별자치도 제주시 사라봉7길 20 (건입동, 사라2차미화맨션)",
    "lat": 33.51642298208626,
    "lng": 126.53965270362046,
    "region": "제주특별자치도"
  },
  {
    "name": "구좌읍사무소(지하 1층)",
    "address": "제주특별자치도 제주시 구좌읍 일주동로 3116, 지하1층 (구좌읍사무소)",
    "lat": 33.52281584573906,
    "lng": 126.85223775394562,
    "region": "제주특별자치도"
  },
  {
    "name": "조천읍사무소 지하 1층",
    "address": "제주특별자치도 제주시 조천읍 신북로 194, 조천읍사무소",
    "lat": 33.5348389203437,
    "lng": 126.63400317254,
    "region": "제주특별자치도"
  },
  {
    "name": "용두암1차현대아파트 104동(지하 1층)",
    "address": "제주특별자치도 제주시 용담로5길 25 (용담삼동)",
    "lat": 33.51522534355469,
    "lng": 126.5082854333198,
    "region": "제주특별자치도"
  },
  {
    "name": "동남2차아파트(지하주차장 1층)",
    "address": "제주특별자치도 제주시 천수로11길 10 (일도이동, 동남2차아파트)",
    "lat": 33.50616839612089,
    "lng": 126.54313145476276,
    "region": "제주특별자치도"
  },
  {
    "name": "이호대일아파트(지하주차장 1층)",
    "address": "제주특별자치도 제주시 대동길 17-1 (이호이동, 대일아파트)",
    "lat": 33.493297400158994,
    "lng": 126.46352568631757,
    "region": "제주특별자치도"
  },
  {
    "name": "화북시장아파트(지하주차장 1층)",
    "address": "제주특별자치도 제주시 진동로5길 31 (화북일동, 화북시장아파트)",
    "lat": 33.52165179627266,
    "lng": 126.56632553908484,
    "region": "제주특별자치도"
  },
  {
    "name": "제주시노동복지회관(지하주차장 1층)",
    "address": "제주특별자치도 제주시 가령로4길 24, 제주시노동복지회관 지하1층 (이도이동)",
    "lat": 33.49779497482337,
    "lng": 126.53523184839672,
    "region": "제주특별자치도"
  },
  {
    "name": "제주소방서(지하 1층)",
    "address": "제주특별자치도 제주시 중앙로 342, 제주소방서 지하1층 (이도이동)",
    "lat": 33.49092795226362,
    "lng": 126.53685717399227,
    "region": "제주특별자치도"
  },
  {
    "name": "동명아파트(지하주차장 1층)",
    "address": "제주특별자치도 제주시 일주동로 361 (삼양이동, 동명아파트)",
    "lat": 33.52131514441369,
    "lng": 126.58368249229602,
    "region": "제주특별자치도"
  },
  {
    "name": "대일아파트(지하주차장 1층)",
    "address": "제주특별자치도 제주시 지석4길 16 (삼양이동, 대일아파트)",
    "lat": 33.5199709964499,
    "lng": 126.57968602848705,
    "region": "제주특별자치도"
  },
  {
    "name": "삼화아파트(지하주차장 1층)",
    "address": "제주특별자치도 제주시 천수동로 2 (일도이동, 삼화아파트)",
    "lat": 33.50915684207034,
    "lng": 126.54366742840244,
    "region": "제주특별자치도"
  },
  {
    "name": "남양아파트(지하주차장 1층)",
    "address": "제주특별자치도 제주시 천수로9길 9 (일도이동, 남양아파트)",
    "lat": 33.505253540838154,
    "lng": 126.54188854809009,
    "region": "제주특별자치도"
  },
  {
    "name": "신산아파트(지하주차장 1층)",
    "address": "제주특별자치도 제주시 고마로17길 11 (일도이동, 신산아파트)",
    "lat": 33.50599188429951,
    "lng": 126.54212365825336,
    "region": "제주특별자치도"
  },
  {
    "name": "한림농협(지하 1층)",
    "address": "제주특별자치도 제주시 한림읍 한림로4길 40",
    "lat": 33.40963141297532,
    "lng": 126.2634025586394,
    "region": "제주특별자치도"
  },
  {
    "name": "신흥빌라 주택 지하주차장 1층",
    "address": "제주특별자치도 제주시 조천읍 신촌3길 27 (신흥연립주택)",
    "lat": 33.5356300689302,
    "lng": 126.618275560342,
    "region": "제주특별자치도"
  },
  {
    "name": "운학연립주택(지하주차장 1층)",
    "address": "제주특별자치도 제주시 오도2길 32 (이호이동, 운학연립)",
    "lat": 33.49331078840217,
    "lng": 126.45688742729106,
    "region": "제주특별자치도"
  },
  {
    "name": "창우연립 2동(지하주차장 1층)",
    "address": "제주특별자치도 제주시 오도4길 3 (이호이동, 창우빌라)",
    "lat": 33.49343635947248,
    "lng": 126.45964618940762,
    "region": "제주특별자치도"
  },
  {
    "name": "화북교회(지하 1층)",
    "address": "제주특별자치도 제주시 진남로6길 31 (화북일동, 화북교회)",
    "lat": 33.52154869846304,
    "lng": 126.56553004637831,
    "region": "제주특별자치도"
  },
  {
    "name": "청우빌라(지하주차장 1층)",
    "address": "제주특별자치도 제주시 일주동로 213 (화북일동, 청우빌라)",
    "lat": 33.519134029393975,
    "lng": 126.56827755289196,
    "region": "제주특별자치도"
  },
  {
    "name": "영산홍주택 101동(지하 1층)",
    "address": "제주특별자치도 제주시 승천로 27, 101동 지하 1층 (이도이동, 영산홍주택)",
    "lat": 33.49565961812356,
    "lng": 126.53986551194912,
    "region": "제주특별자치도"
  },
  {
    "name": "영산홍주택 102동(지하 1층)",
    "address": "제주특별자치도 제주시 승천로 27, 102동 지하 1층 (이도이동, 영산홍주택)",
    "lat": 33.49565961812356,
    "lng": 126.53986551194912,
    "region": "제주특별자치도"
  },
  {
    "name": "영산홍주택 103동(지하 1층)",
    "address": "제주특별자치도 제주시 승천로 27, 103동 지하 1층 (이도이동, 영산홍주택)",
    "lat": 33.49565961812356,
    "lng": 126.53986551194912,
    "region": "제주특별자치도"
  },
  {
    "name": "영산홍주택 104동(지하 1층)",
    "address": "제주특별자치도 제주시 승천로 27, 104동 지하 1층 (이도이동, 영산홍주택)",
    "lat": 33.49565961812356,
    "lng": 126.53986551194912,
    "region": "제주특별자치도"
  },
  {
    "name": "영산홍주택 105동(지하 1층)",
    "address": "제주특별자치도 제주시 승천로 27, 105동 지하1층 (이도이동, 영산홍주택)",
    "lat": 33.49565961812356,
    "lng": 126.53986551194912,
    "region": "제주특별자치도"
  },
  {
    "name": "영산홍주택 106동(지하 1층)",
    "address": "제주특별자치도 제주시 승천로 27, 106동 지하1층 (이도이동, 영산홍주택)",
    "lat": 33.49565961812356,
    "lng": 126.53986551194912,
    "region": "제주특별자치도"
  },
  {
    "name": "영산홍주택 107동(지하 1층)",
    "address": "제주특별자치도 제주시 승천로 27, 107동 지하1층 (이도이동, 영산홍주택)",
    "lat": 33.49565961812356,
    "lng": 126.53986551194912,
    "region": "제주특별자치도"
  },
  {
    "name": "영산홍주택 108동(지하 1층)",
    "address": "제주특별자치도 제주시 승천로 27, 108동 지하 1층 (이도이동, 영산홍주택)",
    "lat": 33.49565961812356,
    "lng": 126.53986551194912,
    "region": "제주특별자치도"
  },
  {
    "name": "영산홍주택 109동(지하 1층)",
    "address": "제주특별자치도 제주시 승천로 27, 109동 지하1층 (이도이동, 영산홍주택)",
    "lat": 33.49565961812356,
    "lng": 126.53986551194912,
    "region": "제주특별자치도"
  },
  {
    "name": "아산빌딩(지하주차장 2층)",
    "address": "제주특별자치도 제주시 중앙로 248, 아산빌딩 지하2층 (이도이동)",
    "lat": 33.497649581978415,
    "lng": 126.53093490005158,
    "region": "제주특별자치도"
  },
  {
    "name": "아산빌딩(지하주차장 3층)",
    "address": "제주특별자치도 제주시 중앙로 248, 아산빌딩 지하3층 (이도이동)",
    "lat": 33.497649581978415,
    "lng": 126.53093490005158,
    "region": "제주특별자치도"
  },
  {
    "name": "한양아파트(지하주차장 1층)",
    "address": "제주특별자치도 제주시 지석12길 5 (삼양이동, 한양아파트)",
    "lat": 33.520619762421845,
    "lng": 126.58433923335993,
    "region": "제주특별자치도"
  },
  {
    "name": "대유아파트(지하주차장 1층)",
    "address": "제주특별자치도 제주시 선사로8길 87 (삼양일동, 대유아파트)",
    "lat": 33.52986535269458,
    "lng": 126.59304908689391,
    "region": "제주특별자치도"
  },
  {
    "name": "한도맨션(지하주차장 1층)",
    "address": "제주특별자치도 제주시 임항로 235 (건입동)",
    "lat": 33.518102271418414,
    "lng": 126.54090845412004,
    "region": "제주특별자치도"
  },
  {
    "name": "창우연립 3동(지하주차장 1층)",
    "address": "제주특별자치도 제주시 오도4길 7 (이호이동, 창우빌라)",
    "lat": 33.49334085363223,
    "lng": 126.45938151763234,
    "region": "제주특별자치도"
  },
  {
    "name": "신천지아파트101동(지하 1층)",
    "address": "제주특별자치도 제주시 천수로 72 (일도이동, 신천지아파트)",
    "lat": 33.505056754139474,
    "lng": 126.5437262037182,
    "region": "제주특별자치도"
  },
  {
    "name": "신천지아파트103동(지하 1층)",
    "address": "제주특별자치도 제주시 천수로 72 (일도이동, 신천지아파트)",
    "lat": 33.505056754139474,
    "lng": 126.5437262037182,
    "region": "제주특별자치도"
  },
  {
    "name": "신천지아파트105동(지하 1층)",
    "address": "제주특별자치도 제주시 천수로 72 (일도이동, 신천지아파트)",
    "lat": 33.505056754139474,
    "lng": 126.5437262037182,
    "region": "제주특별자치도"
  },
  {
    "name": "신천지아파트107동(지하 1층)",
    "address": "제주특별자치도 제주시 천수로 72 (일도이동, 신천지아파트)",
    "lat": 33.505056754139474,
    "lng": 126.5437262037182,
    "region": "제주특별자치도"
  },
  {
    "name": "신천지아파트109동(지하 1층)",
    "address": "제주특별자치도 제주시 천수로 72 (일도이동, 신천지아파트)",
    "lat": 33.505056754139474,
    "lng": 126.5437262037182,
    "region": "제주특별자치도"
  },
  {
    "name": "삼주아파트101(지하 1층)",
    "address": "제주특별자치도 제주시 천수로8길 18 (일도이동, 일도삼주아파트)",
    "lat": 33.50378309547309,
    "lng": 126.54267698827604,
    "region": "제주특별자치도"
  },
  {
    "name": "삼주아파트102(지하 1층)",
    "address": "제주특별자치도 제주시 천수로8길 18 (일도이동, 일도삼주아파트)",
    "lat": 33.50378309547309,
    "lng": 126.54267698827604,
    "region": "제주특별자치도"
  },
  {
    "name": "삼주아파트103(지하 1층)",
    "address": "제주특별자치도 제주시 천수로8길 18 (일도이동, 일도삼주아파트)",
    "lat": 33.50378309547309,
    "lng": 126.54267698827604,
    "region": "제주특별자치도"
  },
  {
    "name": "삼주아파트105(지하 1층)",
    "address": "제주특별자치도 제주시 천수로8길 18 (일도이동, 일도삼주아파트)",
    "lat": 33.50378309547309,
    "lng": 126.54267698827604,
    "region": "제주특별자치도"
  },
  {
    "name": "부양장미아파트(지하주차장 1층)",
    "address": "제주특별자치도 제주시 가령골길 20 (일도이동, 장미1차아파트)",
    "lat": 33.50462974553559,
    "lng": 126.54061373616288,
    "region": "제주특별자치도"
  },
  {
    "name": "동부교회(지하 1층)",
    "address": "제주특별자치도 제주시 고마로7길 11 (일도이동, 제주동부교회)",
    "lat": 33.5115398860293,
    "lng": 126.53989152881388,
    "region": "제주특별자치도"
  },
  {
    "name": "김시호씨 소유 개인주택 지하주차장 1층",
    "address": "제주특별자치도 제주시 조천읍 신북로 509",
    "lat": 33.5423858595609,
    "lng": 126.664438521754,
    "region": "제주특별자치도"
  },
  {
    "name": "한경면사무소(지하 1층)",
    "address": "제주특별자치도 제주시 한경면 두신로 84 (한경면사무소)",
    "lat": 33.35013679433907,
    "lng": 126.18396094916984,
    "region": "제주특별자치도"
  },
  {
    "name": "세오빌라(지하주차장 1층)",
    "address": "제주특별자치도 제주시 오도2길 4 (이호이동, 세오빌라)",
    "lat": 33.49387198594724,
    "lng": 126.45963345861269,
    "region": "제주특별자치도"
  },
  {
    "name": "혜성무지개타운 101동(지하 1층)",
    "address": "제주특별자치도 제주시 남광로 65, 101동 지하1층 (이도이동, 혜성무지개타운)",
    "lat": 33.495582169019414,
    "lng": 126.542085341063,
    "region": "제주특별자치도"
  },
  {
    "name": "혜성무지개타운 102동(지하 1층)",
    "address": "제주특별자치도 제주시 남광로 65, 102동 지하1층 (이도이동, 혜성무지개타운)",
    "lat": 33.495582169019414,
    "lng": 126.542085341063,
    "region": "제주특별자치도"
  },
  {
    "name": "혜성무지개타운103동(지하 1층)",
    "address": "제주특별자치도 제주시 남광로 65, 103동 지하1층 (이도이동, 혜성무지개타운)",
    "lat": 33.495582169019414,
    "lng": 126.542085341063,
    "region": "제주특별자치도"
  },
  {
    "name": "혜성무지개타운104동(지하 1층)",
    "address": "제주특별자치도 제주시 남광로 65, 104동 지하1층 (이도이동, 혜성무지개타운)",
    "lat": 33.495582169019414,
    "lng": 126.542085341063,
    "region": "제주특별자치도"
  },
  {
    "name": "혜성무지개타운105동(지하 1층)",
    "address": "제주특별자치도 제주시 남광로 65, 105동 지하1층 (이도이동, 혜성무지개타운)",
    "lat": 33.495582169019414,
    "lng": 126.542085341063,
    "region": "제주특별자치도"
  },
  {
    "name": "혜성무지개타운106동(지하 1층)",
    "address": "제주특별자치도 제주시 남광로 65, 106동 지하1층 (이도이동, 혜성무지개타운)",
    "lat": 33.495582169019414,
    "lng": 126.542085341063,
    "region": "제주특별자치도"
  },
  {
    "name": "혜성무지개타운107동(지하 1층)",
    "address": "제주특별자치도 제주시 남광로 65, 107동 지하1층 (이도이동, 혜성무지개타운)",
    "lat": 33.495582169019414,
    "lng": 126.542085341063,
    "region": "제주특별자치도"
  },
  {
    "name": "혜성무지개타운108동(지하 1층)",
    "address": "제주특별자치도 제주시 남광로 65, 108동 지하1층 (이도이동, 혜성무지개타운)",
    "lat": 33.495582169019414,
    "lng": 126.542085341063,
    "region": "제주특별자치도"
  },
  {
    "name": "부양장미2차아파트(지하주차장 1층)",
    "address": "제주특별자치도 제주시 오복2길 27, 지하1층 (이도이동, 부양장미2차아파트)",
    "lat": 33.49362384314298,
    "lng": 126.53666733295373,
    "region": "제주특별자치도"
  },
  {
    "name": "성호백록아파트(지하주차장 1층)",
    "address": "제주특별자치도 제주시 도남로 104, 지하1층 (도남동, 백록아파트)",
    "lat": 33.491105175038484,
    "lng": 126.52807302927413,
    "region": "제주특별자치도"
  },
  {
    "name": "삼부장미아파트 가동(지하주차장 1층)",
    "address": "제주특별자치도 제주시 선사로6길 55 (삼양일동, 삼부장미아파트)",
    "lat": 33.52733529304684,
    "lng": 126.59064777295004,
    "region": "제주특별자치도"
  },
  {
    "name": "삼부장미아파트 나동(지하주차장 1층)",
    "address": "제주특별자치도 제주시 선사로6길 58 (삼양일동, 삼부장미아파트)",
    "lat": 33.52736902964842,
    "lng": 126.59092027908908,
    "region": "제주특별자치도"
  },
  {
    "name": "현대아파트(지하주차장 1층)",
    "address": "제주특별자치도 제주시 만덕로3길 26 (건입동, 현대아파트)",
    "lat": 33.51625151478775,
    "lng": 126.53375058473448,
    "region": "제주특별자치도"
  },
  {
    "name": "대림1차아파트102동(지하 1층)",
    "address": "제주특별자치도 제주시 태성로 31 (일도이동, 일도대림1차아파트)",
    "lat": 33.50043476438885,
    "lng": 126.54925844512128,
    "region": "제주특별자치도"
  },
  {
    "name": "인구보건복지협회 제주지회(지하 1층)",
    "address": "제주특별자치도 제주시 신대로13길 21 (연동)",
    "lat": 33.48776995477386,
    "lng": 126.49888205277718,
    "region": "제주특별자치도"
  },
  {
    "name": "제주현대오피스텔(지하주차장 1층~3층)",
    "address": "제주특별자치도 제주시 도령로 87 (연동, 현대오피스텔)",
    "lat": 33.490778329210805,
    "lng": 126.48722955008112,
    "region": "제주특별자치도"
  },
  {
    "name": "신성오피스텔(지하주차장 1층)",
    "address": "제주특별자치도 제주시 노연로 62 (연동, 신성오피스텔)",
    "lat": 33.48581647620188,
    "lng": 126.48675792879628,
    "region": "제주특별자치도"
  },
  {
    "name": "제주호텔 비앤비(지하주차장 1층)",
    "address": "제주특별자치도 제주시 삼무로3길 48 (연동)",
    "lat": 33.49056077486567,
    "lng": 126.49078174496744,
    "region": "제주특별자치도"
  },
  {
    "name": "메종글래드호텔(지하 1층)",
    "address": "제주특별자치도 제주시 노연로 80 (연동, 제주그랜드호텔)",
    "lat": 33.48576231445779,
    "lng": 126.48854565570949,
    "region": "제주특별자치도"
  },
  {
    "name": "메종글래드호텔(지하 2층)",
    "address": "제주특별자치도 제주시 노연로 80 (연동, 제주그랜드호텔)",
    "lat": 33.48576231445779,
    "lng": 126.48854565570949,
    "region": "제주특별자치도"
  },
  {
    "name": "한라병원(지하 1층)",
    "address": "제주특별자치도 제주시 도령로 65 (연동, 한라병원)",
    "lat": 33.489656617820884,
    "lng": 126.48527914334292,
    "region": "제주특별자치도"
  },
  {
    "name": "한국전력공사 제주본부(지하주차장 1층)",
    "address": "제주특별자치도 제주시 문연로 36 (연동, 한국전력공사제주지사)",
    "lat": 33.48906865303138,
    "lng": 126.50125646000924,
    "region": "제주특별자치도"
  },
  {
    "name": "제주썬호텔(지하주차장 1층)",
    "address": "제주특별자치도 제주시 삼무로 67 (연동)",
    "lat": 33.489953719811744,
    "lng": 126.49387504298927,
    "region": "제주특별자치도"
  },
  {
    "name": "제주썬호텔(지하주차장 2층)",
    "address": "제주특별자치도 제주시 삼무로 67 (연동)",
    "lat": 33.489953719811744,
    "lng": 126.49387504298927,
    "region": "제주특별자치도"
  },
  {
    "name": "조선일보사 제주빌딩(지하 1층)",
    "address": "제주특별자치도 제주시 신대로 63 (연동)",
    "lat": 33.49157082832289,
    "lng": 126.4969209602444,
    "region": "제주특별자치도"
  },
  {
    "name": "제주특별자치도교육청(지하 1층)",
    "address": "제주특별자치도 제주시 문연로 5 (연동, 제주특별자치도교육청)",
    "lat": 33.489858462467446,
    "lng": 126.49788517595005,
    "region": "제주특별자치도"
  },
  {
    "name": "남북아파트(지하주차장 1층)",
    "address": "제주특별자치도 제주시 가령로4길 14, 지하1층 (이도이동, 남북아파트)",
    "lat": 33.497211608581914,
    "lng": 126.53443443791336,
    "region": "제주특별자치도"
  },
  {
    "name": "도남무지개아파트(지하주차장 1층)",
    "address": "제주특별자치도 제주시 도남로 125, 지하1층 (도남동, 도남무지개아파트)",
    "lat": 33.489768159196494,
    "lng": 126.52960205178064,
    "region": "제주특별자치도"
  },
  {
    "name": "대림1차아파트103동(지하 1층)",
    "address": "제주특별자치도 제주시 태성로 31 (일도이동, 일도대림1차아파트)",
    "lat": 33.50043476438885,
    "lng": 126.54925844512128,
    "region": "제주특별자치도"
  },
  {
    "name": "일도성환아파트 103동(지하 1층)",
    "address": "제주특별자치도 제주시 태성로 23 (일도이동, 일도성환아파트)",
    "lat": 33.5009751145834,
    "lng": 126.54884122886398,
    "region": "제주특별자치도"
  },
  {
    "name": "혜성대유아파트 104동(지하 1층)",
    "address": "제주특별자치도 제주시 연수로 40 (일도이동, 혜성대유아파트)",
    "lat": 33.50544659941544,
    "lng": 126.54468935377066,
    "region": "제주특별자치도"
  },
  {
    "name": "대한적십자사(지하 1층)",
    "address": "제주특별자치도 제주시 전농로 7 (용담일동)",
    "lat": 33.50459471872163,
    "lng": 126.5140556688956,
    "region": "제주특별자치도"
  },
  {
    "name": "한천초등학교(지하 1층)",
    "address": "제주특별자치도 제주시 남성로11길 22 (용담일동, 한천초등학교)",
    "lat": 33.50690807320552,
    "lng": 126.5125497038265,
    "region": "제주특별자치도"
  },
  {
    "name": "YMCA신협(지하주차장 1층)",
    "address": "제주특별자치도 제주시 서사로 12-1 (용담일동)",
    "lat": 33.51127703038498,
    "lng": 126.51938822055509,
    "region": "제주특별자치도"
  },
  {
    "name": "보성아파트(지하주차장 1층)",
    "address": "제주특별자치도 제주시 용담로18길 11 (용담일동, 보성아파트)",
    "lat": 33.50894639336969,
    "lng": 126.514148635167,
    "region": "제주특별자치도"
  },
  {
    "name": "도두동주민센터(지하 1층)",
    "address": "제주특별자치도 제주시 도두1길 9-1, 지하1층 (도두일동)",
    "lat": 33.50300362820122,
    "lng": 126.46831296205968,
    "region": "제주특별자치도"
  },
  {
    "name": "동아아파트 101동(지하 1층)",
    "address": "제주특별자치도 제주시 독짓골8길 67, 101동 지하1층 (이도이동, 동아아파트)",
    "lat": 33.48910225799914,
    "lng": 126.53077894890166,
    "region": "제주특별자치도"
  },
  {
    "name": "동아아파트102동(지하 1층)",
    "address": "제주특별자치도 제주시 독짓골8길 67, 102동 지하1층 (이도이동, 동아아파트)",
    "lat": 33.48910225799914,
    "lng": 126.53077894890166,
    "region": "제주특별자치도"
  },
  {
    "name": "동아아파트103동(지하 1층)",
    "address": "제주특별자치도 제주시 독짓골8길 67, 103동 지하1층 (이도이동, 동아아파트)",
    "lat": 33.48910225799914,
    "lng": 126.53077894890166,
    "region": "제주특별자치도"
  },
  {
    "name": "제주학생문화원(지하 1층)",
    "address": "제주특별자치도 제주시 연삼로 489, 제주학생문화원, 제주도서관 지하1층 (이도이동)",
    "lat": 33.50000079061151,
    "lng": 126.54191635318584,
    "region": "제주특별자치도"
  },
  {
    "name": "이도2동주민센터(지하 1층)",
    "address": "제주특별자치도 제주시 오복3길 8, 이도2동주민센터 지하1층 (이도이동)",
    "lat": 33.49696257476581,
    "lng": 126.53523273005584,
    "region": "제주특별자치도"
  },
  {
    "name": "교보빌딩(지하주차장 1층)",
    "address": "제주특별자치도 제주시 전농로 118 (이도일동, 교보빌딩)",
    "lat": 33.504579597659735,
    "lng": 126.52593266565566,
    "region": "제주특별자치도"
  },
  {
    "name": "삼성2차 미화아파트(지하주차장 1층)",
    "address": "제주특별자치도 제주시 오현길 24 (이도일동, 삼성2차미화아파트)",
    "lat": 33.507433467999604,
    "lng": 126.52705812508792,
    "region": "제주특별자치도"
  },
  {
    "name": "대한항공 제주지점(지하주차장 1층)",
    "address": "제주특별자치도 제주시 중앙로 150 (이도일동, 대한항공빌딩)",
    "lat": 33.50529992577296,
    "lng": 126.52564500578887,
    "region": "제주특별자치도"
  },
  {
    "name": "삼성1차 미화아파트(지하주차장 1층)",
    "address": "제주특별자치도 제주시 오현길 21 (이도일동)",
    "lat": 33.50708861165655,
    "lng": 126.5270915988274,
    "region": "제주특별자치도"
  },
  {
    "name": "KT 제주사업단(지하주차장 1층)",
    "address": "제주특별자치도 제주시 전농로 114 (이도일동, 올래케이티)",
    "lat": 33.504279351155965,
    "lng": 126.52545830447752,
    "region": "제주특별자치도"
  },
  {
    "name": "제주특별자치도 고용복지플러스센터(지하주차장 1층)",
    "address": "제주특별자치도 제주시 중앙로 165 (이도일동, 제주특별자치도고용복지플러스센터)",
    "lat": 33.50422318806992,
    "lng": 126.5268185387161,
    "region": "제주특별자치도"
  },
  {
    "name": "금성교회(지하 1층)",
    "address": "제주특별자치도 제주시 애월읍 금성하안길 3 (금성교회)",
    "lat": 33.446393577522144,
    "lng": 126.30253942304869,
    "region": "제주특별자치도"
  },
  {
    "name": "제주특별자치도 고용복지플러스센터(지하주차장 2층)",
    "address": "제주특별자치도 제주시 중앙로 165 (이도일동, 제주특별자치도고용복지플러스센터)",
    "lat": 33.50422318806992,
    "lng": 126.5268185387161,
    "region": "제주특별자치도"
  },
  {
    "name": "제주특별자치도 고용복지플러스센터(지하주차장 3층)",
    "address": "제주특별자치도 제주시 중앙로 165 (이도일동, 제주특별자치도고용복지플러스센터)",
    "lat": 33.50422318806992,
    "lng": 126.5268185387161,
    "region": "제주특별자치도"
  },
  {
    "name": "신세계아파트(지하주차장 1층)",
    "address": "제주특별자치도 제주시 오현길 9 (이도일동, 신세계아파트)",
    "lat": 33.50634766585364,
    "lng": 126.52764404323968,
    "region": "제주특별자치도"
  },
  {
    "name": "원신아파트 106동(지하주차장 1층)",
    "address": "제주특별자치도 제주시 중앙로 578 (아라일동, 아라원신아파트)",
    "lat": 33.471736867098194,
    "lng": 126.54514825004658,
    "region": "제주특별자치도"
  },
  {
    "name": "미화아파트(지하주차장 1층)",
    "address": "제주특별자치도 제주시 아란12길 8 (아라일동, 아라미화아파트)",
    "lat": 33.47041016460466,
    "lng": 126.54502310288797,
    "region": "제주특별자치도"
  },
  {
    "name": "기산아파트(지하주차장 1층)",
    "address": "제주특별자치도 제주시 삼성로5길 9 (일도이동, 일도기산아파트)",
    "lat": 33.507354525204576,
    "lng": 126.52945239344449,
    "region": "제주특별자치도"
  },
  {
    "name": "추자면사무소(지하 1층)",
    "address": "제주특별자치도 제주시 추자면 추자로 26",
    "lat": 33.963688326045215,
    "lng": 126.2961411531358,
    "region": "제주특별자치도"
  },
  {
    "name": "화북1아파트(지하주차장 1층)",
    "address": "제주특별자치도 제주시 동화로1길 11 (화북일동, 화북1아파트)",
    "lat": 33.519613896526614,
    "lng": 126.5743957358578,
    "region": "제주특별자치도"
  },
  {
    "name": "화북2아파트(지하주차장 1층)",
    "address": "제주특별자치도 제주시 동화로1길 39 (화북일동, 화북2아파트)",
    "lat": 33.519058370184226,
    "lng": 126.5770684692632,
    "region": "제주특별자치도"
  },
  {
    "name": "화북3아파트(지하주차장 1층)",
    "address": "제주특별자치도 제주시 동화로1길 35 (화북일동, 화북3아파트)",
    "lat": 33.51958281234155,
    "lng": 126.57694405072552,
    "region": "제주특별자치도"
  },
  {
    "name": "화북4아파트(지하주차장 1층)",
    "address": "제주특별자치도 제주시 동화로1길 10 (화북일동, 화북4아파트)",
    "lat": 33.51927915122677,
    "lng": 126.57432138741784,
    "region": "제주특별자치도"
  },
  {
    "name": "제주경제통상진흥원(지하주차장 1층)",
    "address": "제주특별자치도 제주시 연삼로 473, 제주경제통상진흥원 지하1층 (이도이동)",
    "lat": 33.499204569004846,
    "lng": 126.54048660130776,
    "region": "제주특별자치도"
  },
  {
    "name": "건입이화아파트(지하주차장 1층)",
    "address": "제주특별자치도 제주시 임항로 239 (건입동, 건입이화아파트)",
    "lat": 33.51804126073254,
    "lng": 126.54038714690964,
    "region": "제주특별자치도"
  },
  {
    "name": "제주 천주교 중앙성당(지하주차장 1층)",
    "address": "제주특별자치도 제주시 관덕로8길 14 (삼도이동, 천주교제주교구 중앙성당)",
    "lat": 33.51206214064032,
    "lng": 126.52342606509424,
    "region": "제주특별자치도"
  },
  {
    "name": "제주지방법원(지하 1층)",
    "address": "제주특별자치도 제주시 남광북5길 3, 제주 지방법원 지하1층 (이도이동)",
    "lat": 33.493156833028365,
    "lng": 126.53611620961932,
    "region": "제주특별자치도"
  },
  {
    "name": "수협수산물 종합판매장(지하주차장 1층)",
    "address": "제주특별자치도 제주시 임항로 37 (건입동, 제주시수산업협동조합)",
    "lat": 33.51671708332883,
    "lng": 126.5286757260959,
    "region": "제주특별자치도"
  },
  {
    "name": "장원월드컵아파트(지하주차장 1층)",
    "address": "제주특별자치도 제주시 서광로29길 25 (이도일동, 장원월드컵아파트)",
    "lat": 33.50240303754676,
    "lng": 126.5262261245732,
    "region": "제주특별자치도"
  },
  {
    "name": "미듬밀레니엄아파트(지하주차장 1층)",
    "address": "제주특별자치도 제주시 중앙로12길 34 (삼도이동, 미듬밀레니엄아파트)",
    "lat": 33.51227741391718,
    "lng": 126.52101186929792,
    "region": "제주특별자치도"
  },
  {
    "name": "동남아파트(지하주차장 1층)",
    "address": "제주특별자치도 제주시 남녕로 46 (연동, 동남아파트)",
    "lat": 33.49151226494783,
    "lng": 126.48015834410388,
    "region": "제주특별자치도"
  },
  {
    "name": "연동 동방아파트(지하 1층)",
    "address": "제주특별자치도 제주시 남녕로 28-4 (연동, 동방아파트)",
    "lat": 33.490662176817885,
    "lng": 126.48198808840316,
    "region": "제주특별자치도"
  },
  {
    "name": "제주특별자치도청(지하 1층)",
    "address": "제주특별자치도 제주시 문연로 6, 제주특별자치도청 (연동)",
    "lat": 33.48953297801675,
    "lng": 126.49810441428976,
    "region": "제주특별자치도"
  },
  {
    "name": "제주특별자치도의회(지하 1층)",
    "address": "제주특별자치도 제주시 문연로 13 (연동, 제주특별자치도의회)",
    "lat": 33.489839171255134,
    "lng": 126.4987951262666,
    "region": "제주특별자치도"
  },
  {
    "name": "제주특별자치도제2청사(지하 1층)",
    "address": "제주특별자치도 제주시 문연로 30, 제주특별자치도청 (연동)",
    "lat": 33.489412022863725,
    "lng": 126.50037543756848,
    "region": "제주특별자치도"
  },
  {
    "name": "대림아파트(지하 1층)",
    "address": "제주특별자치도 제주시 성신로 9 (연동, 대림아파트)",
    "lat": 33.49078452734885,
    "lng": 126.48571803675463,
    "region": "제주특별자치도"
  },
  {
    "name": "세기아파트(지하 1층)",
    "address": "제주특별자치도 제주시 연삼로 64 (연동, 제주세기아파트)",
    "lat": 33.49330479579297,
    "lng": 126.4992737643718,
    "region": "제주특별자치도"
  },
  {
    "name": "연동1차 이화아파트(지하 1층)",
    "address": "제주특별자치도 제주시 성신로 13-8 (연동, 연동이화아파트)",
    "lat": 33.49077976532192,
    "lng": 126.48482998591176,
    "region": "제주특별자치도"
  },
  {
    "name": "정한아파트 가동(지하주차장 1층)",
    "address": "제주특별자치도 제주시 일주서로 7880 (연동, 정한아파트)",
    "lat": 33.49358614607958,
    "lng": 126.48846850835471,
    "region": "제주특별자치도"
  },
  {
    "name": "연동대일아파트(지하주차장 1층)",
    "address": "제주특별자치도 제주시 성신로 16 (연동, 연동대일아파트)",
    "lat": 33.49130651667173,
    "lng": 126.4855852377708,
    "region": "제주특별자치도"
  },
  {
    "name": "삼양동 주민센터(지하 1층)",
    "address": "제주특별자치도 제주시 지석13길 6 (삼양이동, 삼양동주민센터)",
    "lat": 33.5217794482508,
    "lng": 126.58545307997473,
    "region": "제주특별자치도"
  },
  {
    "name": "혼오름가든(지하주차장 1층)",
    "address": "제주특별자치도 제주시 서해안로 153 (도두일동, 도두1동 마을복지회관)",
    "lat": 33.50352161137084,
    "lng": 126.46549714048098,
    "region": "제주특별자치도"
  },
  {
    "name": "미화빌라(지하주차장 1층)",
    "address": "제주특별자치도 제주시 용담로 36 (용담이동, 미화빌라)",
    "lat": 33.51281515551407,
    "lng": 126.50665748353866,
    "region": "제주특별자치도"
  },
  {
    "name": "남양맨션 가동(지하주차장 1층)",
    "address": "제주특별자치도 제주시 용화로5길 14 (용담이동, 남양맨션)",
    "lat": 33.511207993584584,
    "lng": 126.50652532380164,
    "region": "제주특별자치도"
  },
  {
    "name": "남양맨션 다동(지하주차장 1층)",
    "address": "제주특별자치도 제주시 용화로5길 13 (용담이동, 남양맨션)",
    "lat": 33.5111725064174,
    "lng": 126.506378430213,
    "region": "제주특별자치도"
  },
  {
    "name": "남양빌라(지하주차장 1층)",
    "address": "제주특별자치도 제주시 용담로 17 (용담삼동, 남양빌라)",
    "lat": 33.51339251802931,
    "lng": 126.50479914951062,
    "region": "제주특별자치도"
  },
  {
    "name": "영보맨션 가동(지하주차장 1층)",
    "address": "제주특별자치도 제주시 용화로5길 7 (용담이동, 영보맨션)",
    "lat": 33.51051805181972,
    "lng": 126.50622884098664,
    "region": "제주특별자치도"
  },
  {
    "name": "영보맨션 나동(지하주차장 1층)",
    "address": "제주특별자치도 제주시 용화로5길 7 (용담이동, 영보맨션)",
    "lat": 33.51051805181972,
    "lng": 126.50622884098664,
    "region": "제주특별자치도"
  },
  {
    "name": "성화연립(지하주차장 1층)",
    "address": "제주특별자치도 제주시 성화로1길 5-2 (용담이동, 성화연립)",
    "lat": 33.51036491288917,
    "lng": 126.50410933747114,
    "region": "제주특별자치도"
  },
  {
    "name": "진영연립(지하주차장 1층)",
    "address": "제주특별자치도 제주시 용화로 37 (용담이동, 진영연립)",
    "lat": 33.50991952677752,
    "lng": 126.50754813133378,
    "region": "제주특별자치도"
  },
  {
    "name": "진영빌라(지하주차장 1층)",
    "address": "제주특별자치도 제주시 용화로 35 (용담이동, 진영빌라)",
    "lat": 33.50992584881092,
    "lng": 126.5072437894818,
    "region": "제주특별자치도"
  },
  {
    "name": "한양아트빌라 A동(지하주차장 1층)",
    "address": "제주특별자치도 제주시 용문로21길 32 (용담이동, 한양아트빌라)",
    "lat": 33.507432810551585,
    "lng": 126.50811484321798,
    "region": "제주특별자치도"
  },
  {
    "name": "한양아트빌라 B동(지하주차장 1층)",
    "address": "제주특별자치도 제주시 용문로21길 32 (용담이동, 한양아트빌라)",
    "lat": 33.507432810551585,
    "lng": 126.50811484321798,
    "region": "제주특별자치도"
  },
  {
    "name": "한라아파트(지하주차장 1층)",
    "address": "제주특별자치도 제주시 흥운길 16-1 (용담이동, 한라아파트)",
    "lat": 33.51040369581147,
    "lng": 126.5116711415697,
    "region": "제주특별자치도"
  },
  {
    "name": "용화빌라(지하주차장 1층)",
    "address": "제주특별자치도 제주시 용화로 5 (용담이동, 용화빌라)",
    "lat": 33.5100531019541,
    "lng": 126.50408549239305,
    "region": "제주특별자치도"
  },
  {
    "name": "세진빌라(지하주차장 1층)",
    "address": "제주특별자치도 제주시 서해안로 648 (용담삼동, 세진빌라)",
    "lat": 33.51607067194231,
    "lng": 126.50607109864386,
    "region": "제주특별자치도"
  },
  {
    "name": "이화오피스텔(지하주차장 1층~3층)",
    "address": "제주특별자치도 제주시 도령로 50 (노형동, 이화오피스텔)",
    "lat": 33.4885038148818,
    "lng": 126.48408608923182,
    "region": "제주특별자치도"
  },
  {
    "name": "롯데마트(지하주차장 1층)",
    "address": "제주특별자치도 제주시 연북로 1 (노형동)",
    "lat": 33.48232062212694,
    "lng": 126.48169198222804,
    "region": "제주특별자치도"
  },
  {
    "name": "삼환2차아파트(지하주차장 1층)",
    "address": "제주특별자치도 제주시 정존11길 35 (노형동)",
    "lat": 33.48647938522656,
    "lng": 126.47436478484572,
    "region": "제주특별자치도"
  },
  {
    "name": "세기7차아파트(지하주차장 1층)",
    "address": "제주특별자치도 제주시 정존3길 34 (노형동)",
    "lat": 33.48426055389091,
    "lng": 126.47155053751518,
    "region": "제주특별자치도"
  },
  {
    "name": "성환그린아파트(지하주차장 1층)",
    "address": "제주특별자치도 제주시 정존5길 39 (노형동, 노형성환그린1차아파트)",
    "lat": 33.485295864512565,
    "lng": 126.47197256039544,
    "region": "제주특별자치도"
  },
  {
    "name": "노형맨션(지하주차장 1층)",
    "address": "제주특별자치도 제주시 정존3길 12 (노형동)",
    "lat": 33.48290041977679,
    "lng": 126.4731794997492,
    "region": "제주특별자치도"
  },
  {
    "name": "한신코아오피스텔(지하주차장 1층~ 4층)",
    "address": "제주특별자치도 제주시 도령로 54 (노형동)",
    "lat": 33.48873925343881,
    "lng": 126.4844616029448,
    "region": "제주특별자치도"
  },
  {
    "name": "하와이오피스텔(지하주차장 1층)",
    "address": "제주특별자치도 제주시 도령로 40 (노형동, 하와이오피스텔)",
    "lat": 33.48801469957308,
    "lng": 126.48326025886436,
    "region": "제주특별자치도"
  },
  {
    "name": "정한오피스텔(지하주차장 1층)",
    "address": "제주특별자치도 제주시 노연로 42 (노형동)",
    "lat": 33.48590181377,
    "lng": 126.48440136460688,
    "region": "제주특별자치도"
  },
  {
    "name": "세방아파트(지하주차장 1층)",
    "address": "제주특별자치도 제주시 정존9길 32-3 (노형동)",
    "lat": 33.48339893011553,
    "lng": 126.47314458353434,
    "region": "제주특별자치도"
  },
  {
    "name": "대림아파트(지하주차장 1층)",
    "address": "제주특별자치도 제주시 다랑곶4길 9 (노형동, 대림아파트)",
    "lat": 33.48784895620931,
    "lng": 126.48050710115864,
    "region": "제주특별자치도"
  },
  {
    "name": "대림1차 이편한세상아파트(지하주차장 1층)",
    "address": "제주특별자치도 제주시 국기로 14 (연동, 대림아파트)",
    "lat": 33.480496801772425,
    "lng": 126.4896662157626,
    "region": "제주특별자치도"
  },
  {
    "name": "대림2차 이편한세상아파트(지하주차장 1층)",
    "address": "제주특별자치도 제주시 연화로 25 (연동, 대림2차아파트)",
    "lat": 33.4795594642752,
    "lng": 126.4874367787196,
    "region": "제주특별자치도"
  },
  {
    "name": "남주아파트(지하주차장 1층)",
    "address": "제주특별자치도 제주시 도령로11길 25 (연동, 남주아파트)",
    "lat": 33.49253872760705,
    "lng": 126.4860713773554,
    "region": "제주특별자치도"
  },
  {
    "name": "대기고등학교 본관(지하 1층)",
    "address": "제주특별자치도 제주시 번영로 453-6 (봉개동, 대기고등학교)",
    "lat": 33.49288380678328,
    "lng": 126.59180890486314,
    "region": "제주특별자치도"
  },
  {
    "name": "서원그린빌(지하주차장 1층)",
    "address": "제주특별자치도 제주시 전농로 3 (용담일동, 서원그린빌)",
    "lat": 33.50459557358129,
    "lng": 126.51368401931867,
    "region": "제주특별자치도"
  },
  {
    "name": "제주특별자치도새마을회(지하주차장 1층)",
    "address": "제주특별자치도 제주시 서광로 163 (용담일동)",
    "lat": 33.500240552567675,
    "lng": 126.51389968577448,
    "region": "제주특별자치도"
  },
  {
    "name": "용담새마을금고(지하주차장 1층)",
    "address": "제주특별자치도 제주시 용담로 128 (용담일동)",
    "lat": 33.50961843255968,
    "lng": 126.51486597690536,
    "region": "제주특별자치도"
  },
  {
    "name": "서문공설시장(지하주차장 1층)",
    "address": "제주특별자치도 제주시 서문로4길 13-2 (용담일동)",
    "lat": 33.51105545616619,
    "lng": 126.51776161527026,
    "region": "제주특별자치도"
  },
  {
    "name": "동인스파월드빌(지하주차장 1층)",
    "address": "제주특별자치도 제주시 중앙로26길 2 (삼도이동, 동인스파월드빌)",
    "lat": 33.505818720089124,
    "lng": 126.5249488573698,
    "region": "제주특별자치도"
  },
  {
    "name": "일우한란아파트(지하주차장 1층)",
    "address": "제주특별자치도 제주시 도근내길 2 (외도일동)",
    "lat": 33.49270574469052,
    "lng": 126.4312766166442,
    "region": "제주특별자치도"
  },
  {
    "name": "수정맨션(지하주차장 1층)",
    "address": "제주특별자치도 제주시 우령4길 2 (외도일동, 수정맨션)",
    "lat": 33.48855736038745,
    "lng": 126.43014213313216,
    "region": "제주특별자치도"
  },
  {
    "name": "외도1차 부영아파트(지하주차장 1층)",
    "address": "제주특별자치도 제주시 우정로11길 22 (외도일동)",
    "lat": 33.48771854715949,
    "lng": 126.4332103840816,
    "region": "제주특별자치도"
  },
  {
    "name": "외도2차 부영아파트(지하주차장 1층)",
    "address": "제주특별자치도 제주시 우평로 318 (외도일동, 부영아파트)",
    "lat": 33.484187456429325,
    "lng": 126.4327668362965,
    "region": "제주특별자치도"
  },
  {
    "name": "중앙지하상가(지하 1층)",
    "address": "제주특별자치도 제주시 중앙로 지하 60 (일도일동)",
    "lat": 33.51303014618826,
    "lng": 126.52436573644832,
    "region": "제주특별자치도"
  },
  {
    "name": "비버리힐(지하주차장 1층)",
    "address": "제주특별자치도 제주시 관덕로11길 17 (일도일동)",
    "lat": 33.514664050962644,
    "lng": 126.52537621861084,
    "region": "제주특별자치도"
  },
  {
    "name": "정부합동청사(지하주차장 1층~2층)",
    "address": "제주특별자치도 제주시 청사로 59, 정부제주지방합동청사 지하1층~지하2층 (도남동)",
    "lat": 33.49051114507091,
    "lng": 126.52522992854168,
    "region": "제주특별자치도"
  },
  {
    "name": "삼도1동주민센터(지하주차장 1층)",
    "address": "제주특별자치도 제주시 전농로 40 (삼도일동, 삼도일동행정복지센터)",
    "lat": 33.50434425124122,
    "lng": 126.51726804989516,
    "region": "제주특별자치도"
  },
  {
    "name": "에이스침대(지하주차장 1층)",
    "address": "제주특별자치도 제주시 서사로 114 (삼도일동)",
    "lat": 33.50224266078288,
    "lng": 126.51969403685564,
    "region": "제주특별자치도"
  },
  {
    "name": "365 미클리닉(지하주차장 1층)",
    "address": "제주특별자치도 제주시 서사로 137 (삼도일동)",
    "lat": 33.50010352769413,
    "lng": 126.52000746312396,
    "region": "제주특별자치도"
  },
  {
    "name": "농협서광로지점(지하주차장 1층)",
    "address": "제주특별자치도 제주시 서광로 220 (삼도일동)",
    "lat": 33.4996566690442,
    "lng": 126.52010142972549,
    "region": "제주특별자치도"
  },
  {
    "name": "한국토지주택공사(지하주차장 1층)",
    "address": "제주특별자치도 제주시 전농로 100 (삼도일동)",
    "lat": 33.5042131152695,
    "lng": 126.52383298408924,
    "region": "제주특별자치도"
  },
  {
    "name": "제동해피죤아파트(지하주차장 1층)",
    "address": "제주특별자치도 제주시 서사로 92 (삼도일동)",
    "lat": 33.50422326627496,
    "lng": 126.51972355827768,
    "region": "제주특별자치도"
  },
  {
    "name": "오션스위츠호텔(지하주차장 1층~2층)",
    "address": "제주특별자치도 제주시 탑동해안로 74 (삼도이동, 오션스위츠 제주호텔)",
    "lat": 33.51833074733878,
    "lng": 126.5231428368084,
    "region": "제주특별자치도"
  },
  {
    "name": "노형동 주민센터(지하 1층)",
    "address": "제주특별자치도 제주시 노형9길 9-4 (노형동, 노형동주민센터)",
    "lat": 33.48333656318251,
    "lng": 126.47722405368624,
    "region": "제주특별자치도"
  },
  {
    "name": "이호동주민센터(지하 1층)",
    "address": "제주특별자치도 제주시 백포서길 9 (이호일동, 이호동주민센터)",
    "lat": 33.4998820274554,
    "lng": 126.45820769215103,
    "region": "제주특별자치도"
  },
  {
    "name": "부영2차아파트(지하주차장 1층)",
    "address": "제주특별자치도 제주시 과원로 11 (노형동)",
    "lat": 33.47647223369801,
    "lng": 126.48468955638826,
    "region": "제주특별자치도"
  },
  {
    "name": "정든마을1단지(지하주차장 1층)",
    "address": "제주특별자치도 제주시 정존11길 54 (노형동)",
    "lat": 33.48787726661617,
    "lng": 126.47311959076367,
    "region": "제주특별자치도"
  },
  {
    "name": "하귀농협하나로마트(지하주차장 1층)",
    "address": "제주특별자치도 제주시 애월읍 일주서로 7136",
    "lat": 33.48538565273542,
    "lng": 126.41165226284426,
    "region": "제주특별자치도"
  },
  {
    "name": "동명리사무소(지하 1층)",
    "address": "제주특별자치도 제주시 한림읍 한림중앙로 62 (동명리사무소)",
    "lat": 33.409276092450696,
    "lng": 126.26581873431942,
    "region": "제주특별자치도"
  },
  {
    "name": "디지털한빛아파트 101동(지하주차장 1층)",
    "address": "제주특별자치도 제주시 연동4길 32 (연동, 디지털한빛아파트)",
    "lat": 33.48305943058807,
    "lng": 126.4871941986049,
    "region": "제주특별자치도"
  },
  {
    "name": "연동태홍누리안3차아파트(지하주차장 1층~2층)",
    "address": "제주특별자치도 제주시 삼무로 15 (연동, 연동태홍누리안3차아파트)",
    "lat": 33.49016073132572,
    "lng": 126.48834519236487,
    "region": "제주특별자치도"
  },
  {
    "name": "삼무파크빌(지하주차장 1층~2층)",
    "address": "제주특별자치도 제주시 도령로 128 (연동, 삼무파크빌)",
    "lat": 33.492613300902185,
    "lng": 126.49096068564468,
    "region": "제주특별자치도"
  },
  {
    "name": "제주코아호텔(지하주차장 1층)",
    "address": "제주특별자치도 제주시 신대로 148 (연동, 제주코아호텔)",
    "lat": 33.48403567877587,
    "lng": 126.49608464578266,
    "region": "제주특별자치도"
  },
  {
    "name": "연동학산맨션(지하주차장 1층)",
    "address": "제주특별자치도 제주시 신광로1길 10 (연동, 연동학산맨션)",
    "lat": 33.49307599054066,
    "lng": 126.49379813599184,
    "region": "제주특별자치도"
  },
  {
    "name": "건설공제조합 제주지점(지하주차장 1층~2층)",
    "address": "제주특별자치도 제주시 신대로 64, 건설회관 (연동)",
    "lat": 33.49167161432975,
    "lng": 126.496351419285,
    "region": "제주특별자치도"
  },
  {
    "name": "현일센트럴파크뷰아파트(지하주차장 2층)",
    "address": "제주특별자치도 제주시 신대로 72 (연동, 현일센츄럴파크뷰)",
    "lat": 33.490929022925165,
    "lng": 126.49638937712945,
    "region": "제주특별자치도"
  },
  {
    "name": "다울하우스(지하주차장 1층)",
    "address": "제주특별자치도 제주시 노연로 61 (연동, 다울하우스)",
    "lat": 33.48610034877447,
    "lng": 126.48679883704408,
    "region": "제주특별자치도"
  },
  {
    "name": "벽강하이본타워 아파트(지하주차장 1층~2층)",
    "address": "제주특별자치도 제주시 신대로22길 40 (연동, 벽강하이본타워)",
    "lat": 33.48247858745917,
    "lng": 126.49120028737518,
    "region": "제주특별자치도"
  },
  {
    "name": "동서연동타워(지하주차장 1층~2층)",
    "address": "제주특별자치도 제주시 연동1길 3 (연동, 동서연동타워)",
    "lat": 33.48958687628616,
    "lng": 126.48685111088813,
    "region": "제주특별자치도"
  },
  {
    "name": "시스빌아파트(지하주차장 1층~2층)",
    "address": "제주특별자치도 제주시 연동11길 39 (연동, 시스빌)",
    "lat": 33.4861812252463,
    "lng": 126.49328155586451,
    "region": "제주특별자치도"
  },
  {
    "name": "금호훼밀리관광호텔(지하주차장 1층)",
    "address": "제주특별자치도 제주시 제원1길 9 (연동)",
    "lat": 33.48927963264821,
    "lng": 126.48835067883785,
    "region": "제주특별자치도"
  },
  {
    "name": "신제주오피스텔(지하주차장 1층~4층)",
    "address": "제주특별자치도 제주시 신광로 103 (연동, 신제주오피스텔)",
    "lat": 33.482848106092284,
    "lng": 126.49007832078932,
    "region": "제주특별자치도"
  },
  {
    "name": "현암노블레스빌아파트(지하주차장 1층)",
    "address": "제주특별자치도 제주시 신대로18길 22 (연동, 현암노블레스빌아파트)",
    "lat": 33.48478970904051,
    "lng": 126.49399133550936,
    "region": "제주특별자치도"
  },
  {
    "name": "연동타워프로빌(지하주차장 1층~4층)",
    "address": "제주특별자치도 제주시 도령로 95 (연동, 타워프로빌)",
    "lat": 33.49111927219165,
    "lng": 126.48798825870723,
    "region": "제주특별자치도"
  },
  {
    "name": "진호뉴캐슬아파트(지하주차장 1층)",
    "address": "제주특별자치도 제주시 도령로 111 (연동, 진호뉴캐슬)",
    "lat": 33.491934067721715,
    "lng": 126.4892574756744,
    "region": "제주특별자치도"
  },
  {
    "name": "연동리치빌아파트(지하주차장 1층)",
    "address": "제주특별자치도 제주시 도령북길 22 (연동, 연동리치빌아파트)",
    "lat": 33.49307544072736,
    "lng": 126.486819587857,
    "region": "제주특별자치도"
  },
  {
    "name": "연동2차미화주택(지하주차장 1층)",
    "address": "제주특별자치도 제주시 선덕로8길 20 (연동, 연동2차미화주택)",
    "lat": 33.48372628554697,
    "lng": 126.50087452703497,
    "region": "제주특별자치도"
  },
  {
    "name": "대성연립(지하주차장 1층)",
    "address": "제주특별자치도 제주시 오도길 39 (이호이동, 대성연립)",
    "lat": 33.49157733776559,
    "lng": 126.46005946024384,
    "region": "제주특별자치도"
  },
  {
    "name": "아름마을아파트(지하주차장 1층)",
    "address": "제주특별자치도 제주시 우정로18길 25 (외도일동)",
    "lat": 33.484867056750204,
    "lng": 126.42803668003675,
    "region": "제주특별자치도"
  },
  {
    "name": "부영1차아파트(지하주차장 1층)",
    "address": "제주특별자치도 제주시 원노형로 93 (노형동)",
    "lat": 33.480173046885696,
    "lng": 126.4848592959315,
    "region": "제주특별자치도"
  },
  {
    "name": "정든마을3단지(지하주차장 1층)",
    "address": "제주특별자치도 제주시 정존11길 68 (노형동)",
    "lat": 33.48872831420959,
    "lng": 126.4721371055266,
    "region": "제주특별자치도"
  },
  {
    "name": "뜨란채아파트(지하주차장 1층)",
    "address": "제주특별자치도 제주시 수덕로 44 (노형동)",
    "lat": 33.486414109568685,
    "lng": 126.47251514817366,
    "region": "제주특별자치도"
  },
  {
    "name": "노형 이편한세상아파트(지하주차장 1층)",
    "address": "제주특별자치도 제주시 수덕로 78 (노형동)",
    "lat": 33.484178865569305,
    "lng": 126.46973605809828,
    "region": "제주특별자치도"
  },
  {
    "name": "부영3차아파트(지하주차장 1층)",
    "address": "제주특별자치도 제주시 과원로 27 (노형동)",
    "lat": 33.476470738925194,
    "lng": 126.48638372345702,
    "region": "제주특별자치도"
  },
  {
    "name": "노형아이파크(지하주차장 1층)",
    "address": "제주특별자치도 제주시 원노형로 90 (노형동, 노형아이파크)",
    "lat": 33.48069928205242,
    "lng": 126.4846376570077,
    "region": "제주특별자치도"
  },
  {
    "name": "중흥S클래스아파트(지하주차장 1층)",
    "address": "제주특별자치도 제주시 한라대학로 107 (노형동)",
    "lat": 33.47647705153368,
    "lng": 126.48176932399338,
    "region": "제주특별자치도"
  },
  {
    "name": "미듬아뜨리에 아파트 105동(지하주차장 1층)",
    "address": "제주특별자치도 제주시 중앙로26길 25 (삼도이동)",
    "lat": 33.50531727328758,
    "lng": 126.52281698235704,
    "region": "제주특별자치도"
  },
  {
    "name": "라마다프라자호텔(지하주차장 1층~2층)",
    "address": "제주특별자치도 제주시 탑동로 66 (삼도이동)",
    "lat": 33.51843604601766,
    "lng": 126.51779473633007,
    "region": "제주특별자치도"
  },
  {
    "name": "하귀휴먼시아아파트2단지(지하주차장 1층)",
    "address": "제주특별자치도 제주시 애월읍 하귀9길 71 (제주하귀휴먼시아2단지)",
    "lat": 33.480908309850484,
    "lng": 126.41466696806876,
    "region": "제주특별자치도"
  },
  {
    "name": "제주삼화휴먼시아1단지(지하주차장 1층)",
    "address": "제주특별자치도 제주시 화삼북로2길 12 (화북일동, 삼화휴먼시아1단지)",
    "lat": 33.516051858944564,
    "lng": 126.57629421520735,
    "region": "제주특별자치도"
  },
  {
    "name": "프로빌G단지연립주택(지하주차장 1층)",
    "address": "제주특별자치도 제주시 금월길 50 (아라이동, 프로빌G단지연립주택)",
    "lat": 33.48422141612706,
    "lng": 126.55172331425707,
    "region": "제주특별자치도"
  },
  {
    "name": "성안교회(지하 1층)",
    "address": "제주특별자치도 제주시 중앙로 470 (아라일동, 제주성안교회)",
    "lat": 33.48114329970027,
    "lng": 126.5418084471294,
    "region": "제주특별자치도"
  },
  {
    "name": "극동오벨리스크(지하주차장 1층)",
    "address": "제주특별자치도 제주시 서광로29길 38 (이도일동, 극동오벨리스크)",
    "lat": 33.50352699594296,
    "lng": 126.52615404564168,
    "region": "제주특별자치도"
  },
  {
    "name": "제주도유림문화원(지하주차장 1층)",
    "address": "제주특별자치도 제주시 광양2길 35 (이도일동, 제주유림문화원)",
    "lat": 33.50345425838891,
    "lng": 126.52671453466108,
    "region": "제주특별자치도"
  },
  {
    "name": "아이린아파트(지하주차장 1층)",
    "address": "제주특별자치도 제주시 서사로7길 1 (삼도이동)",
    "lat": 33.50724189627356,
    "lng": 126.52021029638404,
    "region": "제주특별자치도"
  },
  {
    "name": "하귀휴먼시아아파트1단지(지하주차장 1층)",
    "address": "제주특별자치도 제주시 애월읍 하귀9길 45",
    "lat": 33.48289416191991,
    "lng": 126.4158557032773,
    "region": "제주특별자치도"
  },
  {
    "name": "제주아트센터(지하2층)",
    "address": "제주특별자치도 제주시 오남로 231 (오라이동, 제주아트센터)",
    "lat": 33.47502399949525,
    "lng": 126.51506874646158,
    "region": "제주특별자치도"
  },
  {
    "name": "극동오벨리스크3차(지하주차장 1층)",
    "address": "제주특별자치도 제주시 고전길 5 (이도일동, 극동오벨리스크3차)",
    "lat": 33.506422123310685,
    "lng": 126.52561992010506,
    "region": "제주특별자치도"
  },
  {
    "name": "제주융합과학연구원(지하 1층)",
    "address": "제주특별자치도 제주시 산록북로 421, 제주교육과학연구원 (오라이동)",
    "lat": 33.42610347607359,
    "lng": 126.53175841411048,
    "region": "제주특별자치도"
  },
  {
    "name": "라온프라이빗 타운(지하주차장 1층)",
    "address": "제주특별자치도 제주시 한림읍 금능남로 127",
    "lat": 33.37730051582798,
    "lng": 126.23940679826596,
    "region": "제주특별자치도"
  },
  {
    "name": "오라관광주식회사오라컨트리클럽(골프연습장 지하 1층)",
    "address": "제주특별자치도 제주시 오라남로 130-16, 오라칸트리클럽 (오라이동)",
    "lat": 33.44850230226344,
    "lng": 126.5138292154639,
    "region": "제주특별자치도"
  },
  {
    "name": "삼화부영아파트3차(지하주차장 1층)",
    "address": "제주특별자치도 제주시 화삼로 167 (삼양이동, 제주삼화사랑으로부영3차)",
    "lat": 33.51871721759132,
    "lng": 126.58548277494272,
    "region": "제주특별자치도"
  },
  {
    "name": "미듬하나로아파트(지하 1층)",
    "address": "제주특별자치도 제주시 삼봉로 115-1 (도련이동)",
    "lat": 33.51114830757952,
    "lng": 126.5897759342991,
    "region": "제주특별자치도"
  },
  {
    "name": "제주아라스위첸아파트(지하주차장 2층)",
    "address": "제주특별자치도 제주시 아란9길 22 (아라일동, 제주아라 KCC스위첸)",
    "lat": 33.47277164725796,
    "lng": 126.54296035931571,
    "region": "제주특별자치도"
  },
  {
    "name": "아라아이파크(지하주차장 1층~2층)",
    "address": "제주특별자치도 제주시 인다1길 20 (아라일동, 아라아이파크)",
    "lat": 33.47620471731469,
    "lng": 126.55097241618132,
    "region": "제주특별자치도"
  },
  {
    "name": "한라도서관(지하 1층)",
    "address": "제주특별자치도 제주시 오남로 221, 한라도서관 (오라이동)",
    "lat": 33.4762206625293,
    "lng": 126.51481810188032,
    "region": "제주특별자치도"
  },
  {
    "name": "제주연구원(지하 1층)",
    "address": "제주특별자치도 제주시 아연로 253 (오라이동, 제주연구원)",
    "lat": 33.46767243572419,
    "lng": 126.51469862460584,
    "region": "제주특별자치도"
  },
  {
    "name": "도체육회관(지하 1층)",
    "address": "제주특별자치도 제주시 서광로2길 24, 도체육회관 (오라일동)",
    "lat": 33.4980863097239,
    "lng": 126.51287327690832,
    "region": "제주특별자치도"
  },
  {
    "name": "돌문화공원관리사무소 지하 1층",
    "address": "제주특별자치도 제주시 조천읍 남조로 2023, 교래자연휴양림",
    "lat": 33.446621401964144,
    "lng": 126.66399287196728,
    "region": "제주특별자치도"
  },
  {
    "name": "제주과학고등학교(지하 1층)",
    "address": "제주특별자치도 제주시 산록북로 421-1, 제주과학고등학교 (오라이동)",
    "lat": 33.426536112320065,
    "lng": 126.5314188126802,
    "region": "제주특별자치도"
  },
  {
    "name": "건입미화아파트(지하주차장 1층)",
    "address": "제주특별자치도 제주시 동문로21길 4-7 (건입동, 건입미화아파트)",
    "lat": 33.51455899715535,
    "lng": 126.5375769994248,
    "region": "제주특별자치도"
  },
  {
    "name": "그린스페이스 휴(지하주차장 1층)",
    "address": "제주특별자치도 제주시 연삼로 612-2 (건입동, 그린스페이스휴)",
    "lat": 33.50510650056044,
    "lng": 126.5538774144406,
    "region": "제주특별자치도"
  },
  {
    "name": "공간아트빌(지하주차장 1층)",
    "address": "제주특별자치도 제주시 성지로 6 (이도일동, 공간아트빌)",
    "lat": 33.509564617681754,
    "lng": 126.52441746214927,
    "region": "제주특별자치도"
  },
  {
    "name": "태홍누리안2차아파트(지하주차장 1층~2층)",
    "address": "제주특별자치도 제주시 동광로9길 6 (이도일동, 태홍누리안2차아파트)",
    "lat": 33.50316510931368,
    "lng": 126.53338185309764,
    "region": "제주특별자치도"
  },
  {
    "name": "장원스카이펠리스(지하주차장 1층~5층)",
    "address": "제주특별자치도 제주시 동광로3길 3 (이도일동, 장원스카이펠리스)",
    "lat": 33.50184782793123,
    "lng": 126.530645179544,
    "region": "제주특별자치도"
  },
  {
    "name": "제주벤처마루(지하주차장 1층~2층)",
    "address": "제주특별자치도 제주시 중앙로 217, 제주벤처마루 지하1층~지하2층 (이도이동)",
    "lat": 33.50023506883028,
    "lng": 126.52983919199276,
    "region": "제주특별자치도"
  },
  {
    "name": "제주삼화엘에이치2단지(지하주차장 1층)",
    "address": "제주특별자치도 제주시 화삼로 32 (제주삼화엘에이치2단지)",
    "lat": 33.51400604838212,
    "lng": 126.57632634312068,
    "region": "제주특별자치도"
  },
  {
    "name": "삼화사랑으로부영2차(지하주차장 1층)",
    "address": "제주특별자치도 제주시 화삼로 12 (화북이동, 삼화사랑으로부영2차아파트)",
    "lat": 33.51407728916524,
    "lng": 126.57447017635536,
    "region": "제주특별자치도"
  },
  {
    "name": "삼화엘에이치3단지(지하주차장 1층)",
    "address": "제주특별자치도 제주시 화삼로 110 (제주삼화엘에이치3단지)",
    "lat": 33.51425173930426,
    "lng": 126.58523752573404,
    "region": "제주특별자치도"
  },
  {
    "name": "진우파크빌 지하 1층",
    "address": "제주특별자치도 제주시 조천읍 함덕남12길 19-6 (진우파크빌)",
    "lat": 33.53285775022127,
    "lng": 126.67423507559894,
    "region": "제주특별자치도"
  },
  {
    "name": "조천주암썬빌리지 103동 지하 1층",
    "address": "제주특별자치도 제주시 조천읍 신북로 324 (조천주암썬빌리지)",
    "lat": 33.5404894002952,
    "lng": 126.645547309727,
    "region": "제주특별자치도"
  },
  {
    "name": "이루안빌리지 지하주차장 1층",
    "address": "제주특별자치도 제주시 조천읍 신촌3길 28 (이루안빌리지)",
    "lat": 33.5354548205904,
    "lng": 126.618805231967,
    "region": "제주특별자치도"
  },
  {
    "name": "상하수도본부 지하 1층",
    "address": "제주특별자치도 제주시 조천읍 중산간동로 601, 제주특별자치도 수자원본부",
    "lat": 33.4993427541679,
    "lng": 126.649905338003,
    "region": "제주특별자치도"
  },
  {
    "name": "혜성대유아파트 102동(지하 1층)",
    "address": "제주특별자치도 제주시 연수로 40 (일도이동, 혜성대유아파트)",
    "lat": 33.50544659941544,
    "lng": 126.54468935377066,
    "region": "제주특별자치도"
  },
  {
    "name": "신천지아파트106동(지하 1층)",
    "address": "제주특별자치도 제주시 천수로 72 (일도이동, 일도신천지아파트)",
    "lat": 33.505056754139474,
    "lng": 126.5437262037182,
    "region": "제주특별자치도"
  },
  {
    "name": "신천지아파트108동(지하 1층)",
    "address": "제주특별자치도 제주시 천수로 72 (일도이동, 일도신천지아파트)",
    "lat": 33.505056754139474,
    "lng": 126.5437262037182,
    "region": "제주특별자치도"
  },
  {
    "name": "신천지아파트110동(지하 1층)",
    "address": "제주특별자치도 제주시 천수로 72 (일도이동, 일도신천지아파트)",
    "lat": 33.505056754139474,
    "lng": 126.5437262037182,
    "region": "제주특별자치도"
  },
  {
    "name": "신천지아파트102동(지하 1층)",
    "address": "제주특별자치도 제주시 천수로 72 (일도이동, 일도신천지아파트)",
    "lat": 33.505056754139474,
    "lng": 126.5437262037182,
    "region": "제주특별자치도"
  },
  {
    "name": "화북동주민센터(지하주차장 1층)",
    "address": "제주특별자치도 제주시 진남로6길 17, 화북동주민센터 (화북일동)",
    "lat": 33.520282923912816,
    "lng": 126.56561403095272,
    "region": "제주특별자치도"
  },
  {
    "name": "고덕하이츠연립주택(지하주차장 1층)",
    "address": "제주특별자치도 제주시 고산동산5길 21-1, 지하주차장 1층 (이도이동, 고덕하이츠빌라)",
    "lat": 33.49660502297899,
    "lng": 126.53471061554797,
    "region": "제주특별자치도"
  },
  {
    "name": "관광호텔 더레드(지하주차장 1층)",
    "address": "제주특별자치도 제주시 동광로6길 10, 관광호텔 더레드 지하주차장 1층 (이도이동)",
    "lat": 33.50107865621852,
    "lng": 126.53196052572817,
    "region": "제주특별자치도"
  },
  {
    "name": "나라키움 제주복합관사(지하주차장 2층)",
    "address": "제주특별자치도 제주시 중앙로 273, 지하주차장 2층 (이도이동, 나라키움 제주복합관사)",
    "lat": 33.49608569190949,
    "lng": 126.5326763461996,
    "region": "제주특별자치도"
  },
  {
    "name": "제주 이도 한일베라체 아파트(지하주차장 1층)",
    "address": "제주특별자치도 제주시 신설로 55, 지하주차장 1층 (이도이동, 한일베라체아파트)",
    "lat": 33.49210197288414,
    "lng": 126.54593169400064,
    "region": "제주특별자치도"
  },
  {
    "name": "제주 이도 한일베라체아파트(지하주차장 2층)",
    "address": "제주특별자치도 제주시 신설로 55, 지하주차장 2층 (이도이동, 한일베라체아파트)",
    "lat": 33.49210197288414,
    "lng": 126.54593169400064,
    "region": "제주특별자치도"
  },
  {
    "name": "제주법조타워(지하주차장 1층)",
    "address": "제주특별자치도 제주시 남광북1길 1, 제주법조타워 지하주차장1층 (이도이동)",
    "lat": 33.49452741035832,
    "lng": 126.53440064797776,
    "region": "제주특별자치도"
  },
  {
    "name": "제주법조타워(지하주차장 2층)",
    "address": "제주특별자치도 제주시 남광북1길 1, 제주법조타워 지하주차장 2층 (이도이동)",
    "lat": 33.49452741035832,
    "lng": 126.53440064797776,
    "region": "제주특별자치도"
  },
  {
    "name": "제주법조타워(지하주차장 3층)",
    "address": "제주특별자치도 제주시 남광북1길 1, 제주법조타워 지하주차장3층 (이도이동)",
    "lat": 33.49452741035832,
    "lng": 126.53440064797776,
    "region": "제주특별자치도"
  },
  {
    "name": "제주법조타워(지하주차장 4층)",
    "address": "제주특별자치도 제주시 남광북1길 1, 제주법조타워 지하주차장4층 (이도이동)",
    "lat": 33.49452741035832,
    "lng": 126.53440064797776,
    "region": "제주특별자치도"
  },
  {
    "name": "그랑팰리스(지하주차장 1층)",
    "address": "제주특별자치도 제주시 천수로9길 1(일도이동, 그랑펠리스)",
    "lat": 33.50448748630118,
    "lng": 126.54248315141888,
    "region": "제주특별자치도"
  },
  {
    "name": "그랑팰리스(지하주차장 2층)",
    "address": "제주특별자치도 제주시 천수로9길 1(일도이동, 그랑펠리스)",
    "lat": 33.50448748630118,
    "lng": 126.54248315141888,
    "region": "제주특별자치도"
  },
  {
    "name": "수빌딩(지하주차장 1층)",
    "address": "제주특별자치도 제주시 중앙로 286, 수빌딩 지하주차장1층 (이도이동)",
    "lat": 33.49492263001157,
    "lng": 126.5331529651175,
    "region": "제주특별자치도"
  },
  {
    "name": "곶자왈아이파크(지하주차장 2층)",
    "address": "제주특별자치도 제주시 한경면 녹차분재로 609(곶자왈 아이파크)",
    "lat": 33.32314688564256,
    "lng": 126.2616329251306,
    "region": "제주특별자치도"
  },
  {
    "name": "한경서해파스텔(지하주차장 1층)",
    "address": "제주특별자치도 제주시 한경면 주전길 78(한경 서해파스텔)",
    "lat": 33.336009289512944,
    "lng": 126.17652751666296,
    "region": "제주특별자치도"
  },
  {
    "name": "북수구 공영주차장(지하주차장 1층)",
    "address": "제주특별자치도 제주시 일도일동 1225",
    "lat": 33.5143164086806,
    "lng": 126.5277312722416,
    "region": "제주특별자치도"
  },
  {
    "name": "산짓물 공영주차장(지하주차장 1층)",
    "address": "제주특별자치도 제주시 건입동 1328",
    "lat": 33.51598089729361,
    "lng": 126.52896240595584,
    "region": "제주특별자치도"
  },
  {
    "name": "동인스파월드빌(지하주차장 2층)",
    "address": "제주특별자치도 제주시 중앙로26길 2(삼도이동, 동인스파월드빌)",
    "lat": 33.505818720089124,
    "lng": 126.5249488573698,
    "region": "제주특별자치도"
  },
  {
    "name": "구좌읍 다목적문화센터(지하주차장 1층)",
    "address": "제주특별자치도 제주시 구좌읍 일주동로 3116",
    "lat": 33.52281584573906,
    "lng": 126.85223775394562,
    "region": "제주특별자치도"
  },
  {
    "name": "태홍누리안5차아파트(지하주차장 1층)",
    "address": "제주특별자치도 제주시 신대로 136(연동, 코스모스태홍누리안5차아파트)",
    "lat": 33.48515417954293,
    "lng": 126.49616360813614,
    "region": "제주특별자치도"
  },
  {
    "name": "태홍누리안5차아파트(지하주차장 2층)",
    "address": "제주특별자치도 제주시 신대로 136(연동, 코스모스태홍누리안5차아파트)",
    "lat": 33.48515417954293,
    "lng": 126.49616360813614,
    "region": "제주특별자치도"
  },
  {
    "name": "세기에코빌(지하주차장 1층)",
    "address": "제주특별자치도 제주시 중앙로 274, 지하주차장1층 (이도이동, 세기 에코빌)",
    "lat": 33.49573593568169,
    "lng": 126.53238423103072,
    "region": "제주특별자치도"
  },
  {
    "name": "서진하이츠(지하주차장 1층)",
    "address": "제주특별자치도 제주시 고마로 44(일도이동, 서진하이츠)",
    "lat": 33.51021462784688,
    "lng": 126.538932187601,
    "region": "제주특별자치도"
  },
  {
    "name": "제주첨단꿈에그린3단지(P1. 지하주차장 1층)",
    "address": "제주특별자치도 제주시 첨단로동길 106(월평동, 제주첨단 꿈에그린 3단지 아파트)",
    "lat": 33.45027278041588,
    "lng": 126.5771772028949,
    "region": "제주특별자치도"
  },
  {
    "name": "제주첨단꿈에그린3단지(P3. 지하주차장 1층)",
    "address": "제주특별자치도 제주시 첨단로동길 106(월평동, 제주첨단 꿈에그린 3단지 아파트)",
    "lat": 33.45027278041588,
    "lng": 126.5771772028949,
    "region": "제주특별자치도"
  },
  {
    "name": "제주첨단꿈에그린3단지(P5. 지하주차장 1층)",
    "address": "제주특별자치도 제주시 첨단로동길 106(월평동, 제주첨단 꿈에그린 3단지 아파트)",
    "lat": 33.45027278041588,
    "lng": 126.5771772028949,
    "region": "제주특별자치도"
  },
  {
    "name": "제주첨단꿈에그린3단지(P6. 지하주차장 1층)",
    "address": "제주특별자치도 제주시 첨단로동길 106(월평동, 제주첨단 꿈에그린 3단지 아파트)",
    "lat": 33.45027278041588,
    "lng": 126.5771772028949,
    "region": "제주특별자치도"
  },
  {
    "name": "제주첨단꿈에그린3단지(P7. 지하주차장 1층)",
    "address": "제주특별자치도 제주시 첨단로동길 106(월평동, 제주첨단 꿈에그린 3단지 아파트)",
    "lat": 33.45027278041588,
    "lng": 126.5771772028949,
    "region": "제주특별자치도"
  },
  {
    "name": "정우인화캐슬(지하주차장 1층)",
    "address": "제주특별자치도 제주시 고마로3길 6(일도이동, 정우인화캐슬)",
    "lat": 33.512931905982576,
    "lng": 126.53878267241802,
    "region": "제주특별자치도"
  },
  {
    "name": "한림읍사무소(지하주차장 1층)",
    "address": "제주특별자치도 제주시 한림읍 한림상로 132",
    "lat": 33.41092310198534,
    "lng": 126.26697673745802,
    "region": "제주특별자치도"
  },
  {
    "name": "삼부장미주상복합아파트(지하주차장 1층)",
    "address": "제주특별자치도 제주시 고마로 56(일도이동, 삼부장미주상복합아파트)",
    "lat": 33.50922310815281,
    "lng": 126.53937972991037,
    "region": "제주특별자치도"
  },
  {
    "name": "태홍누리안(지하주차장 1층)",
    "address": "제주특별자치도 제주시 고마로13길 14(일도이동, 태홍누리안아파트1차)",
    "lat": 33.508836952919296,
    "lng": 126.5410424232024,
    "region": "제주특별자치도"
  },
  {
    "name": "제주시농협동문지점(지하주차장 1층)",
    "address": "제주특별자치도 제주시 동문로 54(일도이동)",
    "lat": 33.51307295414168,
    "lng": 126.53236069788392,
    "region": "제주특별자치도"
  },
  {
    "name": "우당뜨래별아파트(지하주차장 1층)",
    "address": "제주특별자치도 제주시 동문로 131(건입동, 우당뜨래별)",
    "lat": 33.51396894384505,
    "lng": 126.54058695605848,
    "region": "제주특별자치도"
  },
  {
    "name": "삼부장미주상복합아파트(지하주차장 2층)",
    "address": "제주특별자치도 제주시 고마로 56(일도이동, 삼부장미주상복합아파트)",
    "lat": 33.50922310815281,
    "lng": 126.53937972991037,
    "region": "제주특별자치도"
  },
  {
    "name": "프로빌B단지연립주택(지하주차장 1층)",
    "address": "제주특별자치도 제주시 금월길 46-2(아라이동, 프로빌B단지연립주택)",
    "lat": 33.48436926779537,
    "lng": 126.55114752424724,
    "region": "제주특별자치도"
  },
  {
    "name": "프로빌C단지연립주택(지하주차장 1층)",
    "address": "제주특별자치도 제주시 금월길 46-4(아라이동, 프로빌C단지연립주택)",
    "lat": 33.48435300321883,
    "lng": 126.55036252241408,
    "region": "제주특별자치도"
  },
  {
    "name": "프로빌D단지연립주택(지하주차장 1층)",
    "address": "제주특별자치도 제주시 금월길 46-6(아라이동, 프로빌D단지연립주택)",
    "lat": 33.48407386211895,
    "lng": 126.55072352488315,
    "region": "제주특별자치도"
  },
  {
    "name": "프로빌E단지연립주택(지하주차장 1층)",
    "address": "제주특별자치도 제주시 금월길 46-5(아라이동, 프로빌E단지연립주택)",
    "lat": 33.483510033104466,
    "lng": 126.5511476008882,
    "region": "제주특별자치도"
  },
  {
    "name": "프로빌F단지연립주택(지하주차장 1층)",
    "address": "제주특별자치도 제주시 금월길 46-3(아라이동, 프로빌F단지연립주택)",
    "lat": 33.483929224205255,
    "lng": 126.55124330636288,
    "region": "제주특별자치도"
  },
  {
    "name": "예나빌딩(지하주차장 1층)",
    "address": "제주특별자치도 제주시 서광로 83, 예나빌딩 (용담이동)",
    "lat": 33.50047336243781,
    "lng": 126.50496484268028,
    "region": "제주특별자치도"
  },
  {
    "name": "용연엔타운아파트(지하주차장 1층)",
    "address": "제주특별자치도 제주시 흥운길 57(용담이동, 용연엔타운아파트)",
    "lat": 33.51383500861306,
    "lng": 126.51304039006632,
    "region": "제주특별자치도"
  },
  {
    "name": "용담월드하우스(지하주차장 1층)",
    "address": "제주특별자치도 제주시 서문로5길 19(용담일동, 용담월드하우스)",
    "lat": 33.513244328803424,
    "lng": 126.51679318923392,
    "region": "제주특별자치도"
  },
  {
    "name": "한아름아파트(지하주차장 1층)",
    "address": "제주특별자치도 제주시 동대1길 19(건입동, 한아름아파트)",
    "lat": 33.517611714540166,
    "lng": 126.5376656087582,
    "region": "제주특별자치도"
  },
  {
    "name": "동녘도서관(지하 1층)",
    "address": "제주특별자치도 제주시 구좌읍 일주동로 3148, 동녘도서관",
    "lat": 33.52061577025586,
    "lng": 126.85465898907364,
    "region": "제주특별자치도"
  },
  {
    "name": "마음에온함덕 지하주차장1층",
    "address": "제주특별자치도 제주시 조천읍 조함해안로 642 (마음에온함덕)",
    "lat": 33.541102458937644,
    "lng": 126.67855976504038,
    "region": "제주특별자치도"
  },
  {
    "name": "서진태영아트빌(지하1층)",
    "address": "제주특별자치도 제주시 고마로19길 19(일도이동, 서진,태영아트빌)",
    "lat": 33.50573217543122,
    "lng": 126.5431766953233,
    "region": "제주특별자치도"
  },
  {
    "name": "서반아파트(지하주차장 1층)",
    "address": "제주특별자치도 제주시 고마로 21(일도이동, 서반아파트)",
    "lat": 33.51209940778435,
    "lng": 126.53868575037374,
    "region": "제주특별자치도"
  },
  {
    "name": "이룸해피안(지하주차장1층)",
    "address": "제주특별자치도 제주시 동광로 97(일도이동, 이룸해피안)",
    "lat": 33.505651218368065,
    "lng": 126.53793338681976,
    "region": "제주특별자치도"
  },
  {
    "name": "봉개동복지회관(지하1층)",
    "address": "제주특별자치도 제주시 봉개북1길 7(봉개동)",
    "lat": 33.49118107320576,
    "lng": 126.59508370397064,
    "region": "제주특별자치도"
  },
  {
    "name": "이호엘리시아아파트(지하주차장 1층)",
    "address": "제주특별자치도 제주시 대동길 10(이호이동, 이호 엘리시아 아파트)",
    "lat": 33.493847242221705,
    "lng": 126.46321907813578,
    "region": "제주특별자치도"
  },
  {
    "name": "함덕해밀타운아파트 지하주차장1층",
    "address": "제주특별자치도 제주시 조천읍 신북로 460(함덕 해밀타운 아파트)",
    "lat": 33.543811609018306,
    "lng": 126.65946147319876,
    "region": "제주특별자치도"
  },
  {
    "name": "이지앤스토리 기숙사(지하 1층)",
    "address": "제주특별자치도 제주시 우도면 천진동길 63",
    "lat": 33.50024850286779,
    "lng": 126.9526626942786,
    "region": "제주특별자치도"
  },
  {
    "name": "한국국토정보공사 제주지역본부(지하1층~2층)",
    "address": "제주특별자치도 제주시 신대로 118 (연동)",
    "lat": 33.48688891201426,
    "lng": 126.49620610368854,
    "region": "제주특별자치도"
  },
  {
    "name": "블랙스톤리조트 클럽하우스 지하1층",
    "address": "제주특별자치도 제주시 한림읍 한창로 925-122, 블랙스톤CC",
    "lat": 33.3370595635249,
    "lng": 126.31282476085,
    "region": "제주특별자치도"
  },
  {
    "name": "블랙스톤리조트호텔 지하1층",
    "address": "제주특별자치도 제주시 한림읍 한창로 925-122, 블랙스톤CC",
    "lat": 33.3370595635249,
    "lng": 126.31282476085,
    "region": "제주특별자치도"
  },
  {
    "name": "아덴힐리조트앤골프클럽하우스 지하1층",
    "address": "제주특별자치도 제주시 한림읍 화전길 82, 아덴힐CC",
    "lat": 33.3480997094957,
    "lng": 126.367255626604,
    "region": "제주특별자치도"
  },
  {
    "name": "아덴힐리조트앤골프커뮤니티센터 지하1층",
    "address": "제주특별자치도 제주시 한림읍 화전길 82, 아덴힐CC",
    "lat": 33.3480997094957,
    "lng": 126.367255626604,
    "region": "제주특별자치도"
  },
  {
    "name": "에벤에셀호텔 지하주차장1층~2층",
    "address": "제주특별자치도 제주시 조천읍 조함해안로 504, 골든튤립제주함덕호텔",
    "lat": 33.5423935537031,
    "lng": 126.666865396738,
    "region": "제주특별자치도"
  },
  {
    "name": "추자119 지역대(지하1층)",
    "address": "제주특별자치도 제주시 추자면 추자로 174, 추자119",
    "lat": 33.9571497490091,
    "lng": 126.300094747027,
    "region": "제주특별자치도"
  },
  {
    "name": "추자면종합복지회관(지하1층)",
    "address": "제주특별자치도 제주시 추자면 대서5길 48-21, 추자면 복지회관",
    "lat": 33.9640586609917,
    "lng": 126.293572338555,
    "region": "제주특별자치도"
  },
  {
    "name": "추자체육관(지하1층)",
    "address": "제주특별자치도 제주시 추자면 대서5길 48-29, 추자체육관",
    "lat": 33.9646018046007,
    "lng": 126.294481300299,
    "region": "제주특별자치도"
  },
  {
    "name": "서귀포칼호텔 지하 1층",
    "address": "제주특별자치도 서귀포시 칠십리로 242 (칼호텔)",
    "lat": 33.24735554875039,
    "lng": 126.57975226102822,
    "region": "제주특별자치도"
  },
  {
    "name": "더루케테호텔 지하 1층",
    "address": "제주특별자치도 서귀포시 천지연로29번길 8 (뉴서울호텔)",
    "lat": 33.24130375129705,
    "lng": 126.5629690023913,
    "region": "제주특별자치도"
  },
  {
    "name": "백호빌딩 지하 1층",
    "address": "제주특별자치도 서귀포시 칠십리로91번길 20 (백호모텔)",
    "lat": 33.24121332458837,
    "lng": 126.56343196614084,
    "region": "제주특별자치도"
  },
  {
    "name": "명지아파트 지하1층",
    "address": "제주특별자치도 서귀포시 동부로12번길 9 (명지아파트)",
    "lat": 33.24634628844248,
    "lng": 126.57025974793628,
    "region": "제주특별자치도"
  },
  {
    "name": "진양빌라 지하1층",
    "address": "제주특별자치도 서귀포시 일주서로 313 (진양연립)",
    "lat": 33.252214770720244,
    "lng": 126.47497299421676,
    "region": "제주특별자치도"
  },
  {
    "name": "대림빌라 지하1층",
    "address": "제주특별자치도 서귀포시 동부로12번길 6 (대림빌라)",
    "lat": 33.246071715338005,
    "lng": 126.57007882402765,
    "region": "제주특별자치도"
  },
  {
    "name": "서귀포시청 제2청사 지하1층",
    "address": "제주특별자치도 서귀포시 신중로 55-0",
    "lat": 33.25483799167735,
    "lng": 126.51115939358122,
    "region": "제주특별자치도"
  },
  {
    "name": "KT신서귀포지점 지하1층",
    "address": "제주특별자치도 서귀포시 신중로 50-0",
    "lat": 33.25455376580066,
    "lng": 126.51055616849058,
    "region": "제주특별자치도"
  },
  {
    "name": "기영빌라 지하1층",
    "address": "제주특별자치도 서귀포시 이어도로 943-0",
    "lat": 33.239148151210216,
    "lng": 126.51431940027229,
    "region": "제주특별자치도"
  },
  {
    "name": "신세계연립주택 지하1층",
    "address": "제주특별자치도 서귀포시 이어도로 950 (신세기식당)",
    "lat": 33.23954927164703,
    "lng": 126.5150536336372,
    "region": "제주특별자치도"
  },
  {
    "name": "서귀포시청 제1청사 지하1층-2층",
    "address": "제주특별자치도 서귀포시 중앙로 105, 서귀포시청 지하 1~2층 (서홍동)",
    "lat": 33.254048094373445,
    "lng": 126.56067191929895,
    "region": "제주특별자치도"
  },
  {
    "name": "서홍새마을금고본소 지하1층",
    "address": "제주특별자치도 서귀포시 중산간동로 8037, 서홍새마을금고 지하1층 (서홍동)",
    "lat": 33.264014739445415,
    "lng": 126.55800535562196,
    "region": "제주특별자치도"
  },
  {
    "name": "성산빌라 지하1층",
    "address": "제주특별자치도 서귀포시 신서귀로97번길 84 (성산연립주택)",
    "lat": 33.25140269053083,
    "lng": 126.50557771017064,
    "region": "제주특별자치도"
  },
  {
    "name": "대림한숲빌라 지하1층",
    "address": "제주특별자치도 서귀포시 신서귀로97번길 87 (대림제주서호연립주택)",
    "lat": 33.25091386183475,
    "lng": 126.50583704641,
    "region": "제주특별자치도"
  },
  {
    "name": "세기아파트 가동 지하1층",
    "address": "제주특별자치도 서귀포시 태평로 549 (세기아파트)",
    "lat": 33.252754110771434,
    "lng": 126.57535612316026,
    "region": "제주특별자치도"
  },
  {
    "name": "세기아파트 다동 지하1층",
    "address": "제주특별자치도 서귀포시 태평로 549 (세기아파트)",
    "lat": 33.252754110771434,
    "lng": 126.57535612316026,
    "region": "제주특별자치도"
  },
  {
    "name": "세기아파트 마동 지하1층",
    "address": "제주특별자치도 서귀포시 태평로 549 (세기아파트)",
    "lat": 33.252754110771434,
    "lng": 126.57535612316026,
    "region": "제주특별자치도"
  },
  {
    "name": "삼아아파트 101동 지하1층",
    "address": "제주특별자치도 서귀포시 태평로536번길 6 (삼아아파트)",
    "lat": 33.251707746451586,
    "lng": 126.5749566234402,
    "region": "제주특별자치도"
  },
  {
    "name": "삼아아파트 102동 지하1층",
    "address": "제주특별자치도 서귀포시 태평로536번길 6 (삼아아파트)",
    "lat": 33.251707746451586,
    "lng": 126.5749566234402,
    "region": "제주특별자치도"
  },
  {
    "name": "삼아아파트 103동 지하1층",
    "address": "제주특별자치도 서귀포시 태평로536번길 6 (삼아아파트)",
    "lat": 33.251707746451586,
    "lng": 126.5749566234402,
    "region": "제주특별자치도"
  },
  {
    "name": "삼아아파트 105동 지하1층",
    "address": "제주특별자치도 서귀포시 태평로536번길 6 (삼아아파트)",
    "lat": 33.251707746451586,
    "lng": 126.5749566234402,
    "region": "제주특별자치도"
  },
  {
    "name": "삼아아파트 106동 지하1층",
    "address": "제주특별자치도 서귀포시 태평로536번길 6 (삼아아파트)",
    "lat": 33.251707746451586,
    "lng": 126.5749566234402,
    "region": "제주특별자치도"
  },
  {
    "name": "삼아아파트 107동 지하1층",
    "address": "제주특별자치도 서귀포시 태평로536번길 6 (삼아아파트)",
    "lat": 33.251707746451586,
    "lng": 126.5749566234402,
    "region": "제주특별자치도"
  },
  {
    "name": "삼아아파트 108동 지하1층",
    "address": "제주특별자치도 서귀포시 태평로536번길 6 (삼아아파트)",
    "lat": 33.251707746451586,
    "lng": 126.5749566234402,
    "region": "제주특별자치도"
  },
  {
    "name": "삼아아파트 109동 지하1층",
    "address": "제주특별자치도 서귀포시 태평로536번길 6 (삼아아파트)",
    "lat": 33.251707746451586,
    "lng": 126.5749566234402,
    "region": "제주특별자치도"
  },
  {
    "name": "나산빌라트 지하1층",
    "address": "제주특별자치도 서귀포시 중앙로150번길 33 (나산빌라트)",
    "lat": 33.26040171505937,
    "lng": 126.56174665072214,
    "region": "제주특별자치도"
  },
  {
    "name": "세기2차아파트 지하1층",
    "address": "제주특별자치도 서귀포시 태평로 558 (동홍세기2차아파트)",
    "lat": 33.25323415486288,
    "lng": 126.57638135415664,
    "region": "제주특별자치도"
  },
  {
    "name": "예일외국어학원 지하1층",
    "address": "제주특별자치도 서귀포시 중앙로101번길 5, 지하1층 (서홍동)",
    "lat": 33.25361306605839,
    "lng": 126.5603029235709,
    "region": "제주특별자치도"
  },
  {
    "name": "일호아파트 지하1층",
    "address": "제주특별자치도 서귀포시 문부로 27-4 (동홍일호아파트)",
    "lat": 33.25246958575485,
    "lng": 126.57089511097536,
    "region": "제주특별자치도"
  },
  {
    "name": "무지개아파트 가동 지하1층",
    "address": "제주특별자치도 서귀포시 동홍북로22번길 20 (무지개아파트)",
    "lat": 33.25756263461541,
    "lng": 126.57058647407317,
    "region": "제주특별자치도"
  },
  {
    "name": "장원주상복합건물 지하1층",
    "address": "제주특별자치도 서귀포시 칠십리로 145 (장원주상복합건물)",
    "lat": 33.24439122166941,
    "lng": 126.56912033810367,
    "region": "제주특별자치도"
  },
  {
    "name": "남원읍사무소 지하1층",
    "address": "제주특별자치도 서귀포시 남원읍 태위로 695, 남원읍사무소",
    "lat": 33.279824698519825,
    "lng": 126.7207254251822,
    "region": "제주특별자치도"
  },
  {
    "name": "수협남원지소 지하1층",
    "address": "제주특별자치도 서귀포시 남원읍 태위로 698, 서귀포수협",
    "lat": 33.279538673947165,
    "lng": 126.72098814769586,
    "region": "제주특별자치도"
  },
  {
    "name": "선경오피스텔 지하주차장 1층",
    "address": "제주특별자치도 서귀포시 중정로 123 (선경오피스텔)",
    "lat": 33.24867744762401,
    "lng": 126.56945605460668,
    "region": "제주특별자치도"
  },
  {
    "name": "태흥장호텔 지하주차장 1층",
    "address": "제주특별자치도 서귀포시 중정로91번길 54 (태흥빌딩)",
    "lat": 33.25162229112216,
    "lng": 126.56190676797507,
    "region": "제주특별자치도"
  },
  {
    "name": "서귀포중앙우체국 지하창고 1층",
    "address": "제주특별자치도 서귀포시 중정로 57 (중앙우체국)",
    "lat": 33.24786394677452,
    "lng": 126.5625335652006,
    "region": "제주특별자치도"
  },
  {
    "name": "KT서귀포지점 지하주차장 1층",
    "address": "제주특별자치도 서귀포시 중앙로42번길 7",
    "lat": 33.2484919594676,
    "lng": 126.56238573827086,
    "region": "제주특별자치도"
  },
  {
    "name": "국민은행 지하주차장 1층",
    "address": "제주특별자치도 서귀포시 중정로 55 (국민은행)",
    "lat": 33.247799602239084,
    "lng": 126.56228703234844,
    "region": "제주특별자치도"
  },
  {
    "name": "제주신라호텔 지하1층",
    "address": "제주특별자치도 서귀포시 중문관광로72번길 75 (신라호텔)",
    "lat": 33.24763914363161,
    "lng": 126.40803842229602,
    "region": "제주특별자치도"
  },
  {
    "name": "서귀포호텔 지하1층",
    "address": "제주특별자치도 서귀포시 상예로 319 (서귀포호텔)",
    "lat": 33.27324106489611,
    "lng": 126.39482085131348,
    "region": "제주특별자치도"
  },
  {
    "name": "서귀포농협 지하1층",
    "address": "제주특별자치도 서귀포시 중앙로 75 (서귀포농협)",
    "lat": 33.25141067625791,
    "lng": 126.56109257857096,
    "region": "제주특별자치도"
  },
  {
    "name": "한국SGI한일우호연수원 지하1층",
    "address": "제주특별자치도 서귀포시 남성로128번길 24",
    "lat": 33.24081433304473,
    "lng": 126.5560264702771,
    "region": "제주특별자치도"
  },
  {
    "name": "호텔가온제이스테이 지하1층",
    "address": "제주특별자치도 서귀포시 서문로41번길 23, 호텔가온제이스테이 (서귀동)",
    "lat": 33.249300092472275,
    "lng": 126.56031900674247,
    "region": "제주특별자치도"
  },
  {
    "name": "서귀포시평생학습관 지하1층",
    "address": "제주특별자치도 서귀포시 서문로29번길 10 (서귀포시평생학습관)",
    "lat": 33.24934384818111,
    "lng": 126.55874686541034,
    "region": "제주특별자치도"
  },
  {
    "name": "민우아파트 지하1층",
    "address": "제주특별자치도 서귀포시 천제연로213번길 14-3 (민우중문아파트)",
    "lat": 33.252665223942614,
    "lng": 126.42807187955545,
    "region": "제주특별자치도"
  },
  {
    "name": "대정농업협동조합 최남단지점 지하1층",
    "address": "제주특별자치도 서귀포시 대정읍 하모중앙로 70",
    "lat": 33.22190560799657,
    "lng": 126.25195535091366,
    "region": "제주특별자치도"
  },
  {
    "name": "성산포수협 어민복지회관 지하1층",
    "address": "제주특별자치도 서귀포시 성산읍 동류암로36번길 5, 어민복지회관",
    "lat": 33.4492792662386,
    "lng": 126.91614560591148,
    "region": "제주특별자치도"
  },
  {
    "name": "성산포수협 신산지소 지하1층",
    "address": "제주특별자치도 서귀포시 성산읍 일주동로 5113, 성산포수협신산지점",
    "lat": 33.38038812017248,
    "lng": 126.87633490196512,
    "region": "제주특별자치도"
  },
  {
    "name": "성산농협 신산지소 지하1층",
    "address": "제주특별자치도 서귀포시 성산읍 일주동로 5114, 성산농협신산지점",
    "lat": 33.38043671740827,
    "lng": 126.87590760953913,
    "region": "제주특별자치도"
  },
  {
    "name": "동명아파트 지하주차장 1층",
    "address": "제주특별자치도 서귀포시 성산읍 고성동서로56번길 10(동명아파트)",
    "lat": 33.44996178964241,
    "lng": 126.91398921770562,
    "region": "제주특별자치도"
  },
  {
    "name": "백구연립빌라 지하1층",
    "address": "제주특별자치도 서귀포시 중문로41번길 9 (중문동, 백구연립주택)",
    "lat": 33.25537370143358,
    "lng": 126.4238711854932,
    "region": "제주특별자치도"
  },
  {
    "name": "효돈성당 지하1층",
    "address": "제주특별자치도 서귀포시 효돈로167번길 11 (효돈성당)",
    "lat": 33.26471706812082,
    "lng": 126.6167906511728,
    "region": "제주특별자치도"
  },
  {
    "name": "서귀포시 노인복지관 지하1층",
    "address": "제주특별자치도 서귀포시 태평로537번길 40-9 (서귀포노인복지회관)",
    "lat": 33.25390021542532,
    "lng": 126.57081384858245,
    "region": "제주특별자치도"
  },
  {
    "name": "대한예수교장로회 서귀포교회 지하1층",
    "address": "제주특별자치도 서귀포시 동홍로 56 (서귀포교회)",
    "lat": 33.25349172336541,
    "lng": 126.56808227457748,
    "region": "제주특별자치도"
  },
  {
    "name": "동방아파트 지하1층",
    "address": "제주특별자치도 서귀포시 일주동로 8648-6 (서귀포 동방아파트)",
    "lat": 33.25435253192492,
    "lng": 126.56429541208183,
    "region": "제주특별자치도"
  },
  {
    "name": "한빛테크놀즈아파트 101동 지하1층",
    "address": "제주특별자치도 서귀포시 김정문화로27번길 13-3 (한빛테크놀즈아파트101동)",
    "lat": 33.25311522883314,
    "lng": 126.50759787044576,
    "region": "제주특별자치도"
  },
  {
    "name": "한빛테크놀즈아파트 103동 지하1층",
    "address": "제주특별자치도 서귀포시 김정문화로27번길 23-5 (한빛테크놀즈)",
    "lat": 33.2540155830357,
    "lng": 126.5077223354632,
    "region": "제주특별자치도"
  },
  {
    "name": "한빛테크놀즈아파트 105동 지하1층",
    "address": "제주특별자치도 서귀포시 김정문화로27번길 23-6 (한빛테크놀즈)",
    "lat": 33.25419088093269,
    "lng": 126.5077897883736,
    "region": "제주특별자치도"
  },
  {
    "name": "롯데호텔 제주 지하1층",
    "address": "제주특별자치도 서귀포시 중문관광로72번길 35 (롯데호텔)",
    "lat": 33.24883595650009,
    "lng": 126.41042378930273,
    "region": "제주특별자치도"
  },
  {
    "name": "대오아파트 지하1층",
    "address": "제주특별자치도 서귀포시 동홍서로 83 (대오아파트)",
    "lat": 33.25625678130889,
    "lng": 126.5691592709573,
    "region": "제주특별자치도"
  },
  {
    "name": "(구)명동의류타운 지하1층",
    "address": "제주특별자치도 서귀포시 중앙로 50 (명동의류타운)",
    "lat": 33.249070751554704,
    "lng": 126.56174511024712,
    "region": "제주특별자치도"
  },
  {
    "name": "천지동주민센터 지하1층",
    "address": "제주특별자치도 서귀포시 중정로47번길 3 (천지동주민센터)",
    "lat": 33.2478589906127,
    "lng": 126.56132090085477,
    "region": "제주특별자치도"
  },
  {
    "name": "서홍동주민센터 지하1층",
    "address": "제주특별자치도 서귀포시 중앙로 125, 서홍동주민센터 지하1층 (서홍동)",
    "lat": 33.25592297894528,
    "lng": 126.56016949727004,
    "region": "제주특별자치도"
  },
  {
    "name": "표선면사무소 지하1층",
    "address": "제주특별자치도 서귀포시 표선면 표선중앙로 74, 표선면사무소",
    "lat": 33.32664525303153,
    "lng": 126.83113830842623,
    "region": "제주특별자치도"
  },
  {
    "name": "표선리사무소 지하1층",
    "address": "제주특별자치도 서귀포시 표선면 표선동서로 234, 표선리사무소",
    "lat": 33.32472067704369,
    "lng": 126.83250315015066,
    "region": "제주특별자치도"
  },
  {
    "name": "해비치호텔리조트 지하1층",
    "address": "제주특별자치도 서귀포시 표선면 민속해안로 537, 해비치리조트&호텔",
    "lat": 33.320634460552455,
    "lng": 126.84476651280954,
    "region": "제주특별자치도"
  },
  {
    "name": "안덕농협 지하1층",
    "address": "제주특별자치도 서귀포시 안덕면 화순로 104, 지하1층",
    "lat": 33.24670617670805,
    "lng": 126.33518048515909,
    "region": "제주특별자치도"
  },
  {
    "name": "안덕산방도서관 지하1층",
    "address": "제주특별자치도 서귀포시 안덕면 화순서서로 44, 안덕산방도서관 지하1층",
    "lat": 33.25494876540959,
    "lng": 126.33066159214933,
    "region": "제주특별자치도"
  },
  {
    "name": "남원생활체육관 지하1층",
    "address": "제주특별자치도 서귀포시 남원읍 태위로 551-28",
    "lat": 33.277722196580044,
    "lng": 126.70535371634551,
    "region": "제주특별자치도"
  },
  {
    "name": "남원에덴아파트 지하1층",
    "address": "제주특별자치도 서귀포시 남원읍 남원광지로 5(에덴아파트)",
    "lat": 33.27803310378496,
    "lng": 126.71265362149448,
    "region": "제주특별자치도"
  },
  {
    "name": "중문빌리지 지하1층",
    "address": "제주특별자치도 서귀포시 예래로 270 (중문빌리지)",
    "lat": 33.24267046763317,
    "lng": 126.38517485813762,
    "region": "제주특별자치도"
  },
  {
    "name": "서귀포시 교육지원청 지하1층",
    "address": "제주특별자치도 서귀포시 토평로 43 (서귀포교육청)",
    "lat": 33.270136911447004,
    "lng": 126.58931580671428,
    "region": "제주특별자치도"
  },
  {
    "name": "토평초등학교 지하1층",
    "address": "제주특별자치도 서귀포시 토평남로 86 (토평초등학교)",
    "lat": 33.26599659263044,
    "lng": 126.58954359133938,
    "region": "제주특별자치도"
  },
  {
    "name": "서귀포온성학교 지하1층",
    "address": "제주특별자치도 서귀포시 516로 447-10 (온성학교)",
    "lat": 33.29117888311793,
    "lng": 126.5934129375082,
    "region": "제주특별자치도"
  },
  {
    "name": "켄싱턴리조트 지하1층",
    "address": "제주특별자치도 서귀포시 이어도로 684 (켄싱턴리조트)",
    "lat": 33.23381303989415,
    "lng": 126.48908587518623,
    "region": "제주특별자치도"
  },
  {
    "name": "서호민우연립주택 지하1층",
    "address": "제주특별자치도 서귀포시 신서귀로 11 (서호민우연립주택)",
    "lat": 33.25016924879548,
    "lng": 126.51006873577684,
    "region": "제주특별자치도"
  },
  {
    "name": "동부소방서 지하1층",
    "address": "제주특별자치도 서귀포시 성산읍 일주동로4120번길 7, 동부소방서",
    "lat": 33.46061002933247,
    "lng": 126.90989132890316,
    "region": "제주특별자치도"
  },
  {
    "name": "성환아파트 지하1층",
    "address": "제주특별자치도 서귀포시 대정읍 하모중앙로68번길 5-0",
    "lat": 33.22216148395501,
    "lng": 126.2515094588067,
    "region": "제주특별자치도"
  },
  {
    "name": "금호리조트 제주 지하1층 지하주차장",
    "address": "제주특별자치도 서귀포시 남원읍 태위로 522-15",
    "lat": 33.273674355409874,
    "lng": 126.70369074261386,
    "region": "제주특별자치도"
  },
  {
    "name": "메트로빌딩 지하1층",
    "address": "제주특별자치도 서귀포시 일주동로 8671",
    "lat": 33.253176564195286,
    "lng": 126.56200009727074,
    "region": "제주특별자치도"
  },
  {
    "name": "세림피스 지하1층",
    "address": "제주특별자치도 서귀포시 일주동로 8734, 세림피스 지하1층 (서홍동)",
    "lat": 33.252447300125084,
    "lng": 126.55521678694376,
    "region": "제주특별자치도"
  },
  {
    "name": "동홍동주민센터 지하1층",
    "address": "제주특별자치도 서귀포시 동홍로 104 (동홍동주민센터)",
    "lat": 33.25783356887689,
    "lng": 126.5687851491148,
    "region": "제주특별자치도"
  },
  {
    "name": "서귀포시 국민체육센터 지하1층",
    "address": "제주특별자치도 서귀포시 중문관광로 346",
    "lat": 33.250845234601066,
    "lng": 126.43146512317254,
    "region": "제주특별자치도"
  },
  {
    "name": "캐논스빌리지1단지 지하1층",
    "address": "제주특별자치도 서귀포시 대정읍 글로벌에듀로145번길 46-0",
    "lat": 33.295506764398944,
    "lng": 126.29006625319968,
    "region": "제주특별자치도"
  },
  {
    "name": "디아일랜드블루호텔 지하1층",
    "address": "제주특별자치도 서귀포시 태평로431번길 3",
    "lat": 33.245813387468054,
    "lng": 126.56589340683225,
    "region": "제주특별자치도"
  },
  {
    "name": "청소년수련관 지하1층",
    "address": "제주특별자치도 서귀포시 대정읍 동일하모로149번길 21-8",
    "lat": 33.227806595825484,
    "lng": 126.24766436258784,
    "region": "제주특별자치도"
  },
  {
    "name": "서귀포의료원 지하1층",
    "address": "제주특별자치도 서귀포시 장수로 47 (서귀포의료원)",
    "lat": 33.25613957641996,
    "lng": 126.56296840166183,
    "region": "제주특별자치도"
  },
  {
    "name": "서귀포의료원 지하2층",
    "address": "제주특별자치도 서귀포시 장수로 47",
    "lat": 33.25613957641996,
    "lng": 126.56296840166183,
    "region": "제주특별자치도"
  },
  {
    "name": "호텔빠레브 지하1층",
    "address": "제주특별자치도 서귀포시 김정문화로 15",
    "lat": 33.252302762705554,
    "lng": 126.5065013121789,
    "region": "제주특별자치도"
  },
  {
    "name": "혁신도시LH1단지아파트 101동 지하1층",
    "address": "제주특별자치도 서귀포시 서호남로 92-15",
    "lat": 33.24858658933531,
    "lng": 126.52220959636708,
    "region": "제주특별자치도"
  },
  {
    "name": "혁신도시LH1단지아파트 102동 지하1층",
    "address": "제주특별자치도 서귀포시 서호남로 92-15",
    "lat": 33.24858658933531,
    "lng": 126.52220959636708,
    "region": "제주특별자치도"
  },
  {
    "name": "혁신도시LH1단지아파트 103동 지하1층",
    "address": "제주특별자치도 서귀포시 서호남로 92-15",
    "lat": 33.24858658933531,
    "lng": 126.52220959636708,
    "region": "제주특별자치도"
  },
  {
    "name": "혁신도시LH1단지아파트 106동 지하1층",
    "address": "제주특별자치도 서귀포시 서호남로 92-15",
    "lat": 33.24858658933531,
    "lng": 126.52220959636708,
    "region": "제주특별자치도"
  },
  {
    "name": "혁신도시LH1단지아파트 107동 지하1층",
    "address": "제주특별자치도 서귀포시 서호남로 92-15",
    "lat": 33.24858658933531,
    "lng": 126.52220959636708,
    "region": "제주특별자치도"
  },
  {
    "name": "노스런던컬리지에잇스쿨 제주 NLCS-JEJU 지하1층",
    "address": "제주특별자치도 서귀포시 대정읍 글로벌에듀로145번길 33",
    "lat": 33.29617781269488,
    "lng": 126.2890621265251,
    "region": "제주특별자치도"
  },
  {
    "name": "브랭섬홀아시아(BHA) 지하1층",
    "address": "제주특별자치도 서귀포시 대정읍 글로벌에듀로 234-0",
    "lat": 33.289186896759105,
    "lng": 126.28800124242989,
    "region": "제주특별자치도"
  },
  {
    "name": "한국국제학교 제주캠퍼스 지하1층",
    "address": "제주특별자치도 서귀포시 대정읍 글로벌에듀로260번길 34",
    "lat": 33.28822236193656,
    "lng": 126.28392481502657,
    "region": "제주특별자치도"
  },
  {
    "name": "코아루아파트 지하1층",
    "address": "제주특별자치도 서귀포시 일주동로 8565 (동홍동, 동홍동코아루)",
    "lat": 33.25402980165727,
    "lng": 126.57306258561404,
    "region": "제주특별자치도"
  },
  {
    "name": "더 퍼스트 70 지하1~2층",
    "address": "제주특별자치도 서귀포시 명동로 46 (서귀동, 글램블루호텔)",
    "lat": 33.24744790287942,
    "lng": 126.56672411373944,
    "region": "제주특별자치도"
  },
  {
    "name": "중문동 주민센터 지하1층",
    "address": "제주특별자치도 서귀포시 1100로 30 (중문동)",
    "lat": 33.25335418618978,
    "lng": 126.43340192999884,
    "region": "제주특별자치도"
  },
  {
    "name": "호텔윈스토리 지하1층",
    "address": "제주특별자치도 서귀포시 중정로 11 (서귀동, 호텔윈스토리)",
    "lat": 33.24763321529657,
    "lng": 126.55764087333289,
    "region": "제주특별자치도"
  },
  {
    "name": "코업하버뷰 호텔 지하1층",
    "address": "제주특별자치도 서귀포시 남원읍 태위로 108",
    "lat": 33.27461924935574,
    "lng": 126.65907587024124,
    "region": "제주특별자치도"
  },
  {
    "name": "효돈 생활체육관 지하1-2층",
    "address": "제주특별자치도 서귀포시 하신상로 25 (효돈생활체육관)",
    "lat": 33.26295498406197,
    "lng": 126.61724615817204,
    "region": "제주특별자치도"
  },
  {
    "name": "중흥S클래스 아파트 지하1층",
    "address": "제주특별자치도 서귀포시 대청로 12 (강정동, 서귀포시강정지구3블럭중흥에스-클래스)",
    "lat": 33.2524305208122,
    "lng": 126.50109479816943,
    "region": "제주특별자치도"
  },
  {
    "name": "더베스트 제주성산 지하1층",
    "address": "제주특별자치도 서귀포시 성산읍 동류암로 26",
    "lat": 33.44950502177414,
    "lng": 126.91733103214897,
    "region": "제주특별자치도"
  },
  {
    "name": "리치유클래시아아파트 지하1층",
    "address": "제주특별자치도 서귀포시 성산읍 성산등용로17번길 55",
    "lat": 33.461060262909605,
    "lng": 126.92959737600071,
    "region": "제주특별자치도"
  },
  {
    "name": "아쿠아비치호텔 지하1층",
    "address": "제주특별자치도 서귀포시 성산읍 일주동로 4258, 아쿠아비치호텔",
    "lat": 33.44841665377506,
    "lng": 126.9119714574214,
    "region": "제주특별자치도"
  },
  {
    "name": "남원농협 지하1층",
    "address": "제주특별자치도 서귀포시 남원읍 남조로 52",
    "lat": 33.28431787246451,
    "lng": 126.72137601392,
    "region": "제주특별자치도"
  },
  {
    "name": "e편한세상 중문아파트(105동) 지하1층 주차장",
    "address": "제주특별자치도 서귀포시 일주서로731번길 10, 105동 (중문동, e편한세상 중문)",
    "lat": 33.255764512424854,
    "lng": 126.43131950554512,
    "region": "제주특별자치도"
  },
  {
    "name": "e편한세상 중문아파트(106동) 지하1층 주차장",
    "address": "제주특별자치도 서귀포시 일주서로731번길 10, 106동 (중문동, e편한세상 중문)",
    "lat": 33.255764512424854,
    "lng": 126.43131950554512,
    "region": "제주특별자치도"
  },
  {
    "name": "지오빌2-2차 아파트 지하1층 주차장",
    "address": "제주특별자치도 서귀포시 중앙로 189, 지하1층 (서홍동, 지오빌Ⅱ-2차 아파트)",
    "lat": 33.26146316555937,
    "lng": 126.55884162993809,
    "region": "제주특별자치도"
  },
  {
    "name": "골든튤립호텔 지하2층 주차장",
    "address": "제주특별자치도 서귀포시 성산읍 일출로 31, 골든튤립제주성산호텔",
    "lat": 33.44786847509663,
    "lng": 126.91619199906138,
    "region": "제주특별자치도"
  },
  {
    "name": "금호리조트 제주 지하1층 휴게공간",
    "address": "제주특별자치도 서귀포시 남원읍 태위로 522-12, 금호콘도",
    "lat": 33.27400411708705,
    "lng": 126.7030721471899,
    "region": "제주특별자치도"
  },
  {
    "name": "안덕농협 창천지점 지하1층",
    "address": "제주특별자치도 서귀포시 안덕면 한창로 13, 안덕농협 창천지점 지하1층",
    "lat": 33.26618490900828,
    "lng": 126.37070561053932,
    "region": "제주특별자치도"
  },
  {
    "name": "제주신화월드 호텔앤리조트 지하1층 주차장",
    "address": "제주특별자치도 서귀포시 안덕면 신화역사로304번길 38, 제주신화월드 호텔엔리조트 주차장",
    "lat": 33.30723203976576,
    "lng": 126.31973665347611,
    "region": "제주특별자치도"
  },
  {
    "name": "제주월드컵경기장 지하1층 주차장",
    "address": "제주특별자치도 서귀포시 월드컵로 33, 제주월드컵경기장 (법환동)",
    "lat": 33.247039418422034,
    "lng": 126.50741926519912,
    "region": "제주특별자치도"
  },
  {
    "name": "감귤박물관 지하1층",
    "address": "제주특별자치도 서귀포시 효돈순환로 441, 감귤박물관 (신효동)",
    "lat": 33.27132877001063,
    "lng": 126.60718710002476,
    "region": "제주특별자치도"
  },
  {
    "name": "소노캄 제주 지하1층",
    "address": "제주특별자치도 서귀포시 표선면 일주동로 6347-17, 소노캄 제주",
    "lat": 33.30587322621803,
    "lng": 126.79188356250542,
    "region": "제주특별자치도"
  },
  {
    "name": "SK핀크스골프장 지하1층",
    "address": "제주특별자치도 서귀포시 안덕면 산록남로 863",
    "lat": 33.31437334736717,
    "lng": 126.3927522060131,
    "region": "제주특별자치도"
  },
  {
    "name": "우리들리조트 지하1층",
    "address": "제주특별자치도 서귀포시 산록남로 2914, 우리들 골프장 (상효동)",
    "lat": 33.310165786288714,
    "lng": 126.58865601190004,
    "region": "제주특별자치도"
  },
  {
    "name": "대정읍사무소 지하1-2층",
    "address": "제주특별자치도 서귀포시 대정읍 하모중앙로 20, 대정읍사무소",
    "lat": 33.22676997506131,
    "lng": 126.25208511106484,
    "region": "제주특별자치도"
  },
  {
    "name": "스프링데일CC클럽하우스 지하1층",
    "address": "제주특별자치도 서귀포시 남원읍 서성로 459, 스프링데일C.C",
    "lat": 33.324929472481685,
    "lng": 126.6467670955804,
    "region": "제주특별자치도"
  },
  {
    "name": "테디벨리골프앤리조트",
    "address": "제주특별자치도 서귀포시 안덕면 한창로 365, 테디밸리골프&리조트",
    "lat": 33.292614195228914,
    "lng": 126.34816789553942,
    "region": "제주특별자치도"
  },
  {
    "name": "아티스트 인 레지던스",
    "address": "제주특별자치도 서귀포시 대정읍 가파로 137-7",
    "lat": 33.1687437864732,
    "lng": 126.277449934868,
    "region": "제주특별자치도"
  }
]