[
  {
    "name": "유달초등학교 방공호",
    "address": "전라남도 목포시 영산로10번길 10 (유달동)",
    "lat": 34.78603008032527,
    "lng": 126.37943731442172,
    "region": "전라남도"
  },
  {
    "name": "한국농어촌공사 영산강사업단 지하1층",
    "address": "전라남도 목포시 영산로 463 (상동)",
    "lat": 34.807602023965394,
    "lng": 126.41564754245915,
    "region": "전라남도"
  },
  {
    "name": "목포의료원 지하 1층",
    "address": "전라남도 목포시 이로로 18 (용해동, 목포시의료원)",
    "lat": 34.80414112953002,
    "lng": 126.40572031729928,
    "region": "전라남도"
  },
  {
    "name": "목포카톨릭회관 지하 1층",
    "address": "전라남도 목포시 영산로 325 (용당동)",
    "lat": 34.80593663839593,
    "lng": 126.4010327615291,
    "region": "전라남도"
  },
  {
    "name": "근화타워맨션 지하 1층",
    "address": "전라남도 목포시 산정로 268-3 (연산동)",
    "lat": 34.81153058624712,
    "lng": 126.38723157234485,
    "region": "전라남도"
  },
  {
    "name": "기아자동차 목포지점 지하주차장 1층",
    "address": "전라남도 목포시 영산로 495 (상동)",
    "lat": 34.80993633785084,
    "lng": 126.41676025451753,
    "region": "전라남도"
  },
  {
    "name": "초원용해빌라 지하 1층",
    "address": "전라남도 목포시 산정로238번길 56 (용당동, 초원용해빌라)",
    "lat": 34.810180208981656,
    "lng": 126.3943732346357,
    "region": "전라남도"
  },
  {
    "name": "목포시청 충무시설 지하 2층",
    "address": "전라남도 목포시 양을로 203 (용당동)",
    "lat": 34.811334157145176,
    "lng": 126.39229683891644,
    "region": "전라남도"
  },
  {
    "name": "KT 목포지사 지하주차장 1층~2층",
    "address": "전라남도 목포시 통일대로119번길 81 (옥암동, 전화국)",
    "lat": 34.80863437625543,
    "lng": 126.43238920450196,
    "region": "전라남도"
  },
  {
    "name": "해동교회 지하 1층",
    "address": "전라남도 목포시 죽교천로 7 (죽교동)",
    "lat": 34.799024792139384,
    "lng": 126.37890096032582,
    "region": "전라남도"
  },
  {
    "name": "연산주공3단지아파트 306동 앞 지하주차장 1층",
    "address": "전라남도 목포시 원산중앙로 87 (연산동, 연산주공아파트)",
    "lat": 34.81174842881566,
    "lng": 126.3802589112042,
    "region": "전라남도"
  },
  {
    "name": "연산주공3단지아파트 314동 앞 지하주차장 1층",
    "address": "전라남도 목포시 원산중앙로 87 (연산동, 연산주공아파트)",
    "lat": 34.81174842881566,
    "lng": 126.3802589112042,
    "region": "전라남도"
  },
  {
    "name": "연산주공3단지아파트 310동 앞 지하주차장 1층",
    "address": "전라남도 목포시 원산중앙로 87 (연산동, 연산주공아파트)",
    "lat": 34.81174842881566,
    "lng": 126.3802589112042,
    "region": "전라남도"
  },
  {
    "name": "연산주공4단지아파트 지하주차장 1층",
    "address": "전라남도 목포시 원산중앙로 87 (연산동, 연산주공아파트)",
    "lat": 34.81174842881566,
    "lng": 126.3802589112042,
    "region": "전라남도"
  },
  {
    "name": "연산주공5단지아파트 501동 앞 지하주차장 1층",
    "address": "전라남도 목포시 원산중앙로 109-1 (연산동, 연산주공5단지아파트)",
    "lat": 34.813556004471025,
    "lng": 126.38142832346912,
    "region": "전라남도"
  },
  {
    "name": "연산주공5단지아파트 505동 앞 지하주차장 1층",
    "address": "전라남도 목포시 원산중앙로 109-1 (연산동, 연산주공5단지아파트)",
    "lat": 34.813556004471025,
    "lng": 126.38142832346912,
    "region": "전라남도"
  },
  {
    "name": "카톨릭대학교 식당 지하 1층",
    "address": "전라남도 목포시 영산로 697 (석현동)",
    "lat": 34.82613748286215,
    "lng": 126.42007371051444,
    "region": "전라남도"
  },
  {
    "name": "거성파크빌라 2차 지하 1층",
    "address": "전라남도 목포시 산정로238번길 35 (용당동, 거성파크2차)",
    "lat": 34.809901048455,
    "lng": 126.39220495875796,
    "region": "전라남도"
  },
  {
    "name": "광동상가아파트 지하주차장 1층",
    "address": "전라남도 목포시 수강로12번길 44 (광동2가, 광동상가아파트)",
    "lat": 34.788744846781604,
    "lng": 126.38861430760336,
    "region": "전라남도"
  },
  {
    "name": "소암아파트 지하주차장 1층",
    "address": "전라남도 목포시 원산주택로 30 (산정동, 소암아파트)",
    "lat": 34.80892981183495,
    "lng": 126.37508584814536,
    "region": "전라남도"
  },
  {
    "name": "대송에이스빌아파트 101동 지하",
    "address": "전라남도 목포시 고하대로 707 (산정동, 대송에이스빌)",
    "lat": 34.8103210764287,
    "lng": 126.37347483671716,
    "region": "전라남도"
  },
  {
    "name": "목포시청년일자리통합센터(지하주차장1층)",
    "address": "전라남도 목포시 해안로237번길 33 (복만동, 목포시도시개발사업단)",
    "lat": 34.78780480027037,
    "lng": 126.38475167759006,
    "region": "전라남도"
  },
  {
    "name": "고려모텔 지하주차장 1층",
    "address": "전라남도 목포시 해안로 165 (해안동2가)",
    "lat": 34.78228983076976,
    "lng": 126.38197652843132,
    "region": "전라남도"
  },
  {
    "name": "송광비치타운아파트 101동 앞 지하주차장1층",
    "address": "전라남도 목포시 유동로 7 (해안동4가)",
    "lat": 34.782369429578274,
    "lng": 126.3808414184662,
    "region": "전라남도"
  },
  {
    "name": "전남서부보훈지청 지하1층",
    "address": "전라남도 목포시 관해로 29 (용해동)",
    "lat": 34.819214101455046,
    "lng": 126.40165908051888,
    "region": "전라남도"
  },
  {
    "name": "대성교회 지하1층",
    "address": "전라남도 목포시 용당로305번길 9 (용해동)",
    "lat": 34.8147818103832,
    "lng": 126.39929640869556,
    "region": "전라남도"
  },
  {
    "name": "라이프아파트 1동 지하1층",
    "address": "전라남도 목포시 용당로 323 (용해동, 용해라이프아파트)",
    "lat": 34.81554034543094,
    "lng": 126.39999611049146,
    "region": "전라남도"
  },
  {
    "name": "라이프아파트 3동 지하1층",
    "address": "전라남도 목포시 용당로 323 (용해동, 용해라이프아파트)",
    "lat": 34.81554034543094,
    "lng": 126.39999611049146,
    "region": "전라남도"
  },
  {
    "name": "라이프아파트 5동 지하1층",
    "address": "전라남도 목포시 용당로 323 (용해동, 용해라이프아파트)",
    "lat": 34.81554034543094,
    "lng": 126.39999611049146,
    "region": "전라남도"
  },
  {
    "name": "용해신용협동조합 지하1층",
    "address": "전라남도 목포시 용당로 308 (용해동, 용해신용협동조합)",
    "lat": 34.814360031267434,
    "lng": 126.40026420593192,
    "region": "전라남도"
  },
  {
    "name": "청산푸른아파트 101동 지하1층",
    "address": "전라남도 목포시 온남길 25 (용해동, 청산푸른아파트)",
    "lat": 34.81443632937542,
    "lng": 126.40275179149228,
    "region": "전라남도"
  },
  {
    "name": "청산푸른아파트 102동 지하1층",
    "address": "전라남도 목포시 온남길 25 (용해동, 청산푸른아파트)",
    "lat": 34.81443632937542,
    "lng": 126.40275179149228,
    "region": "전라남도"
  },
  {
    "name": "호반리젠시빌아파트 지하주차장1동 지하주차장 1층",
    "address": "전라남도 목포시 영산로535번길 6 (상동, 호반리젠시빌)",
    "lat": 34.81385058979493,
    "lng": 126.41817277596556,
    "region": "전라남도"
  },
  {
    "name": "호반리젠시빌아파트 지하주차장2동 지하주차장 1층",
    "address": "전라남도 목포시 영산로535번길 6 (상동, 호반리젠시빌)",
    "lat": 34.81385058979493,
    "lng": 126.41817277596556,
    "region": "전라남도"
  },
  {
    "name": "호반리젠시빌아파트 지하주차장3동 지하주차장 1층",
    "address": "전라남도 목포시 영산로535번길 6 (상동, 호반리젠시빌)",
    "lat": 34.81385058979493,
    "lng": 126.41817277596556,
    "region": "전라남도"
  },
  {
    "name": "우미블루빌아파트 301동과 303동 사이 지하주차장1층",
    "address": "전라남도 목포시 평화로153번길 1 (옥암동, 우미블루빌아파트)",
    "lat": 34.80113153163082,
    "lng": 126.43613885146392,
    "region": "전라남도"
  },
  {
    "name": "우미블루빌아파트 303동과 305동 사이 지하주차장1층",
    "address": "전라남도 목포시 평화로153번길 1 (옥암동, 우미블루빌아파트)",
    "lat": 34.80113153163082,
    "lng": 126.43613885146392,
    "region": "전라남도"
  },
  {
    "name": "우미오션빌아파트 601동과 603동 사이 지하주차장1층",
    "address": "전라남도 목포시 평화로107번길 16 (옥암동, 우미오션빌)",
    "lat": 34.799669086831315,
    "lng": 126.43613526177334,
    "region": "전라남도"
  },
  {
    "name": "우미오션빌아파트 603동과 605동 사이 지하주차장1층",
    "address": "전라남도 목포시 평화로107번길 16 (옥암동, 우미오션빌)",
    "lat": 34.799669086831315,
    "lng": 126.43613526177334,
    "region": "전라남도"
  },
  {
    "name": "제일아파트 101동과 102동 사이 지하주차장 1층",
    "address": "전라남도 목포시 미항로 206 (옥암동, 제일아파트)",
    "lat": 34.80007623513274,
    "lng": 126.43931901397234,
    "region": "전라남도"
  },
  {
    "name": "제일아파트 102동과 103동 사이 지하주차장 1층",
    "address": "전라남도 목포시 미항로 206 (옥암동, 제일아파트)",
    "lat": 34.80007623513274,
    "lng": 126.43931901397234,
    "region": "전라남도"
  },
  {
    "name": "제일아파트 103동과 105동 사이 지하주차장 1층",
    "address": "전라남도 목포시 미항로 206 (옥암동, 제일아파트)",
    "lat": 34.80007623513274,
    "lng": 126.43931901397234,
    "region": "전라남도"
  },
  {
    "name": "신흥동 우성아파트 지하주차장 1층",
    "address": "전라남도 목포시 신흥로 13 (상동, 우성아파트)",
    "lat": 34.80187639434128,
    "lng": 126.4225607056126,
    "region": "전라남도"
  },
  {
    "name": "신흥동 삼성아파트 지하주차장 1층",
    "address": "전라남도 목포시 부흥로 12 (상동, 삼성아파트)",
    "lat": 34.80027518192176,
    "lng": 126.42345250760056,
    "region": "전라남도"
  },
  {
    "name": "신흥동 현대아파트 지하주차장1(101동앞)지하주차장1층",
    "address": "전라남도 목포시 통일대로37번길 33 (상동, 하당현대아파트)",
    "lat": 34.80137142366103,
    "lng": 126.42694984158562,
    "region": "전라남도"
  },
  {
    "name": "신흥동 현대아파트 지하주차장2(102동앞)지하주차장1층",
    "address": "전라남도 목포시 통일대로37번길 33 (상동, 하당현대아파트)",
    "lat": 34.80137142366103,
    "lng": 126.42694984158562,
    "region": "전라남도"
  },
  {
    "name": "신흥동 현대아파트 지하주차장3(105동앞)지하주차장1층",
    "address": "전라남도 목포시 통일대로37번길 33 (상동, 하당현대아파트)",
    "lat": 34.80137142366103,
    "lng": 126.42694984158562,
    "region": "전라남도"
  },
  {
    "name": "신흥동 현대아파트 지하주차장4(106동앞)지하주차장1층",
    "address": "전라남도 목포시 통일대로37번길 33 (상동, 하당현대아파트)",
    "lat": 34.80137142366103,
    "lng": 126.42694984158562,
    "region": "전라남도"
  },
  {
    "name": "신흥동 꿈동산신안아파트 지하주차장1(지하주차장1층)",
    "address": "전라남도 목포시 하당로 14 (상동, 꿈동산신안아파트)",
    "lat": 34.79797219371581,
    "lng": 126.42401574052788,
    "region": "전라남도"
  },
  {
    "name": "신흥동 꿈동산신안아파트 지하주차장2(지하주차장1층)",
    "address": "전라남도 목포시 하당로 14 (상동, 꿈동산신안아파트)",
    "lat": 34.79797219371581,
    "lng": 126.42401574052788,
    "region": "전라남도"
  },
  {
    "name": "우미파크빌아파트 지하주차장1(지하주차장 1층)",
    "address": "전라남도 목포시 평화로20번길 11 (상동, 우미파크빌)",
    "lat": 34.79584380271645,
    "lng": 126.4274221311442,
    "region": "전라남도"
  },
  {
    "name": "우미파크빌아파트 지하주차장2(지하주차장 1층)",
    "address": "전라남도 목포시 평화로20번길 11 (상동, 우미파크빌)",
    "lat": 34.79584380271645,
    "lng": 126.4274221311442,
    "region": "전라남도"
  },
  {
    "name": "목포교육청 지하주차장 1층",
    "address": "전라남도 목포시 교육로 5 (상동, 목포시교육청)",
    "lat": 34.79823001910366,
    "lng": 126.423144293319,
    "region": "전라남도"
  },
  {
    "name": "롯데슈퍼 지하주차장 1층",
    "address": "전라남도 목포시 비파로43번길 37 (상동)",
    "lat": 34.80076145205406,
    "lng": 126.42356021583662,
    "region": "전라남도"
  },
  {
    "name": "비바체 지하주차장 1층",
    "address": "전라남도 목포시 장미로 25 (상동)",
    "lat": 34.80185330423977,
    "lng": 126.42414234704388,
    "region": "전라남도"
  },
  {
    "name": "풋마트 지하주차장 1층",
    "address": "전라남도 목포시 비파로 37 (상동)",
    "lat": 34.80198660281613,
    "lng": 126.42731162855544,
    "region": "전라남도"
  },
  {
    "name": "농협은행 신목포지점 지하주차장 1층",
    "address": "전라남도 목포시 비파로 34 (상동)",
    "lat": 34.80188292430912,
    "lng": 126.42781909121273,
    "region": "전라남도"
  },
  {
    "name": "서남빌딩 지하주차장 1층",
    "address": "전라남도 목포시 비파로 21, 서남빌딩 (상동)",
    "lat": 34.80071831538764,
    "lng": 126.42819164791509,
    "region": "전라남도"
  },
  {
    "name": "연산동 근화밀레니엄빌리지 103동 지하",
    "address": "전라남도 목포시 산정로 268 (산정동, 근화밀레니엄빌리지)",
    "lat": 34.81129714869719,
    "lng": 126.38722367812302,
    "region": "전라남도"
  },
  {
    "name": "콘티넨탈 모텔 지하주차장 1층",
    "address": "전라남도 목포시 북항로 149 (죽교동)",
    "lat": 34.80199806733638,
    "lng": 126.36844457925446,
    "region": "전라남도"
  },
  {
    "name": "라이프아파트 2동 지하1층",
    "address": "전라남도 목포시 용당로 323 (용해동, 용해라이프아파트)",
    "lat": 34.81554034543094,
    "lng": 126.39999611049146,
    "region": "전라남도"
  },
  {
    "name": "조선비치모텔 지하주차장 1층",
    "address": "전라남도 목포시 해안로 167 (해안동2가)",
    "lat": 34.78231441503865,
    "lng": 126.38214017864884,
    "region": "전라남도"
  },
  {
    "name": "종원나이스빌아파트 101동 지하 1~2층",
    "address": "전라남도 목포시 양을로 121 (산정동, 종원나이스빌)",
    "lat": 34.80746916129039,
    "lng": 126.38548524627797,
    "region": "전라남도"
  },
  {
    "name": "종원나이스빌아파트 102동 지하 1~2층",
    "address": "전라남도 목포시 양을로 121 (산정동, 종원나이스빌)",
    "lat": 34.80746916129039,
    "lng": 126.38548524627797,
    "region": "전라남도"
  },
  {
    "name": "종원나이스빌아파트 103동 지하 1~2층",
    "address": "전라남도 목포시 양을로 121 (산정동, 종원나이스빌)",
    "lat": 34.80746916129039,
    "lng": 126.38548524627797,
    "region": "전라남도"
  },
  {
    "name": "종원나이스빌아파트 104동 지하 1~2층",
    "address": "전라남도 목포시 양을로 121 (산정동, 종원나이스빌)",
    "lat": 34.80746916129039,
    "lng": 126.38548524627797,
    "region": "전라남도"
  },
  {
    "name": "제일3차아파트 지하주차장(1) 1층(301동 앞)",
    "address": "전라남도 목포시 하당로289번길 6 (옥암동, 제일3차풍경채아파트)",
    "lat": 34.812319357451194,
    "lng": 126.42702166505978,
    "region": "전라남도"
  },
  {
    "name": "제일3차아파트 지하주차장(2) 1층",
    "address": "전라남도 목포시 하당로289번길 6 (옥암동, 제일3차풍경채아파트)",
    "lat": 34.812319357451194,
    "lng": 126.42702166505978,
    "region": "전라남도"
  },
  {
    "name": "종원나이스빌아파트 106동 107동 지하 1~2층",
    "address": "전라남도 목포시 양을로 121 (산정동, 종원나이스빌)",
    "lat": 34.80746916129039,
    "lng": 126.38548524627797,
    "region": "전라남도"
  },
  {
    "name": "제일2차아파트 지하주차장(1) 1층(207동 앞)",
    "address": "전라남도 목포시 신흥로 113(옥암동, 제일2차하이빌아파트)",
    "lat": 34.806337420201615,
    "lng": 126.43192938998264,
    "region": "전라남도"
  },
  {
    "name": "제일2차아파트 지하주차장(2) 1층(202동)",
    "address": "전라남도 목포시 신흥로 113(옥암동, 제일2차하이빌아파트)",
    "lat": 34.806337420201615,
    "lng": 126.43192938998264,
    "region": "전라남도"
  },
  {
    "name": "용일비치맨션 지하 1층",
    "address": "전라남도 목포시 남해로 87 (산정동, 용일비치맨션)",
    "lat": 34.7902571611273,
    "lng": 126.40530141663602,
    "region": "전라남도"
  },
  {
    "name": "근화황제맨션 102동 지하1층",
    "address": "전라남도 목포시 남해로 77 (산정동, 근화황제맨션)",
    "lat": 34.79018725656853,
    "lng": 126.4043416063633,
    "region": "전라남도"
  },
  {
    "name": "근화황제맨션 101동 지하1층",
    "address": "전라남도 목포시 남해로 73 (산정동, 근화황제맨션)",
    "lat": 34.79018426296334,
    "lng": 126.40383258570432,
    "region": "전라남도"
  },
  {
    "name": "자유시장 지하주차장 1층",
    "address": "전라남도 목포시 자유로 122 (산정동)",
    "lat": 34.793260379619845,
    "lng": 126.40292801482192,
    "region": "전라남도"
  },
  {
    "name": "목포복음교회 선교교육관 지하1층",
    "address": "전라남도 목포시 자유로71번길 11 (산정동)",
    "lat": 34.79467137545607,
    "lng": 126.39745024620429,
    "region": "전라남도"
  },
  {
    "name": "한울웨딩문화원 지하주차장 1층",
    "address": "전라남도 목포시 용당로 25 (산정동, 한울웨딩문화원)",
    "lat": 34.78983088242792,
    "lng": 126.40178450765596,
    "region": "전라남도"
  },
  {
    "name": "신안비치아파트 2차 지하주차장 1층",
    "address": "전라남도 목포시 고하대로 641-10 (산정동, 신안비치2차아파트)",
    "lat": 34.80637095105313,
    "lng": 126.36835586367673,
    "region": "전라남도"
  },
  {
    "name": "신안비치아파트 3차 지하주차장 1층",
    "address": "전라남도 목포시 고하대로 641-11(산정동, 신안비치3차아파트)",
    "lat": 34.806305897403135,
    "lng": 126.36805085951198,
    "region": "전라남도"
  },
  {
    "name": "한광프라임빌 아파트 지하주차장 1층",
    "address": "전라남도 목포시 영산로692번길 8 (석현동, 한광프라임빌)",
    "lat": 34.827138646600964,
    "lng": 126.42242993773075,
    "region": "전라남도"
  },
  {
    "name": "목포해양대학교 본부 본관건물 지하 1층",
    "address": "전라남도 목포시 해양대학로 91 (죽교동)",
    "lat": 34.790300910663944,
    "lng": 126.36603598849052,
    "region": "전라남도"
  },
  {
    "name": "국민은행 지하주차장 1층",
    "address": "전라남도 목포시 백년대로 310 (상동)",
    "lat": 34.804158167892325,
    "lng": 126.4215932023664,
    "region": "전라남도"
  },
  {
    "name": "하나노인복지관 지하주차장 1층",
    "address": "전라남도 목포시 해안로229번길 9-1 (영해동1가)",
    "lat": 34.78624392137817,
    "lng": 126.38596989906593,
    "region": "전라남도"
  },
  {
    "name": "용당유통프라자 지하주차장1층",
    "address": "전라남도 목포시 산정로128번길 33 (용당동, 용당유통프라자)",
    "lat": 34.801593529314175,
    "lng": 126.39606345638838,
    "region": "전라남도"
  },
  {
    "name": "용해포미주공1단지아파트 102동앞 지하주차장 지하1층",
    "address": "전라남도 목포시 포미로 23 (용해동, 포미타운주공1단지)",
    "lat": 34.818088793109766,
    "lng": 126.39754423228818,
    "region": "전라남도"
  },
  {
    "name": "용해포미주공1단지아파트 109동앞 지하주차장 지하1층",
    "address": "전라남도 목포시 포미로 23 (용해동, 포미타운주공1단지)",
    "lat": 34.818088793109766,
    "lng": 126.39754423228818,
    "region": "전라남도"
  },
  {
    "name": "용해포미주공3단지아파트 303동 앞 지하주차장 지하1층",
    "address": "전라남도 목포시 관해로5번길 29 (용해동, 포미타운주공3단지)",
    "lat": 34.81972994513136,
    "lng": 126.3998964217642,
    "region": "전라남도"
  },
  {
    "name": "용해호반리젠시빌스위트아파트 201동지하주차장 지하1층",
    "address": "전라남도 목포시 용당로331번길 88 (용해동, 호반리젠시빌스위트)",
    "lat": 34.816602366025634,
    "lng": 126.39383878954465,
    "region": "전라남도"
  },
  {
    "name": "천주교대성동교회 지하1층",
    "address": "전라남도 목포시 양을로33번길 6 (산정동)",
    "lat": 34.801658603823,
    "lng": 126.37999408527808,
    "region": "전라남도"
  },
  {
    "name": "광명샤인빌2차아파트 지하주차장 1층",
    "address": "전라남도 목포시 옥암로 165 (상동, 광명샤인빌2차)",
    "lat": 34.812996411413984,
    "lng": 126.42268245621514,
    "region": "전라남도"
  },
  {
    "name": "빌리앙뜨아파트 1동 지하주차장 1층",
    "address": "전라남도 목포시 옥암로 174 (석현동, 케이디빌리앙뜨)",
    "lat": 34.813871375437145,
    "lng": 126.42253527394882,
    "region": "전라남도"
  },
  {
    "name": "빌리앙뜨아파트 2동 지하주차장 1층",
    "address": "전라남도 목포시 옥암로 174 (석현동, 케이디빌리앙뜨)",
    "lat": 34.813871375437145,
    "lng": 126.42253527394882,
    "region": "전라남도"
  },
  {
    "name": "빌리앙뜨아파트 3동 지하주차장 1층",
    "address": "전라남도 목포시 옥암로 174 (석현동, 케이디빌리앙뜨)",
    "lat": 34.813871375437145,
    "lng": 126.42253527394882,
    "region": "전라남도"
  },
  {
    "name": "광명샤인빌1차아파트 1동 지하주차장 1층",
    "address": "전라남도 목포시 석현로 42 (석현동, 광명샤인빌)",
    "lat": 34.81674341303344,
    "lng": 126.4254575297714,
    "region": "전라남도"
  },
  {
    "name": "광명샤인빌1차아파트 2동 지하주차장 1층",
    "address": "전라남도 목포시 석현로 42 (석현동, 광명샤인빌)",
    "lat": 34.81674341303344,
    "lng": 126.4254575297714,
    "region": "전라남도"
  },
  {
    "name": "양우비치팰리스아파트 지하주차장 1층",
    "address": "전라남도 목포시 원형서로 46-1 (상동, 양우비치팰리스)",
    "lat": 34.79643317283229,
    "lng": 126.43066234972136,
    "region": "전라남도"
  },
  {
    "name": "샹그리아비치호텔 지하주차장 1층",
    "address": "전라남도 목포시 평화로 79 (상동, 샹그리아비치호텔)",
    "lat": 34.79699988765089,
    "lng": 126.4334429993906,
    "region": "전라남도"
  },
  {
    "name": "CGV목포평화광장 지하주차장 1층",
    "address": "전라남도 목포시 원형동로 53, 롯데시네마목포8 (상동)",
    "lat": 34.79921209339814,
    "lng": 126.43305271112256,
    "region": "전라남도"
  },
  {
    "name": "신안비치팔레스1차아파트지하주차장",
    "address": "전라남도 목포시 청호로 206 (산정동, 신안비치팔레스)",
    "lat": 34.80839318694007,
    "lng": 126.3711100931676,
    "region": "전라남도"
  },
  {
    "name": "신안비치팔레스2차아파트 지하주차장",
    "address": "전라남도 목포시 청호로220번길 5 (산정동, 신안비치팔레스2차아파트)",
    "lat": 34.80971202127054,
    "lng": 126.37032673122528,
    "region": "전라남도"
  },
  {
    "name": "목포우체국 지하1층",
    "address": "전라남도 목포시 영산로 288 (용당동, 목포우체국)",
    "lat": 34.804781510186835,
    "lng": 126.39731146595864,
    "region": "전라남도"
  },
  {
    "name": "목포사랑의교회 지하주차장 1층",
    "address": "전라남도 목포시 복산길6번길 7 (옥암동, 목포사랑의교회)",
    "lat": 34.80352814848192,
    "lng": 126.43728249396985,
    "region": "전라남도"
  },
  {
    "name": "부영애시앙 101동과 104동 사이 지하주차장 1층",
    "address": "전라남도 목포시 당가두로13번길 9 (옥암동, 부영애시앙)",
    "lat": 34.80878607355388,
    "lng": 126.4368659726548,
    "region": "전라남도"
  },
  {
    "name": "부영애시앙 102동과 105동 사이 지하주차장 1층",
    "address": "전라남도 목포시 당가두로13번길 9 (옥암동, 부영애시앙)",
    "lat": 34.80878607355388,
    "lng": 126.4368659726548,
    "region": "전라남도"
  },
  {
    "name": "부영애시앙 103동과 106동 사이 지하주차장 1층",
    "address": "전라남도 목포시 당가두로13번길 9 (옥암동, 부영애시앙)",
    "lat": 34.80878607355388,
    "lng": 126.4368659726548,
    "region": "전라남도"
  },
  {
    "name": "부영애시앙 105동과 107동 사이 지하주차장 1층",
    "address": "전라남도 목포시 당가두로13번길 9 (옥암동, 부영애시앙)",
    "lat": 34.80878607355388,
    "lng": 126.4368659726548,
    "region": "전라남도"
  },
  {
    "name": "부영애시앙 107동과 108동 사이 지하주차장 1층",
    "address": "전라남도 목포시 당가두로13번길 9 (옥암동, 부영애시앙)",
    "lat": 34.80878607355388,
    "lng": 126.4368659726548,
    "region": "전라남도"
  },
  {
    "name": "부영애시앙 109동과 110동 사이 지하주차장 1층",
    "address": "전라남도 목포시 당가두로13번길 9 (옥암동, 부영애시앙)",
    "lat": 34.80878607355388,
    "lng": 126.4368659726548,
    "region": "전라남도"
  },
  {
    "name": "코아루아파트 101동과 102동 사이 지하주차장 1층",
    "address": "전라남도 목포시 당가두로13번길 12 (옥암동, 코아루아파트)",
    "lat": 34.80896614206055,
    "lng": 126.436976217815,
    "region": "전라남도"
  },
  {
    "name": "옥암주공아파트 102동과 103동 사이 지하주차장 1층",
    "address": "전라남도 목포시 당가두로38번길 11 (옥암동, 주공아파트)",
    "lat": 34.80961420928757,
    "lng": 126.44039995159568,
    "region": "전라남도"
  },
  {
    "name": "옥암주공아파트 107동과 108동 사이 지하주차장 1층",
    "address": "전라남도 목포시 당가두로38번길 11 (옥암동, 주공아파트)",
    "lat": 34.80961420928757,
    "lng": 126.44039995159568,
    "region": "전라남도"
  },
  {
    "name": "푸르지오아파트 102동과 104동 사이 지하주차장 1층",
    "address": "전라남도 목포시 남악1로 51 (옥암동, 옥암 푸르지오)",
    "lat": 34.809562355408,
    "lng": 126.44508163943463,
    "region": "전라남도"
  },
  {
    "name": "푸르지오아파트 109동 앞 지하주차장 1층",
    "address": "전라남도 목포시 남악1로 51 (옥암동, 옥암 푸르지오)",
    "lat": 34.809562355408,
    "lng": 126.44508163943463,
    "region": "전라남도"
  },
  {
    "name": "한국아델리움아파트 103동 앞 지하주차장 1, 2층",
    "address": "전라남도 목포시 남악1로 15 (옥암동, 목포한국아델리움)",
    "lat": 34.80675503815359,
    "lng": 126.44720242656824,
    "region": "전라남도"
  },
  {
    "name": "남교트윈스타 지하주차장1층",
    "address": "전라남도 목포시 수문로 32 (남교동)",
    "lat": 34.79255939154246,
    "lng": 126.38277439659358,
    "region": "전라남도"
  },
  {
    "name": "목포종합버스터미널 지하 1층",
    "address": "전라남도 목포시 영산로 525 (상동)",
    "lat": 34.81253854106679,
    "lng": 126.41817944146302,
    "region": "전라남도"
  },
  {
    "name": "상동종합사회복지관 지하 1층",
    "address": "전라남도 목포시 상동로 63 (상동, 상동1단지아파트)",
    "lat": 34.814931904712275,
    "lng": 126.41287628080146,
    "region": "전라남도"
  },
  {
    "name": "신안인스빌아파트 101동지하주차장 1층",
    "address": "전라남도 목포시 삼학로 363 (용해동, 신안인스빌아파트)",
    "lat": 34.803214140108594,
    "lng": 126.40875574494254,
    "region": "전라남도"
  },
  {
    "name": "신안인스빌아파트 105동지하주차장 1층",
    "address": "전라남도 목포시 삼학로 363 (용해동, 신안인스빌아파트)",
    "lat": 34.803214140108594,
    "lng": 126.40875574494254,
    "region": "전라남도"
  },
  {
    "name": "신안인스빌아파트 110동지하주차장 1층",
    "address": "전라남도 목포시 삼학로 363 (용해동, 신안인스빌아파트)",
    "lat": 34.803214140108594,
    "lng": 126.40875574494254,
    "region": "전라남도"
  },
  {
    "name": "동아아파트 7동 지하주차장 1층",
    "address": "전라남도 목포시 삼학로 303-3 (용해동, 동아아파트)",
    "lat": 34.797858598736376,
    "lng": 126.40813232750392,
    "region": "전라남도"
  },
  {
    "name": "동아아파트 8동 지하주차장 1층",
    "address": "전라남도 목포시 삼학로 303-3 (용해동, 동아아파트)",
    "lat": 34.797858598736376,
    "lng": 126.40813232750392,
    "region": "전라남도"
  },
  {
    "name": "목포시립도서관 지하1층",
    "address": "전라남도 목포시 용당로160번길 32 (용당동)",
    "lat": 34.80327738809106,
    "lng": 126.40259306203164,
    "region": "전라남도"
  },
  {
    "name": "상아빌딩 지하주차장 1층",
    "address": "전라남도 목포시 장미로 20 (상동, 상아빌딩)",
    "lat": 34.801304612463625,
    "lng": 126.4237668819416,
    "region": "전라남도"
  },
  {
    "name": "옥암 우방아이유쉘아파트 지하주차장 1층",
    "address": "전라남도 목포시 하당로289번길 19 (옥암동, 옥암우방아이유쉘)",
    "lat": 34.813259123414944,
    "lng": 126.42617304926836,
    "region": "전라남도"
  },
  {
    "name": "펠리시아아파트 지하주차장 1층",
    "address": "전라남도 목포시 하당로289번길 7 (옥암동, 옥암펠리시아)",
    "lat": 34.81235525747415,
    "lng": 126.42679971828905,
    "region": "전라남도"
  },
  {
    "name": "신안인스빌아파트 103동 지하주차장 1층",
    "address": "전라남도 목포시 삼학로 363 (용해동, 신안인스빌아파트)",
    "lat": 34.803214140108594,
    "lng": 126.40875574494254,
    "region": "전라남도"
  },
  {
    "name": "대성천년나무아파트 101동~104동 사이 지하주차장1층",
    "address": "전라남도 목포시 양을로 42 (대성동, 목포대성엘에이치천년나무아파트)",
    "lat": 34.801638241048984,
    "lng": 126.38103400327302,
    "region": "전라남도"
  },
  {
    "name": "대성천년나무아파트 105동~108동 사이 지하주차장1층",
    "address": "전라남도 목포시 양을로 42 (대성동, 목포대성엘에이치천년나무아파트)",
    "lat": 34.801638241048984,
    "lng": 126.38103400327302,
    "region": "전라남도"
  },
  {
    "name": "대성천년나무아파트 110동~111동 사이 지하주차장1층",
    "address": "전라남도 목포시 양을로 42 (대성동, 목포대성엘에이치천년나무아파트)",
    "lat": 34.801638241048984,
    "lng": 126.38103400327302,
    "region": "전라남도"
  },
  {
    "name": "상동 현대아파트 지하주차장1 지하주차장 1층",
    "address": "전라남도 목포시 상동로 33 (상동, 상동현대아파트)",
    "lat": 34.81245655078498,
    "lng": 126.4143440845457,
    "region": "전라남도"
  },
  {
    "name": "상동 현대아파트 지하주차장2 지하주차장 1층",
    "address": "전라남도 목포시 상동로 33 (상동, 상동현대아파트)",
    "lat": 34.81245655078498,
    "lng": 126.4143440845457,
    "region": "전라남도"
  },
  {
    "name": "상동 현대아파트 지하주차장3 지하주차장 1층",
    "address": "전라남도 목포시 상동로 33 (상동, 상동현대아파트)",
    "lat": 34.81245655078498,
    "lng": 126.4143440845457,
    "region": "전라남도"
  },
  {
    "name": "상동 현대아파트 지하주차장5 지하주차장 1층",
    "address": "전라남도 목포시 상동로 33 (상동, 상동현대아파트)",
    "lat": 34.81245655078498,
    "lng": 126.4143440845457,
    "region": "전라남도"
  },
  {
    "name": "상동 현대아파트 지하주차장6 지하주차장 1층",
    "address": "전라남도 목포시 상동로 33 (상동, 상동현대아파트)",
    "lat": 34.81245655078498,
    "lng": 126.4143440845457,
    "region": "전라남도"
  },
  {
    "name": "용해호반리젠시빌스위트아파트 205동 지하주차장 지하1층",
    "address": "전라남도 목포시 용당로331번길 88 (용해동, 호반리젠시빌스위트)",
    "lat": 34.81602341870708,
    "lng": 126.39524896762434,
    "region": "전라남도"
  },
  {
    "name": "용해호반리젠시빌스위트아파트 202동 지하주차장 지하1층",
    "address": "전라남도 목포시 용당로331번길 88 (용해동, 호반리젠시빌스위트)",
    "lat": 34.81602341870708,
    "lng": 126.39524896762434,
    "region": "전라남도"
  },
  {
    "name": "목포시종합사회복지관 지하 1층",
    "address": "전라남도 목포시 고하대로 712 (산정동)",
    "lat": 34.80984846613968,
    "lng": 126.37470335493818,
    "region": "전라남도"
  },
  {
    "name": "전라남도교육청공공도서관 지하 1층",
    "address": "전라남도 목포시 원산주택로3번길 6 (산정동, 공공도서관)",
    "lat": 34.80681392390708,
    "lng": 126.3763398831554,
    "region": "전라남도"
  },
  {
    "name": "신안실크밸리7차아파트 지하주차장 1층",
    "address": "전라남도 목포시 청호로219번길 51 (죽교동, 신안실크밸리7차아파트)",
    "lat": 34.80585581020309,
    "lng": 126.3660140341982,
    "region": "전라남도"
  },
  {
    "name": "석현동현대아파트지하주차장 1층",
    "address": "전라남도 목포시 영산로 676-7 (석현동, 현대아파트)",
    "lat": 34.826071712684715,
    "lng": 126.42345943232978,
    "region": "전라남도"
  },
  {
    "name": "라송센트럴카운티3차아파트 지하주차장 1층",
    "address": "전라남도 목포시 석현로45번길 22-10 (석현동, 목포석현동라송센트럴카운티3차아파트)",
    "lat": 34.81924602184073,
    "lng": 126.42632227710462,
    "region": "전라남도"
  },
  {
    "name": "용해동 광신프로그레스 지하주차장 1층",
    "address": "전라남도 목포시 백년대로 147 (용해동, 용해동 광신프로그레스)",
    "lat": 34.79902315244084,
    "lng": 126.40559775382428,
    "region": "전라남도"
  },
  {
    "name": "라송트럴카운티5차아파트 지하주차장 1층",
    "address": "전라남도 목포시 영산로 648-24 (석현동, 라송센트럴카운티5차 아파트)",
    "lat": 34.82114630796201,
    "lng": 126.42475417581905,
    "region": "전라남도"
  },
  {
    "name": "서희스타힐스 지하주차장 1층",
    "address": "전라남도 목포시 영산로 719-29 (석현동, 석현동 서희스타힐스)",
    "lat": 34.82660159170538,
    "lng": 126.41763512283966,
    "region": "전라남도"
  },
  {
    "name": "옥암한국아델리움3차아파트 지하주차장 1층",
    "address": "전라남도 목포시 삼향천로 159 (옥암동, 옥암3차 한국아델리움 센트럴)",
    "lat": 34.81364558607972,
    "lng": 126.4275802841615,
    "region": "전라남도"
  },
  {
    "name": "옥암한국아델리움2차아파트 지하주차장 1층",
    "address": "전라남도 목포시 옥암로 150 (옥암동, 옥암2차 한국아델리움 아파트)",
    "lat": 34.81215180185653,
    "lng": 126.42374692322431,
    "region": "전라남도"
  },
  {
    "name": "(주)홍익타워",
    "address": "전라남도 목포시 산정로 148, (주)홍익타워 (산정동)",
    "lat": 34.8018582726035,
    "lng": 126.393080339661,
    "region": "전라남도"
  },
  {
    "name": "여수지방해양수산청 지하1층",
    "address": "전라남도 여수시 여서1로 107 (여서동, 여수지방해양수산청)",
    "lat": 34.754163872103064,
    "lng": 127.70916545835831,
    "region": "전라남도"
  },
  {
    "name": "민방위 상설 교육장 지하 공간",
    "address": "전라남도 여수시 무선로 71 (선원동, 여선중학교)",
    "lat": 34.76728935275201,
    "lng": 127.65561457378377,
    "region": "전라남도"
  },
  {
    "name": "부영2차아파트 지하1층",
    "address": "전라남도 여수시 소호로 649 (안산동, 부영2차아파트)",
    "lat": 34.760655402846574,
    "lng": 127.65573619047044,
    "region": "전라남도"
  },
  {
    "name": "한화석유사택 지하1층",
    "address": "전라남도 여수시 소호로 513 (소호동, 한화케미칼사택)",
    "lat": 34.74780428470243,
    "lng": 127.65432403670292,
    "region": "전라남도"
  },
  {
    "name": "소호동 금호아파트 지하1층",
    "address": "전라남도 여수시 소호5길 22 (소호동, 금호아파트)",
    "lat": 34.74456106587679,
    "lng": 127.64960992493234,
    "region": "전라남도"
  },
  {
    "name": "시민회관 지하 1층",
    "address": "전라남도 여수시 좌수영로 69 (광무동, 시민회관)",
    "lat": 34.746807000232266,
    "lng": 127.7282118132652,
    "region": "전라남도"
  },
  {
    "name": "광림교회 지하1층",
    "address": "전라남도 여수시 오림3길 12 (오림동)",
    "lat": 34.757597509089614,
    "lng": 127.71405368342673,
    "region": "전라남도"
  },
  {
    "name": "대림산업여수공장 지하1층",
    "address": "전라남도 여수시 여수산단2로 220-10 (화치동)",
    "lat": 34.817032544529795,
    "lng": 127.6555394862886,
    "region": "전라남도"
  },
  {
    "name": "엘지화학 지하1층",
    "address": "전라남도 여수시 여수산단2로 55 (화치동, LG화학(주))",
    "lat": 34.80389263725603,
    "lng": 127.65441927639556,
    "region": "전라남도"
  },
  {
    "name": "신동아 아파트 102동 지하주차장 1층",
    "address": "전라남도 여수시 좌수영로 682-28 (주삼동)",
    "lat": 34.78487678919058,
    "lng": 127.69228842136717,
    "region": "전라남도"
  },
  {
    "name": "성광교회 지하1층",
    "address": "전라남도 여수시 좌수영로 109 (연등동, 여수성광교회)",
    "lat": 34.750001680409646,
    "lng": 127.7271162294544,
    "region": "전라남도"
  },
  {
    "name": "교보생명 지하1층",
    "address": "전라남도 여수시 신월로 804 (서교동, 교보빌딩)",
    "lat": 34.73971576772292,
    "lng": 127.72675654293788,
    "region": "전라남도"
  },
  {
    "name": "여서동 현대건설아파트 101동 지하1층",
    "address": "전라남도 여수시 여서로 134 (여서동, 현대건설아파트)",
    "lat": 34.74842148817072,
    "lng": 127.69684037693077,
    "region": "전라남도"
  },
  {
    "name": "여서동 현대건설아파트 113동 지하 1층",
    "address": "전라남도 여수시 여서로 134 (여서동, 현대건설아파트)",
    "lat": 34.74842148817072,
    "lng": 127.69684037693077,
    "region": "전라남도"
  },
  {
    "name": "여서동 현대건설아파트 107동 지하1층",
    "address": "전라남도 여수시 여서로 134 (여서동, 현대건설아파트)",
    "lat": 34.74842148817072,
    "lng": 127.69684037693077,
    "region": "전라남도"
  },
  {
    "name": "문수동 부영 아파트 907동 지하1층",
    "address": "전라남도 여수시 여문2로 61 (문수동, 부영9차아파트)",
    "lat": 34.75366874017251,
    "lng": 127.69217986793912,
    "region": "전라남도"
  },
  {
    "name": "문수동 주공 아파트 103동 지하1층",
    "address": "전라남도 여수시 여문2로 11 (문수동, 주공아파트)",
    "lat": 34.74946129641587,
    "lng": 127.69362552571944,
    "region": "전라남도"
  },
  {
    "name": "문수동 부영 아파트 1001동 지하1층",
    "address": "전라남도 여수시 여문2로 62 (문수동, 부영아파트)",
    "lat": 34.753467679166455,
    "lng": 127.69231950970638,
    "region": "전라남도"
  },
  {
    "name": "문수동 부영 아파트 1002동 지하1층",
    "address": "전라남도 여수시 여문2로 62 (문수동, 부영아파트)",
    "lat": 34.753467679166455,
    "lng": 127.69231950970638,
    "region": "전라남도"
  },
  {
    "name": "여서동 현대산업아파트 301동 지하1층",
    "address": "전라남도 여수시 여문2로 197 (여서동, 현대산업3차아파트)",
    "lat": 34.74930265366695,
    "lng": 127.70391286872211,
    "region": "전라남도"
  },
  {
    "name": "미평동 주공아파트 101동 지하1층",
    "address": "전라남도 여수시 미평로 77 (미평동, 미평주공아파트)",
    "lat": 34.76990212767029,
    "lng": 127.70905353432508,
    "region": "전라남도"
  },
  {
    "name": "미평동 주공아파트 102동 지하1층",
    "address": "전라남도 여수시 미평로 77 (미평동, 미평주공아파트)",
    "lat": 34.76990212767029,
    "lng": 127.70905353432508,
    "region": "전라남도"
  },
  {
    "name": "미평동 주공아파트 103동 지하1층",
    "address": "전라남도 여수시 미평로 77 (미평동, 미평주공아파트)",
    "lat": 34.76990212767029,
    "lng": 127.70905353432508,
    "region": "전라남도"
  },
  {
    "name": "미평동 주공아파트 201동 지하1층",
    "address": "전라남도 여수시 미평로 77 (미평동, 미평주공아파트)",
    "lat": 34.76990212767029,
    "lng": 127.70905353432508,
    "region": "전라남도"
  },
  {
    "name": "미평동 주공아파트 202동 지하1층",
    "address": "전라남도 여수시 미평로 77 (미평동, 미평주공아파트)",
    "lat": 34.76990212767029,
    "lng": 127.70905353432508,
    "region": "전라남도"
  },
  {
    "name": "미평동 주공아파트 203동 지하1층",
    "address": "전라남도 여수시 미평로 77 (미평동, 미평주공아파트)",
    "lat": 34.76990212767029,
    "lng": 127.70905353432508,
    "region": "전라남도"
  },
  {
    "name": "미평동 주공아파트 204동 지하1층",
    "address": "전라남도 여수시 미평로 77 (미평동, 미평주공아파트)",
    "lat": 34.76990212767029,
    "lng": 127.70905353432508,
    "region": "전라남도"
  },
  {
    "name": "미평동 주공아파트 205동 지하1층",
    "address": "전라남도 여수시 미평로 77 (미평동, 미평주공아파트)",
    "lat": 34.76990212767029,
    "lng": 127.70905353432508,
    "region": "전라남도"
  },
  {
    "name": "귀인그린파크아파트 지하1층",
    "address": "전라남도 여수시 덕충2길 37 (덕충동, 귀인그린파크아파트)",
    "lat": 34.75514019113264,
    "lng": 127.73724894442626,
    "region": "전라남도"
  },
  {
    "name": "국동 중앙아파트 1동 지하1층",
    "address": "전라남도 여수시 구봉산길 52 (국동, 국동중앙아파트)",
    "lat": 34.736529327327624,
    "lng": 127.71523050696734,
    "region": "전라남도"
  },
  {
    "name": "신월동 금호아파트 11동 지하1층",
    "address": "전라남도 여수시 신월로 561-8 (신월동, 금호아파트단지)",
    "lat": 34.72447289997698,
    "lng": 127.70797223892453,
    "region": "전라남도"
  },
  {
    "name": "신월동 대주아파트 104동 지하1층",
    "address": "전라남도 여수시 신월2길 35 (신월동, 대주아파트)",
    "lat": 34.72819983315117,
    "lng": 127.71250925453148,
    "region": "전라남도"
  },
  {
    "name": "여천동 남양아파트 203동 지하1층",
    "address": "전라남도 여수시 무선2길 27 (선원동, 남양아파트)",
    "lat": 34.77110905678378,
    "lng": 127.65128524667652,
    "region": "전라남도"
  },
  {
    "name": "여천동 남양아파트 204동 지하1층",
    "address": "전라남도 여수시 무선2길 27 (선원동, 남양아파트)",
    "lat": 34.77110905678378,
    "lng": 127.65128524667652,
    "region": "전라남도"
  },
  {
    "name": "여천동 부영아파트 206동 지하1층",
    "address": "전라남도 여수시 도원로 215 (선원동, 부영맨션)",
    "lat": 34.76123763731193,
    "lng": 127.6550825030646,
    "region": "전라남도"
  },
  {
    "name": "여천동 대주아파트 지하1층",
    "address": "전라남도 여수시 무선1길 20 (선원동, 대주아파트)",
    "lat": 34.77093676699816,
    "lng": 127.65389770522448,
    "region": "전라남도"
  },
  {
    "name": "해태동백타운 지하주차장 1층",
    "address": "전라남도 여수시 봉강서1길 38 (봉강동, 해태동백타운)",
    "lat": 34.74258544095012,
    "lng": 127.72009516874796,
    "region": "전라남도"
  },
  {
    "name": "코아루수 아파트 101동 지하1층",
    "address": "전라남도 여수시 여문2로 54-26 (문수동, 문수코아루수아파트)",
    "lat": 34.75338753978108,
    "lng": 127.69476893638654,
    "region": "전라남도"
  },
  {
    "name": "피오레 아파트 102동 지하 1층",
    "address": "전라남도 여수시 문수1길 26 (문수동, 피오레아파트)",
    "lat": 34.756877994730445,
    "lng": 127.70387260409484,
    "region": "전라남도"
  },
  {
    "name": "문수그린아파트 202동 지하1층",
    "address": "전라남도 여수시 문수북5길 16 (문수동, 문수그린아파트)",
    "lat": 34.757096916971314,
    "lng": 127.7112452668989,
    "region": "전라남도"
  },
  {
    "name": "문수그린아파트 201동 지하1층",
    "address": "전라남도 여수시 문수북5길 16 (문수동, 문수그린아파트)",
    "lat": 34.757096916971314,
    "lng": 127.7112452668989,
    "region": "전라남도"
  },
  {
    "name": "남해수산연구소 본관동 지하 1층",
    "address": "전라남도 여수시 화양면 세포당머리길 22 (국립수산과학원남해수산연구)",
    "lat": 34.63054492718067,
    "lng": 127.62599462575176,
    "region": "전라남도"
  },
  {
    "name": "럭키광무아파트 지하1층",
    "address": "전라남도 여수시 좌수영로 191 (광무동)",
    "lat": 34.75535416548446,
    "lng": 127.72339358657956,
    "region": "전라남도"
  },
  {
    "name": "오림동 준성에버빌 지하주차장 1층",
    "address": "전라남도 여수시 진남체육관길 41 (오림동, 준성에버빌)",
    "lat": 34.76058088573729,
    "lng": 127.71984479667496,
    "region": "전라남도"
  },
  {
    "name": "국동 서희스타힐스아파트 111동 지하주차장 1층",
    "address": "전라남도 여수시 신월로 655 (국동, 서희스타힐스)",
    "lat": 34.730181935472324,
    "lng": 127.71642850418672,
    "region": "전라남도"
  },
  {
    "name": "여수중앙요양원 지하1층",
    "address": "전라남도 여수시 봉산남3길 9 (봉산동, 병원)",
    "lat": 34.73405232821467,
    "lng": 127.720787685959,
    "region": "전라남도"
  },
  {
    "name": "엑스포힐스테이트아파트 1단지 지하주차장 1~2층",
    "address": "전라남도 여수시 박람회길 61 (덕충동, 엑스포힐스테이트1단지)",
    "lat": 34.754390004924375,
    "lng": 127.74260390551458,
    "region": "전라남도"
  },
  {
    "name": "엑스포힐스테이트아파트 2단지 지하주차장 1~2층",
    "address": "전라남도 여수시 박람회길 81 (덕충동, 엑스포힐스테이트2단지)",
    "lat": 34.755565801612384,
    "lng": 127.74429656662254,
    "region": "전라남도"
  },
  {
    "name": "죽림휴먼시아 1차 102동 지하주차장 1층",
    "address": "전라남도 여수시 소라면 덕양로 97-9 (죽림휴먼시아)",
    "lat": 34.76822663311245,
    "lng": 127.63592169703902,
    "region": "전라남도"
  },
  {
    "name": "죽림휴먼시아 1차 105동 지하주차장 1층",
    "address": "전라남도 여수시 소라면 덕양로 97-9 (죽림휴먼시아)",
    "lat": 34.76822663311245,
    "lng": 127.63592169703902,
    "region": "전라남도"
  },
  {
    "name": "라온유아파트 지하1층",
    "address": "전라남도 여수시 상암로 16 (둔덕동, 라온유아파트)",
    "lat": 34.78426047732176,
    "lng": 127.69623941883832,
    "region": "전라남도"
  },
  {
    "name": "이순신광장 지하주차장 1층",
    "address": "전라남도 여수시 선어시장길 8 (중앙동)",
    "lat": 34.73939638619445,
    "lng": 127.73654632717856,
    "region": "전라남도"
  },
  {
    "name": "신원아르시스아파트 지하1층",
    "address": "전라남도 여수시 둔덕1길 14 (둔덕동, 신원아르시스아파트)",
    "lat": 34.76498017873943,
    "lng": 127.70169496857152,
    "region": "전라남도"
  },
  {
    "name": "돌산청솔아파트 101동 지하주차장 1층",
    "address": "전라남도 여수시 돌산읍 강남8길 20 (청솔1차아파트)",
    "lat": 34.721071451504656,
    "lng": 127.74818791491482,
    "region": "전라남도"
  },
  {
    "name": "돌산청솔아파트 102동 지하주차장 1층",
    "address": "전라남도 여수시 돌산읍 강남8길 20 (청솔1차아파트)",
    "lat": 34.721071451504656,
    "lng": 127.74818791491482,
    "region": "전라남도"
  },
  {
    "name": "돌산청솔아파트 103동 지하주차장 1층",
    "address": "전라남도 여수시 돌산읍 강남8길 20 (청솔1차아파트)",
    "lat": 34.721071451504656,
    "lng": 127.74818791491482,
    "region": "전라남도"
  },
  {
    "name": "돌산청솔아파트 104동 지하주차장 1층",
    "address": "전라남도 여수시 돌산읍 강남8길 20 (청솔1차아파트)",
    "lat": 34.721071451504656,
    "lng": 127.74818791491482,
    "region": "전라남도"
  },
  {
    "name": "돌산청솔아파트 201동 지하주차장 1층",
    "address": "전라남도 여수시 돌산읍 강남동로 46-25 (돌산청솔2단지아파트)",
    "lat": 34.717426108082265,
    "lng": 127.75763514118482,
    "region": "전라남도"
  },
  {
    "name": "돌산청솔아파트 205동 지하주차장 1층",
    "address": "전라남도 여수시 돌산읍 강남동로 46-25 (돌산청솔2단지아파트)",
    "lat": 34.717426108082265,
    "lng": 127.75763514118482,
    "region": "전라남도"
  },
  {
    "name": "돌산청솔아파트 301동 지하주차장 1층",
    "address": "전라남도 여수시 돌산읍 강남동로 46-7",
    "lat": 34.718954535048084,
    "lng": 127.7570144006122,
    "region": "전라남도"
  },
  {
    "name": "돌산청솔아파트 302동 지하주차장 1층",
    "address": "전라남도 여수시 돌산읍 강남동로 46-7, 302동",
    "lat": 34.718954535048084,
    "lng": 127.7570144006122,
    "region": "전라남도"
  },
  {
    "name": "돌산청솔아파트 303동 지하주차장 1층",
    "address": "전라남도 여수시 돌산읍 강남동로 46-7 (돌산청솔3단지아파트)",
    "lat": 34.718954535048084,
    "lng": 127.7570144006122,
    "region": "전라남도"
  },
  {
    "name": "쌍봉동 우미오션빌 101동 지하주차장1층",
    "address": "전라남도 여수시 소호7길 28 (소호동, 우미오션빌)",
    "lat": 34.7402896445908,
    "lng": 127.64714521292429,
    "region": "전라남도"
  },
  {
    "name": "쌍봉동 신동아파밀리에 101동 지하주차장 1층",
    "address": "전라남도 여수시 무선로 50 (학동, 신동아파밀리에아파트)",
    "lat": 34.76536546590295,
    "lng": 127.65627017215051,
    "region": "전라남도"
  },
  {
    "name": "쌍봉동 신동아파밀리에 102동 지하주차장 1층",
    "address": "전라남도 여수시 무선로 50 (학동, 신동아파밀리에아파트)",
    "lat": 34.76536546590295,
    "lng": 127.65627017215051,
    "region": "전라남도"
  },
  {
    "name": "쌍봉동 신동아파밀리에 103동 지하주차장 1층",
    "address": "전라남도 여수시 무선로 50 (학동, 신동아파밀리에아파트)",
    "lat": 34.76536546590295,
    "lng": 127.65627017215051,
    "region": "전라남도"
  },
  {
    "name": "쌍봉동 신동아파밀리에 107동 지하주차장 1층",
    "address": "전라남도 여수시 무선로 50 (학동, 신동아파밀리에아파트)",
    "lat": 34.76536546590295,
    "lng": 127.65627017215051,
    "region": "전라남도"
  },
  {
    "name": "쌍봉동 신동아파밀리에 108동 지하주차장 1층",
    "address": "전라남도 여수시 무선로 50 (학동, 신동아파밀리에아파트)",
    "lat": 34.76536546590295,
    "lng": 127.65627017215051,
    "region": "전라남도"
  },
  {
    "name": "쌍봉동 신동아파밀리에 112동 지하주차장 1층",
    "address": "전라남도 여수시 무선로 50 (학동, 신동아파밀리에아파트)",
    "lat": 34.76536546590295,
    "lng": 127.65627017215051,
    "region": "전라남도"
  },
  {
    "name": "쌍봉동 신동아파밀리에 116동 지하주차장 1층",
    "address": "전라남도 여수시 무선로 50 (학동, 신동아파밀리에아파트)",
    "lat": 34.76536546590295,
    "lng": 127.65627017215051,
    "region": "전라남도"
  },
  {
    "name": "쌍봉동 신동아파밀리에 120동 지하주차장 1층",
    "address": "전라남도 여수시 무선로 50 (학동, 신동아파밀리에아파트)",
    "lat": 34.76536546590295,
    "lng": 127.65627017215051,
    "region": "전라남도"
  },
  {
    "name": "우림필유 101동 지하1층",
    "address": "전라남도 여수시 여천체육공원길 52 (신기동, 신기동 우림필유아파트)",
    "lat": 34.75903485906188,
    "lng": 127.67652008446764,
    "region": "전라남도"
  },
  {
    "name": "우림필유 105동 지하1층",
    "address": "전라남도 여수시 여천체육공원길 52 (신기동, 신기동 우림필유아파트)",
    "lat": 34.75903485906188,
    "lng": 127.67652008446764,
    "region": "전라남도"
  },
  {
    "name": "웅천지웰 101동 지하주차장 1층",
    "address": "전라남도 여수시 예울마루로 30 (웅천동, 웅천지웰)",
    "lat": 34.74741992810542,
    "lng": 127.67214013413522,
    "region": "전라남도"
  },
  {
    "name": "웅천지웰 111동 지하주차장 1층",
    "address": "전라남도 여수시 예울마루로 30 (웅천동)",
    "lat": 34.74741992810542,
    "lng": 127.67214013413522,
    "region": "전라남도"
  },
  {
    "name": "신월동 코아루아파트 103동 지하1층",
    "address": "전라남도 여수시 신월2길 11 (신월동, 신월코아루아파트)",
    "lat": 34.72691778483868,
    "lng": 127.7108169211218,
    "region": "전라남도"
  },
  {
    "name": "쌍봉동 부영아파트 502동 지하주차장 1층",
    "address": "전라남도 여수시 도원로 204 (안산동)",
    "lat": 34.760761192260354,
    "lng": 127.65369443155224,
    "region": "전라남도"
  },
  {
    "name": "쌍봉동 부영아파트 503동 지하주차장 1층",
    "address": "전라남도 여수시 도원로 204 (안산동)",
    "lat": 34.760761192260354,
    "lng": 127.65369443155224,
    "region": "전라남도"
  },
  {
    "name": "쌍봉동 부영아파트 504동 지하주차장 1층",
    "address": "전라남도 여수시 도원로 204 (안산동, 부영아파트)",
    "lat": 34.760761192260354,
    "lng": 127.65369443155224,
    "region": "전라남도"
  },
  {
    "name": "쌍봉동 모아미래도 102동 지하주차장 1층",
    "address": "전라남도 여수시 안산1길 136 (안산동, 모아미래도아파트)",
    "lat": 34.7567237284068,
    "lng": 127.6519083193712,
    "region": "전라남도"
  },
  {
    "name": "쌍봉동 모아미래도 103동 지하주차장 1층",
    "address": "전라남도 여수시 안산1길 136 (안산동, 모아미래도아파트)",
    "lat": 34.7567237284068,
    "lng": 127.6519083193712,
    "region": "전라남도"
  },
  {
    "name": "우미린아파트 지하1층",
    "address": "전라남도 여수시 장성1길 37 (안산동, 여수장성우미린아파트)",
    "lat": 34.754421127934144,
    "lng": 127.65283303372594,
    "region": "전라남도"
  },
  {
    "name": "웅천지웰 3차아파트 지하주차장 1층",
    "address": "전라남도 여수시 웅천중앙로 47 (웅천동, 신영웅천지웰3차)",
    "lat": 34.749383643784775,
    "lng": 127.67243768955244,
    "region": "전라남도"
  },
  {
    "name": "웅천지웰 2차아파트 지하주차장",
    "address": "전라남도 여수시 웅천중앙로 33 (웅천동, 웅천지웰2차)",
    "lat": 34.74938300177813,
    "lng": 127.6704462555507,
    "region": "전라남도"
  },
  {
    "name": "여수문화홀 지하1층",
    "address": "전라남도 여수시 시청로 1 (학동, 여수시청본청사)",
    "lat": 34.76114552019101,
    "lng": 127.66218444221838,
    "region": "전라남도"
  },
  {
    "name": "죽림 부영1차아파트 101동 지하주차장 1층",
    "address": "전라남도 여수시 소라면 죽림로 10 (죽림부영1차)",
    "lat": 34.7620067187595,
    "lng": 127.64009228443167,
    "region": "전라남도"
  },
  {
    "name": "죽림 부영1차아파트 113동 지하주차장 1층",
    "address": "전라남도 여수시 소라면 죽림로 10 (죽림부영1차)",
    "lat": 34.7620067187595,
    "lng": 127.64009228443167,
    "region": "전라남도"
  },
  {
    "name": "죽림 부영1차아파트 119동 지하주차장 1층",
    "address": "전라남도 여수시 소라면 죽림로 10 (죽림부영1차)",
    "lat": 34.7620067187595,
    "lng": 127.64009228443167,
    "region": "전라남도"
  },
  {
    "name": "죽림 부영2차아파트 206동 지하주차장 1층",
    "address": "전라남도 여수시 소라면 덕양로 114 (여수죽림사랑으로부영2차)",
    "lat": 34.76934757414022,
    "lng": 127.63796358820004,
    "region": "전라남도"
  },
  {
    "name": "웅천부영1차 102동 지하주차장 1층",
    "address": "전라남도 여수시 웅천로 189, 102동 (웅천동, 여수웅천부영1차)",
    "lat": 34.74004802872874,
    "lng": 127.68395482644604,
    "region": "전라남도"
  },
  {
    "name": "웅천부영1차 108동 지하주차장 1층",
    "address": "전라남도 여수시 웅천로 189 (웅천동, 여수웅천부영1차)",
    "lat": 34.74004802872874,
    "lng": 127.68395482644604,
    "region": "전라남도"
  },
  {
    "name": "웅천부영2차 206동 지하주차장 1층",
    "address": "전라남도 여수시 웅천로 261 (웅천동, 여수웅천부영2차)",
    "lat": 34.7444368879496,
    "lng": 127.68777927681052,
    "region": "전라남도"
  },
  {
    "name": "웅천부영2차 207동 지하주차장 1층",
    "address": "전라남도 여수시 웅천로 261 (웅천동, 여수웅천부영2차)",
    "lat": 34.7444368879496,
    "lng": 127.68777927681052,
    "region": "전라남도"
  },
  {
    "name": "웅천부영2차 211동 지하주차장 1층",
    "address": "전라남도 여수시 웅천로 261 (웅천동, 여수웅천부영2차)",
    "lat": 34.7444368879496,
    "lng": 127.68777927681052,
    "region": "전라남도"
  },
  {
    "name": "웅천부영3차 지하주차장 1층",
    "address": "전라남도 여수시 웅천로 291 (웅천동, 여수웅천부영3차)",
    "lat": 34.74637970207241,
    "lng": 127.6854938446396,
    "region": "전라남도"
  },
  {
    "name": "동양엔파트아파트 101동 지하주차장 1층",
    "address": "전라남도 여수시 율촌면 여순로 1038 (동양엔파트)",
    "lat": 34.88334978249954,
    "lng": 127.57101593573164,
    "region": "전라남도"
  },
  {
    "name": "동양엔파트아파트 102동 지하주차장 1층",
    "address": "전라남도 여수시 율촌면 여순로 1038 (동양엔파트)",
    "lat": 34.88334978249954,
    "lng": 127.57101593573164,
    "region": "전라남도"
  },
  {
    "name": "동양엔파트아파트 103동 지하주차장 1층",
    "address": "전라남도 여수시 율촌면 여순로 1038 (동양엔파트)",
    "lat": 34.88334978249954,
    "lng": 127.57101593573164,
    "region": "전라남도"
  },
  {
    "name": "동양엔파트아파트 104동 지하주차장 1층",
    "address": "전라남도 여수시 율촌면 여순로 1038 (동양엔파트)",
    "lat": 34.88334978249954,
    "lng": 127.57101593573164,
    "region": "전라남도"
  },
  {
    "name": "죽림휴먼시아 2단지 지하주차장",
    "address": "전라남도 여수시 소라면 죽림로 36, 죽림휴먼시아2차",
    "lat": 34.76444793322831,
    "lng": 127.63998976007146,
    "region": "전라남도"
  },
  {
    "name": "여수죽림양우내안애아파트 1단지 지하1주차장",
    "address": "전라남도 여수시 소라면 도원로 80 (죽림 양우내안애아파트)",
    "lat": 34.75925623833727,
    "lng": 127.64008853856116,
    "region": "전라남도"
  },
  {
    "name": "여수죽림양우내안애아파트 1단지 지하2주차장",
    "address": "전라남도 여수시 소라면 도원로 80 (죽림 양우내안애아파트)",
    "lat": 34.75925623833727,
    "lng": 127.64008853856116,
    "region": "전라남도"
  },
  {
    "name": "여수웅천포레나1단지 지하주차장",
    "address": "전라남도 여수시 웅천남8로 24 (웅천동, 포레나 여수 웅천 1단지)",
    "lat": 34.73885577923048,
    "lng": 127.68068008417352,
    "region": "전라남도"
  },
  {
    "name": "여수웅천포레나2단지 지하주차장",
    "address": "전라남도 여수시 웅천남8로 23 (웅천동, 포레나 여수 웅천 2단지)",
    "lat": 34.738984005894686,
    "lng": 127.68087784189672,
    "region": "전라남도"
  },
  {
    "name": "포레나여수웅천더테라스 1단지 지하주차장",
    "address": "전라남도 여수시 웅천남1로 100 (웅천동, 포레나 여수웅천 더테라스 1단지)",
    "lat": 34.74152395408598,
    "lng": 127.68123908653013,
    "region": "전라남도"
  },
  {
    "name": "포레나여수웅천더테라스 2단지 지하주차장",
    "address": "전라남도 여수시 웅천남1로 100 (웅천동, 포레나 여수웅천 더테라스 1단지)",
    "lat": 34.74152395408598,
    "lng": 127.68123908653013,
    "region": "전라남도"
  },
  {
    "name": "여수웅천사랑으로부영5차 지하주차장",
    "address": "전라남도 여수시 웅천로 190 (웅천동, 여수웅천사랑으로부영5차아파트)",
    "lat": 34.73977293620197,
    "lng": 127.68383584540396,
    "region": "전라남도"
  },
  {
    "name": "여수엑스포타운시티프라디움아파트 1단지 지하주차장 1층",
    "address": "전라남도 여수시 박람회길 70 (덕충동, 여수엑스포시티프라디움1단지)",
    "lat": 34.75456470202575,
    "lng": 127.74355850525043,
    "region": "전라남도"
  },
  {
    "name": "여수엑스포타운시티프라디움아파트 2단지 지하주차장 1층",
    "address": "전라남도 여수시 덕충안길 84 (덕충동, 여수엑스포타운시티프라다움2단지)",
    "lat": 34.7534990801924,
    "lng": 127.7445764745211,
    "region": "전라남도"
  },
  {
    "name": "여수엑스포타운동성노블힐스아파트 1단지 지하주차장 1층",
    "address": "전라남도 여수시 박람회길 46 (덕충동)",
    "lat": 34.75300195962625,
    "lng": 127.74307513393714,
    "region": "전라남도"
  },
  {
    "name": "여수엑스포타운동성노블힐스아파트 2단지 지하주차장 1층",
    "address": "전라남도 여수시 박람회길 56 (덕충동)",
    "lat": 34.753747421152944,
    "lng": 127.74264931656217,
    "region": "전라남도"
  },
  {
    "name": "국동라인1차아파트 101동 지하주차장",
    "address": "전라남도 여수시 구봉길 79 (국동, 국동라인1차아파트)",
    "lat": 34.73411044429099,
    "lng": 127.7130005133173,
    "region": "전라남도"
  },
  {
    "name": "여수엑스포골드클래스아파트 1지하주차장",
    "address": "전라남도 여수시 관문6길 10 (관문동)",
    "lat": 34.743580049727534,
    "lng": 127.7421146542485,
    "region": "전라남도"
  },
  {
    "name": "여수엑스포골드클래스아파트 2지하주차장",
    "address": "전라남도 여수시 관문6길 10 (관문동)",
    "lat": 34.743580049727534,
    "lng": 127.7421146542485,
    "region": "전라남도"
  },
  {
    "name": "여수엑스포골드클래스아파트 3지하주차장",
    "address": "전라남도 여수시 관문6길 10 (관문동)",
    "lat": 34.743580049727534,
    "lng": 127.7421146542485,
    "region": "전라남도"
  },
  {
    "name": "여수엑스포골드클래스아파트 4지하주차장",
    "address": "전라남도 여수시 관문6길 10 (관문동)",
    "lat": 34.743580049727534,
    "lng": 127.7421146542485,
    "region": "전라남도"
  },
  {
    "name": "여수수정행복주택아파트 지하주차장 1층",
    "address": "전라남도 여수시 이순신광장로 260 (수정동)",
    "lat": 34.74267347468218,
    "lng": 127.74917059873192,
    "region": "전라남도"
  },
  {
    "name": "화장동주공3단지아파트 지하1주차장",
    "address": "전라남도 여수시 덕양로 157 (화장동, 주공3단지아파트)",
    "lat": 34.77328779399117,
    "lng": 127.63768412424618,
    "region": "전라남도"
  },
  {
    "name": "화장동주공3단지아파트 지하2주차장",
    "address": "전라남도 여수시 덕양로 157 (화장동, 주공3단지아파트)",
    "lat": 34.77328779399117,
    "lng": 127.63768412424618,
    "region": "전라남도"
  },
  {
    "name": "대성베르힐 1동 지하주차장 1층",
    "address": "전라남도 여수시 여문2로 128-38, 1동 (문수동, 대성베르힐)",
    "lat": 34.751803991820104,
    "lng": 127.69659764865784,
    "region": "전라남도"
  },
  {
    "name": "대성베르힐 2동 지하주차장 1층",
    "address": "전라남도 여수시 여문2로 128-38, 2동 (문수동, 대성베르힐)",
    "lat": 34.751803991820104,
    "lng": 127.69659764865784,
    "region": "전라남도"
  },
  {
    "name": "웅천포레스트 부영1차 지하1층,2층 주차장",
    "address": "전라남도 여수시 웅천로 292(웅천동, 웅천 포레스트 부영 1단지)",
    "lat": 34.746624418743366,
    "lng": 127.6856748853472,
    "region": "전라남도"
  },
  {
    "name": "웅천포레스트 부영2차 지하 1층 주차장",
    "address": "전라남도 여수시 여서로 55(웅천동, 웅천 포레스트 부영 2단지)",
    "lat": 34.74718954991052,
    "lng": 127.68902541457868,
    "region": "전라남도"
  },
  {
    "name": "프레지던트 103동 지하1층, 2층",
    "address": "전라남도 여수시 소호7길 36(소호동, 프레지던트아파트)",
    "lat": 34.74073800933906,
    "lng": 127.64580126738454,
    "region": "전라남도"
  },
  {
    "name": "학동 부영 1차 지하2주차장",
    "address": "전라남도 여수시 소호로 658(학동, 부영아파트)",
    "lat": 34.76039021841427,
    "lng": 127.656141007456,
    "region": "전라남도"
  },
  {
    "name": "e편한세상 더퍼스트지하1,2층",
    "address": "전라남도 여수시 학동북4길 7(학동, e편한세상 여수 더퍼스트)",
    "lat": 34.76717546757283,
    "lng": 127.65792684955078,
    "region": "전라남도"
  },
  {
    "name": "힐스테이트 죽림젠트리스 지하주차장 1층",
    "address": "전라남도 여수시 소라면 덕양로 21-18",
    "lat": 34.76213421408407,
    "lng": 127.63118471856416,
    "region": "전라남도"
  },
  {
    "name": "삼성생명 지하주차장 1층",
    "address": "전라남도 순천시 중앙로 101 (행동, 삼성생명빌딩)",
    "lat": 34.954675745367105,
    "lng": 127.48379901228768,
    "region": "전라남도"
  },
  {
    "name": "중흥1차아파트 지하 1층",
    "address": "전라남도 순천시 장선배기길 105 (조례동, 중흥1차아파트)",
    "lat": 34.95116796016658,
    "lng": 127.53016469667104,
    "region": "전라남도"
  },
  {
    "name": "부영5차아파트 지하 1층",
    "address": "전라남도 순천시 장선배기길 77 (조례동, 부영5차아파트)",
    "lat": 34.95296876260784,
    "lng": 127.52933746257062,
    "region": "전라남도"
  },
  {
    "name": "동신1차아파트 지하주차장 1층",
    "address": "전라남도 순천시 장선배기길 55 (조례동, 동신1차아파트)",
    "lat": 34.95470243478385,
    "lng": 127.5292295282219,
    "region": "전라남도"
  },
  {
    "name": "중흥2차아파트 지하 1층",
    "address": "전라남도 순천시 장선배기길 63 (조례동, 중흥2차아파트)",
    "lat": 34.953853850196,
    "lng": 127.5289881384901,
    "region": "전라남도"
  },
  {
    "name": "대주아파트 지하 1층",
    "address": "전라남도 순천시 지봉로 485 (조례동, 대주아파트)",
    "lat": 34.955900290917455,
    "lng": 127.52948344339782,
    "region": "전라남도"
  },
  {
    "name": "장천동행정복지센터 지하 1층",
    "address": "전라남도 순천시 중앙로 22 (장천동, 장천동주민자치센터)",
    "lat": 34.948476193861325,
    "lng": 127.48667159541954,
    "region": "전라남도"
  },
  {
    "name": "부영8차아파트 지하주차장 1층",
    "address": "전라남도 순천시 조례못등길 13 (조례동, 부영8차아파트)",
    "lat": 34.95450212715626,
    "lng": 127.5266748976239,
    "region": "전라남도"
  },
  {
    "name": "송촌프라임 지하주차장 1층",
    "address": "전라남도 순천시 왕궁길 95 (조례동, 왕지송촌프라임아파트)",
    "lat": 34.958357156604016,
    "lng": 127.5341164037368,
    "region": "전라남도"
  },
  {
    "name": "제일대승주캠퍼스 지하1층",
    "address": "전라남도 순천시 승주읍 승평길 21 (순천제일대학승주캠퍼스)",
    "lat": 35.01952415882308,
    "lng": 127.37435179575148,
    "region": "전라남도"
  },
  {
    "name": "동원빌라 지하주차장 1층",
    "address": "전라남도 순천시 서문로 51-11 (옥천동, 동원빌라아트)",
    "lat": 34.95081052048327,
    "lng": 127.4774709083063,
    "region": "전라남도"
  },
  {
    "name": "청호빌라 지하주차장 1층",
    "address": "전라남도 순천시 옥천길 211 (옥천동, 대림청호빌라)",
    "lat": 34.95132203406636,
    "lng": 127.47690570124978,
    "region": "전라남도"
  },
  {
    "name": "KT북순천지점 지하 1층",
    "address": "전라남도 순천시 중앙로 260 (석현동, KT북순천지점)",
    "lat": 34.96897045041072,
    "lng": 127.4841299216231,
    "region": "전라남도"
  },
  {
    "name": "순천경찰서 지하 1층",
    "address": "전라남도 순천시 조비길 2 (석현동)",
    "lat": 34.971654428744664,
    "lng": 127.48239532424384,
    "region": "전라남도"
  },
  {
    "name": "동아아파트 전체 동의 지하주차장 1층",
    "address": "전라남도 순천시 삼산로 81 (용당동, 용당동동아아파트)",
    "lat": 34.9724974203598,
    "lng": 127.4920784378377,
    "region": "전라남도"
  },
  {
    "name": "한국철도공사전남본부 지하1층",
    "address": "전라남도 순천시 팔마로 119 (조곡동, 한국철도공사,한국철도공사전남본부)",
    "lat": 34.946272537325974,
    "lng": 127.50141338415104,
    "region": "전라남도"
  },
  {
    "name": "순천역 지하 1층",
    "address": "전라남도 순천시 팔마로 135 (덕암동, 순천역)",
    "lat": 34.945630356765506,
    "lng": 127.50336506184942,
    "region": "전라남도"
  },
  {
    "name": "순천교육청 지하 1층",
    "address": "전라남도 순천시 연향2로 15 (연향동, 순천교육지원청)",
    "lat": 34.948387485568496,
    "lng": 127.5170203189304,
    "region": "전라남도"
  },
  {
    "name": "생목현대아파트 지하 1층",
    "address": "전라남도 순천시 수박등2길 21 (생목동, 현대아파트)",
    "lat": 34.9511767568354,
    "lng": 127.50412257617896,
    "region": "전라남도"
  },
  {
    "name": "아남아파트 지하 1층",
    "address": "전라남도 순천시 덕암3길 46 (덕암동, 아남아파트)",
    "lat": 34.94576703208374,
    "lng": 127.50791441422489,
    "region": "전라남도"
  },
  {
    "name": "동성아파트 지하주차장 1층",
    "address": "전라남도 순천시 연향번영길 94 (연향동, 동성아파트)",
    "lat": 34.95024353304371,
    "lng": 127.51795459191776,
    "region": "전라남도"
  },
  {
    "name": "부영1차아파트 지하 1층",
    "address": "전라남도 순천시 연향1로 55 (연향동, 부영1차아파트)",
    "lat": 34.94510074072979,
    "lng": 127.52055284497568,
    "region": "전라남도"
  },
  {
    "name": "우미아파트 지하 1층",
    "address": "전라남도 순천시 연향2로 56 (연향동, 우미아파트)",
    "lat": 34.94760481669806,
    "lng": 127.52145763328684,
    "region": "전라남도"
  },
  {
    "name": "연향동 금호아파트 지하주차장 1층",
    "address": "전라남도 순천시 연향1로 40 (연향동, 금호아파트)",
    "lat": 34.94482909910299,
    "lng": 127.51874064784111,
    "region": "전라남도"
  },
  {
    "name": "연향동 현대2차아파트 지하주차장 1층",
    "address": "전라남도 순천시 연향중앙상가길 41 (연향동, 현대2차아파트)",
    "lat": 34.949962142246065,
    "lng": 127.52018629206157,
    "region": "전라남도"
  },
  {
    "name": "동부아파트 지하 1층",
    "address": "전라남도 순천시 연향중앙상가길 56 (연향동, 동부아파트)",
    "lat": 34.94862217581444,
    "lng": 127.519885099926,
    "region": "전라남도"
  },
  {
    "name": "대우아파트 지하주차장 1층",
    "address": "전라남도 순천시 연향2로 55 (연향동, 대우아파트)",
    "lat": 34.94816539547387,
    "lng": 127.52142892236026,
    "region": "전라남도"
  },
  {
    "name": "부영2차아파트 지하 1층",
    "address": "전라남도 순천시 연향1로 62 (연향동, 부영2차아파트)",
    "lat": 34.94475443799591,
    "lng": 127.5210724284606,
    "region": "전라남도"
  },
  {
    "name": "연향동 현대1차아파트 지하주차장 1층",
    "address": "전라남도 순천시 연향중앙상가길 80 (연향동, 현대1차아파트)",
    "lat": 34.94633964903246,
    "lng": 127.51982946186097,
    "region": "전라남도"
  },
  {
    "name": "강남중앙교회 지하 1층",
    "address": "전라남도 순천시 연향로 12 (연향동, 강남중앙교회)",
    "lat": 34.94325906856121,
    "lng": 127.5149111920512,
    "region": "전라남도"
  },
  {
    "name": "벽산첼시빌 지하주차장 1층",
    "address": "전라남도 순천시 생목길 1 (생목동, 벽산아파트)",
    "lat": 34.951549451527235,
    "lng": 127.50815690888564,
    "region": "전라남도"
  },
  {
    "name": "대주파크빌 지하주차장 1층",
    "address": "전라남도 순천시 기적의도서관2길 35 (연향동, 대주파크빌아파트)",
    "lat": 34.94497726168902,
    "lng": 127.5272117266455,
    "region": "전라남도"
  },
  {
    "name": "중흥S클래스빌아파트 지하주차장 1층",
    "address": "전라남도 순천시 기적의도서관2길 51 (연향동, 중흥파크에스클래스빌)",
    "lat": 34.94372775033555,
    "lng": 127.52733259258623,
    "region": "전라남도"
  },
  {
    "name": "호반리젠시빌1차아파트 지하 1층",
    "address": "전라남도 순천시 안산길 5 (연향동, 호반리젠시빌1차아파트)",
    "lat": 34.94014965765646,
    "lng": 127.52762588595792,
    "region": "전라남도"
  },
  {
    "name": "남정동 현대아파트 지하 1층",
    "address": "전라남도 순천시 남정5길 33 (남정동, 남정현대아파트)",
    "lat": 34.94007083389994,
    "lng": 127.48525962329558,
    "region": "전라남도"
  },
  {
    "name": "한경로얄파크(지하1, 지상15)",
    "address": "전라남도 순천시 서문로 45 (옥천동)",
    "lat": 34.951217930498906,
    "lng": 127.47868247610134,
    "region": "전라남도"
  },
  {
    "name": "세광교회(지하1, 지상5)",
    "address": "전라남도 순천시 서문로 16 (옥천동)",
    "lat": 34.95125573341187,
    "lng": 127.48211181348584,
    "region": "전라남도"
  },
  {
    "name": "궁전웨딩홀(지하1, 지상5)",
    "address": "전라남도 순천시 중앙로 43 (저전동)",
    "lat": 34.949780293832816,
    "lng": 127.48482859285797,
    "region": "전라남도"
  },
  {
    "name": "동양생명빌딩(지하1, 지상8)",
    "address": "전라남도 순천시 중앙로 39 (장천동, 김안과의원)",
    "lat": 34.94955927152307,
    "lng": 127.48509418975588,
    "region": "전라남도"
  },
  {
    "name": "성진아파트(지하1, 지상13)",
    "address": "전라남도 순천시 상인제길 138-1 (저전동)",
    "lat": 34.944906681378534,
    "lng": 127.48128417107496,
    "region": "전라남도"
  },
  {
    "name": "KT순천지사 지하 1층",
    "address": "전라남도 순천시 강남로 51 (장천동, KT순천지사)",
    "lat": 34.95015740790915,
    "lng": 127.49092881727346,
    "region": "전라남도"
  },
  {
    "name": "공성빌딩 지하주차장 1층",
    "address": "전라남도 순천시 장명로 58 (장천동)",
    "lat": 34.95084392419836,
    "lng": 127.49019051477391,
    "region": "전라남도"
  },
  {
    "name": "순천시청 지하주차장 1층",
    "address": "전라남도 순천시 장명로 30 (장천동, 순천시청)",
    "lat": 34.95079838219499,
    "lng": 127.48720558447825,
    "region": "전라남도"
  },
  {
    "name": "중앙병원 지하 1층",
    "address": "전라남도 순천시 장명로 5 (장천동, 중앙병원)",
    "lat": 34.9511890886298,
    "lng": 127.48448114834903,
    "region": "전라남도"
  },
  {
    "name": "남순천의원 지하 1층",
    "address": "전라남도 순천시 중앙로 12 (장천동, 남순천의원)",
    "lat": 34.94783731301688,
    "lng": 127.48733790281965,
    "region": "전라남도"
  },
  {
    "name": "동부교회 지하 1층",
    "address": "전라남도 순천시 동문외2길 15, 동부교회 (동외동)",
    "lat": 34.95417699277053,
    "lng": 127.48895039479356,
    "region": "전라남도"
  },
  {
    "name": "우성아파트 106동 지하 주차장",
    "address": "전라남도 순천시 덕월길 22 (덕월동, 우성아파트)",
    "lat": 34.930026575399374,
    "lng": 127.48903872280188,
    "region": "전라남도"
  },
  {
    "name": "우성아파트 105동 지하 주차장",
    "address": "전라남도 순천시 덕월길 22 (덕월동, 우성아파트)",
    "lat": 34.930026575399374,
    "lng": 127.48903872280188,
    "region": "전라남도"
  },
  {
    "name": "조례동 현대아파트 지하주차장 1층",
    "address": "전라남도 순천시 장승길 40 (조례동, 조례현대아파트)",
    "lat": 34.957913747466606,
    "lng": 127.52314967769118,
    "region": "전라남도"
  },
  {
    "name": "조례동 금호아파트 지하주차장 1층",
    "address": "전라남도 순천시 조례1길 9 (조례동, 금호아파트)",
    "lat": 34.960988413968835,
    "lng": 127.52267659271264,
    "region": "전라남도"
  },
  {
    "name": "순천병원 지하 1층",
    "address": "전라남도 순천시 조례1길 24 (조례동, 순천병원)",
    "lat": 34.96048856010864,
    "lng": 127.5242805645613,
    "region": "전라남도"
  },
  {
    "name": "NC백화점순천점 지하주차장 1층",
    "address": "전라남도 순천시 비봉2길 22 (조례동, 시대아파트)",
    "lat": 34.972421129219704,
    "lng": 127.51957528463645,
    "region": "전라남도"
  },
  {
    "name": "대림2차아파트 지하주차장 1층",
    "address": "전라남도 순천시 봉화2길 128 (조례동, 대림2차아파트)",
    "lat": 34.963685262222896,
    "lng": 127.51841862628297,
    "region": "전라남도"
  },
  {
    "name": "천주교저전교회(지하1, 지상3)",
    "address": "전라남도 순천시 서문로 19-1 (저전동, 천주교저전동교회,성모유치원)",
    "lat": 34.951027944906805,
    "lng": 127.48156989095357,
    "region": "전라남도"
  },
  {
    "name": "순천농협 지하1층",
    "address": "전라남도 순천시 팔마로 122-1 (조곡동, 순천농업협동조합)",
    "lat": 34.94516778522058,
    "lng": 127.50134941021489,
    "region": "전라남도"
  },
  {
    "name": "성신원 지하 1층",
    "address": "전라남도 순천시 저전길 84 (인제동, 순천성신원)",
    "lat": 34.94640940605558,
    "lng": 127.48444890037229,
    "region": "전라남도"
  },
  {
    "name": "중앙지하상가(씨내몰) 지하 1층",
    "address": "전라남도 순천시 중앙로 126, 씨내몰(지하1층) (중앙동)",
    "lat": 34.95685072975357,
    "lng": 127.48431834228536,
    "region": "전라남도"
  },
  {
    "name": "순천중앙교회 지하 1층",
    "address": "전라남도 순천시 서문성터길 20 (매곡동, 순천중앙유치원,순천중앙교회)",
    "lat": 34.95703937783248,
    "lng": 127.48227936725,
    "region": "전라남도"
  },
  {
    "name": "천보교회 1층",
    "address": "전라남도 순천시 하풍2길 12, 천보교회 지하1층 (풍덕동)",
    "lat": 34.940215961355456,
    "lng": 127.5075492704678,
    "region": "전라남도"
  },
  {
    "name": "청암고등학교 체육관 지하 1층",
    "address": "전라남도 순천시 녹색로 1641 (덕월동, 순천청암대학)",
    "lat": 34.927125773394145,
    "lng": 127.49040637096942,
    "region": "전라남도"
  },
  {
    "name": "청미래1차아파트 지하 1층 주차장",
    "address": "전라남도 순천시 호현1길 34 (덕월동, 청미래아파트)",
    "lat": 34.92630798918252,
    "lng": 127.49383725860552,
    "region": "전라남도"
  },
  {
    "name": "청미래2차아파트 지하 1층 주차장",
    "address": "전라남도 순천시 덕월길 30 (덕월동, 청미래2차아파트)",
    "lat": 34.929419415189365,
    "lng": 127.48803621569051,
    "region": "전라남도"
  },
  {
    "name": "가곡대주아파트 지하 1층",
    "address": "전라남도 순천시 조비길 14 (가곡동, 가곡대주아파트)",
    "lat": 34.970927370293275,
    "lng": 127.48086489334864,
    "region": "전라남도"
  },
  {
    "name": "참샘마을 휴먼시아 전체 동의 지하주차장 1층",
    "address": "전라남도 순천시 고지1길 57 (가곡동, 참샘마을휴먼시아)",
    "lat": 34.98431751464948,
    "lng": 127.48224628410676,
    "region": "전라남도"
  },
  {
    "name": "석현중흥아파트 지하 1층",
    "address": "전라남도 순천시 석현북길 7 (석현동, 중흥아파트)",
    "lat": 34.973584084604774,
    "lng": 127.47657815597414,
    "region": "전라남도"
  },
  {
    "name": "용당 대주피오레아파트 지하주차장 1층",
    "address": "전라남도 순천시 삼산로 92-50 (용당동, 대주피오레아파트)",
    "lat": 34.97049515328256,
    "lng": 127.49446815014976,
    "region": "전라남도"
  },
  {
    "name": "라송 센트럴카운티 아파트 지하1층",
    "address": "전라남도 순천시 서면 강청길 82 (순천라송센트럴카운티)",
    "lat": 34.98670494565142,
    "lng": 127.5010902688,
    "region": "전라남도"
  },
  {
    "name": "오천동 대광로제비앙 지하 주차장",
    "address": "전라남도 순천시 오천7길 29 (오천동, 대광로제비앙지에이그린웰)",
    "lat": 34.93567142792159,
    "lng": 127.49439570616204,
    "region": "전라남도"
  },
  {
    "name": "신대중흥S클래스 2단지 지하 1~2층",
    "address": "전라남도 순천시 해룡면 신대로 66 (중흥에스-클래스2단지)",
    "lat": 34.92971495321236,
    "lng": 127.54803199116554,
    "region": "전라남도"
  },
  {
    "name": "신대중흥S클래스 5단지 지하 1~2층",
    "address": "전라남도 순천시 해룡면 신대로 97 (중흥에스-클래스5단지아파트)",
    "lat": 34.93258811046872,
    "lng": 127.54795630154202,
    "region": "전라남도"
  },
  {
    "name": "신대중흥S클래스 6단지 지하 1~2층",
    "address": "전라남도 순천시 해룡면 좌야로 135 (중흥에스-클래스6단지메가타운)",
    "lat": 34.93650088465013,
    "lng": 127.5454367675496,
    "region": "전라남도"
  },
  {
    "name": "청솔1차아파트 지하 1층",
    "address": "전라남도 순천시 해룡면 장선배기길 284 (청솔1차아파트)",
    "lat": 34.945404577331985,
    "lng": 127.5306738947057,
    "region": "전라남도"
  },
  {
    "name": "청솔2차아파트 지하 1층",
    "address": "전라남도 순천시 해룡면 대석길 98 (청솔아파트)",
    "lat": 34.94599311342337,
    "lng": 127.53213411901366,
    "region": "전라남도"
  },
  {
    "name": "부영7차 아파트(정원에코힐) 지하 1층",
    "address": "전라남도 순천시 해룡면 기적의도서관길 70 (부영7차아파트)",
    "lat": 34.94745015279275,
    "lng": 127.5289580859732,
    "region": "전라남도"
  },
  {
    "name": "해룡면 대광로제비앙 지하 1~2층",
    "address": "전라남도 순천시 해룡면 백연길 105-7 (대광로제비앙)",
    "lat": 34.9515796172748,
    "lng": 127.53442133031008,
    "region": "전라남도"
  },
  {
    "name": "오천동 골드클래스아파트 지하 주차장",
    "address": "전라남도 순천시 오천4길 21 (오천동, 골드클래스)",
    "lat": 34.93290386543506,
    "lng": 127.49341316309972,
    "region": "전라남도"
  },
  {
    "name": "금호어울림더파크 지하1층 주차장",
    "address": "전라남도 순천시 서면 강청새길 5(순천금호어울림더파크1차아파트)",
    "lat": 34.9835427002532,
    "lng": 127.50068862991692,
    "region": "전라남도"
  },
  {
    "name": "신대중흥S클래스 7단지 지하 1~2층",
    "address": "전라남도 순천시 해룡면 좌야로 150(중흥에코시티7단지)",
    "lat": 34.93762743141249,
    "lng": 127.54657979212864,
    "region": "전라남도"
  },
  {
    "name": "신대중흥S클래스 8단지 지하 1~2층",
    "address": "전라남도 순천시 해룡면 신대로 147(중흥에코시티8단지)",
    "lat": 34.936905674104786,
    "lng": 127.54963879354962,
    "region": "전라남도"
  },
  {
    "name": "신대중흥S클래스 9단지 지하 1~2층",
    "address": "전라남도 순천시 해룡면 좌야로 159-14(중흥에듀힐스9단지)",
    "lat": 34.93894088799748,
    "lng": 127.54491096095404,
    "region": "전라남도"
  },
  {
    "name": "신대중흥S클래스 10단지 지하 1~2층",
    "address": "전라남도 순천시 해룡면 좌야로 179(중흥에스-클래스에듀하이10단지)",
    "lat": 34.93983987259083,
    "lng": 127.5478978104242,
    "region": "전라남도"
  },
  {
    "name": "나주교회 지하 1층",
    "address": "전라남도 나주시 영산로 5402 (성북동, 나주교회)",
    "lat": 35.03572067639986,
    "lng": 126.7193903178933,
    "region": "전라남도"
  },
  {
    "name": "나주시청 지하 1층",
    "address": "전라남도 나주시 시청길 22 (송월동, 나주시청)",
    "lat": 35.01591729968162,
    "lng": 126.71156355958932,
    "region": "전라남도"
  },
  {
    "name": "한전나주지점 지하1층",
    "address": "전라남도 나주시 왕건길 53 (송월동, 한국전력공사)",
    "lat": 35.01744902689849,
    "lng": 126.7133958947536,
    "region": "전라남도"
  },
  {
    "name": "금남동행정복지센터 지하1층",
    "address": "전라남도 나주시 금성관길 9 (금계동, 금남동주민센터)",
    "lat": 35.032119584103526,
    "lng": 126.71660948870574,
    "region": "전라남도"
  },
  {
    "name": "나주우체국 지하 1층",
    "address": "전라남도 나주시 시청길 18 (송월동, 나주우체국)",
    "lat": 35.016119786100326,
    "lng": 126.71222580343922,
    "region": "전라남도"
  },
  {
    "name": "KT광산지사나주지점 지하1층",
    "address": "전라남도 나주시 나주로 21 (송월동, KT 나주지점)",
    "lat": 35.021091585219715,
    "lng": 126.714663351531,
    "region": "전라남도"
  },
  {
    "name": "초록우산 어린이재단",
    "address": "전라남도 나주시 남산길 45-12 (죽림동, 나주종합사회복지관)",
    "lat": 35.02985255704548,
    "lng": 126.72464678846424,
    "region": "전라남도"
  },
  {
    "name": "나주신협 지하 1층",
    "address": "전라남도 나주시 나주로 127 (금성동, 나주신협)",
    "lat": 35.0302079537735,
    "lng": 126.71724921017088,
    "region": "전라남도"
  },
  {
    "name": "우영아파트 지하1층",
    "address": "전라남도 나주시 나주천2길 54 (금계동, 우영타워)",
    "lat": 35.029546675244404,
    "lng": 126.71505687697756,
    "region": "전라남도"
  },
  {
    "name": "현대아파트 지하 1층",
    "address": "전라남도 나주시 북망문길 40 (대호동, 현대아파트)",
    "lat": 35.039311703671814,
    "lng": 126.71592187154486,
    "region": "전라남도"
  },
  {
    "name": "나주축산물공판장",
    "address": "전라남도 나주시 나주서부로 37-20 (운곡동)",
    "lat": 34.98220584878783,
    "lng": 126.7002997875433,
    "region": "전라남도"
  },
  {
    "name": "동신대학교 정보전산센터 지하 1층",
    "address": "전라남도 나주시 건재로 185 (대호동, 동신대학교)",
    "lat": 35.05422133930054,
    "lng": 126.73347520554528,
    "region": "전라남도"
  },
  {
    "name": "나주공공도서관 지하 1층",
    "address": "전라남도 나주시 남고문로 51 (금성동, 나주공공도서관)",
    "lat": 35.02862227962665,
    "lng": 126.71663686233894,
    "region": "전라남도"
  },
  {
    "name": "전남외국어고등학교 지하 1층",
    "address": "전라남도 나주시 영나로 2434 (용산동, 전남외국어고등학교)",
    "lat": 34.993858969383204,
    "lng": 126.7217472741528,
    "region": "전라남도"
  },
  {
    "name": "다솔빌딩",
    "address": "전라남도 나주시 나주로 200 (중앙동, 다솔빌딩)",
    "lat": 35.03430405109575,
    "lng": 126.72181412877065,
    "region": "전라남도"
  },
  {
    "name": "영산포농협 지하1층",
    "address": "전라남도 나주시 예향로 3811 (이창동, 영산포농협)",
    "lat": 34.994773905717715,
    "lng": 126.71349700855168,
    "region": "전라남도"
  },
  {
    "name": "송월부영아파트 지하주차장 1~2층",
    "address": "전라남도 나주시 나주로 41-23 (송월동, 부영아파트)",
    "lat": 35.02454830659964,
    "lng": 126.71486192892615,
    "region": "전라남도"
  },
  {
    "name": "송월주공아파트 지하 1층",
    "address": "전라남도 나주시 남고문로 36-14 (송월동, 송월주공아파트)",
    "lat": 35.027000187016185,
    "lng": 126.71496490172778,
    "region": "전라남도"
  },
  {
    "name": "나주농협 지하 1층",
    "address": "전라남도 나주시 나주로 101 (금성동, 하나로마트)",
    "lat": 35.02793154565624,
    "lng": 126.71727304298548,
    "region": "전라남도"
  },
  {
    "name": "호반아파트 지하1층",
    "address": "전라남도 나주시 건재로 209 (대호동, 호반아파트)",
    "lat": 35.05094192266484,
    "lng": 126.72348395295916,
    "region": "전라남도"
  },
  {
    "name": "용산주공2차아파트 지하 1층",
    "address": "전라남도 나주시 영나로 2421 (용산동, 용산2단지주공아파트)",
    "lat": 34.99288044739433,
    "lng": 126.72150569851308,
    "region": "전라남도"
  },
  {
    "name": "대덕아파트 지하 1층",
    "address": "전라남도 나주시 남부원길 3 (삼영동, 대덕맨션)",
    "lat": 35.0080968869861,
    "lng": 126.7125021011351,
    "region": "전라남도"
  },
  {
    "name": "벌꿀장 지하주차장 1층",
    "address": "전라남도 나주시 영산포로 293 (삼영동, 벌꿀모텔)",
    "lat": 35.00602551026516,
    "lng": 126.70999790525076,
    "region": "전라남도"
  },
  {
    "name": "나주시노인복지관별관 지하 1층",
    "address": "전라남도 나주시 가마태길 38 (용산동, 용산주공아파트)",
    "lat": 34.99429626836363,
    "lng": 126.72057051405184,
    "region": "전라남도"
  },
  {
    "name": "오성빌딩",
    "address": "전라남도 나주시 남평읍 지석로 28",
    "lat": 35.044960606256446,
    "lng": 126.8400486515502,
    "region": "전라남도"
  },
  {
    "name": "새봄아파트 지하주차장 1층",
    "address": "전라남도 나주시 남평읍 남평3로 35 (남평새봄아파트)",
    "lat": 35.0443779504899,
    "lng": 126.84585889242808,
    "region": "전라남도"
  },
  {
    "name": "팔마아파트 지하주차장 1층",
    "address": "전라남도 나주시 남평읍 세남로 1546-13 (팔마코이스아파트)",
    "lat": 35.02568054717815,
    "lng": 126.83362876664424,
    "region": "전라남도"
  },
  {
    "name": "삼성아파트 지하 1층",
    "address": "전라남도 나주시 죽림길 71 (죽림동, 삼성아파트)",
    "lat": 35.03207628507972,
    "lng": 126.72610145597712,
    "region": "전라남도"
  },
  {
    "name": "호반아파트2차 지하 1층",
    "address": "전라남도 나주시 대호길 45-17 (대호동, 호반리젠시빌)",
    "lat": 35.04104635153391,
    "lng": 126.71711991268047,
    "region": "전라남도"
  },
  {
    "name": "대방아파트 지하 1층",
    "address": "전라남도 나주시 대호길 76-8 (대호동, 대방노블랜드1차아파트)",
    "lat": 35.04322793382772,
    "lng": 126.71819966200464,
    "region": "전라남도"
  },
  {
    "name": "이창동동사무소 지하1층",
    "address": "전라남도 나주시 영산포로 182-7 (이창동, 이창동주민센터)",
    "lat": 34.99737393156873,
    "lng": 126.71030360478692,
    "region": "전라남도"
  },
  {
    "name": "세원아파트 지하1층",
    "address": "전라남도 나주시 대기1길 14 (이창동, 세원맨션)",
    "lat": 34.9933623783746,
    "lng": 126.71361824298714,
    "region": "전라남도"
  },
  {
    "name": "식품산업연구센터 지하1층",
    "address": "전라남도 나주시 동수농공단지길 30-5 (동수동, 전라남도생물산업진흥재단식품산업연구센터)",
    "lat": 34.98491406444597,
    "lng": 126.68988274263252,
    "region": "전라남도"
  },
  {
    "name": "축협빌딩",
    "address": "전라남도 나주시 남평읍 남평2로 34 (나주축산농협)",
    "lat": 35.04525202718519,
    "lng": 126.84287150150033,
    "region": "전라남도"
  },
  {
    "name": "루멘하임아파트 지하주차장 1층",
    "address": "전라남도 나주시 그린로 328 (빛가람동, 빛가람사랑으로부영1단지아파트)",
    "lat": 35.015965450319406,
    "lng": 126.79524841210116,
    "region": "전라남도"
  },
  {
    "name": "빛가람LH1단지 지하주차장 1층",
    "address": "전라남도 나주시 그린로 63 (빛가람동, 빛가람엘에이치1단지아파트)",
    "lat": 35.01574819072133,
    "lng": 126.77697785141224,
    "region": "전라남도"
  },
  {
    "name": "에듀캐슬아파트 지하주차장 1층",
    "address": "전라남도 나주시 그린로 276 (빛가람동, 에듀캐슬아파트)",
    "lat": 35.011280026565224,
    "lng": 126.79586100907312,
    "region": "전라남도"
  },
  {
    "name": "빛가람LH3단지 지하주차장 1층",
    "address": "전라남도 나주시 그린로 154 (빛가람동, 빛가람엘에이치3단지아파트)",
    "lat": 35.00989113045068,
    "lng": 126.78314181228554,
    "region": "전라남도"
  },
  {
    "name": "빛가람우미린 지하주차장 1층",
    "address": "전라남도 나주시 한빛로 61 (빛가람동, 빛가람우미린아파트)",
    "lat": 35.02698373933189,
    "lng": 126.78034460792526,
    "region": "전라남도"
  },
  {
    "name": "나주사랑가아파트 지하주차장 1층",
    "address": "전라남도 나주시 예향로 3793 (이창동, 나주사랑가)",
    "lat": 34.99396353990661,
    "lng": 126.7116797063104,
    "region": "전라남도"
  },
  {
    "name": "빛가람중흥S클래스센트럴1차 지하주자창 1층",
    "address": "전라남도 나주시 우정로 77 (빛가람동, 빛가람 중흥S-CLASS센트럴1차)",
    "lat": 35.02387576904292,
    "lng": 126.7881410186524,
    "region": "전라남도"
  },
  {
    "name": "빛가람중흥S클래스센트럴2차 지하주차장 1층",
    "address": "전라남도 나주시 우정로 101 (빛가람동, 빛가람 중흥S-CLASS센트럴 2차)",
    "lat": 35.02390425805197,
    "lng": 126.79108773531964,
    "region": "전라남도"
  },
  {
    "name": "빛가람중흥S클래스리버티 지하주차장 1층",
    "address": "전라남도 나주시 한빛로 125 (빛가람동, 빛가람중흥에스-클래스리버티)",
    "lat": 35.03096274030378,
    "lng": 126.78498643375784,
    "region": "전라남도"
  },
  {
    "name": "빛가람대광로제비앙 지하주차장 1층",
    "address": "전라남도 나주시 그린로 153 (빛가람동, 대광로제비앙)",
    "lat": 35.01038440434075,
    "lng": 126.78346818537436,
    "region": "전라남도"
  },
  {
    "name": "빛가람LH5단지 지하주차장 1층",
    "address": "전라남도 나주시 월정3길 17 (빛가람동, 빛가람 LH5단지 아파트)",
    "lat": 35.01186926004144,
    "lng": 126.79238762499983,
    "region": "전라남도"
  },
  {
    "name": "광양만권경제자유구역청 지하 1층",
    "address": "전라남도 광양시 광양읍 인덕로 1100 (광양만권경제자유구역청,광양시제2청사)",
    "lat": 34.98063283628231,
    "lng": 127.5822200111718,
    "region": "전라남도"
  },
  {
    "name": "광양시청 지하 1층",
    "address": "전라남도 광양시 시청로 33 (중동, 광양시청)",
    "lat": 34.93974849662271,
    "lng": 127.69595247173024,
    "region": "전라남도"
  },
  {
    "name": "무등파크 지하주차장 1층",
    "address": "전라남도 광양시 중마로 230 (중동, 무등파크맨션)",
    "lat": 34.94514478430163,
    "lng": 127.6893513078005,
    "region": "전라남도"
  },
  {
    "name": "성호1차아파트 지하주차장 1층",
    "address": "전라남도 광양시 광장로 112-20 (중동, 성호1차아파트)",
    "lat": 34.93354178808482,
    "lng": 127.69701009083222,
    "region": "전라남도"
  },
  {
    "name": "태영2차아파트 지하주차장 1층",
    "address": "전라남도 광양시 광장로 120 (중동, 태영2차아파트)",
    "lat": 34.934652956053384,
    "lng": 127.6952174495086,
    "region": "전라남도"
  },
  {
    "name": "금광아파트 지하주차장 1층",
    "address": "전라남도 광양시 공영로 10 (중동, 금광1차아파트)",
    "lat": 34.93576269234717,
    "lng": 127.69018066214622,
    "region": "전라남도"
  },
  {
    "name": "금호동 휴먼센터 지하1층",
    "address": "전라남도 광양시 백운로 1638-11, 휴먼센터 (금호동)",
    "lat": 34.933177316680656,
    "lng": 127.72491910140474,
    "region": "전라남도"
  },
  {
    "name": "금호동 백운생활관 3동 지하1층",
    "address": "전라남도 광양시 희망1길 31 (금호동, 백운생활관)",
    "lat": 34.93481017767279,
    "lng": 127.72895009451751,
    "region": "전라남도"
  },
  {
    "name": "금호동 백운쇼핑센터 목욕탕 앞 지하1층 기계실",
    "address": "전라남도 광양시 폭포사랑길 99 (금호동, 백운쇼핑센터)",
    "lat": 34.94011576639692,
    "lng": 127.73292694790749,
    "region": "전라남도"
  },
  {
    "name": "목우상가B 지하 1층",
    "address": "전라남도 광양시 광포로 72 (광영동, 목우아파트)",
    "lat": 34.964365683429726,
    "lng": 127.72006990435656,
    "region": "전라남도"
  },
  {
    "name": "상아아파트 가동 지하 1층",
    "address": "전라남도 광양시 금영로 182 (광영동, 상아아파트)",
    "lat": 34.966352120701615,
    "lng": 127.7181379095229,
    "region": "전라남도"
  },
  {
    "name": "현대아파트 104동 지하 1층",
    "address": "전라남도 광양시 광영로 141 (광영동, 현대아파트)",
    "lat": 34.96545971247558,
    "lng": 127.71643291287717,
    "region": "전라남도"
  },
  {
    "name": "현대아파트 108동 지하 1층",
    "address": "전라남도 광양시 광영로 141 (광영동, 현대아파트)",
    "lat": 34.96545971247558,
    "lng": 127.71643291287717,
    "region": "전라남도"
  },
  {
    "name": "현대아파트 109동 지하 1층",
    "address": "전라남도 광양시 광영로 141 (광영동, 현대아파트)",
    "lat": 34.96545971247558,
    "lng": 127.71643291287717,
    "region": "전라남도"
  },
  {
    "name": "현대아파트 110동 지하 1층",
    "address": "전라남도 광양시 광영로 141 (광영동, 현대아파트)",
    "lat": 34.96545971247558,
    "lng": 127.71643291287717,
    "region": "전라남도"
  },
  {
    "name": "현대아파트 101동 지하 1층",
    "address": "전라남도 광양시 광영로 141 (광영동, 현대아파트)",
    "lat": 34.96545971247558,
    "lng": 127.71643291287717,
    "region": "전라남도"
  },
  {
    "name": "현대아파트 102동 지하 1층",
    "address": "전라남도 광양시 광영로 141 (광영동, 현대아파트)",
    "lat": 34.96545971247558,
    "lng": 127.71643291287717,
    "region": "전라남도"
  },
  {
    "name": "현대아파트 103동 지하 1층",
    "address": "전라남도 광양시 광영로 141 (광영동, 현대아파트)",
    "lat": 34.96545971247558,
    "lng": 127.71643291287717,
    "region": "전라남도"
  },
  {
    "name": "현대아파트 105동 지하 1층",
    "address": "전라남도 광양시 광영로 141 (광영동, 현대아파트)",
    "lat": 34.96545971247558,
    "lng": 127.71643291287717,
    "region": "전라남도"
  },
  {
    "name": "현대아파트 106동 지하 1층",
    "address": "전라남도 광양시 광영로 141 (광영동, 현대아파트)",
    "lat": 34.96545971247558,
    "lng": 127.71643291287717,
    "region": "전라남도"
  },
  {
    "name": "현대아파트 107동 지하 1층",
    "address": "전라남도 광양시 광영로 141 (광영동, 현대아파트)",
    "lat": 34.96545971247558,
    "lng": 127.71643291287717,
    "region": "전라남도"
  },
  {
    "name": "현대아파트 111동 지하 1층",
    "address": "전라남도 광양시 광영로 141 (광영동, 현대아파트)",
    "lat": 34.96545971247558,
    "lng": 127.71643291287717,
    "region": "전라남도"
  },
  {
    "name": "금호동 백운프라자 지하 1층 기계실",
    "address": "전라남도 광양시 동백길 5 (금호동, 백운프라자)",
    "lat": 34.936620690297275,
    "lng": 127.72722333763622,
    "region": "전라남도"
  },
  {
    "name": "금호동 전남드래곤즈구장 정문 지하 1층 기계실",
    "address": "전라남도 광양시 백운로 1641 (금호동, 전남드래곤즈구장)",
    "lat": 34.933081376692954,
    "lng": 127.72637819802586,
    "region": "전라남도"
  },
  {
    "name": "금호동 복지회관 조리실 아래 외부 지하 1층 기계실",
    "address": "전라남도 광양시 희망1길 69 (금호동, 금호복지센터)",
    "lat": 34.933813582717654,
    "lng": 127.7325679482952,
    "region": "전라남도"
  },
  {
    "name": "금호동 백운생활관 1동 지하1층",
    "address": "전라남도 광양시 희망1길 31 (금호동)",
    "lat": 34.93481017767279,
    "lng": 127.72895009451751,
    "region": "전라남도"
  },
  {
    "name": "금호동 동백아파트 11동 지하 1층 5s/s 기계실",
    "address": "전라남도 광양시 금호로 292 (금호동, 동백아파트)",
    "lat": 34.938880173664174,
    "lng": 127.72985849197822,
    "region": "전라남도"
  },
  {
    "name": "금호동 장미아파트 2동 지하 1층 8s/s 기계실",
    "address": "전라남도 광양시 폭포사랑길 94-30 (금호동, 장미아파트)",
    "lat": 34.941820135796554,
    "lng": 127.73391388665571,
    "region": "전라남도"
  },
  {
    "name": "금호동 장미연립 6동 지하 1층 7s/s 기계실",
    "address": "전라남도 광양시 폭포사랑길 114-19 (금호동, 장미연립아파트)",
    "lat": 34.94283516136608,
    "lng": 127.73151462892594,
    "region": "전라남도"
  },
  {
    "name": "금호동 목련연립 13동 지하 1층 18s/s 기계실",
    "address": "전라남도 광양시 폭포사랑길 91 (금호동, 목련연립아파트)",
    "lat": 34.9392365930288,
    "lng": 127.73295438730698,
    "region": "전라남도"
  },
  {
    "name": "금호동 목련빌라 25동 6s/s 기계실",
    "address": "전라남도 광양시 금호로 244 (금호동, 목련빌라)",
    "lat": 34.94187496698953,
    "lng": 127.72880242457089,
    "region": "전라남도"
  },
  {
    "name": "금호동 백운생활관 2동 지하1층",
    "address": "전라남도 광양시 희망1길 31 (금호동, 백운생활관)",
    "lat": 34.93481017767279,
    "lng": 127.72895009451751,
    "region": "전라남도"
  },
  {
    "name": "금호동 백운생활관 4동 지하1층",
    "address": "전라남도 광양시 희망1길 31 (금호동, 백운생활관)",
    "lat": 34.93481017767279,
    "lng": 127.72895009451751,
    "region": "전라남도"
  },
  {
    "name": "금호동 백운생활관 5동 지하1층",
    "address": "전라남도 광양시 희망1길 31 (금호동, 백운생활관)",
    "lat": 34.93481017767279,
    "lng": 127.72895009451751,
    "region": "전라남도"
  },
  {
    "name": "금호동 백운생활관 6동 지하1층",
    "address": "전라남도 광양시 희망1길 31 (금호동, 백운생활관)",
    "lat": 34.93481017767279,
    "lng": 127.72895009451751,
    "region": "전라남도"
  },
  {
    "name": "금호동 백합아파트 41동 지하 1층 53s/s 기계실",
    "address": "전라남도 광양시 금호로 41 (금호동, 백합아파트)",
    "lat": 34.93397010941922,
    "lng": 127.7213411342848,
    "region": "전라남도"
  },
  {
    "name": "금호동 매화아파트 7동 지하 1층 54s/s 기계실",
    "address": "전라남도 광양시 희망길 39 (금호동, 매화아파트)",
    "lat": 34.93676944706143,
    "lng": 127.72264354029996,
    "region": "전라남도"
  },
  {
    "name": "금호동 초원아파트 8동 지하 1층 57s/s 기계실",
    "address": "전라남도 광양시 금호로 130 (금호동, 초원아파트)",
    "lat": 34.93844069064119,
    "lng": 127.7184115391864,
    "region": "전라남도"
  },
  {
    "name": "금호동 송죽아파트 2동 지하 1층 60s/s 기계실",
    "address": "전라남도 광양시 금호로 135 (금호동, 송죽아파트)",
    "lat": 34.93911284587562,
    "lng": 127.71866918934812,
    "region": "전라남도"
  },
  {
    "name": "오성타워맨션 지하주차장 1층",
    "address": "전라남도 광양시 광양읍 대림오성로 139 (오성타워맨션)",
    "lat": 34.96503974294653,
    "lng": 127.57684656528922,
    "region": "전라남도"
  },
  {
    "name": "금호동 광양제철남초등학교 달빛동 외부 지하 1층 기계실",
    "address": "전라남도 광양시 금호로 40 (금호동, 제철남초등학교)",
    "lat": 34.93432789566279,
    "lng": 127.72133521942511,
    "region": "전라남도"
  },
  {
    "name": "성호3차아파트 지하주차장 1층",
    "address": "전라남도 광양시 광장로 84 (중동, 성호3차아파트)",
    "lat": 34.93163089571645,
    "lng": 127.69320311213448,
    "region": "전라남도"
  },
  {
    "name": "광양목성우체국 지하 1층",
    "address": "전라남도 광양시 광양읍 매천로 889",
    "lat": 34.97255070379527,
    "lng": 127.59142934707262,
    "region": "전라남도"
  },
  {
    "name": "한국통신 지하 1층",
    "address": "전라남도 광양시 광양읍 읍성3길 14",
    "lat": 34.97659065761639,
    "lng": 127.58582462628492,
    "region": "전라남도"
  },
  {
    "name": "호반아파트 지하주차장 1층",
    "address": "전라남도 광양시 공영로 39 (중동, 광양중마호반리젠시빌아파트)",
    "lat": 34.936034788300866,
    "lng": 127.69357959103128,
    "region": "전라남도"
  },
  {
    "name": "삼익아파트 지하주차장 1층",
    "address": "전라남도 광양시 광양읍 우산공원길 64 (삼익아파트)",
    "lat": 34.98401232706893,
    "lng": 127.58446217956808,
    "region": "전라남도"
  },
  {
    "name": "상아아파트 지하주차장 1층",
    "address": "전라남도 광양시 광양읍 서북2길 11 (상아아파트)",
    "lat": 34.97150878788829,
    "lng": 127.57857443926557,
    "region": "전라남도"
  },
  {
    "name": "삼보타워맨션 지하주차장 1층",
    "address": "전라남도 광양시 광양읍 성북길 19-6 (삼보타워맨션)",
    "lat": 34.9720813072768,
    "lng": 127.58209340694025,
    "region": "전라남도"
  },
  {
    "name": "창덕1차아파트 지하주차장 1층",
    "address": "전라남도 광양시 광양읍 용강1길 11 (창덕에버빌(제1단지))",
    "lat": 34.97410378773394,
    "lng": 127.60945038498102,
    "region": "전라남도"
  },
  {
    "name": "창덕2차아파트 지하주차장 1층",
    "address": "전라남도 광양시 광양읍 용강1길 12 (창덕에버빌(2단지))",
    "lat": 34.97390337430721,
    "lng": 127.60957539405068,
    "region": "전라남도"
  },
  {
    "name": "중앙상설시장 지하주차장 1층",
    "address": "전라남도 광양시 광양읍 인서중앙길 28 (중앙상설시장)",
    "lat": 34.96986489143687,
    "lng": 127.58483979804352,
    "region": "전라남도"
  },
  {
    "name": "대림아파트 관리사무소 지하 1층",
    "address": "전라남도 광양시 광양읍 대림오성로 11 (대림아파트)",
    "lat": 34.968804649597885,
    "lng": 127.5643306314579,
    "region": "전라남도"
  },
  {
    "name": "대림아파트 지하주차장 1층",
    "address": "전라남도 광양시 광양읍 대림오성로 11 (대림아파트)",
    "lat": 34.968804649597885,
    "lng": 127.5643306314579,
    "region": "전라남도"
  },
  {
    "name": "성호2차아파트1 지하주차장 1층",
    "address": "전라남도 광양시 광장로 70 (중동, 성호2차아파트)",
    "lat": 34.93265083218717,
    "lng": 127.69150456769135,
    "region": "전라남도"
  },
  {
    "name": "금호동 사랑아파트 7동 지하 1층 56s/s 기계실",
    "address": "전라남도 광양시 금호로 73 (금호동, 사랑아파트)",
    "lat": 34.93358212692913,
    "lng": 127.7180414995025,
    "region": "전라남도"
  },
  {
    "name": "광양읍사무소 지하 1층",
    "address": "전라남도 광양시 광양읍 남등길 6 (광양읍사무소)",
    "lat": 34.97288414578791,
    "lng": 127.58103517052828,
    "region": "전라남도"
  },
  {
    "name": "금광블루빌아파트 지하주차장 1층",
    "address": "전라남도 광양시 진등6길 11 (마동, 금광블루빌아파트)",
    "lat": 34.95511885889371,
    "lng": 127.6882454136622,
    "region": "전라남도"
  },
  {
    "name": "송보6차아파트 지하주차장 2층",
    "address": "전라남도 광양시 진등6길 51 (마동, 송보파인빌6차아파트)",
    "lat": 34.955874176365455,
    "lng": 127.69181763521593,
    "region": "전라남도"
  },
  {
    "name": "송보파인빌1,3차아파트 지하주차장 2층",
    "address": "전라남도 광양시 진등길 64 (마동, 송보파인빌뷰1차아파트)",
    "lat": 34.95388329200392,
    "lng": 127.69058040567114,
    "region": "전라남도"
  },
  {
    "name": "송보5차아파트 지하주차장 2층",
    "address": "전라남도 광양시 진등길 55-5 (마동, 송보파인빌5차아파트)",
    "lat": 34.95348713730714,
    "lng": 127.68963139133,
    "region": "전라남도"
  },
  {
    "name": "우봉카이스트빌아파트 지하주차장 1층",
    "address": "전라남도 광양시 오류로 100 (중동, 우봉카이스트빌)",
    "lat": 34.94654314087418,
    "lng": 127.6960978955556,
    "region": "전라남도"
  },
  {
    "name": "성호2차아파트2 지하주차장 1층",
    "address": "전라남도 광양시 광장로 70 (중동, 성호2차아파트)",
    "lat": 34.93265083218717,
    "lng": 127.69150456769135,
    "region": "전라남도"
  },
  {
    "name": "어울림센터 지하주차장 1층",
    "address": "전라남도 광양시 광영로 74 (광영동)",
    "lat": 34.962117504942434,
    "lng": 127.720914715387,
    "region": "전라남도"
  },
  {
    "name": "광양리치빌 지하 1층",
    "address": "전라남도 광양시 금영로 72 (광영동)",
    "lat": 34.95935790248858,
    "lng": 127.72170093142252,
    "region": "전라남도"
  },
  {
    "name": "한독연합의원",
    "address": "전라남도 광양시 영수3길 5 (광영동)",
    "lat": 34.963648476594486,
    "lng": 127.71759934273,
    "region": "전라남도"
  },
  {
    "name": "동광양농협",
    "address": "전라남도 광양시 광영로 70 (광영동)",
    "lat": 34.96211636866432,
    "lng": 127.7213741877647,
    "region": "전라남도"
  },
  {
    "name": "칠성 e편한세상 지하주차장 1층",
    "address": "전라남도 광양시 광양읍 서북2길 115 (칠성e-편한세상)",
    "lat": 34.975360885492165,
    "lng": 127.57595315384056,
    "region": "전라남도"
  },
  {
    "name": "브라운스톤 가야 지하주차장 1층",
    "address": "전라남도 광양시 가야로 345 (광영동, 브라운스톤가야)",
    "lat": 34.964677313971,
    "lng": 127.71306433063914,
    "region": "전라남도"
  },
  {
    "name": "동준빌라",
    "address": "전라남도 광양시 정수2길 55 (광영동)",
    "lat": 34.96294408872429,
    "lng": 127.72261516378944,
    "region": "전라남도"
  },
  {
    "name": "광양동부농협 옥곡지점 지하 1층",
    "address": "전라남도 광양시 옥곡면 옥진로 661 (옥곡농협)",
    "lat": 34.989508364299496,
    "lng": 127.69967361117789,
    "region": "전라남도"
  },
  {
    "name": "태완노블리안 지하주자창 1층",
    "address": "전라남도 광양시 마장1길 4(중동, 태완 노블리안)",
    "lat": 34.94373320778732,
    "lng": 127.70185891243848,
    "region": "전라남도"
  },
  {
    "name": "진아리채1차 지하주차장 1층",
    "address": "전라남도 광양시 중마중앙1길 65(중동, 중마동 진아리채)",
    "lat": 34.949759838879714,
    "lng": 127.6964771720071,
    "region": "전라남도"
  },
  {
    "name": "자연애아파트 지하주차장 1층",
    "address": "전라남도 광양시 진등5길 1(마동, 광양 마동 자연애)",
    "lat": 34.95479198251928,
    "lng": 127.68910945004598,
    "region": "전라남도"
  },
  {
    "name": "중마우림필유 지하주차장 2층",
    "address": "전라남도 광양시 눈소4길 65(마동, 광양중마 우림필유 아파트)",
    "lat": 34.93971194718263,
    "lng": 127.70902904286793,
    "region": "전라남도"
  },
  {
    "name": "신원아르시스 지하주차장 1층",
    "address": "전라남도 광양시 진등길 80(마동, 신원아르시스아파트)",
    "lat": 34.95558892500452,
    "lng": 127.69064604278162,
    "region": "전라남도"
  },
  {
    "name": "덕진광양의봄프리미엄2(1) 지하주차장 1층",
    "address": "전라남도 광양시 옥곡면 광영의암2로 2(광양의 봄 프리미엄2)",
    "lat": 34.9667910656104,
    "lng": 127.72054233337956,
    "region": "전라남도"
  },
  {
    "name": "덕진광양의봄프리미엄2(2) 지하주차장 1층",
    "address": "전라남도 광양시 옥곡면 광영의암2로 2(광양의 봄 프리미엄2)",
    "lat": 34.9667910656104,
    "lng": 127.72054233337956,
    "region": "전라남도"
  },
  {
    "name": "덕례수시아아파트 지하주차장 1층",
    "address": "전라남도 광양시 광양읍 서산길 43(수시아아파트)",
    "lat": 34.96961599072303,
    "lng": 127.56738971087202,
    "region": "전라남도"
  },
  {
    "name": "송보7차아파트 지하주차장 2층",
    "address": "전라남도 광양시 광양읍 와룡길 33(광양송보파인빌7차아파트)",
    "lat": 34.969696539833535,
    "lng": 127.6118899257133,
    "region": "전라남도"
  },
  {
    "name": "e편한세상 지하주차장 2층",
    "address": "전라남도 광양시 시청로 62(중동, e편한세상 광양)",
    "lat": 34.939526218447924,
    "lng": 127.6987441512254,
    "region": "전라남도"
  },
  {
    "name": "정담센터",
    "address": "전라남도 광양시 다압면 섬진강매화로 2144, 정담센터",
    "lat": 35.123356707360095,
    "lng": 127.69203283320137,
    "region": "전라남도"
  },
  {
    "name": "훙한에르가 아파트 103동 ~ 105동 지하주차장 1층",
    "address": "전라남도 광양시 광양읍 서산길 5, 103동 (흥한에르가)",
    "lat": 34.96938285697,
    "lng": 127.56342255682,
    "region": "전라남도"
  },
  {
    "name": "성황 다목적체육관 지하주차장 1층",
    "address": "전라남도 광양시 성황도이로 66-22 (도이동)",
    "lat": 34.9364325311939,
    "lng": 127.683503040946,
    "region": "전라남도"
  },
  {
    "name": "기가타운 지하 1층 및 2층 주차장",
    "address": "전라남도 광양시 희망길 12-7, 기가타운 (금호동)",
    "lat": 34.9365336386002,
    "lng": 127.724871282385,
    "region": "전라남도"
  },
  {
    "name": "KT담양지사(지하 1층)",
    "address": "전라남도 담양군 담양읍 추성로 1372",
    "lat": 35.320011156844735,
    "lng": 126.98825714219142,
    "region": "전라남도"
  },
  {
    "name": "비둘기아파트(지하 1층)",
    "address": "전라남도 담양군 담양읍 지침6길 43 (비둘기아파트)",
    "lat": 35.31720888175571,
    "lng": 126.98693481013458,
    "region": "전라남도"
  },
  {
    "name": "담양문화회관(지하 1층)",
    "address": "전라남도 담양군 담양읍 지침6길 29",
    "lat": 35.31632353471764,
    "lng": 126.98576172957824,
    "region": "전라남도"
  },
  {
    "name": "담양군청 구내식당(민원동 지하1층)",
    "address": "전라남도 담양군 담양읍 추성로 1371",
    "lat": 35.32026747871542,
    "lng": 126.9882294644061,
    "region": "전라남도"
  },
  {
    "name": "한국농어촌공사 담양지사(지하 1층)",
    "address": "전라남도 담양군 담양읍 삼거리길 12-27, 한국농촌공사담양지사",
    "lat": 35.31027974651821,
    "lng": 126.98231389703088,
    "region": "전라남도"
  },
  {
    "name": "담양군 산림조합(지하 1층)",
    "address": "전라남도 담양군 담양읍 삼거리길 12-21, 담양군산림조합",
    "lat": 35.31018781898312,
    "lng": 126.9828129266473,
    "region": "전라남도"
  },
  {
    "name": "청전아파트 101동(지하 1층)",
    "address": "전라남도 담양군 담양읍 미리산길 2 (담양청전APT)",
    "lat": 35.30797033285678,
    "lng": 126.98656909962604,
    "region": "전라남도"
  },
  {
    "name": "청전아파트 102동(지하 1층)",
    "address": "전라남도 담양군 담양읍 미리산길 2 (담양청전APT)",
    "lat": 35.30797033285678,
    "lng": 126.98656909962604,
    "region": "전라남도"
  },
  {
    "name": "건강보험관리공단 담양출장소(지하 1층)",
    "address": "전라남도 담양군 담양읍 삼거리길 8-10",
    "lat": 35.31035491681854,
    "lng": 126.98188159871796,
    "region": "전라남도"
  },
  {
    "name": "한국대나무박물관 관리사무실(지하 1층)",
    "address": "전라남도 담양군 담양읍 죽향문화로 35",
    "lat": 35.31026129182953,
    "lng": 126.97742561889154,
    "region": "전라남도"
  },
  {
    "name": "전남도립대학교(지하 1층)",
    "address": "전라남도 담양군 담양읍 죽녹원로 152",
    "lat": 35.32720469267422,
    "lng": 126.98878099617454,
    "region": "전라남도"
  },
  {
    "name": "담양소방서(지하 1층)",
    "address": "전라남도 담양군 담양읍 추성로 1232",
    "lat": 35.31839128318552,
    "lng": 126.97308393701746,
    "region": "전라남도"
  },
  {
    "name": "담양축산농협 백동지점(지하 1층)",
    "address": "전라남도 담양군 담양읍 삼거리길 8-6",
    "lat": 35.31052926945072,
    "lng": 126.98198060962272,
    "region": "전라남도"
  },
  {
    "name": "담양군 농업기술센터(지하 1층)",
    "address": "전라남도 담양군 담양읍 면앙정로 730",
    "lat": 35.31204782339525,
    "lng": 126.97335299081696,
    "region": "전라남도"
  },
  {
    "name": "담양군보건소(지하 1층)",
    "address": "전라남도 담양군 담양읍 완동길 10-11",
    "lat": 35.32472686906402,
    "lng": 126.9814576592608,
    "region": "전라남도"
  },
  {
    "name": "담양경찰서(지하 1층)",
    "address": "전라남도 담양군 담양읍 무정로 15, 담양경찰서",
    "lat": 35.30926192757752,
    "lng": 126.98280741343532,
    "region": "전라남도"
  },
  {
    "name": "한국전력공사 담양지사(지하 1층)",
    "address": "전라남도 담양군 담양읍 무정로 25, 한국전력공사담양지점",
    "lat": 35.30913071336748,
    "lng": 126.98393313989108,
    "region": "전라남도"
  },
  {
    "name": "담양백동주공아파트(지하주차장 1층)",
    "address": "전라남도 담양군 담양읍 미리산길 34 (백동주공아파트)",
    "lat": 35.31113471400477,
    "lng": 126.98640139163368,
    "region": "전라남도"
  },
  {
    "name": "담양종합체육관(지하 1층)",
    "address": "전라남도 담양군 담양읍 죽녹원로 134",
    "lat": 35.32556702457702,
    "lng": 126.98807936026796,
    "region": "전라남도"
  },
  {
    "name": "담양 양우내안애 퍼스트힐 1단지(지하주차장 1층)",
    "address": "전라남도 담양군 담양읍 태왕3로 37(양우내안애퍼스트힐 1단지)",
    "lat": 35.315677590029246,
    "lng": 126.94451521894348,
    "region": "전라남도"
  },
  {
    "name": "담양 양우내안애 더퍼스트 2단지(지하주차장 1층)",
    "address": "전라남도 담양군 담양읍 태왕3로 50(양우내안애퍼스트힐 2단지)",
    "lat": 35.315164807951064,
    "lng": 126.94598639714096,
    "region": "전라남도"
  },
  {
    "name": "곡성경찰서 지하1층",
    "address": "전라남도 곡성군 곡성읍 중앙로 161",
    "lat": 35.28366944262158,
    "lng": 127.29923493560231,
    "region": "전라남도"
  },
  {
    "name": "곡성교육지원청 지하1층",
    "address": "전라남도 곡성군 곡성읍 군청로 13",
    "lat": 35.279486763956456,
    "lng": 127.29311018321424,
    "region": "전라남도"
  },
  {
    "name": "KT곡성지점 지하1층",
    "address": "전라남도 곡성군 곡성읍 학교로 114",
    "lat": 35.283341836226455,
    "lng": 127.29220929432049,
    "region": "전라남도"
  },
  {
    "name": "도림아파트 지하1층",
    "address": "전라남도 곡성군 곡성읍 삼인동길 15, 시온음악학원",
    "lat": 35.28446846317617,
    "lng": 127.29056751528766,
    "region": "전라남도"
  },
  {
    "name": "고운아파트 지하1층",
    "address": "전라남도 곡성군 곡성읍 읍내2길 13(곡성고운아파트)",
    "lat": 35.27796804370269,
    "lng": 127.2913393862282,
    "region": "전라남도"
  },
  {
    "name": "옥과농협 지하1층",
    "address": "전라남도 곡성군 옥과면 대학로 142",
    "lat": 35.27596722735421,
    "lng": 127.13521431868972,
    "region": "전라남도"
  },
  {
    "name": "전남과학대학교 승지원 지하1층",
    "address": "전라남도 곡성군 옥과면 대학로 113",
    "lat": 35.27463362844927,
    "lng": 127.13255505922118,
    "region": "전라남도"
  },
  {
    "name": "전남과학대학교 우암관 지하1층",
    "address": "전라남도 곡성군 옥과면 대학로 113",
    "lat": 35.27463362844927,
    "lng": 127.13255505922118,
    "region": "전라남도"
  },
  {
    "name": "성암맨션 지하1층",
    "address": "전라남도 곡성군 옥과면 죽림2길 45(성암맨션)",
    "lat": 35.27551162515734,
    "lng": 127.14144759102568,
    "region": "전라남도"
  },
  {
    "name": "한국도로공사곡성영업소 지하1층",
    "address": "전라남도 곡성군 삼기면 호남고속도로 42",
    "lat": 35.227291303898056,
    "lng": 127.22554915042684,
    "region": "전라남도"
  },
  {
    "name": "곡성사랑병원 지하1층",
    "address": "전라남도 곡성군 곡성읍 곡성로 761",
    "lat": 35.2759861159256,
    "lng": 127.28795107578782,
    "region": "전라남도"
  },
  {
    "name": "한양파크빌 지하1층",
    "address": "전라남도 곡성군 곡성읍 삼인동길 21(곡성한양파크빌)",
    "lat": 35.28482394749776,
    "lng": 127.29038308848942,
    "region": "전라남도"
  },
  {
    "name": "금호타이어(주)곡성공장 본관 지하1층",
    "address": "전라남도 곡성군 입면 금호길 85-63",
    "lat": 35.31092837740223,
    "lng": 127.2064474157731,
    "region": "전라남도"
  },
  {
    "name": "금호타이어(주)곡성공장 별관 지하1층",
    "address": "전라남도 곡성군 입면 금호길 85-63",
    "lat": 35.31092837740223,
    "lng": 127.2064474157731,
    "region": "전라남도"
  },
  {
    "name": "금호사원아파트 지하1층",
    "address": "전라남도 곡성군 입면 송전로 9-6(금호사원임대아파트)",
    "lat": 35.30521824544108,
    "lng": 127.18659649735984,
    "region": "전라남도"
  },
  {
    "name": "한국도로공사옥과영업소 지하1층",
    "address": "전라남도 곡성군 오산면 호남고속도로 54",
    "lat": 35.2609702385354,
    "lng": 127.116539311317,
    "region": "전라남도"
  },
  {
    "name": "구례군청 본관 지하 1층",
    "address": "전라남도 구례군 구례읍 봉성로 1",
    "lat": 35.202404742412426,
    "lng": 127.46405005109462,
    "region": "전라남도"
  },
  {
    "name": "KT구례지점 지하 1층",
    "address": "전라남도 구례군 구례읍 봉덕정길 11, KT구례지사",
    "lat": 35.2070944976158,
    "lng": 127.463141204667,
    "region": "전라남도"
  },
  {
    "name": "농협중앙회 구례군지부 지하 1층",
    "address": "전라남도 구례군 구례읍 봉성로 65",
    "lat": 35.2081697973542,
    "lng": 127.464398885173,
    "region": "전라남도"
  },
  {
    "name": "명지아파트 전체동의 지하1층",
    "address": "전라남도 구례군 구례읍 동편제길 42 (명지아파트)",
    "lat": 35.2154405411982,
    "lng": 127.459880492174,
    "region": "전라남도"
  },
  {
    "name": "목련파크 지하1층",
    "address": "전라남도 구례군 구례읍 봉성로 16-7 (목련파크맨션)",
    "lat": 35.2038928276169,
    "lng": 127.465236891566,
    "region": "전라남도"
  },
  {
    "name": "구례축산농협 지하1층",
    "address": "전라남도 구례군 구례읍 봉성로 48, 구례축산농협",
    "lat": 35.2065490861882,
    "lng": 127.46473768083,
    "region": "전라남도"
  },
  {
    "name": "단반트리 지리산요양병원 지하 1층",
    "address": "전라남도 구례군 구례읍 봉동길 31, 단반트리지리산요양병원",
    "lat": 35.20978040222593,
    "lng": 127.4712609149142,
    "region": "전라남도"
  },
  {
    "name": "동방빌라 지하1층",
    "address": "전라남도 구례군 구례읍 구례2길 44 (동방빌라)",
    "lat": 35.2102149951704,
    "lng": 127.463447353998,
    "region": "전라남도"
  },
  {
    "name": "새미소요양병원 지하1층",
    "address": "전라남도 구례군 구례읍 구례로 28, 새미소요양병원",
    "lat": 35.1666791539486,
    "lng": 127.455172605255,
    "region": "전라남도"
  },
  {
    "name": "정다운메디컬센터 지하1층",
    "address": "전라남도 구례군 구례읍 구례1길 48",
    "lat": 35.2093665311262,
    "lng": 127.466308378344,
    "region": "전라남도"
  },
  {
    "name": "구례 종합사회복지관 지하1층",
    "address": "전라남도 구례군 구례읍 구례로 508",
    "lat": 35.2059681857751,
    "lng": 127.470072894998,
    "region": "전라남도"
  },
  {
    "name": "구례 공설운동장 지하1층",
    "address": "전라남도 구례군 구례읍 서시천로 90-11",
    "lat": 35.21685681835784,
    "lng": 127.46819755683885,
    "region": "전라남도"
  },
  {
    "name": "섬지뜰아파트 지하 1층",
    "address": "전라남도 구례군 구례읍 구례2길 105 (섬지뜰아파트)",
    "lat": 35.2157822101336,
    "lng": 127.463128740951,
    "region": "전라남도"
  },
  {
    "name": "산이고운아파트 지하주차장 1층",
    "address": "전라남도 구례군 구례읍 수달생태로 25-5 (구례산이고운아파트)",
    "lat": 35.2021805527911,
    "lng": 127.467519609924,
    "region": "전라남도"
  },
  {
    "name": "고흥군청 지하 1층",
    "address": "전라남도 고흥군 고흥읍 고흥군청로 1",
    "lat": 34.60507189515497,
    "lng": 127.27652881653596,
    "region": "전라남도"
  },
  {
    "name": "KT 고흥지점 지하1층",
    "address": "전라남도 고흥군 고흥읍 여산당촌길 8 (KT고흥지점)",
    "lat": 34.60763572875623,
    "lng": 127.28223860674017,
    "region": "전라남도"
  },
  {
    "name": "고흥교육청 지하1층",
    "address": "전라남도 고흥군 고흥읍 백련장전길 36 (고흥교육지원청)",
    "lat": 34.59648999659189,
    "lng": 127.27745108367009,
    "region": "전라남도"
  },
  {
    "name": "고흥우체국 지하 1층",
    "address": "전라남도 고흥군 고흥읍 봉황길 5 (고흥우체국)",
    "lat": 34.61030839587667,
    "lng": 127.28460558145892,
    "region": "전라남도"
  },
  {
    "name": "고흥종합병원 지하1층",
    "address": "전라남도 고흥군 고흥읍 고흥로 1935 (병원)",
    "lat": 34.62098422888948,
    "lng": 127.29428013040284,
    "region": "전라남도"
  },
  {
    "name": "고흥경찰서 지하1층",
    "address": "전라남도 고흥군 고흥읍 흥양길 42 (고흥경찰서)",
    "lat": 34.61090765125645,
    "lng": 127.2845718367196,
    "region": "전라남도"
  },
  {
    "name": "고흥군산림조합 지하주차장 1층",
    "address": "전라남도 고흥군 고흥읍 여산당촌길 25",
    "lat": 34.607391131673936,
    "lng": 127.28035213046124,
    "region": "전라남도"
  },
  {
    "name": "고흥윤호21병원 지하 1층",
    "address": "전라남도 고흥군 고흥읍 터미널길 16 (윤호21종합병원)",
    "lat": 34.60663960967513,
    "lng": 127.28148024133834,
    "region": "전라남도"
  },
  {
    "name": "고흥장미아파트2차 1층",
    "address": "전라남도 고흥군 고흥읍 후동길 50 (장미아파트2차)",
    "lat": 34.61315102126214,
    "lng": 127.28824003608518,
    "region": "전라남도"
  },
  {
    "name": "녹동현대병원 지하 1층",
    "address": "전라남도 고흥군 도양읍 차경구렁목길 215",
    "lat": 34.546239000240135,
    "lng": 127.14565413976958,
    "region": "전라남도"
  },
  {
    "name": "녹동프라자아파트 지하 1층",
    "address": "전라남도 고흥군 도양읍 녹동신항8길 45 (녹동프라자아파트)",
    "lat": 34.52765477762779,
    "lng": 127.14526370286552,
    "region": "전라남도"
  },
  {
    "name": "보성군청 지하주차장 1,2층",
    "address": "전라남도 보성군 보성읍 송재로 165 (보성군청)",
    "lat": 34.77090261077656,
    "lng": 127.08012669335878,
    "region": "전라남도"
  },
  {
    "name": "KT보성지점 지하1층",
    "address": "전라남도 보성군 보성읍 중앙로 87",
    "lat": 34.769514711616786,
    "lng": 127.08146530374869,
    "region": "전라남도"
  },
  {
    "name": "KT벌교지점 지하1층",
    "address": "전라남도 보성군 벌교읍 채동선로 273",
    "lat": 34.846323020092754,
    "lng": 127.34355553941973,
    "region": "전라남도"
  },
  {
    "name": "보성경찰서 지하1층",
    "address": "전라남도 보성군 보성읍 중앙로 88",
    "lat": 34.76970857489314,
    "lng": 127.08157308932016,
    "region": "전라남도"
  },
  {
    "name": "한전보성지점 지하1층",
    "address": "전라남도 보성군 보성읍 송재로 53",
    "lat": 34.76265105382677,
    "lng": 127.0730581048444,
    "region": "전라남도"
  },
  {
    "name": "보성교육지원청 지하1층",
    "address": "전라남도 보성군 보성읍 새싹길 26",
    "lat": 34.77024831735208,
    "lng": 127.07669313536854,
    "region": "전라남도"
  },
  {
    "name": "농협보성군지부 지하주차장1층",
    "address": "전라남도 보성군 보성읍 현충로 91",
    "lat": 34.767630710706776,
    "lng": 127.0816274465777,
    "region": "전라남도"
  },
  {
    "name": "우산주공아파트 지하1층",
    "address": "전라남도 보성군 보성읍 중앙로 7 (우산 주공아파트)",
    "lat": 34.76545166329015,
    "lng": 127.08827677346711,
    "region": "전라남도"
  },
  {
    "name": "부영아파트 지하1층",
    "address": "전라남도 보성군 벌교읍 시장2길 17",
    "lat": 34.84392173038154,
    "lng": 127.34636157604297,
    "region": "전라남도"
  },
  {
    "name": "보성소방서 지하1층",
    "address": "전라남도 보성군 벌교읍 녹색로 5247",
    "lat": 34.83838899051043,
    "lng": 127.31549341721166,
    "region": "전라남도"
  },
  {
    "name": "제석아파트 지하1층",
    "address": "전라남도 보성군 벌교읍 홍암로 123-6 (벌교제석아파트)",
    "lat": 34.84739381209858,
    "lng": 127.35535027013024,
    "region": "전라남도"
  },
  {
    "name": "우리아파트 지하1층",
    "address": "전라남도 보성군 벌교읍 신정길 47-24 (우리APT)",
    "lat": 34.84630837337208,
    "lng": 127.35162193550198,
    "region": "전라남도"
  },
  {
    "name": "장미아파트 지하1층",
    "address": "전라남도 보성군 벌교읍 홍암로 116-10 (장미아파트)",
    "lat": 34.846513963237946,
    "lng": 127.35502785058108,
    "region": "전라남도"
  },
  {
    "name": "보성종합사회복지관 지하1층",
    "address": "전라남도 보성군 보성읍 동인길 18-6",
    "lat": 34.77047272055138,
    "lng": 127.08327903933493,
    "region": "전라남도"
  },
  {
    "name": "보성제일요양병원 지하1층",
    "address": "전라남도 보성군 보성읍 송재로 59-2",
    "lat": 34.76322482512708,
    "lng": 127.07334444136382,
    "region": "전라남도"
  },
  {
    "name": "보성아산병원 지하1층",
    "address": "전라남도 보성군 미력면 가평길 36-17",
    "lat": 34.77533037932689,
    "lng": 127.10376097183438,
    "region": "전라남도"
  },
  {
    "name": "보성센트럴뷰 아파트 지하주차장 1,2층",
    "address": "전라남도 보성군 보성읍 중앙로 49 (보성센트럴뷰)",
    "lat": 34.76761768986497,
    "lng": 127.08487842226734,
    "region": "전라남도"
  },
  {
    "name": "보성회정LH천년나무 아파트 지하주차장1층",
    "address": "전라남도 보성군 벌교읍 못골길 12 (보성회정엘에이치천년나무)",
    "lat": 34.847992141597025,
    "lng": 127.3563266721176,
    "region": "전라남도"
  },
  {
    "name": "제이아트 아파트 지하주차장1층",
    "address": "전라남도 보성군 벌교읍 홍암로 101, 제이아트 아파트",
    "lat": 34.84782833914897,
    "lng": 127.35338597223168,
    "region": "전라남도"
  },
  {
    "name": "보성군문화예술회관",
    "address": "전라남도 보성군 보성읍 송재로 281-9, 보성군문화예술회관",
    "lat": 34.7781289568817,
    "lng": 127.088484995967,
    "region": "전라남도"
  },
  {
    "name": "화순군청 구내식당 지하1층",
    "address": "전라남도 화순군 화순읍 동헌길 23, 화순군청",
    "lat": 35.063927474281265,
    "lng": 126.9861601721822,
    "region": "전라남도"
  },
  {
    "name": "화순군민회관 지하1층",
    "address": "전라남도 화순군 화순읍 진각로 85, 군민회관,서양정",
    "lat": 35.05839474832096,
    "lng": 126.98555461705736,
    "region": "전라남도"
  },
  {
    "name": "화순읍행정복지센터 지하 1층",
    "address": "전라남도 화순군 화순읍 중앙로 20-4, 화순읍행정복지센터",
    "lat": 35.0600184681443,
    "lng": 126.98405720775624,
    "region": "전라남도"
  },
  {
    "name": "부영2차아파트 지하주차장 1층",
    "address": "전라남도 화순군 화순읍 광덕로 155(화순 부영2차 아파트)",
    "lat": 35.05873720099363,
    "lng": 126.99229938622412,
    "region": "전라남도"
  },
  {
    "name": "부영5차아파트 지하주차장 1층",
    "address": "전라남도 화순군 화순읍 광덕로 202(화순 부영아파트)",
    "lat": 35.06281967430228,
    "lng": 126.99260698244318,
    "region": "전라남도"
  },
  {
    "name": "부영3차아파트 지하주차장 1층",
    "address": "전라남도 화순군 화순읍 광덕로 180(화순 부영아파트)",
    "lat": 35.06102219271056,
    "lng": 126.99258071131666,
    "region": "전라남도"
  },
  {
    "name": "금호아파트 지하주차장 1층",
    "address": "전라남도 화순군 화순읍 광덕로 203(금호타운)",
    "lat": 35.06304896543276,
    "lng": 126.99232535198344,
    "region": "전라남도"
  },
  {
    "name": "부영6차아파트 지하주차장 1층",
    "address": "전라남도 화순군 화순읍 광덕로 215(화순 부영아파트)",
    "lat": 35.06412401560242,
    "lng": 126.9923317302246,
    "region": "전라남도"
  },
  {
    "name": "화순군청 의회동 지하주차장 1층",
    "address": "전라남도 화순군 화순읍 동헌길 23, 화순군청",
    "lat": 35.063927474281265,
    "lng": 126.9861601721822,
    "region": "전라남도"
  },
  {
    "name": "하니움 문화스포츠센터 지하 1층",
    "address": "전라남도 화순군 화순읍 학포로 2698, 하니움스포츠센터,공설운동장,이용대체육관",
    "lat": 35.04950388786511,
    "lng": 126.96602731281928,
    "region": "전라남도"
  },
  {
    "name": "광덕택지지구 지하공영주차장 1층",
    "address": "전라남도 화순군 화순읍 만연로 40",
    "lat": 35.05927720948764,
    "lng": 126.99036741956684,
    "region": "전라남도"
  },
  {
    "name": "대성베르힐아파트 지하주차장 1층",
    "address": "전라남도 화순군 화순읍 칠충로 61-28 (대성베르힐)",
    "lat": 35.05681469137521,
    "lng": 126.97591075608076,
    "region": "전라남도"
  },
  {
    "name": "화순청미래아파트 지하주차장 1층",
    "address": "전라남도 화순군 화순읍 칠충로 23 (화순청미래아파트)",
    "lat": 35.05384771178277,
    "lng": 126.97497601092282,
    "region": "전라남도"
  },
  {
    "name": "삼일파라뷰아파트 지하주차장 1, 2층",
    "address": "전라남도 화순군 화순읍 오성로 485 (화순 삼일파라뷰 에듀시티)",
    "lat": 35.05251891749127,
    "lng": 126.96185733881464,
    "region": "전라남도"
  },
  {
    "name": "화순산이고운아파트 지하주차장 1층",
    "address": "전라남도 화순군 화순읍 쌍충로 14 (화순산이고운)",
    "lat": 35.05310021147945,
    "lng": 126.98253944570854,
    "region": "전라남도"
  },
  {
    "name": "화순한양립스아파트 지하주차장 1층",
    "address": "전라남도 화순군 화순읍 쌍충로 13-20 (화순 삼천 한양립스 아파트)",
    "lat": 35.053097560654976,
    "lng": 126.97954289611774,
    "region": "전라남도"
  },
  {
    "name": "화순힐스테이트아파트 지하주차장 1, 2층",
    "address": "전라남도 화순군 화순읍 칠충로 141-7 (힐스테이트 화순)",
    "lat": 35.06157481833198,
    "lng": 126.98302834923716,
    "region": "전라남도"
  },
  {
    "name": "광주지방법원장흥지원(지하 1층)",
    "address": "전라남도 장흥군 장흥읍 읍성로 121-1 (광주지방검찰청장흥지청)",
    "lat": 34.678673980504065,
    "lng": 126.896644403868,
    "region": "전라남도"
  },
  {
    "name": "광주지방검찰청장흥지청(지하 1층)",
    "address": "전라남도 장흥군 장흥읍 읍성로 121-1 (광주지방검찰청장흥지청)",
    "lat": 34.678673980504065,
    "lng": 126.896644403868,
    "region": "전라남도"
  },
  {
    "name": "장흥군청(지하 1층)",
    "address": "전라남도 장흥군 장흥읍 장흥로 21 (장흥군청,장흥군의회)",
    "lat": 34.68117001191965,
    "lng": 126.90714191271329,
    "region": "전라남도"
  },
  {
    "name": "농협중앙회장흥군지부(지하 1층)",
    "address": "전라남도 장흥군 장흥읍 장흥로 17 (농협중앙회장흥군지부)",
    "lat": 34.680950172309835,
    "lng": 126.9067335287733,
    "region": "전라남도"
  },
  {
    "name": "장흥종합병원(지하 1층)",
    "address": "전라남도 장흥군 장흥읍 흥성로 74 (장흥종합병원,장흥종합병원장례식장)",
    "lat": 34.67720433017114,
    "lng": 126.91075409185372,
    "region": "전라남도"
  },
  {
    "name": "장흥우리병원(지하 1층)",
    "address": "전라남도 장흥군 장흥읍 흥성로 83-0 (우리병원)",
    "lat": 34.67833645209958,
    "lng": 126.9111711320329,
    "region": "전라남도"
  },
  {
    "name": "장흥군민회관(지하 1층)",
    "address": "전라남도 장흥군 장흥읍 흥성로 55-0 (장흥군민회관)",
    "lat": 34.67653734893596,
    "lng": 126.90887601985936,
    "region": "전라남도"
  },
  {
    "name": "미래1차아파트(지하 1층)",
    "address": "전라남도 장흥군 장흥읍 부동로 31",
    "lat": 34.68010455034296,
    "lng": 126.90932268167356,
    "region": "전라남도"
  },
  {
    "name": "공공도서관(지하 1층)",
    "address": "전라남도 장흥군 장흥읍 중앙로2길 33 (장흥공공도서관)",
    "lat": 34.681423523869626,
    "lng": 126.910443485061,
    "region": "전라남도"
  },
  {
    "name": "미래2차아파트(지하 1층)",
    "address": "전라남도 장흥군 장흥읍 동교로 43 (미래아파트)",
    "lat": 34.68414795912687,
    "lng": 126.90439299930352,
    "region": "전라남도"
  },
  {
    "name": "장흥우체국(지하 1층)",
    "address": "전라남도 장흥군 장흥읍 장흥로 15 (장흥우체국)",
    "lat": 34.680820822343904,
    "lng": 126.90642942100948,
    "region": "전라남도"
  },
  {
    "name": "신동현아파트(지하 1층)",
    "address": "전라남도 장흥군 장흥읍 동교로 57-12 (신동현강변타운)",
    "lat": 34.685417246782315,
    "lng": 126.90353193406496,
    "region": "전라남도"
  },
  {
    "name": "미래3차아파트(지하 1층)",
    "address": "전라남도 장흥군 장흥읍 동부로 67-5 (미래아파트3차)",
    "lat": 34.678660952805274,
    "lng": 126.91461375725063,
    "region": "전라남도"
  },
  {
    "name": "계명아파트(지하 1층)",
    "address": "전라남도 장흥군 장흥읍 장흥대로 3492 (장흥계명아파트)",
    "lat": 34.67522530689092,
    "lng": 126.9059850016414,
    "region": "전라남도"
  },
  {
    "name": "장흥교육청(지하 1층)",
    "address": "전라남도 장흥군 장흥읍 동교로 64-17 (전라남도 장흥교육청)",
    "lat": 34.686123612290466,
    "lng": 126.90506554160623,
    "region": "전라남도"
  },
  {
    "name": "장흥지역자활센터(지하 1층)",
    "address": "전라남도 장흥군 장흥읍 흥성로 17 (전남 장흥지역자활센터)",
    "lat": 34.673923371309414,
    "lng": 126.90609844914486,
    "region": "전라남도"
  },
  {
    "name": "장흥제일교회(지하 1층)",
    "address": "전라남도 장흥군 장흥읍 동부로 31-16 (장흥제일교회,제일교회어린이집)",
    "lat": 34.680945127996445,
    "lng": 126.91195054483704,
    "region": "전라남도"
  },
  {
    "name": "진송관광호텔(지하 1층)",
    "address": "전라남도 장흥군 장흥읍 동교2길 1 (진송관광호텔)",
    "lat": 34.677621373918115,
    "lng": 126.9060657293775,
    "region": "전라남도"
  },
  {
    "name": "성은연립(지하 1층)",
    "address": "전라남도 장흥군 장흥읍 우드랜드길 136 (성은연립)",
    "lat": 34.67184224753634,
    "lng": 126.93093717923068,
    "region": "전라남도"
  },
  {
    "name": "장흥종합병원 장례식장(지하 1층)",
    "address": "전라남도 장흥군 장흥읍 흥성로 74 (장흥종합병원,장흥종합병원장례식장)",
    "lat": 34.67720433017114,
    "lng": 126.91075409185372,
    "region": "전라남도"
  },
  {
    "name": "솔뫼타운102동(지하 1층)",
    "address": "전라남도 장흥군 장흥읍 건산남부길 31-0",
    "lat": 34.67818377551342,
    "lng": 126.91344849826896,
    "region": "전라남도"
  },
  {
    "name": "수창아파트(지하 1층)",
    "address": "전라남도 장흥군 장흥읍 북부로 39 (수창아트빌아파트)",
    "lat": 34.68527355575065,
    "lng": 126.90688243896626,
    "region": "전라남도"
  },
  {
    "name": "유치면사무소(지하 1층)",
    "address": "전라남도 장흥군 유치면 유치로 22 (유치면농어민상단소,유치면사무소)",
    "lat": 34.8021480227074,
    "lng": 126.83905035298204,
    "region": "전라남도"
  },
  {
    "name": "솔뫼타운101동(지하 1층)",
    "address": "전라남도 장흥군 장흥읍 건산남부길 31-0",
    "lat": 34.67818377551342,
    "lng": 126.91344849826896,
    "region": "전라남도"
  },
  {
    "name": "유치면복지회관(지하 1층)",
    "address": "전라남도 장흥군 유치면 유치로 22 (유치면농어민상단소,유치면사무소)",
    "lat": 34.8021480227074,
    "lng": 126.83905035298204,
    "region": "전라남도"
  },
  {
    "name": "장흥청소년수련관(지하 1층)",
    "address": "전라남도 장흥군 장흥읍 흥성로 37-23 (장흥군청소년수련관)",
    "lat": 34.67517568740007,
    "lng": 126.90674645504184,
    "region": "전라남도"
  },
  {
    "name": "장흥종합사회복지관(지하 1층)",
    "address": "전라남도 장흥군 장흥읍 흥성로 37-24 (장흥종합사회복지관)",
    "lat": 34.67553568204484,
    "lng": 126.9070874973932,
    "region": "전라남도"
  },
  {
    "name": "장흥문화예술회관(지하 1층)",
    "address": "전라남도 장흥군 장흥읍 읍성로 96 (장흥문화예술회관)",
    "lat": 34.676529042256774,
    "lng": 126.89762384954103,
    "region": "전라남도"
  },
  {
    "name": "용산면종합복지회관(지하1층)",
    "address": "전라남도 장흥군 용산면 장흥대로 2478, 용산종합복지관",
    "lat": 34.616167163763166,
    "lng": 126.91406189781377,
    "region": "전라남도"
  },
  {
    "name": "용산면종합복지회관(지하1층)",
    "address": "전라남도 장흥군 용산면 장흥대로 2478, 용산종합복지관",
    "lat": 34.6162527758541,
    "lng": 126.914074688231,
    "region": "전라남도"
  },
  {
    "name": "정남진도서관(지하 1층)",
    "address": "전라남도 장흥군 장흥읍 흥성로 23 (정남진도서관)",
    "lat": 34.67433265238584,
    "lng": 126.90664774994018,
    "region": "전라남도"
  },
  {
    "name": "장흥국민체육센터(지하 1층)",
    "address": "전라남도 장흥군 장흥읍 흥성로 43 (장흥국민체육센터)",
    "lat": 34.67563810293254,
    "lng": 126.90814722771545,
    "region": "전라남도"
  },
  {
    "name": "장흥주공아파트(지하 1층)",
    "address": "전라남도 장흥군 장흥읍 북부로 62-1 (주공아파트)",
    "lat": 34.68547697156637,
    "lng": 126.90902698287172,
    "region": "전라남도"
  },
  {
    "name": "수창휴그린2차아파트(지하 1층)",
    "address": "전라남도 장흥군 장흥읍 동교로 67 (수창 휴그린)",
    "lat": 34.686224258891755,
    "lng": 126.90378046970903,
    "region": "전라남도"
  },
  {
    "name": "장흥중앙교회(지하 1층)",
    "address": "전라남도 장흥군 장흥읍 읍성로 154 (장흥중앙교회)",
    "lat": 34.6792112014038,
    "lng": 126.901368854121,
    "region": "전라남도"
  },
  {
    "name": "강진의료원 지하1층",
    "address": "전라남도 강진군 강진읍 탐진로 5",
    "lat": 34.63612247151885,
    "lng": 126.75831682092992,
    "region": "전라남도"
  },
  {
    "name": "참마트 지하1층",
    "address": "전라남도 강진군 강진읍 평동2길 30",
    "lat": 34.63792333092176,
    "lng": 126.76787680941038,
    "region": "전라남도"
  },
  {
    "name": "KT강진지점 지하1층",
    "address": "전라남도 강진군 강진읍 영랑로 8-0",
    "lat": 34.63683335844586,
    "lng": 126.76992652791012,
    "region": "전라남도"
  },
  {
    "name": "강진경찰서 지하1층",
    "address": "전라남도 강진군 강진읍 탐진로 119 (강진경찰서)",
    "lat": 34.64198234149938,
    "lng": 126.76807368269924,
    "region": "전라남도"
  },
  {
    "name": "한국전력공사강진지사 지하1층",
    "address": "전라남도 강진군 강진읍 목리길 50-0",
    "lat": 34.63541355852633,
    "lng": 126.77815900300264,
    "region": "전라남도"
  },
  {
    "name": "신강진전력소 지하1층",
    "address": "전라남도 강진군 성전면 무위사로 156-48",
    "lat": 34.73127599394837,
    "lng": 126.69997959920408,
    "region": "전라남도"
  },
  {
    "name": "씨엔에스2차아파트 지하주차장",
    "address": "전라남도 강진군 강진읍 탐진로 60",
    "lat": 34.638117474101186,
    "lng": 126.76374213958016,
    "region": "전라남도"
  },
  {
    "name": "강진군청 지하1층",
    "address": "전라남도 강진군 강진읍 탐진로 111-0",
    "lat": 34.641747973313386,
    "lng": 126.76743682331404,
    "region": "전라남도"
  },
  {
    "name": "대아아파트 지하1층",
    "address": "전라남도 강진군 강진읍 중앙동길 6-0",
    "lat": 34.63546575609228,
    "lng": 126.76545857978034,
    "region": "전라남도"
  },
  {
    "name": "강진교육지원청 지하1층",
    "address": "전라남도 강진군 강진읍 금릉6길 8-0",
    "lat": 34.635521304265126,
    "lng": 126.7707242832766,
    "region": "전라남도"
  },
  {
    "name": "건우1차아파트 지하1층",
    "address": "전라남도 강진군 강진읍 고성길 3",
    "lat": 34.63755503724318,
    "lng": 126.76177620844086,
    "region": "전라남도"
  },
  {
    "name": "금산주상복합빌딩 지하주차장",
    "address": "전라남도 강진군 강진읍 영랑로1길 31",
    "lat": 34.63889862478293,
    "lng": 126.7720462793439,
    "region": "전라남도"
  },
  {
    "name": "금호아파트 지하주차장",
    "address": "전라남도 강진군 강진읍 평동2길 31-0",
    "lat": 34.637996939202665,
    "lng": 126.7674962538352,
    "region": "전라남도"
  },
  {
    "name": "씨엔에스3차아파트 지하주차장",
    "address": "전라남도 강진군 강진읍 서문길 29-9",
    "lat": 34.640130917411184,
    "lng": 126.76221404807217,
    "region": "전라남도"
  },
  {
    "name": "금호상가 지하1층",
    "address": "전라남도 강진군 강진읍 중앙로 88 (금호상가)",
    "lat": 34.638012493298405,
    "lng": 126.76707822721752,
    "region": "전라남도"
  },
  {
    "name": "제일교회 지하1층",
    "address": "전라남도 강진군 강진읍 중앙로 81",
    "lat": 34.63776796898559,
    "lng": 126.76659340800664,
    "region": "전라남도"
  },
  {
    "name": "에덴교회 지하1층",
    "address": "전라남도 강진군 강진읍 삼일로 43-0",
    "lat": 34.63636204212072,
    "lng": 126.76289931559812,
    "region": "전라남도"
  },
  {
    "name": "강진읍교회 지하1층",
    "address": "전라남도 강진군 강진읍 연지길 12",
    "lat": 34.640149291655376,
    "lng": 126.76834152450704,
    "region": "전라남도"
  },
  {
    "name": "제일맨션 지하1층",
    "address": "전라남도 강진군 강진읍 신성길 31",
    "lat": 34.63790895591856,
    "lng": 126.7661213006028,
    "region": "전라남도"
  },
  {
    "name": "계산교회 지하1층",
    "address": "전라남도 강진군 군동면 군동계산길 10",
    "lat": 34.64520565069943,
    "lng": 126.78712881725453,
    "region": "전라남도"
  },
  {
    "name": "한국농어촌공사강진지사 지하1층",
    "address": "전라남도 강진군 강진읍 초지길 24-0",
    "lat": 34.63527629884493,
    "lng": 126.77326504895125,
    "region": "전라남도"
  },
  {
    "name": "강진등기소 지하1층",
    "address": "전라남도 강진군 강진읍 중앙로 212 (강진군법원등기소)",
    "lat": 34.6419940405328,
    "lng": 126.77937970112656,
    "region": "전라남도"
  },
  {
    "name": "강진아트홀 지하주차장",
    "address": "전라남도 강진군 강진읍 영랑로1길 9",
    "lat": 34.637861312912854,
    "lng": 126.7703093467776,
    "region": "전라남도"
  },
  {
    "name": "신명아파트 지하1층",
    "address": "전라남도 해남군 해남읍 남동천길 100(신명아파트)",
    "lat": 34.56908053687823,
    "lng": 126.59289652304896,
    "region": "전라남도"
  },
  {
    "name": "금영아파트 지하1층",
    "address": "전라남도 해남군 해남읍 동초길 69 (금영아파트)",
    "lat": 34.567240427345446,
    "lng": 126.60380104157696,
    "region": "전라남도"
  },
  {
    "name": "백두아파트 지하1층",
    "address": "전라남도 해남군 해남읍 북부순환로 6 (백두임대아파트)",
    "lat": 34.57141333155545,
    "lng": 126.60984770617424,
    "region": "전라남도"
  },
  {
    "name": "명지아파트 지하1층",
    "address": "전라남도 해남군 해남읍 교육청길 26 (명지아파트)",
    "lat": 34.56896790605384,
    "lng": 126.60886948393087,
    "region": "전라남도"
  },
  {
    "name": "해남군청 지하1층",
    "address": "전라남도 해남군 해남읍 군청길 4 (해남군청)",
    "lat": 34.57226586660915,
    "lng": 126.59889037852044,
    "region": "전라남도"
  },
  {
    "name": "KT 해남지사 지하1층",
    "address": "전라남도 해남군 해남읍 중앙1로 21 (한국통신)",
    "lat": 34.57080497609404,
    "lng": 126.6060239655532,
    "region": "전라남도"
  },
  {
    "name": "하늘연가 지하1층",
    "address": "전라남도 해남군 해남읍 구교3길 37 (하늘연가아파트)",
    "lat": 34.5793122522044,
    "lng": 126.59084802428242,
    "region": "전라남도"
  },
  {
    "name": "주공 2차 지하1층",
    "address": "전라남도 해남군 해남읍 구교3길 26 (구교2주공아파트)",
    "lat": 34.57875840731052,
    "lng": 126.59226952755314,
    "region": "전라남도"
  },
  {
    "name": "공간아파트 지하1층",
    "address": "전라남도 해남군 해남읍 구교2길 42 (공간아파트)",
    "lat": 34.578887403185995,
    "lng": 126.59365477362054,
    "region": "전라남도"
  },
  {
    "name": "백두 3차 지하1층",
    "address": "전라남도 해남군 해남읍 교육청길 23 (백두3차아파트)",
    "lat": 34.56963680773543,
    "lng": 126.60959937759604,
    "region": "전라남도"
  },
  {
    "name": "다우아르미안아파트 지하1층",
    "address": "전라남도 해남군 해남읍 동초길 15 (다우아르미안)",
    "lat": 34.572354442137126,
    "lng": 126.60486741537116,
    "region": "전라남도"
  },
  {
    "name": "해남문화예술회관 지하1층",
    "address": "전라남도 해남군 해남읍 군청길 4 (해남군청)",
    "lat": 34.57226586660915,
    "lng": 126.59889037852044,
    "region": "전라남도"
  },
  {
    "name": "코아루더베스트1단지",
    "address": "전라남도 해남군 해남읍 영빈로 81-17",
    "lat": 34.5648922785147,
    "lng": 126.610630283942,
    "region": "전라남도"
  },
  {
    "name": "코아루더베스트2단지",
    "address": "전라남도 해남군 해남읍 영빈로 79-30",
    "lat": 34.5661510284301,
    "lng": 126.610704482625,
    "region": "전라남도"
  },
  {
    "name": "정하에코하임",
    "address": "전라남도 해남군 해남읍 영빈로 79-18 (정하에코하임)",
    "lat": 34.5652038872014,
    "lng": 126.60972956454,
    "region": "전라남도"
  },
  {
    "name": "해남파크사이드 1차",
    "address": "전라남도 해남군 해남읍 구교3길 36-23 (해남파크사이드 아파트)",
    "lat": 34.5799829991534,
    "lng": 126.593467666913,
    "region": "전라남도"
  },
  {
    "name": "(영암군청) 지하 1층",
    "address": "전라남도 영암군 영암읍 군청로 1 (영암군청)",
    "lat": 34.79999137284314,
    "lng": 126.697137260648,
    "region": "전라남도"
  },
  {
    "name": "(농협 영암군지부) 지하 1층",
    "address": "전라남도 영암군 영암읍 중앙로 43 (농협중앙회 영암군지부)",
    "lat": 34.80010697692895,
    "lng": 126.69808731307111,
    "region": "전라남도"
  },
  {
    "name": "(한국농어촌공사 영암지사) 지하 1층",
    "address": "전라남도 영암군 영암읍 낭주로 113-6",
    "lat": 34.7982592462786,
    "lng": 126.702460354001,
    "region": "전라남도"
  },
  {
    "name": "(KT 영암지점) 지하주차장 1층",
    "address": "전라남도 영암군 영암읍 서남역로 2 (KT프라자영암지사)",
    "lat": 34.79797918931182,
    "lng": 126.69482075950356,
    "region": "전라남도"
  },
  {
    "name": "(영암군청 의회동) 지하 1층",
    "address": "전라남도 영암군 영암읍 군청로 1 (영암군청)",
    "lat": 34.79999137284314,
    "lng": 126.697137260648,
    "region": "전라남도"
  },
  {
    "name": "(무등파크맨션) 101, 102동 지하 1층",
    "address": "전라남도 영암군 영암읍 성밖로 18 (영암무등파크맨션)",
    "lat": 34.7957204756359,
    "lng": 126.696622029201,
    "region": "전라남도"
  },
  {
    "name": "(삼호2차 임대아파트) 지하주차장 1층",
    "address": "전라남도 영암군 삼호읍 신항로 63-7 (삼호2차사원임대아파트)",
    "lat": 34.74446916470223,
    "lng": 126.38079864115514,
    "region": "전라남도"
  },
  {
    "name": "(삼호3차 임대아파트) 지하주차장 1층",
    "address": "전라남도 영암군 삼호읍 신항로 123-7 (삼호3차사원아파트)",
    "lat": 34.747897591805945,
    "lng": 126.37521412928108,
    "region": "전라남도"
  },
  {
    "name": "(영암우체국) 지하주차장 1층",
    "address": "전라남도 영암군 영암읍 남문로 13 (영암우체국)",
    "lat": 34.79795119768251,
    "lng": 126.69784065213724,
    "region": "전라남도"
  },
  {
    "name": "(종원아파트) 지하주차장 1층",
    "address": "전라남도 영암군 삼호읍 세가래1길 17 (종원아파트)",
    "lat": 34.74796608207763,
    "lng": 126.47445581881216,
    "region": "전라남도"
  },
  {
    "name": "(영암교육지원청) 지하 1층",
    "address": "전라남도 영암군 영암읍 월출로 84 (영암교육청)",
    "lat": 34.80191137414061,
    "lng": 126.68616272443296,
    "region": "전라남도"
  },
  {
    "name": "(영암소방서) 지하 1층",
    "address": "전라남도 영암군 삼호읍 나불로 192 (영암소방서 119안전센터)",
    "lat": 34.76652173452706,
    "lng": 126.4394315425696,
    "region": "전라남도"
  },
  {
    "name": "(보건소) 지하 1층",
    "address": "전라남도 영암군 영암읍 오리정길 39 (영암군보건소)",
    "lat": 34.795053450911446,
    "lng": 126.70396389629008,
    "region": "전라남도"
  },
  {
    "name": "(에이치디현대삼호 주식회사) 본관 지하 1층",
    "address": "전라남도 영암군 삼호읍 대불로 93-0 (현대삼호중공업)",
    "lat": 34.73849821900638,
    "lng": 126.38740265412493,
    "region": "전라남도"
  },
  {
    "name": "(에이치디현대삼호 주식회사)  생산관 지하 1층",
    "address": "전라남도 영암군 삼호읍 대불로 93 (현대삼호중공업)",
    "lat": 34.73849821900638,
    "lng": 126.38740265412493,
    "region": "전라남도"
  },
  {
    "name": "(에이치디현대삼호 주식회사)  도장관 지하 1층",
    "address": "전라남도 영암군 삼호읍 대불로 93 (현대삼호중공업)",
    "lat": 34.73849821900638,
    "lng": 126.38740265412493,
    "region": "전라남도"
  },
  {
    "name": "(에이치디현대삼호 주식회사)  외업1관 지하 1층",
    "address": "전라남도 영암군 삼호읍 대불로 93 (현대삼호중공업)",
    "lat": 34.73849821900638,
    "lng": 126.38740265412493,
    "region": "전라남도"
  },
  {
    "name": "(에이치디현대삼호 주식회사)  외업2관 지하 1층",
    "address": "전라남도 영암군 삼호읍 대불로 93 (현대삼호중공업)",
    "lat": 34.73849821900638,
    "lng": 126.38740265412493,
    "region": "전라남도"
  },
  {
    "name": "(에이치디현대삼호 주식회사)  기술교육원 지하 1층",
    "address": "전라남도 영암군 삼호읍 대불로 93 (현대삼호중공업)",
    "lat": 34.73849821900638,
    "lng": 126.38740265412493,
    "region": "전라남도"
  },
  {
    "name": "(퀸스빌 아파트 201동) 지하주차장 1층",
    "address": "전라남도 영암군 삼호읍 삼호중앙로 129-0 (영암삼호퀸스빌2차아파트)",
    "lat": 34.74527992872793,
    "lng": 126.46523134094438,
    "region": "전라남도"
  },
  {
    "name": "(퀸스빌 아파트 203동) 지하주차장 1층",
    "address": "전라남도 영암군 삼호읍 삼호중앙로 129 (영암삼호퀸스빌2차아파트)",
    "lat": 34.74527992872793,
    "lng": 126.46523134094438,
    "region": "전라남도"
  },
  {
    "name": "(중흥S클래스리버티아파트) 지하주차장 1층~2층",
    "address": "전라남도 영암군 삼호읍 대불주거6로 16(중흥S클래스리버티아파트)",
    "lat": 34.75507710251637,
    "lng": 126.45808245650106,
    "region": "전라남도"
  },
  {
    "name": "(대불렉시안 파크타운아파트)지하주차장 1층",
    "address": "전라남도 영암군 삼호읍 대불주거8로 16",
    "lat": 34.7566604680785,
    "lng": 126.457073829174,
    "region": "전라남도"
  },
  {
    "name": "무안군청 구내식당 지하 1층",
    "address": "전라남도 무안군 무안읍 무안로 530",
    "lat": 34.990724677834585,
    "lng": 126.48090088392374,
    "region": "전라남도"
  },
  {
    "name": "무안경찰서 지하 1층",
    "address": "전라남도 무안군 무안읍 무안로 479 (무안경찰서)",
    "lat": 34.986836308633784,
    "lng": 126.47721673527558,
    "region": "전라남도"
  },
  {
    "name": "무안우체국 지하주차장 1층",
    "address": "전라남도 무안군 무안읍 무안로 489",
    "lat": 34.98734878957292,
    "lng": 126.47778960910642,
    "region": "전라남도"
  },
  {
    "name": "초당대학교 지하 1층",
    "address": "전라남도 무안군 무안읍 무안로 380 (초당대학교)",
    "lat": 34.980038488467024,
    "lng": 126.46996327215862,
    "region": "전라남도"
  },
  {
    "name": "농협중앙회무안군지부 지하주차장 1층",
    "address": "전라남도 무안군 무안읍 무안중앙로 6 (농협중앙회무안군지부)",
    "lat": 34.98856350659336,
    "lng": 126.47832011483,
    "region": "전라남도"
  },
  {
    "name": "무안새마을금고 지하주차장 1층",
    "address": "전라남도 무안군 무안읍 무안중앙로 37 (무안새마을금고, 기독병원)",
    "lat": 34.989435602633016,
    "lng": 126.47504041116572,
    "region": "전라남도"
  },
  {
    "name": "무안종합병원 지하 1층",
    "address": "전라남도 무안군 무안읍 몽탄로 65",
    "lat": 34.99158159035488,
    "lng": 126.48885013679126,
    "region": "전라남도"
  },
  {
    "name": "전라남도의회 지하주차장 1층",
    "address": "전라남도 무안군 삼향읍 오룡길 1 (전라남도청)",
    "lat": 34.81585748709493,
    "lng": 126.46053055546788,
    "region": "전라남도"
  },
  {
    "name": "회룡마을주공아파트 지하주차장 1층",
    "address": "전라남도 무안군 삼향읍 남악2로74번길 42 (회룡마을주공아파트)",
    "lat": 34.81194464529701,
    "lng": 126.4592432187304,
    "region": "전라남도"
  },
  {
    "name": "남악신도시아이파크아파트 지하주차장 1층",
    "address": "전라남도 무안군 삼향읍 남악2로74번길 14 (남악신도시아이파크)",
    "lat": 34.812130818374264,
    "lng": 126.45666738812156,
    "region": "전라남도"
  },
  {
    "name": "부영애시앙아파트 지하주차장 1층",
    "address": "전라남도 무안군 삼향읍 남악5로72번길 7 (부영애시앙)",
    "lat": 34.8121114944402,
    "lng": 126.47241064771796,
    "region": "전라남도"
  },
  {
    "name": "신동아파밀리에아파트 지하주차장 1층",
    "address": "전라남도 무안군 삼향읍 남악영산길 39 (신동아파밀리에아파트)",
    "lat": 34.81290567591288,
    "lng": 126.47643686915208,
    "region": "전라남도"
  },
  {
    "name": "남악신도시 경남아너스빌아파트 지하주차장 1층",
    "address": "전라남도 무안군 삼향읍 남악5로22번길 60 (남악신도시경남아너스빌)",
    "lat": 34.80971357841463,
    "lng": 126.47541140838432,
    "region": "전라남도"
  },
  {
    "name": "무안남악 상록아파트 지하주차장 1층",
    "address": "전라남도 무안군 삼향읍 남악2로22번길 59 (무안남악상록아파트)",
    "lat": 34.809073163972386,
    "lng": 126.45929261257996,
    "region": "전라남도"
  },
  {
    "name": "근화베아채아파트 지하주차장 1층",
    "address": "전라남도 무안군 삼향읍 남악4로82번길 31 (근화베아채)",
    "lat": 34.812374295817754,
    "lng": 126.47004539894114,
    "region": "전라남도"
  },
  {
    "name": "무안남악3휴먼시아아파트 지하주차장 1층",
    "address": "전라남도 무안군 삼향읍 남악4로34번길 7 (무안남악3휴먼시아)",
    "lat": 34.80921756973138,
    "lng": 126.46693964582695,
    "region": "전라남도"
  },
  {
    "name": "전라남도교육청 지하주차장 1층",
    "address": "전라남도 무안군 삼향읍 어진누리길 10 (전라남도교육청)",
    "lat": 34.81553219036484,
    "lng": 126.46775529416524,
    "region": "전라남도"
  },
  {
    "name": "무안 석호가람휘아파트 지하주차장 1층",
    "address": "전라남도 무안군 무안읍 창포로 24 (석호가람휘)",
    "lat": 34.98877723943898,
    "lng": 126.47164758789968,
    "region": "전라남도"
  },
  {
    "name": "무안군청년플랫폼 지하 1층",
    "address": "전라남도 무안군 삼향읍 오룡1길 37 (남악출장소)",
    "lat": 34.81500786909454,
    "lng": 126.45603251061009,
    "region": "전라남도"
  },
  {
    "name": "무안성내휴먼시아아파트 지하주차장 1층",
    "address": "전라남도 무안군 무안읍 공항로 75-9 (무안성내휴먼시아)",
    "lat": 34.99280575395879,
    "lng": 126.47346446941944,
    "region": "전라남도"
  },
  {
    "name": "무안 이에스아뜨리움아파트 지하주차장 1층",
    "address": "전라남도 무안군 무안읍 하마로 31 (이에스아뜨리움아파트)",
    "lat": 34.9852473893234,
    "lng": 126.47077424655222,
    "region": "전라남도"
  },
  {
    "name": "전라남도 체육회관 지하주차장 1층",
    "address": "전라남도 무안군 삼향읍 오룡1길 41",
    "lat": 34.8154682369423,
    "lng": 126.45604122724336,
    "region": "전라남도"
  },
  {
    "name": "전문건설공제조합 지하주차장 1층",
    "address": "전라남도 무안군 삼향읍 후광대로 282 (전문건설공제조합)",
    "lat": 34.81409695975407,
    "lng": 126.4625203465089,
    "region": "전라남도"
  },
  {
    "name": "전남개발공사빌딩 지하주차장 1층",
    "address": "전라남도 무안군 삼향읍 후광대로 242 (전남개발공사)",
    "lat": 34.814118945035176,
    "lng": 126.45808773673708,
    "region": "전라남도"
  },
  {
    "name": "농협중앙회 전남본부 지하주차장 1층",
    "address": "전라남도 무안군 삼향읍 후광대로 264 (전남농협중앙회)",
    "lat": 34.81409728336539,
    "lng": 126.460571440749,
    "region": "전라남도"
  },
  {
    "name": "남악 리젠시빌아파트 지하주차장 1층",
    "address": "전라남도 무안군 삼향읍 남악4로60번길 14 (남악리젠시빌)",
    "lat": 34.810896805142654,
    "lng": 126.4676116786278,
    "region": "전라남도"
  },
  {
    "name": "남악 골드디움아파트 지하주차장 1층",
    "address": "전라남도 무안군 삼향읍 남악5로72번길 81-21 (골드디움)",
    "lat": 34.81017008868995,
    "lng": 126.47984250065188,
    "region": "전라남도"
  },
  {
    "name": "제일풍경채 리버파크아파트 지하주차장 1층",
    "address": "전라남도 무안군 삼향읍 남악5로72번길 81-30 (제일풍경채 리버파크)",
    "lat": 34.81062482111952,
    "lng": 126.48004147707005,
    "region": "전라남도"
  },
  {
    "name": "근화베아채스위트아파트 지하주차장 1층",
    "address": "전라남도 무안군 삼향읍 남악5로22번길 20 (근화베아채스위트)",
    "lat": 34.80737281350014,
    "lng": 126.47270902761753,
    "region": "전라남도"
  },
  {
    "name": "남악신도시모아엘가2차아파트 지하주차장 1층",
    "address": "전라남도 무안군 삼향읍 남악4로34번길 8 (남악신도시모아엘가2차아파트)",
    "lat": 34.807958721956155,
    "lng": 126.46697467454986,
    "region": "전라남도"
  },
  {
    "name": "남악세영리첼아파트 지하주차장 1층",
    "address": "전라남도 무안군 삼향읍 남악4로34번길 31 (남악세영리첼아파트)",
    "lat": 34.80798011787395,
    "lng": 126.46942733561065,
    "region": "전라남도"
  },
  {
    "name": "근화베아채비올레아파트 지하주차장 1층",
    "address": "전라남도 무안군 삼향읍 남악5로22번길 10 (근화베아체비올레)",
    "lat": 34.8073767852464,
    "lng": 126.47159324501963,
    "region": "전라남도"
  },
  {
    "name": "일로제일교회 지하 1층",
    "address": "전라남도 무안군 일로읍 일로중앙로 20, 일로교회",
    "lat": 34.84995335916047,
    "lng": 126.49166837159488,
    "region": "전라남도"
  },
  {
    "name": "일로역 지하1층 인도",
    "address": "전라남도 무안군 삼향읍 국사로 5-11",
    "lat": 34.8483785753138,
    "lng": 126.47830719471088,
    "region": "전라남도"
  },
  {
    "name": "해제주민대피소",
    "address": "전라남도 무안군 해제면 봉대로 66-1",
    "lat": 35.116006089568735,
    "lng": 126.29494882168323,
    "region": "전라남도"
  },
  {
    "name": "무안 대선해시앙아파트 지하주차장 1층",
    "address": "전라남도 무안군 무안읍 창포로 55 (대선해시앙 아파트)",
    "lat": 34.986575413943065,
    "lng": 126.47051196145536,
    "region": "전라남도"
  },
  {
    "name": "남악센트레빌리버파크아파트 지하주차장 1층",
    "address": "전라남도 무안군 삼향읍 남악로250번길 60 (남악센트레빌리버파크)",
    "lat": 34.801142812946814,
    "lng": 126.46919415923064,
    "region": "전라남도"
  },
  {
    "name": "호반써밋 남악오룡1차아파트 지하주차장 1층",
    "address": "전라남도 무안군 일로읍 오룡번영로 131 (호반써밋 남악오룡 1차)",
    "lat": 34.80785381328593,
    "lng": 126.4826314772165,
    "region": "전라남도"
  },
  {
    "name": "호반써밋 남악오룡2차아파트 지하주차장 1층",
    "address": "전라남도 무안군 일로읍 오룡번영로 153 (호반써밋 남악오룡 2차)",
    "lat": 34.808002481295574,
    "lng": 126.48513952113514,
    "region": "전라남도"
  },
  {
    "name": "호반써밋 남악오룡3차아파트 지하주차장 1층",
    "address": "전라남도 무안군 일로읍 오룡번영로 185 (호반써밋 남악오룡 3차)",
    "lat": 34.80645752634766,
    "lng": 126.48801997355788,
    "region": "전라남도"
  },
  {
    "name": "오룡 에듀포레푸르지오 1차아파트 지하주차장 1층",
    "address": "전라남도 무안군 일로읍 오룡중앙동로 37 (오룡 에듀포레 푸르지오)",
    "lat": 34.80592325256814,
    "lng": 126.48576627117087,
    "region": "전라남도"
  },
  {
    "name": "오룡 에듀포레푸르지오 2차아파트 지하주차장 1층",
    "address": "전라남도 무안군 일로읍 오룡중앙동로 65 (오룡 에듀포레 푸르지오)",
    "lat": 34.80380214771012,
    "lng": 126.4842201008693,
    "region": "전라남도"
  },
  {
    "name": "함평군민회관 지하 1층",
    "address": "전라남도 함평군 함평읍 남일길 52 (함평군민복지회관)",
    "lat": 35.06459305238514,
    "lng": 126.51509884636522,
    "region": "전라남도"
  },
  {
    "name": "농협은행 함평군지부 지하주차장 1층",
    "address": "전라남도 함평군 함평읍 중앙길 128 (농협중앙회함평군지부)",
    "lat": 35.06502108503673,
    "lng": 126.5207383584981,
    "region": "전라남도"
  },
  {
    "name": "보건소 지하 1층",
    "address": "전라남도 함평군 함평읍 중앙길 54-8 (함평보건소)",
    "lat": 35.062320969180085,
    "lng": 126.523904902791,
    "region": "전라남도"
  },
  {
    "name": "한국수자원공사 함평수도관리단 지하 1층",
    "address": "전라남도 함평군 함평읍 기산길 176 (한국수자원공사함평수도서비스센터)",
    "lat": 35.07134766558719,
    "lng": 126.5213658347087,
    "region": "전라남도"
  },
  {
    "name": "KT함평빌딩 지하 1층",
    "address": "전라남도 함평군 함평읍 중앙길 64 (KT함평지점)",
    "lat": 35.06277017519905,
    "lng": 126.52286362415718,
    "region": "전라남도"
  },
  {
    "name": "성심병원 장례식장 지하 1층",
    "address": "전라남도 함평군 함평읍 영수길 132 (함평성심병원)",
    "lat": 35.06197118150016,
    "lng": 126.51973868081136,
    "region": "전라남도"
  },
  {
    "name": "함평우체국 지하 1층",
    "address": "전라남도 함평군 함평읍 광남길 66 (함평우체국)",
    "lat": 35.06364974365115,
    "lng": 126.51924248494372,
    "region": "전라남도"
  },
  {
    "name": "전남유리 지하 1층",
    "address": "전라남도 함평군 함평읍 중앙길 21",
    "lat": 35.06103902746541,
    "lng": 126.52351859438436,
    "region": "전라남도"
  },
  {
    "name": "함평군청 지하 1층",
    "address": "전라남도 함평군 함평읍 중앙길 200 (함평군청)",
    "lat": 35.065085146914384,
    "lng": 126.51676682212997,
    "region": "전라남도"
  },
  {
    "name": "엑스포공원 주제영상관 지하 1층",
    "address": "전라남도 함평군 함평읍 곤재로 27 (함평엑스포공원,사업소)",
    "lat": 35.05604379705073,
    "lng": 126.51966732092626,
    "region": "전라남도"
  },
  {
    "name": "농어촌공사함평지사 지하 1층",
    "address": "전라남도 함평군 함평읍 기산길 29-10 (한국농어촌공사함평지사)",
    "lat": 35.066607826445185,
    "lng": 126.51634605287708,
    "region": "전라남도"
  },
  {
    "name": "라뷔랑아파트 101동 지하 1층",
    "address": "전라남도 함평군 함평읍 내대화길 112-11 (함평거송라뷔랑아파트)",
    "lat": 35.061741550437986,
    "lng": 126.51544993256104,
    "region": "전라남도"
  },
  {
    "name": "주공아파트 104동 지하 1층",
    "address": "전라남도 함평군 함평읍 교광길 13-8 (함평내교주공아파트)",
    "lat": 35.061808508277295,
    "lng": 126.51808926019936,
    "region": "전라남도"
  },
  {
    "name": "주공아파트 101동 지하 1층",
    "address": "전라남도 함평군 함평읍 교광길 13-8 (함평내교주공아파트)",
    "lat": 35.061808508277295,
    "lng": 126.51808926019936,
    "region": "전라남도"
  },
  {
    "name": "주공아파트 102동 지하 1층",
    "address": "전라남도 함평군 함평읍 교광길 13-8 (함평내교주공아파트)",
    "lat": 35.061808508277295,
    "lng": 126.51808926019936,
    "region": "전라남도"
  },
  {
    "name": "주공아파트 103동 지하 1층",
    "address": "전라남도 함평군 함평읍 교광길 13-8, 103동 (함평내교주공아파트)",
    "lat": 35.061808508277295,
    "lng": 126.51808926019936,
    "region": "전라남도"
  },
  {
    "name": "라뷔랑아파트 102동 지하 1층",
    "address": "전라남도 함평군 함평읍 내대화길 112-11 (함평거송라뷔랑아파트)",
    "lat": 35.061741550437986,
    "lng": 126.51544993256104,
    "region": "전라남도"
  },
  {
    "name": "근형퍼스트빌아파트 지하주차장 1층",
    "address": "전라남도 영광군 영광읍 중앙로 97 (근형퍼스트빌아파트)",
    "lat": 35.26799238439009,
    "lng": 126.51058485846096,
    "region": "전라남도"
  },
  {
    "name": "한전영광지사 지하 1층",
    "address": "전라남도 영광군 영광읍 천년로 1464",
    "lat": 35.27354623981308,
    "lng": 126.50389344214604,
    "region": "전라남도"
  },
  {
    "name": "영광군청 지하 1층",
    "address": "전라남도 영광군 영광읍 중앙로 203",
    "lat": 35.276973175520446,
    "lng": 126.5124917501353,
    "region": "전라남도"
  },
  {
    "name": "영광경찰서 지하 1층",
    "address": "전라남도 영광군 영광읍 중앙로 211, 영광경찰서",
    "lat": 35.277681726650115,
    "lng": 126.51275414721631,
    "region": "전라남도"
  },
  {
    "name": "영광군청 신관 지하주차장 1층",
    "address": "전라남도 영광군 영광읍 중앙로 203",
    "lat": 35.276973175520446,
    "lng": 126.5124917501353,
    "region": "전라남도"
  },
  {
    "name": "영광교육지원청 지하 1층",
    "address": "전라남도 영광군 영광읍 중앙로 204",
    "lat": 35.27695345659989,
    "lng": 126.51274692845244,
    "region": "전라남도"
  },
  {
    "name": "영광우체국 지하주차장 1층",
    "address": "전라남도 영광군 영광읍 중앙로 200, 영광우체국",
    "lat": 35.27660802185772,
    "lng": 126.51265498511792,
    "region": "전라남도"
  },
  {
    "name": "KT영광지사 지하주차장 1층",
    "address": "전라남도 영광군 영광읍 물무로2길 3, KT",
    "lat": 35.27773432468809,
    "lng": 126.50669154458734,
    "region": "전라남도"
  },
  {
    "name": "정주새마을금고 지하주차장 1층",
    "address": "전라남도 영광군 영광읍 물무로 84",
    "lat": 35.27687532288223,
    "lng": 126.5092791204163,
    "region": "전라남도"
  },
  {
    "name": "영진파크맨션 지하주차장 1층",
    "address": "전라남도 영광군 영광읍 대하길4길 21, 영진파크맨션",
    "lat": 35.27619849549567,
    "lng": 126.49877118394784,
    "region": "전라남도"
  },
  {
    "name": "장산타워맨션 지하주차장 1층",
    "address": "전라남도 영광군 영광읍 신남로 246-6 (장산타워맨션)",
    "lat": 35.275126285260285,
    "lng": 126.50901032231172,
    "region": "전라남도"
  },
  {
    "name": "영진근로복지아파트 지하주차장 1층",
    "address": "전라남도 영광군 영광읍 옥당로 94 (영진근로복지아파트)",
    "lat": 35.27171645996558,
    "lng": 126.50520828193872,
    "region": "전라남도"
  },
  {
    "name": "영광스포티움 지하 1층",
    "address": "전라남도 영광군 영광읍 월현로 170",
    "lat": 35.28769296384329,
    "lng": 126.4947163364544,
    "region": "전라남도"
  },
  {
    "name": "도동휴먼시아아파트 102동 지하주차장 1층",
    "address": "전라남도 영광군 영광읍 물무로 227 (도동휴먼시아)",
    "lat": 35.26969534146294,
    "lng": 126.51532617837172,
    "region": "전라남도"
  },
  {
    "name": "도동휴먼시아아파트 104동 지하주차장 1층",
    "address": "전라남도 영광군 영광읍 물무로 227 (도동휴먼시아)",
    "lat": 35.26969534146294,
    "lng": 126.51532617837172,
    "region": "전라남도"
  },
  {
    "name": "한국수력원자력아파트 사택 118동 지하주차장 1층",
    "address": "전라남도 영광군 홍농읍 홍농로 546, 한수원사원아파트",
    "lat": 35.40223006758415,
    "lng": 126.44980626957005,
    "region": "전라남도"
  },
  {
    "name": "모두원웰리스아파트 지하주차장 1층",
    "address": "전라남도 영광군 영광읍 천년로 1440-26 (모두원웰리스)",
    "lat": 35.27086980322403,
    "lng": 126.5029426017641,
    "region": "전라남도"
  },
  {
    "name": "숲안애2차아파트 지하주차장 1층",
    "address": "전라남도 영광군 영광읍 천년로13길 2-14 (숲안애2차아파트)",
    "lat": 35.27284494325547,
    "lng": 126.5051561039777,
    "region": "전라남도"
  },
  {
    "name": "영광기독병원 지하1층",
    "address": "전라남도 영광군 영광읍 신남로 265",
    "lat": 35.27481961476716,
    "lng": 126.51090206673128,
    "region": "전라남도"
  },
  {
    "name": "헤라웨딩홀 지하주차장 1층",
    "address": "전라남도 영광군 영광읍 물무로 154",
    "lat": 35.2762248021899,
    "lng": 126.51684455796747,
    "region": "전라남도"
  },
  {
    "name": "수하임아파트 지하주차장 1층",
    "address": "전라남도 영광군 영광읍 중앙로 155-1 (영광 신풍E-팰리스)",
    "lat": 35.27281409417467,
    "lng": 126.51182305841832,
    "region": "전라남도"
  },
  {
    "name": "한전문화회관 지하 1층",
    "address": "전라남도 영광군 영광읍 천년로 1464",
    "lat": 35.27354623981308,
    "lng": 126.50389344214604,
    "region": "전라남도"
  },
  {
    "name": "영광종합병원 지하 1층",
    "address": "전라남도 영광군 영광읍 와룡로 3",
    "lat": 35.28415188155007,
    "lng": 126.50035560799712,
    "region": "전라남도"
  },
  {
    "name": "한국수력원자력아파트 사택 124동 지하주차장 1층",
    "address": "전라남도 영광군 홍농읍 홍농로 546, 한수원사원아파트",
    "lat": 35.40223006758415,
    "lng": 126.44980626957005,
    "region": "전라남도"
  },
  {
    "name": "옥당마을아파트 지하주차장 1층",
    "address": "전라남도 영광군 영광읍 백산길 43 (옥당마을)",
    "lat": 35.27981841278346,
    "lng": 126.50286864355849,
    "region": "전라남도"
  },
  {
    "name": "숲안애5차아파트 지하주차장 1층",
    "address": "전라남도 영광군 영광읍 물무로 7",
    "lat": 35.278240534838304,
    "lng": 126.50099879929796,
    "region": "전라남도"
  },
  {
    "name": "장성군청 지하1층",
    "address": "전라남도 장성군 장성읍 영천로 200, 장성군청",
    "lat": 35.30196347178019,
    "lng": 126.7843501357962,
    "region": "전라남도"
  },
  {
    "name": "장성군보건소 지하 1층",
    "address": "전라남도 장성군 장성읍 청운11길 13, 장성군보건소",
    "lat": 35.30449900780468,
    "lng": 126.78270724396464,
    "region": "전라남도"
  },
  {
    "name": "장성경찰서 지하 1층",
    "address": "전라남도 장성군 장성읍 영천로 164",
    "lat": 35.300024813208154,
    "lng": 126.78210591448112,
    "region": "전라남도"
  },
  {
    "name": "광주은행 장성지점 지하 주차장 1층",
    "address": "전라남도 장성군 장성읍 영천로 168",
    "lat": 35.30031702324918,
    "lng": 126.78243354806678,
    "region": "전라남도"
  },
  {
    "name": "농협중앙회장성군지부 지하 1층",
    "address": "전라남도 장성군 장성읍 영천로 144, 농협중앙회장성군지부",
    "lat": 35.29843657864176,
    "lng": 126.78153180675362,
    "region": "전라남도"
  },
  {
    "name": "부강아트빌 지하 주차장 1층",
    "address": "전라남도 장성군 장성읍 오동촌길 16 (부강아트빌)",
    "lat": 35.303885691500774,
    "lng": 126.79119205160394,
    "region": "전라남도"
  },
  {
    "name": "문화시설사업소 지하 1층",
    "address": "전라남도 장성군 장성읍 문화로 110, 장성군 문화시설사업소 홍길동체육관",
    "lat": 35.30164459886942,
    "lng": 126.7675544132925,
    "region": "전라남도"
  },
  {
    "name": "영천휴먼시아아파트 지하 주차장 1층",
    "address": "전라남도 장성군 장성읍 문화로 21-34 (영천휴먼시아)",
    "lat": 35.29685803607463,
    "lng": 126.77625801294978,
    "region": "전라남도"
  },
  {
    "name": "장성공립전문요양병원 지하 1층",
    "address": "전라남도 장성군 장성읍 강변안길 100, 요양병원",
    "lat": 35.30235610764588,
    "lng": 126.77745364887758,
    "region": "전라남도"
  },
  {
    "name": "삼호센트럴타워 지하 주차장 1층",
    "address": "전라남도 장성군 장성읍 영천로 183",
    "lat": 35.30182433248837,
    "lng": 126.7836146209669,
    "region": "전라남도"
  },
  {
    "name": "부강아파트2차 지하 주차장 1층",
    "address": "전라남도 장성군 장성읍 수산길 14 (부강아파트 2차)",
    "lat": 35.32212019201867,
    "lng": 126.79905950668982,
    "region": "전라남도"
  },
  {
    "name": "금광아파트 지하 주차장 1층",
    "address": "전라남도 장성군 삼계면 사창로 64-72 (금광아파트)",
    "lat": 35.26267011068273,
    "lng": 126.67162844047148,
    "region": "전라남도"
  },
  {
    "name": "상무아파트100동 지하 1층",
    "address": "전라남도 장성군 삼계면 능성로 548 (상무아파트)",
    "lat": 35.25965530050851,
    "lng": 126.672278450007,
    "region": "전라남도"
  },
  {
    "name": "상무아파트200동 지하 1층",
    "address": "전라남도 장성군 삼계면 능성로 548 (상무아파트)",
    "lat": 35.25965530050851,
    "lng": 126.672278450007,
    "region": "전라남도"
  },
  {
    "name": "상무아파트독신자숙소 지하 1층",
    "address": "전라남도 장성군 삼계면 능성로 548 (상무아파트)",
    "lat": 35.25965530050851,
    "lng": 126.672278450007,
    "region": "전라남도"
  },
  {
    "name": "장성 청담웰피아 지하 주차장 1층",
    "address": "전라남도 장성군 장성읍 역전로 191",
    "lat": 35.30541617378129,
    "lng": 126.7856202081293,
    "region": "전라남도"
  },
  {
    "name": "해광 샹그릴라 지하 주차장 1층",
    "address": "전라남도 장성군 장성읍 문화로 21-142(해광샹그릴라아파트)",
    "lat": 35.2936085774334,
    "lng": 126.77494331368696,
    "region": "전라남도"
  },
  {
    "name": "완도군청 지하 1층",
    "address": "전라남도 완도군 완도읍 청해진남로 51, 완도군청",
    "lat": 34.3110640794503,
    "lng": 126.754627379715,
    "region": "전라남도"
  },
  {
    "name": "완도군생활문화센터 지하 1층",
    "address": "전라남도 완도군 완도읍 개포로 111 (완도군민회관,농어촌체육센타,공설운동장)",
    "lat": 34.31680798553722,
    "lng": 126.74197113004476,
    "region": "전라남도"
  },
  {
    "name": "완도교육지원청 지하 1층",
    "address": "전라남도 완도군 완도읍 개포로114번길 30-12 (완도교육청)",
    "lat": 34.31731548480355,
    "lng": 126.74538873516263,
    "region": "전라남도"
  },
  {
    "name": "세림해변아파트 지하주차장 1층",
    "address": "전라남도 완도군 완도읍 개포로 180 (세림해변아파트)",
    "lat": 34.32006434656726,
    "lng": 126.74780314799388,
    "region": "전라남도"
  },
  {
    "name": "완도군립도서관 지하 1층",
    "address": "전라남도 완도군 완도읍 주도길 3-1 (완도군도서관)",
    "lat": 34.313071588261586,
    "lng": 126.7552546264112,
    "region": "전라남도"
  },
  {
    "name": "완도군의회 지하 1층",
    "address": "전라남도 완도군 완도읍 청해진남로 48 (완도군의회)",
    "lat": 34.31161236862835,
    "lng": 126.75470667691154,
    "region": "전라남도"
  },
  {
    "name": "완도경찰서 지하 1층",
    "address": "전라남도 완도군 완도읍 농공단지길 32 (완도경찰서)",
    "lat": 34.33657675556102,
    "lng": 126.73086216504043,
    "region": "전라남도"
  },
  {
    "name": "완도대성병원 지하 1층",
    "address": "전라남도 완도군 완도읍 청해진동로 63 (완도대성병원)",
    "lat": 34.31729061809248,
    "lng": 126.73601504710528,
    "region": "전라남도"
  },
  {
    "name": "농어민문화체육센터 지하 1층",
    "address": "전라남도 완도군 완도읍 개포로 111 (완도군민회관,농어촌체육센타,공설운동장)",
    "lat": 34.31680798553722,
    "lng": 126.74197113004476,
    "region": "전라남도"
  },
  {
    "name": "문화예술의전당 지하주차장 1층",
    "address": "전라남도 완도군 완도읍 개포로159번길 55 (완도맞춤형복합문화센터)",
    "lat": 34.32380033369633,
    "lng": 126.74202757619084,
    "region": "전라남도"
  },
  {
    "name": "금일읍 공공도서관 지하 1층",
    "address": "전라남도 완도군 금일읍 금일로 365-2 (금일읍공공도서관)",
    "lat": 34.34976502137963,
    "lng": 127.02754903836627,
    "region": "전라남도"
  },
  {
    "name": "노화읍 공공도서관 지하 1층",
    "address": "전라남도 완도군 노화읍 노화로 816-1 (노화공공도서관)",
    "lat": 34.17847772045421,
    "lng": 126.57528862934691,
    "region": "전라남도"
  },
  {
    "name": "완도해양경찰서 지하 1층",
    "address": "전라남도 완도군 완도읍 중앙길 93 (완도해양경찰서)",
    "lat": 34.30822732814828,
    "lng": 126.7613054265208,
    "region": "전라남도"
  },
  {
    "name": "동아하이빌 지하주차장 1층",
    "address": "전라남도 완도군 완도읍 청해진서로 33-2 (동아하이빌아파트)",
    "lat": 34.312829129441496,
    "lng": 126.73988414954852,
    "region": "전라남도"
  },
  {
    "name": "진도우체국 지하 1층",
    "address": "전라남도 진도군 진도읍 남동1길 63 (진도우체국)",
    "lat": 34.48090678055899,
    "lng": 126.26509062208392,
    "region": "전라남도"
  },
  {
    "name": "지산면사무소 지하 1층",
    "address": "전라남도 진도군 지산면 지산민속로 9 (지산면사무소)",
    "lat": 34.42532508732698,
    "lng": 126.16713558539296,
    "region": "전라남도"
  },
  {
    "name": "향토문화회관 지하 1층",
    "address": "전라남도 진도군 진도읍 진도대로 7197 (향토문화회관)",
    "lat": 34.479261799263774,
    "lng": 126.27028706183404,
    "region": "전라남도"
  },
  {
    "name": "KT진도지점 지하 1층",
    "address": "전라남도 진도군 진도읍 교동5길 10",
    "lat": 34.48474193169688,
    "lng": 126.26165556392912,
    "region": "전라남도"
  },
  {
    "name": "서진도농협 지하 1층",
    "address": "전라남도 진도군 임회면 십일시길 48 (서진도농협)",
    "lat": 34.40871093668242,
    "lng": 126.19295519899508,
    "region": "전라남도"
  },
  {
    "name": "옥주신협 지하 1층",
    "address": "전라남도 진도군 진도읍 쌍정2길 39 (옥주신협)",
    "lat": 34.483153219795824,
    "lng": 126.26515352593135,
    "region": "전라남도"
  },
  {
    "name": "교직원사택 지하 1층",
    "address": "전라남도 진도군 진도읍 남동2길 12 (교원연립)",
    "lat": 34.48229009691121,
    "lng": 126.26160936323862,
    "region": "전라남도"
  },
  {
    "name": "농협중앙회 지하 1층",
    "address": "전라남도 진도군 진도읍 철마길 16 (농협중앙회)",
    "lat": 34.48508976765057,
    "lng": 126.2644123501538,
    "region": "전라남도"
  },
  {
    "name": "진도청년회의소 지하 1층",
    "address": "전라남도 진도군 진도읍 서문길 8-21 (진도청년회의소)",
    "lat": 34.48514069885143,
    "lng": 126.26343742238328,
    "region": "전라남도"
  },
  {
    "name": "진도중앙교회 지하 1층",
    "address": "전라남도 진도군 진도읍 서문길 8-6",
    "lat": 34.48505151971884,
    "lng": 126.26288518364292,
    "region": "전라남도"
  },
  {
    "name": "진도농협 지하 1층",
    "address": "전라남도 진도군 진도읍 교동3길 41 (진도농협)",
    "lat": 34.484243422706044,
    "lng": 126.26170029223776,
    "region": "전라남도"
  },
  {
    "name": "옥주맨션 지하 1층",
    "address": "전라남도 진도군 진도읍 동외3길 16 (옥주맨션)",
    "lat": 34.48299766014482,
    "lng": 126.26910559645322,
    "region": "전라남도"
  },
  {
    "name": "계명아파트 지하 1층",
    "address": "전라남도 진도군 진도읍 쌍정2길 12-7 (계명아파트)",
    "lat": 34.481912047142906,
    "lng": 126.26666024047148,
    "region": "전라남도"
  },
  {
    "name": "청와아파트 지하 1층",
    "address": "전라남도 진도군 진도읍 동외4길 21 (청와아파트)",
    "lat": 34.48492078318755,
    "lng": 126.26904991297636,
    "region": "전라남도"
  },
  {
    "name": "전남병원 지하 1층",
    "address": "전라남도 진도군 진도읍 남문길 12-11 (진도전남병원)",
    "lat": 34.47910161258275,
    "lng": 126.26504171301038,
    "region": "전라남도"
  },
  {
    "name": "현대빌라트 지하 1층",
    "address": "전라남도 진도군 진도읍 동외3길 26 (현대빌라트)",
    "lat": 34.48289234538495,
    "lng": 126.27023001713027,
    "region": "전라남도"
  },
  {
    "name": "진도군청 지하 1층",
    "address": "전라남도 진도군 진도읍 철마길 25 (진도군청)",
    "lat": 34.48609515225729,
    "lng": 126.26349623985888,
    "region": "전라남도"
  },
  {
    "name": "서울웨딩홀 지하 1층",
    "address": "전라남도 진도군 진도읍 동외1길 6-4",
    "lat": 34.480902542272354,
    "lng": 126.26877352094324,
    "region": "전라남도"
  },
  {
    "name": "대일아파트 지하 1층",
    "address": "전라남도 진도군 진도읍 교동2길 20 (대일아파트)",
    "lat": 34.48381921537233,
    "lng": 126.257053995957,
    "region": "전라남도"
  },
  {
    "name": "세림아름누리 지하 1층",
    "address": "전라남도 진도군 진도읍 남산2길 36 (세림 아름누리아파트)",
    "lat": 34.47520303943715,
    "lng": 126.2626350463628,
    "region": "전라남도"
  },
  {
    "name": "진도읍사무소 지하 1층",
    "address": "전라남도 진도군 진도읍 남동1길 46 (진도읍사무소)",
    "lat": 34.48093964388127,
    "lng": 126.26298703941436,
    "region": "전라남도"
  },
  {
    "name": "다우아르미안아파트 지하 1층",
    "address": "전라남도 진도군 진도읍 쌍정1길 6-45 (진도아르미안아파트)",
    "lat": 34.47915777099491,
    "lng": 126.26576133938772,
    "region": "전라남도"
  },
  {
    "name": "쏠비치호텔리조트진도 지하 1층",
    "address": "전라남도 진도군 의신면 송군길 30-40",
    "lat": 34.401264213929295,
    "lng": 126.32943521781826,
    "region": "전라남도"
  },
  {
    "name": "인산아파트 지하 1층",
    "address": "전라남도 진도군 진도읍 교동5길 65(인산아파트)",
    "lat": 34.4856598390184,
    "lng": 126.25594063956618,
    "region": "전라남도"
  },
  {
    "name": "미래엔스위트 아파트 지하 1층",
    "address": "전라남도 진도군 진도읍 남산2길 51-22(진도미래엔스위트)",
    "lat": 34.47742328436772,
    "lng": 126.26340588127034,
    "region": "전라남도"
  },
  {
    "name": "신안군청 지하1층",
    "address": "전라남도 신안군 압해읍 천사로 1004 (신안군청)",
    "lat": 34.83375430018648,
    "lng": 126.35132887906325,
    "region": "전라남도"
  },
  {
    "name": "임자 청소년수련원 지하1층",
    "address": "전라남도 신안군 임자면 대광해수욕장길 215",
    "lat": 35.10239949628002,
    "lng": 126.06934612912008,
    "region": "전라남도"
  },
  {
    "name": "증도 갯벌생태전시관 지하1층",
    "address": "전라남도 신안군 증도면 지도증도로 1766-4 (증도갯벌생태전시관)",
    "lat": 34.96460767338972,
    "lng": 126.13670398090996,
    "region": "전라남도"
  }
]