[
  {
    "name": "풍남초등학교(병무청오거리 인근)",
    "address": "전북특별자치도 전주시 완산구 견훤왕궁로 16 (남노송동)",
    "lat": 35.82196519362892,
    "lng": 127.1530022831366,
    "region": "전북특별자치도"
  },
  {
    "name": "전주시립완산도서관(지하 1층)",
    "address": "전북특별자치도 전주시 완산구 곤지산4길 12 (동완산동, 전주시립도서관)",
    "lat": 35.80945123075881,
    "lng": 127.1477107047448,
    "region": "전북특별자치도"
  },
  {
    "name": "우성아파트 지하주차장(1층)",
    "address": "전북특별자치도 전주시 완산구 백제대로 13 (삼천동1가)",
    "lat": 35.79636861147238,
    "lng": 127.13144630361484,
    "region": "전북특별자치도"
  },
  {
    "name": "기린봉아파트(지하주차장 1~2층)",
    "address": "전북특별자치도 전주시 완산구 견훤로 100 (중노송동)",
    "lat": 35.820761359737844,
    "lng": 127.1625949401889,
    "region": "전북특별자치도"
  },
  {
    "name": "두일하나아파트(지하주차장 1층)",
    "address": "전북특별자치도 전주시 완산구 장승배기로 50 (삼천동1가, 두일하나아파트)",
    "lat": 35.79198743356661,
    "lng": 127.11854980933668,
    "region": "전북특별자치도"
  },
  {
    "name": "평화1동지하보도(지하 1층)",
    "address": "전북특별자치도 전주시 완산구 장승배기로 256 (평화동1가, 평화1동주민센터)",
    "lat": 35.798147686487575,
    "lng": 127.14029349820112,
    "region": "전북특별자치도"
  },
  {
    "name": "한성아파트 (지하주차장 1층)",
    "address": "전북특별자치도 전주시 완산구 덕적골1길 33 (평화동1가, 한성아파트)",
    "lat": 35.79445867699393,
    "lng": 127.13987119409217,
    "region": "전북특별자치도"
  },
  {
    "name": "일성아파트(지하주차장 1층)",
    "address": "전북특별자치도 전주시 완산구 평화19길 20 (평화동1가, 일성아파트)",
    "lat": 35.795059774124546,
    "lng": 127.13876279264856,
    "region": "전북특별자치도"
  },
  {
    "name": "삼천하이츠 아파트(지하주차장 1층)",
    "address": "전북특별자치도 전주시 완산구 강변로 106 (삼천동1가, 삼천하이츠)",
    "lat": 35.80056906164898,
    "lng": 127.1115203608856,
    "region": "전북특별자치도"
  },
  {
    "name": "삼천동남양아파트(지하주차장 1층)",
    "address": "전북특별자치도 전주시 완산구 삼천천변1길 32 (삼천동1가)",
    "lat": 35.79505251396366,
    "lng": 127.1141313120106,
    "region": "전북특별자치도"
  },
  {
    "name": "금호청솔아파트 주차장(지하주차장 1층)",
    "address": "전북특별자치도 전주시 완산구 안행5길 11 (삼천동1가, 금호청솔아파트)",
    "lat": 35.80213397204121,
    "lng": 127.13233206851794,
    "region": "전북특별자치도"
  },
  {
    "name": "안행현대아파트 주차장(지하주차장 1층)",
    "address": "전북특별자치도 전주시 완산구 안행2길 14 (삼천동1가, 안행현대아파트)",
    "lat": 35.80132068438484,
    "lng": 127.1296483236936,
    "region": "전북특별자치도"
  },
  {
    "name": "진흥하이츠아파트(지하주차장 1층)",
    "address": "전북특별자치도 전주시 완산구 학봉2길 11 (동서학동)",
    "lat": 35.80592405251019,
    "lng": 127.15438355435016,
    "region": "전북특별자치도"
  },
  {
    "name": "신세계블루타운(지하주차장 1층)",
    "address": "전북특별자치도 전주시 완산구 흑석로 64 (서서학동, 신세계블루타운아파트)",
    "lat": 35.79866923444323,
    "lng": 127.15005781250608,
    "region": "전북특별자치도"
  },
  {
    "name": "대승푸른맨션(지하주차장 1층)",
    "address": "전북특별자치도 전주시 완산구 흑석로 53 (서서학동, 푸른맨션아파트)",
    "lat": 35.79937289333583,
    "lng": 127.15064701114244,
    "region": "전북특별자치도"
  },
  {
    "name": "광진산업아파트(103동 지하공간 1층)",
    "address": "전북특별자치도 전주시 완산구 덕적골3길 17 (서서학동, 광진산업아파트)",
    "lat": 35.79844136049678,
    "lng": 127.1451354776869,
    "region": "전북특별자치도"
  },
  {
    "name": "효성흑석마을아파트(지하주차장 1층)",
    "address": "전북특별자치도 전주시 완산구 흑석1길 85 (서서학동, 흑석마을아파트)",
    "lat": 35.798306674259486,
    "lng": 127.14920316392052,
    "region": "전북특별자치도"
  },
  {
    "name": "흥건삼천2차아파트(지하주차장 1층)",
    "address": "전북특별자치도 전주시 완산구 삼천천변1길 45 (삼천동1가, 흥건2차아파트)",
    "lat": 35.79522464051107,
    "lng": 127.11577866936308,
    "region": "전북특별자치도"
  },
  {
    "name": "영동고덕아파트 A동(지하주차장 1층)",
    "address": "전북특별자치도 전주시 완산구 고덕산2길 9, A동 (대성동, 영동고덕아파트)",
    "lat": 35.798416369701194,
    "lng": 127.17884725923771,
    "region": "전북특별자치도"
  },
  {
    "name": "성원아파트(지하주차장1층)",
    "address": "전북특별자치도 전주시 완산구 서신천변11길 20 (서신동, 성원아파트)",
    "lat": 35.83029500908154,
    "lng": 127.11203575237192,
    "region": "전북특별자치도"
  },
  {
    "name": "현대아파트(서신동)_지하주차장 1층",
    "address": "전북특별자치도 전주시 완산구 서신로 90 (서신동, 현대아파트)",
    "lat": 35.83327518714204,
    "lng": 127.11607022418433,
    "region": "전북특별자치도"
  },
  {
    "name": "중흥아파트(지하주차장 1층)",
    "address": "전북특별자치도 전주시 완산구 새터로 74 (서신동, 중흥아파트)",
    "lat": 35.83545293573639,
    "lng": 127.11466391240536,
    "region": "전북특별자치도"
  },
  {
    "name": "남양황실아파트 (지하주차장 1층)",
    "address": "전북특별자치도 전주시 완산구 따박골로 8 (효자동1가, 남양황실아파트)",
    "lat": 35.80933333758357,
    "lng": 127.12392840351492,
    "region": "전북특별자치도"
  },
  {
    "name": "거성소라아파트 (지하주차장 1층)",
    "address": "전북특별자치도 전주시 완산구 백제대로 160 (효자동1가, 거성소라아파트)",
    "lat": 35.807317965777166,
    "lng": 127.12356981687093,
    "region": "전북특별자치도"
  },
  {
    "name": "영동고덕아파트 B동(지하주차장 1층)",
    "address": "전북특별자치도 전주시 완산구 고덕산2길 9 (대성동, 영동고덕아파트)",
    "lat": 35.798416369701194,
    "lng": 127.17884725923771,
    "region": "전북특별자치도"
  },
  {
    "name": "호반리젠시빌아파트(지하주차장 1층)",
    "address": "전북특별자치도 전주시 완산구 삼천천변3길 20 (삼천동1가)",
    "lat": 35.79792485380042,
    "lng": 127.1116272855588,
    "region": "전북특별자치도"
  },
  {
    "name": "다가대피소 (지하보도 1층)",
    "address": "전북특별자치도 전주시 완산구 전주천동로 224 (다가동3가)",
    "lat": 35.81634223685224,
    "lng": 127.1398222829174,
    "region": "전북특별자치도"
  },
  {
    "name": "하나증권(지하주차장 1층)",
    "address": "전북특별자치도 전주시 완산구 팔달로 229 (고사동)",
    "lat": 35.822655482615886,
    "lng": 127.14514895345792,
    "region": "전북특별자치도"
  },
  {
    "name": "성원오피스텔(지하주차장1-3층)",
    "address": "전북특별자치도 전주시 완산구 풍남문4길 25-26 (중앙동4가)",
    "lat": 35.8147222057495,
    "lng": 127.14462354341671,
    "region": "전북특별자치도"
  },
  {
    "name": "엔씨웨이브(구 엔떼피아)(지하 1층)",
    "address": "전북특별자치도 전주시 완산구 전주객사5길 35 (고사동)",
    "lat": 35.81971508269081,
    "lng": 127.14518347021314,
    "region": "전북특별자치도"
  },
  {
    "name": "삼천2동주민센터(지하주차장 1층)",
    "address": "전북특별자치도 전주시 완산구 거마중앙로 49 (삼천동1가)",
    "lat": 35.79624741422161,
    "lng": 127.12234059095276,
    "region": "전북특별자치도"
  },
  {
    "name": "서도프라자(지하주차장 1~2층)",
    "address": "전북특별자치도 전주시 완산구 용머리로 36 (효자동1가, 서도프라자)",
    "lat": 35.80577079641704,
    "lng": 127.11428115768815,
    "region": "전북특별자치도"
  },
  {
    "name": "대우빌딩(지하 1층)",
    "address": "전북특별자치도 전주시 완산구 기린대로 213 (서노송동, 대우빌딩)",
    "lat": 35.8257798771734,
    "lng": 127.14650554655788,
    "region": "전북특별자치도"
  },
  {
    "name": "남양황제아파트(지하 1층)",
    "address": "전북특별자치도 전주시 완산구 백제대로 159 (효자동1가, 남양황제아파트)",
    "lat": 35.8071930313494,
    "lng": 127.12273540159002,
    "region": "전북특별자치도"
  },
  {
    "name": "제일아파트(지하 1층)",
    "address": "전북특별자치도 전주시 완산구 신봉로 52 (효자동1가, 제일아파트)",
    "lat": 35.81002519256795,
    "lng": 127.12052120460858,
    "region": "전북특별자치도"
  },
  {
    "name": "신일아파트(지하 1층)",
    "address": "전북특별자치도 전주시 완산구 신봉로 51 (효자동1가, 신일아파트)",
    "lat": 35.810177956188326,
    "lng": 127.12059334015176,
    "region": "전북특별자치도"
  },
  {
    "name": "한양운남아파트(지하 1층)",
    "address": "전북특별자치도 전주시 완산구 신봉로 71 (효자동1가, 한양운남아파트)",
    "lat": 35.809448825045834,
    "lng": 127.12247666803924,
    "region": "전북특별자치도"
  },
  {
    "name": "비사벌아파트(효자2동)(지하 1층)",
    "address": "전북특별자치도 전주시 완산구 서원로 258 (효자동1가, 비사벌아파트)",
    "lat": 35.81202356063372,
    "lng": 127.12267225837222,
    "region": "전북특별자치도"
  },
  {
    "name": "성원골드아파트(지하 1층)",
    "address": "전북특별자치도 전주시 완산구 신봉로 74 (효자동1가, 성원골드맨션아파트)",
    "lat": 35.809297592542855,
    "lng": 127.12272046127666,
    "region": "전북특별자치도"
  },
  {
    "name": "남양송정아파트(지하 1층)",
    "address": "전북특별자치도 전주시 완산구 용머리로 78 (효자동1가, 남양송정아파트)",
    "lat": 35.805912982107095,
    "lng": 127.1189872319593,
    "region": "전북특별자치도"
  },
  {
    "name": "남양효자아파트(지하 1층)",
    "address": "전북특별자치도 전주시 완산구 용머리로 68 (효자동1가, 남양효자맨션아파트)",
    "lat": 35.80576739162283,
    "lng": 127.1179423749033,
    "region": "전북특별자치도"
  },
  {
    "name": "대우청솔아파트(지하 1층)",
    "address": "전북특별자치도 전주시 완산구 오두정길 10 (효자동1가, 대우청솔아파트)",
    "lat": 35.807087958503644,
    "lng": 127.11999750014672,
    "region": "전북특별자치도"
  },
  {
    "name": "전주시청(지하 1층)",
    "address": "전북특별자치도 전주시 완산구 노송광장로 10 (서노송동)",
    "lat": 35.82398051353649,
    "lng": 127.14777236575954,
    "region": "전북특별자치도"
  },
  {
    "name": "효자성원아파트(지하주차장 1층)",
    "address": "전북특별자치도 전주시 완산구 거마평로 189-47, 효자성원맨션 (효자동1가, 효자성원맨션)",
    "lat": 35.80833170091053,
    "lng": 127.11329737861804,
    "region": "전북특별자치도"
  },
  {
    "name": "대풍한마을아파트(지하주차장 1층)",
    "address": "전북특별자치도 전주시 완산구 따박골7길 22 (서완산동2가, 대풍한마을아파트)",
    "lat": 35.80877815312215,
    "lng": 127.13035379954952,
    "region": "전북특별자치도"
  },
  {
    "name": "한강아파트(효자3동)(지하주차장 1층)",
    "address": "전북특별자치도 전주시 완산구 강변로 120 (효자동1가, 한강아파트)",
    "lat": 35.80164971215759,
    "lng": 127.11234644484186,
    "region": "전북특별자치도"
  },
  {
    "name": "한벽문화관(지하주차장 1층)",
    "address": "전북특별자치도 전주시 완산구 전주천동로 20 (교동)",
    "lat": 35.81227650714544,
    "lng": 127.1595840813048,
    "region": "전북특별자치도"
  },
  {
    "name": "전북도청 (지하주차장 1층)",
    "address": "전북특별자치도 전주시 완산구 효자로 225 (효자동3가)",
    "lat": 35.81922747954013,
    "lng": 127.11047626776732,
    "region": "전북특별자치도"
  },
  {
    "name": "효자남양i좋은집(지하주차장 1층)",
    "address": "전북특별자치도 전주시 완산구 강변로 242 (효자동1가, 남양아이좋은집아파트)",
    "lat": 35.81173306095974,
    "lng": 127.11235249413065,
    "region": "전북특별자치도"
  },
  {
    "name": "우성해오름아파트(104동 지하주차장 1층)",
    "address": "전북특별자치도 전주시 완산구 인봉남로 56 (중노송동, 우성해오름아파트)",
    "lat": 35.8260027339157,
    "lng": 127.159135505471,
    "region": "전북특별자치도"
  },
  {
    "name": "동신2단지아파트(115동앞)(지하주차장 1,2층)",
    "address": "전북특별자치도 전주시 완산구 양지2길 52-7, 115동 (평화동2가)",
    "lat": 35.791198997150126,
    "lng": 127.1203903811635,
    "region": "전북특별자치도"
  },
  {
    "name": "현대아파트(평화2동)(지하주차장 1층)",
    "address": "전북특별자치도 전주시 완산구 소대배기로 33 (평화동2가)",
    "lat": 35.78711397427333,
    "lng": 127.1332159579474,
    "region": "전북특별자치도"
  },
  {
    "name": "코오롱아파트 12동앞(지하주차장 1,2층)",
    "address": "전북특별자치도 전주시 완산구 평화로 181 (평화동1가)",
    "lat": 35.79288856517065,
    "lng": 127.13625645282032,
    "region": "전북특별자치도"
  },
  {
    "name": "코오롱아파트7동앞(지하주차장 1층)",
    "address": "전북특별자치도 전주시 완산구 평화로 181 (평화동1가)",
    "lat": 35.79288856517065,
    "lng": 127.13625645282032,
    "region": "전북특별자치도"
  },
  {
    "name": "우미아파트(지하주차장 1층)",
    "address": "전북특별자치도 전주시 완산구 모악로 4685 (평화동2가)",
    "lat": 35.78792842898001,
    "lng": 127.12997533986515,
    "region": "전북특별자치도"
  },
  {
    "name": "송정써미트아파트(지하주차장 1층)",
    "address": "전북특별자치도 전주시 완산구 평화7길 40 (평화동2가)",
    "lat": 35.786218092307735,
    "lng": 127.13839818479592,
    "region": "전북특별자치도"
  },
  {
    "name": "전라북도 교육청(지하주차장 1층)",
    "address": "전북특별자치도 전주시 완산구 홍산로 111 (효자동2가, 전북특별자치도교육청)",
    "lat": 35.80417427335041,
    "lng": 127.10279604547488,
    "region": "전북특별자치도"
  },
  {
    "name": "서부신시가지 아이파크아파트 (지하주차장 1층)",
    "address": "전북특별자치도 전주시 완산구 홍산로 390 (효자동3가, 서부신시가지아이파크아파트)",
    "lat": 35.82858625769985,
    "lng": 127.10700590527834,
    "region": "전북특별자치도"
  },
  {
    "name": "세창짜임아파트(지하주차장 1층)",
    "address": "전북특별자치도 전주시 완산구 용리로 179 (삼천동1가, 세창짜임아파트)",
    "lat": 35.798897511858804,
    "lng": 127.12810755907203,
    "region": "전북특별자치도"
  },
  {
    "name": "서신도서관(지하주차장 1층)",
    "address": "전북특별자치도 전주시 완산구 서신천변14길 10 (서신동, 서신복합문화센터(도서관,서신주민센터))",
    "lat": 35.83110938538181,
    "lng": 127.1152848064594,
    "region": "전북특별자치도"
  },
  {
    "name": "서신지하보도(교원공제앞)_지하1층",
    "address": "전북특별자치도 전주시 완산구 온고을로 1 (서신동)",
    "lat": 35.83342928456047,
    "lng": 127.12229108515815,
    "region": "전북특별자치도"
  },
  {
    "name": "서신광장지하보도(KT전북본부앞)_지하1층",
    "address": "전북특별자치도 전주시 완산구 온고을로 29 (서신동)",
    "lat": 35.833363564250455,
    "lng": 127.1199976949277,
    "region": "전북특별자치도"
  },
  {
    "name": "완산구청(지하 1층)",
    "address": "전북특별자치도 전주시 완산구 서원로 232 (효자동1가, 완산구청)",
    "lat": 35.81229178554368,
    "lng": 127.1197989870046,
    "region": "전북특별자치도"
  },
  {
    "name": "전주태평SK View 110동 (지하주차장1~2층)",
    "address": "전북특별자치도 전주시 완산구 태평2길 22 (태평동)",
    "lat": 35.823743081045244,
    "lng": 127.14000353204142,
    "region": "전북특별자치도"
  },
  {
    "name": "라한호텔(지하주차장 1~3층)",
    "address": "전북특별자치도 전주시 완산구 기린대로 85 (풍남동3가)",
    "lat": 35.81674366753057,
    "lng": 127.15436431530452,
    "region": "전북특별자치도"
  },
  {
    "name": "오페라하우스아파트(지하주차장 1층)",
    "address": "전북특별자치도 전주시 완산구 안행로 150 (서완산동2가, 전주오페라하우스)",
    "lat": 35.80969562681659,
    "lng": 127.13317601283288,
    "region": "전북특별자치도"
  },
  {
    "name": "완산교회(지하 1층)",
    "address": "전북특별자치도 전주시 완산구 전주천서로 181 (서완산동1가, 전주완산교회)",
    "lat": 35.81200595063616,
    "lng": 127.1416087610494,
    "region": "전북특별자치도"
  },
  {
    "name": "대아산성아파트(지하주차장 1층)",
    "address": "전북특별자치도 전주시 완산구 남고산성1길 37-0 (동서학동)",
    "lat": 35.80474043498602,
    "lng": 127.15645667148225,
    "region": "전북특별자치도"
  },
  {
    "name": "영창맨션(나동 지하공간 1층)",
    "address": "전북특별자치도 전주시 완산구 장승배기8길 13 (서서학동, 영창공원맨션)",
    "lat": 35.80331706320721,
    "lng": 127.14661900329114,
    "region": "전북특별자치도"
  },
  {
    "name": "우정아파트(지하주차장 1층)",
    "address": "전북특별자치도 전주시 완산구 흑석로 65 (서서학동, 우정아파트 상가)",
    "lat": 35.79847349957435,
    "lng": 127.15015343459582,
    "region": "전북특별자치도"
  },
  {
    "name": "옥성트레비앙아파트(지하주차장 1층)",
    "address": "전북특별자치도 전주시 완산구 서원로 348 (중화산동1가, 옥성트레비앙아파트)",
    "lat": 35.81288268705693,
    "lng": 127.13249587900631,
    "region": "전북특별자치도"
  },
  {
    "name": "현대에코르아파트 (지하주차장 1층)",
    "address": "전북특별자치도 전주시 완산구 화산천변로 50 (중화산동2가)",
    "lat": 35.82430017578633,
    "lng": 127.11606074029304,
    "region": "전북특별자치도"
  },
  {
    "name": "우성중산타운(지하주차장 1층)",
    "address": "전북특별자치도 전주시 완산구 신촌3길 1-0 (중화산동2가)",
    "lat": 35.81693794314014,
    "lng": 127.1176420642188,
    "region": "전북특별자치도"
  },
  {
    "name": "효성양지임대아파트 (지하주차장 1층)",
    "address": "전북특별자치도 전주시 완산구 장승배기3길 8 (평화동1가, 효성양지아파트)",
    "lat": 35.80015890964727,
    "lng": 127.1431103323306,
    "region": "전북특별자치도"
  },
  {
    "name": "지안리즈아파트 (지하주차장 1층)",
    "address": "전북특별자치도 전주시 완산구 덕적골2길 66 (평화동1가, 평화지안리즈아파트)",
    "lat": 35.79278368877512,
    "lng": 127.14143656238524,
    "region": "전북특별자치도"
  },
  {
    "name": "동신1단지아파트(108동앞)(지하주차장 1,2층)",
    "address": "전북특별자치도 전주시 완산구 양지2길 10, 108동 (평화동2가)",
    "lat": 35.79234026136452,
    "lng": 127.12305610007256,
    "region": "전북특별자치도"
  },
  {
    "name": "동도미소드림아파트 103동뒤(지하주차장 1,2층)",
    "address": "전북특별자치도 전주시 완산구 모악로 4651 (평화동2가)",
    "lat": 35.78555484189769,
    "lng": 127.12817504463538,
    "region": "전북특별자치도"
  },
  {
    "name": "동도미소드림아파트 105동뒤(지하주차장 1,2층)",
    "address": "전북특별자치도 전주시 완산구 모악로 4651 (평화동2가)",
    "lat": 35.78555484189769,
    "lng": 127.12817504463538,
    "region": "전북특별자치도"
  },
  {
    "name": "동아현대아파트 101동앞(지하주차장 1층)",
    "address": "전북특별자치도 전주시 완산구 맏내3길 22 (평화동2가)",
    "lat": 35.7925344162205,
    "lng": 127.12987378003054,
    "region": "전북특별자치도"
  },
  {
    "name": "평화주공그린1차 107동앞(지하주차장 1층)",
    "address": "전북특별자치도 전주시 완산구 구이로 2094 (평화동2가)",
    "lat": 35.78484175546553,
    "lng": 127.13107619149824,
    "region": "전북특별자치도"
  },
  {
    "name": "평화주공그린1차 110동앞(지하주차장 1층)",
    "address": "전북특별자치도 전주시 완산구 구이로 2094 (평화동2가)",
    "lat": 35.78484175546553,
    "lng": 127.13107619149824,
    "region": "전북특별자치도"
  },
  {
    "name": "평화주공그린2차 201동앞(지하주차장 1층)",
    "address": "전북특별자치도 전주시 완산구 평화로 100 (평화동2가)",
    "lat": 35.78600148136154,
    "lng": 127.13422075097094,
    "region": "전북특별자치도"
  },
  {
    "name": "평화주공그린2차 207동앞(지하주차장 1층)",
    "address": "전북특별자치도 전주시 완산구 평화로 100 (평화동2가)",
    "lat": 35.78600148136154,
    "lng": 127.13422075097094,
    "region": "전북특별자치도"
  },
  {
    "name": "평화주공그린2차 209동앞(지하주차장 1층)",
    "address": "전북특별자치도 전주시 완산구 평화로 100 (평화동2가)",
    "lat": 35.78600148136154,
    "lng": 127.13422075097094,
    "region": "전북특별자치도"
  },
  {
    "name": "호반리젠시빌 103동앞(지하주차장 1층)",
    "address": "전북특별자치도 전주시 완산구 평화로 95 (평화동2가)",
    "lat": 35.78529233477352,
    "lng": 127.13373013605823,
    "region": "전북특별자치도"
  },
  {
    "name": "경복궁아파트 101동앞(지하주차장 1층)",
    "address": "전북특별자치도 전주시 완산구 평화로 120 (평화동2가)",
    "lat": 35.787453170359626,
    "lng": 127.13495859495724,
    "region": "전북특별자치도"
  },
  {
    "name": "미송평화하이존101동앞(지하주차장 1층)",
    "address": "전북특별자치도 전주시 완산구 모악로 4681 (평화동2가)",
    "lat": 35.78731535279409,
    "lng": 127.12924840098196,
    "region": "전북특별자치도"
  },
  {
    "name": "교원공제전북지부(지하주차장 1~4층)",
    "address": "전북특별자치도 전주시 완산구 온고을로 1 (서신동, 한국교직원공제회전북회관)",
    "lat": 35.83342928456047,
    "lng": 127.12229108515815,
    "region": "전북특별자치도"
  },
  {
    "name": "KT전북본부(지하주차장 1~3층)",
    "address": "전북특별자치도 전주시 완산구 온고을로 29 (서신동, KT빌딩)",
    "lat": 35.833363564250455,
    "lng": 127.1199976949277,
    "region": "전북특별자치도"
  },
  {
    "name": "롯데백화점전주점(지하주차장 1~4층)",
    "address": "전북특별자치도 전주시 완산구 온고을로 2 (서신동, 롯데백화점)",
    "lat": 35.83420749779404,
    "lng": 127.1220410300284,
    "region": "전북특별자치도"
  },
  {
    "name": "신세계이마트전주점(지하주차장 1층)",
    "address": "전북특별자치도 전주시 완산구 당산로 111 (서신동, E마트)",
    "lat": 35.832322954691875,
    "lng": 127.1202250911022,
    "region": "전북특별자치도"
  },
  {
    "name": "광진궁전아파트 1동 (지하공간 1층)",
    "address": "전북특별자치도 전주시 완산구 장승배기로 145 (삼천동1가)",
    "lat": 35.794898559913804,
    "lng": 127.12888368206283,
    "region": "전북특별자치도"
  },
  {
    "name": "쌍용아파트상가동 지하(1층)공간",
    "address": "전북특별자치도 전주시 완산구 용리로 178 (삼천동1가)",
    "lat": 35.79864721123872,
    "lng": 127.12814474225466,
    "region": "전북특별자치도"
  },
  {
    "name": "우성그린아파트 1동 3,4라인(지하 1층)",
    "address": "전북특별자치도 전주시 완산구 솟대로 10(삼천동1가, 우성아파트)",
    "lat": 35.7948879275117,
    "lng": 127.12625986881676,
    "region": "전북특별자치도"
  },
  {
    "name": "한신휴플러스아파트 (지하주차장 1층)",
    "address": "전북특별자치도 전주시 완산구 따박골4길 10 (효자동1가, 효자동 한신휴플러스)",
    "lat": 35.80663089635201,
    "lng": 127.1266909967381,
    "region": "전북특별자치도"
  },
  {
    "name": "효자뷰티빌(지하주차장 1층)",
    "address": "전북특별자치도 전주시 완산구 거마평로 217 (효자동1가, 뷰티빌)",
    "lat": 35.81169330855132,
    "lng": 127.1141728712233,
    "region": "전북특별자치도"
  },
  {
    "name": "전북지방경찰청 (지하주차장 1층)",
    "address": "전북특별자치도 전주시 완산구 유연로 180 (효자동3가, 전북지방경찰청)",
    "lat": 35.82430118210194,
    "lng": 127.10504689074637,
    "region": "전북특별자치도"
  },
  {
    "name": "효자휴먼시아1단지아파트(107동 쪽 지하주차장 1층)",
    "address": "전북특별자치도 전주시 완산구 호암로 2 (효자동2가, 효자휴먼시아1단지아파트)",
    "lat": 35.80876847979374,
    "lng": 127.09645883035006,
    "region": "전북특별자치도"
  },
  {
    "name": "효자휴먼시아5단지아파트(504동 쪽 지하주차장 1층)",
    "address": "전북특별자치도 전주시 완산구 호암로 87 (효자동2가, 효자휴먼시아5단지아파트)",
    "lat": 35.809676713686045,
    "lng": 127.103285540362,
    "region": "전북특별자치도"
  },
  {
    "name": "효자1차엘드수목토아파트(지하주차장 1층)",
    "address": "전북특별자치도 전주시 완산구 세내로 241 (효자동2가, 효자1차엘드수목토아파트)",
    "lat": 35.81188359681203,
    "lng": 127.10974407452392,
    "region": "전북특별자치도"
  },
  {
    "name": "풍림아이원아파트(지하주차장 1층)",
    "address": "전북특별자치도 전주시 완산구 우전1길 40 (효자동2가, 풍림아이원아파트)",
    "lat": 35.8072817073723,
    "lng": 127.1063420822934,
    "region": "전북특별자치도"
  },
  {
    "name": "서곡주공아파트(지하주차장1층)",
    "address": "전북특별자치도 전주시 완산구 서곡로 8 (효자동3가, 서곡주공아파트)",
    "lat": 35.83235242249103,
    "lng": 127.09659876923637,
    "region": "전북특별자치도"
  },
  {
    "name": "전주중화산풍림아이원(지하주차장 1~2층)",
    "address": "전북특별자치도 전주시 완산구 서원로 289 (중화산동2가, 중화산풍림아이원아파트)",
    "lat": 35.81239424148083,
    "lng": 127.12621044233452,
    "region": "전북특별자치도"
  },
  {
    "name": "광진햇빛찬1차아파트(지하주차장 1층)",
    "address": "전북특별자치도 전주시 완산구 강변로 306 (중화산동2가, 광진햇빛찬아파트)",
    "lat": 35.81720686714866,
    "lng": 127.1149072386144,
    "region": "전북특별자치도"
  },
  {
    "name": "동방아로채2단지아파트 (지하주차장 2층)",
    "address": "전북특별자치도 전주시 완산구 효동3길 17-5 (효자동1가, 동방아로채2단지)",
    "lat": 35.8052424751924,
    "lng": 127.1296932503403,
    "region": "전북특별자치도"
  },
  {
    "name": "국립무형유산원(지하주차장 1층)",
    "address": "전북특별자치도 전주시 완산구 서학로 95 (동서학동, 국립무형유산원)",
    "lat": 35.809498585079886,
    "lng": 127.16002973275516,
    "region": "전북특별자치도"
  },
  {
    "name": "효자대림아파트 제3주차장 (지하주차장 1층)",
    "address": "전북특별자치도 전주시 완산구 안행2길 26 (효자동1가, 대림아파트)",
    "lat": 35.802049908017366,
    "lng": 127.12869103873992,
    "region": "전북특별자치도"
  },
  {
    "name": "효자대림아파트 제5주차장 (지하주차장 1층)",
    "address": "전북특별자치도 전주시 완산구 안행2길 26 (효자동1가, 대림아파트)",
    "lat": 35.802049908017366,
    "lng": 127.12869103873992,
    "region": "전북특별자치도"
  },
  {
    "name": "이안전주삼천아파트(지하주차장 1~3층 )",
    "address": "전북특별자치도 전주시 완산구 용리로 165 (삼천동1가, 이안전주삼천)",
    "lat": 35.79817405907518,
    "lng": 127.1267488127288,
    "region": "전북특별자치도"
  },
  {
    "name": "오네뜨아파트 (지하주차장 1층)",
    "address": "전북특별자치도 전주시 완산구 덕적골1길 50 (평화동1가, 평화동오네뜨아파트)",
    "lat": 35.7939542835173,
    "lng": 127.14008685620072,
    "region": "전북특별자치도"
  },
  {
    "name": "한국전통문화전당(지하주차장 1층)",
    "address": "전북특별자치도 전주시 완산구 현무1길 20 (경원동3가, 한국전통문화센터,한지산업지원센터)",
    "lat": 35.82084218176653,
    "lng": 127.1480103009551,
    "region": "전북특별자치도"
  },
  {
    "name": "전주효천우미린더프레스티지(208동 쪽 지하주차장 1층)",
    "address": "전북특별자치도 전주시 완산구 홍산로 77 (효자동2가, 전주효천우미린더프레스티지)",
    "lat": 35.80154406491965,
    "lng": 127.10571654746371,
    "region": "전북특별자치도"
  },
  {
    "name": "힐스테이트 어울림효자아파트(지하1층)",
    "address": "전북특별자치도 전주시 완산구 용머리로 135 (효자동1가, 힐스테이트 어울림 효자)",
    "lat": 35.8075993384892,
    "lng": 127.126219195782,
    "region": "전북특별자치도"
  },
  {
    "name": "힐스테이트어울림효자아파트",
    "address": "전북특별자치도 전주시 완산구 용머리로 135 (효자동1가, 힐스테이트 어울림 효자)",
    "lat": 35.8075993384892,
    "lng": 127.126219195782,
    "region": "전북특별자치도"
  },
  {
    "name": "전북특별자치도 소상공인희망센터(지하1층)",
    "address": "전북특별자치도 전주시 덕진구 기린대로 945-6 (여의동)",
    "lat": 35.8642240929337,
    "lng": 127.08152923773,
    "region": "전북특별자치도"
  },
  {
    "name": "팔복동주민센터(지하 1층)",
    "address": "전북특별자치도 전주시 덕진구 신복5길 6-0 (팔복동1가, 팔복동주민센터)",
    "lat": 35.85365492407897,
    "lng": 127.10612992276025,
    "region": "전북특별자치도"
  },
  {
    "name": "전북대학교병원(지하주차장 1층)",
    "address": "전북특별자치도 전주시 덕진구 건지로 20 (금암동, 전북대학교병원)",
    "lat": 35.845738031983764,
    "lng": 127.14206371609396,
    "region": "전북특별자치도"
  },
  {
    "name": "LG동아아파트(지하1층 주차장)",
    "address": "전북특별자치도 전주시 덕진구 호성로 40 (호성동1가, LG동아아파트)",
    "lat": 35.855062207710944,
    "lng": 127.15135789118588,
    "region": "전북특별자치도"
  },
  {
    "name": "호성주공아파트(지하1층 주차장)",
    "address": "전북특별자치도 전주시 덕진구 소리로 179 (호성동1가, 주공아파트)",
    "lat": 35.85772654519687,
    "lng": 127.1516361942101,
    "region": "전북특별자치도"
  },
  {
    "name": "타이어뱅크(뱅크빌딩)(지하주차장1~3층)",
    "address": "전북특별자치도 전주시 덕진구 백제대로 751 (인후동2가)",
    "lat": 35.84651492551815,
    "lng": 127.15081180189914,
    "region": "전북특별자치도"
  },
  {
    "name": "금암초교(지하 1층)",
    "address": "전북특별자치도 전주시 덕진구 권삼득로 210 (금암동, 전주금암초등학교)",
    "lat": 35.836768659428934,
    "lng": 127.13573849334792,
    "region": "전북특별자치도"
  },
  {
    "name": "서호1차아파트(지하주차장 1층)",
    "address": "전북특별자치도 전주시 덕진구 송천로 31 (송천동1가, 송천서호1차아파트)",
    "lat": 35.855941150465505,
    "lng": 127.1187354733274,
    "region": "전북특별자치도"
  },
  {
    "name": "제일아파트(지하주차장 1층)",
    "address": "전북특별자치도 전주시 덕진구 송천3길 50 (송천동1가, 제일아파트)",
    "lat": 35.86005551868296,
    "lng": 127.11639713488108,
    "region": "전북특별자치도"
  },
  {
    "name": "쌍용1차아파트(지하주차장 1층)",
    "address": "전북특별자치도 전주시 덕진구 와룡로 40 (송천동2가)",
    "lat": 35.862709880150064,
    "lng": 127.11216776828712,
    "region": "전북특별자치도"
  },
  {
    "name": "쌍용2차아파트(지하주차장 1층)",
    "address": "전북특별자치도 전주시 덕진구 와룡로 50 (송천동2가)",
    "lat": 35.863701956452125,
    "lng": 127.11212771619822,
    "region": "전북특별자치도"
  },
  {
    "name": "솔내동아아파트(지하주차장 2층)",
    "address": "전북특별자치도 전주시 덕진구 와룡2길 5 (송천동2가, 동아아파트)",
    "lat": 35.86605954348579,
    "lng": 127.11333926649502,
    "region": "전북특별자치도"
  },
  {
    "name": "영창드림맨션아파트 (지하주차장 1층)",
    "address": "전북특별자치도 전주시 덕진구 솔내6길 7 (송천동1가, 영창드림맨션아파트)",
    "lat": 35.858966043280695,
    "lng": 127.12205414136226,
    "region": "전북특별자치도"
  },
  {
    "name": "송천동 현대2차아파트 (지하주차장 1층)",
    "address": "전북특별자치도 전주시 덕진구 솔내로 124 (송천동1가, 현대2차아파트)",
    "lat": 35.86123792611706,
    "lng": 127.1268653438057,
    "region": "전북특별자치도"
  },
  {
    "name": "송천주공아파트 (지하주차장 1층)",
    "address": "전북특별자치도 전주시 덕진구 붓내3길 29 (송천동2가, 주공아파트)",
    "lat": 35.866731292026046,
    "lng": 127.12457909686069,
    "region": "전북특별자치도"
  },
  {
    "name": "교육문화회관(지하주차장1층)",
    "address": "전북특별자치도 전주시 덕진구 안덕원로 71 (진북동, 전북교육문화회관)",
    "lat": 35.82867029291433,
    "lng": 127.13798136054685,
    "region": "전북특별자치도"
  },
  {
    "name": "거성 고속맨션2차 아파트(지하주차장1층)",
    "address": "전북특별자치도 전주시 덕진구 숲정이5길 77 (진북동, 거성고속맨션2차)",
    "lat": 35.83382930854939,
    "lng": 127.12789058087708,
    "region": "전북특별자치도"
  },
  {
    "name": "우성아파트105동, 110동, 120동(지하주차장1층)",
    "address": "전북특별자치도 전주시 덕진구 태진로 101 (진북동, 우성아파트)",
    "lat": 35.83020226528359,
    "lng": 127.13586558195908,
    "region": "전북특별자치도"
  },
  {
    "name": "거성프라자아파트 전체 동의 지하주차장 1층",
    "address": "전북특별자치도 전주시 덕진구 팽나무4길 7 (인후동1가, 거성프라자아파트)",
    "lat": 35.83597106087554,
    "lng": 127.15509417802222,
    "region": "전북특별자치도"
  },
  {
    "name": "광주지방노동청 전주지청(지하주차장 1층)",
    "address": "전북특별자치도 전주시 덕진구 건산로 251 (인후동1가, 광주지방노동청전주지청)",
    "lat": 35.835348646088185,
    "lng": 127.1644292444008,
    "region": "전북특별자치도"
  },
  {
    "name": "아중현대아파트(지하주차장 1층)",
    "address": "전북특별자치도 전주시 덕진구 석소로 55 (인후동1가, 아중현대아파트)",
    "lat": 35.83222017912672,
    "lng": 127.16763693199546,
    "region": "전북특별자치도"
  },
  {
    "name": "부영1차아파트(지하주차장 1층)",
    "address": "전북특별자치도 전주시 덕진구 진버들3길 10 (인후동1가, 부영1차아파트)",
    "lat": 35.834897687679195,
    "lng": 127.16206290093636,
    "region": "전북특별자치도"
  },
  {
    "name": "부영3차아파트(지하주차장 1층)",
    "address": "전북특별자치도 전주시 덕진구 아중로 180 (인후동1가, 부영3차아파트)",
    "lat": 35.82687062990347,
    "lng": 127.16891898146568,
    "region": "전북특별자치도"
  },
  {
    "name": "부영5차아파트(지하주차장 1층)",
    "address": "전북특별자치도 전주시 덕진구 한배미로 33 (인후동1가, 부영5차아파트)",
    "lat": 35.82430029792773,
    "lng": 127.168429329148,
    "region": "전북특별자치도"
  },
  {
    "name": "아중마을아남아파트(지하주차장 1층)",
    "address": "전북특별자치도 전주시 덕진구 한배미로 5 (인후동1가, 아중아남아파트)",
    "lat": 35.82577328910541,
    "lng": 127.16659101002053,
    "region": "전북특별자치도"
  },
  {
    "name": "제일2차아파트(지하주차장 1층)",
    "address": "전북특별자치도 전주시 덕진구 아중로 170 (인후동1가, 아중제일2차아파트)",
    "lat": 35.826608349119724,
    "lng": 127.16820853527484,
    "region": "전북특별자치도"
  },
  {
    "name": "안고을우성아파트(지하주차장 1층)",
    "address": "전북특별자치도 전주시 덕진구 진버들2길 14 (인후동1가, 안고을우성아파트)",
    "lat": 35.835873217435164,
    "lng": 127.159248423765,
    "region": "전북특별자치도"
  },
  {
    "name": "우정신세계아파트101동(지하1층 기계실)",
    "address": "전북특별자치도 전주시 덕진구 동부대로 575 (우아동3가, 우정신세계)",
    "lat": 35.84141430063309,
    "lng": 127.1667621943392,
    "region": "전북특별자치도"
  },
  {
    "name": "우정신세계아파트102동(지하1층 기계실)",
    "address": "전북특별자치도 전주시 덕진구 동부대로 575 (우아동3가, 우정신세계)",
    "lat": 35.84141430063309,
    "lng": 127.1667621943392,
    "region": "전북특별자치도"
  },
  {
    "name": "우정신세계아파트103동(지하1층 기계실)",
    "address": "전북특별자치도 전주시 덕진구 동부대로 575 (우아동3가, 우정신세계)",
    "lat": 35.84141430063309,
    "lng": 127.1667621943392,
    "region": "전북특별자치도"
  },
  {
    "name": "진흥하이츠아파트 101동(지하1층 주차장)",
    "address": "전북특별자치도 전주시 덕진구 안덕원1길 30 (우아동3가, 진흥하이츠)",
    "lat": 35.84093118589304,
    "lng": 127.1654062714361,
    "region": "전북특별자치도"
  },
  {
    "name": "아중롯데아파트 102동(지하1층 주차장)",
    "address": "전북특별자치도 전주시 덕진구 중상보로 10 (우아동2가, 롯데아파트)",
    "lat": 35.83225465908652,
    "lng": 127.16830849943604,
    "region": "전북특별자치도"
  },
  {
    "name": "아중롯데아파트 103동(지하1층 주차장)",
    "address": "전북특별자치도 전주시 덕진구 중상보로 10 (우아동2가, 롯데아파트)",
    "lat": 35.83225465908652,
    "lng": 127.16830849943604,
    "region": "전북특별자치도"
  },
  {
    "name": "진버들대우2차아파트 202동(지하1층 주차장)",
    "address": "전북특별자치도 전주시 덕진구 진버들5길 10 (우아동2가, 진버들대우아파트)",
    "lat": 35.83610577804906,
    "lng": 127.16591568114322,
    "region": "전북특별자치도"
  },
  {
    "name": "진버들대우2차아파트 203동(지하1층 주차장)",
    "address": "전북특별자치도 전주시 덕진구 진버들5길 10 (우아동2가, 진버들대우아파트)",
    "lat": 35.83610577804906,
    "lng": 127.16591568114322,
    "region": "전북특별자치도"
  },
  {
    "name": "전주역 지하도 (지하 1층)",
    "address": "전북특별자치도 전주시 덕진구 동부대로 680 (우아동3가, 전주역)",
    "lat": 35.84940704765697,
    "lng": 127.16065876079098,
    "region": "전북특별자치도"
  },
  {
    "name": "우아1동주민센터(지하주차장 1층)",
    "address": "전북특별자치도 전주시 덕진구 우아2길 25 (우아동3가, 우아1동주민센터)",
    "lat": 35.84977843308426,
    "lng": 127.15951974586136,
    "region": "전북특별자치도"
  },
  {
    "name": "럭키아파트 3동(지하주차장 1층)",
    "address": "전북특별자치도 전주시 덕진구 안덕원3길 10 (우아동3가, 럭키아파트)",
    "lat": 35.843477418886955,
    "lng": 127.16425771404045,
    "region": "전북특별자치도"
  },
  {
    "name": "럭키아파트 7동(지하주차장 1층)",
    "address": "전북특별자치도 전주시 덕진구 안덕원3길 10 (우아동3가, 럭키아파트)",
    "lat": 35.843477418886955,
    "lng": 127.16425771404045,
    "region": "전북특별자치도"
  },
  {
    "name": "우신아파트 1동(지하 1층)",
    "address": "전북특별자치도 전주시 덕진구 견훤로 495 (우아동3가, 우신아파트)",
    "lat": 35.85478579197556,
    "lng": 127.15512032190333,
    "region": "전북특별자치도"
  },
  {
    "name": "우신아파트 2동(지하 1층)",
    "address": "전북특별자치도 전주시 덕진구 견훤로 495 (우아동3가, 우신아파트)",
    "lat": 35.85478579197556,
    "lng": 127.15512032190333,
    "region": "전북특별자치도"
  },
  {
    "name": "우신아파트 3동(지하 1층)",
    "address": "전북특별자치도 전주시 덕진구 견훤로 495 (우아동3가, 우신아파트)",
    "lat": 35.85478579197556,
    "lng": 127.15512032190333,
    "region": "전북특별자치도"
  },
  {
    "name": "우성아파트 가동(지하 1층)",
    "address": "전북특별자치도 전주시 덕진구 견훤로 497 (우아동3가, 우성아파트)",
    "lat": 35.85499072957081,
    "lng": 127.15489184040388,
    "region": "전북특별자치도"
  },
  {
    "name": "우성아파트 나동(지하 1층)",
    "address": "전북특별자치도 전주시 덕진구 견훤로 497 (우아동3가, 우성아파트)",
    "lat": 35.85499072957081,
    "lng": 127.15489184040388,
    "region": "전북특별자치도"
  },
  {
    "name": "우성아파트 다동(지하 1층)",
    "address": "전북특별자치도 전주시 덕진구 견훤로 497 (우아동3가, 우성아파트)",
    "lat": 35.85499072957081,
    "lng": 127.15489184040388,
    "region": "전북특별자치도"
  },
  {
    "name": "효성임대아파트(지하주차장 1층)",
    "address": "전북특별자치도 전주시 덕진구 안골5길 15 (우아동3가, 우아효성아파트)",
    "lat": 35.84300858620088,
    "lng": 127.15598330823644,
    "region": "전북특별자치도"
  },
  {
    "name": "신동아3차아파트(지하1층)",
    "address": "전북특별자치도 전주시 덕진구 호성로 18-12 (우아동3가, 신동아아파트)",
    "lat": 35.854619093370005,
    "lng": 127.15308640877112,
    "region": "전북특별자치도"
  },
  {
    "name": "전주종합경기장(주차장 옆 지하1층)",
    "address": "전북특별자치도 전주시 덕진구 기린대로 451 (덕진동1가, 전주종합경기장)",
    "lat": 35.840555255382235,
    "lng": 127.12743805726532,
    "region": "전북특별자치도"
  },
  {
    "name": "덕진동주민센터(지하주차장 1층)",
    "address": "전북특별자치도 전주시 덕진구 기린대로 533-7 (덕진동1가, 덕진동주민센터)",
    "lat": 35.84542614506677,
    "lng": 127.12063135048392,
    "region": "전북특별자치도"
  },
  {
    "name": "전주덕진예술회관(지하 1층)",
    "address": "전북특별자치도 전주시 덕진구 권삼득로 407 (덕진동2가, 전주덕진예술회관)",
    "lat": 35.84834414711014,
    "lng": 127.11957502820158,
    "region": "전북특별자치도"
  },
  {
    "name": "삼오아파트(지하주차장 1층)",
    "address": "전북특별자치도 전주시 덕진구 반월5길 8 (반월동, 삼오아파트)",
    "lat": 35.87326104217186,
    "lng": 127.06898663338912,
    "region": "전북특별자치도"
  },
  {
    "name": "한강아파트(지하주차장 1층)",
    "address": "전북특별자치도 전주시 덕진구 쪽구름로 133 (반월동, 반월동한강아파트)",
    "lat": 35.87382942234384,
    "lng": 127.07075958898928,
    "region": "전북특별자치도"
  },
  {
    "name": "대창아파트(지하주차장 1~2층)",
    "address": "전북특별자치도 전주시 덕진구 반월4길 15 (반월동, 대창아파트)",
    "lat": 35.87524264643842,
    "lng": 127.07181832269728,
    "region": "전북특별자치도"
  },
  {
    "name": "백우동산아파트(지하1층)",
    "address": "전북특별자치도 전주시 덕진구 편운로 37 (동산동, 백우동산아파트)",
    "lat": 35.872571717949484,
    "lng": 127.08000474514073,
    "region": "전북특별자치도"
  },
  {
    "name": "명성아파트(지하1층)",
    "address": "전북특별자치도 전주시 덕진구 동부대로 1553 (고랑동)",
    "lat": 35.87704832730991,
    "lng": 127.0780712101469,
    "region": "전북특별자치도"
  },
  {
    "name": "대승아파트(1차, 2차 각 지하 1층)",
    "address": "전북특별자치도 전주시 덕진구 덕용1길 58 (동산동, 대승아파트)",
    "lat": 35.8715407025249,
    "lng": 127.08188736586048,
    "region": "전북특별자치도"
  },
  {
    "name": "동국아파트(지하 1층, 106동 지하 1층 별도)",
    "address": "전북특별자치도 전주시 덕진구 쪽구름로 53 (여의동, 동국아파트)",
    "lat": 35.87021238753446,
    "lng": 127.07601043577768,
    "region": "전북특별자치도"
  },
  {
    "name": "조촌동 영무예다음아파트(지하주차장 1층)",
    "address": "전북특별자치도 전주시 덕진구 반월4길 16 (반월동, 영무예다음아파트)",
    "lat": 35.8753767139462,
    "lng": 127.07198257664224,
    "region": "전북특별자치도"
  },
  {
    "name": "진흥더블파크1단지아파트(지하1층 주차장)",
    "address": "전북특별자치도 전주시 덕진구 호성로 132 (호성동1가, 진흥더블파크1단지아파트)",
    "lat": 35.86330764036045,
    "lng": 127.14776344960448,
    "region": "전북특별자치도"
  },
  {
    "name": "팔복동 남양아파트(지하주차장 1층)",
    "address": "전북특별자치도 전주시 덕진구 팔복1길 6-0 (팔복동2가, 남양아파트)",
    "lat": 35.848151495992575,
    "lng": 127.10348254943952,
    "region": "전북특별자치도"
  },
  {
    "name": "여의동제일아파트(지하1층101~103/103~105)",
    "address": "전북특별자치도 전주시 덕진구 쪽구름로 19 (여의동, 제일아파트)",
    "lat": 35.867478509529874,
    "lng": 127.07846528793716,
    "region": "전북특별자치도"
  },
  {
    "name": "금암1동주민센터(지하주차장 1층)",
    "address": "전북특별자치도 전주시 덕진구 기린대로 392 (금암동)",
    "lat": 35.837362727200095,
    "lng": 127.13304308741762,
    "region": "전북특별자치도"
  },
  {
    "name": "장동에코르아파트(지하1층)",
    "address": "전북특별자치도 전주시 덕진구 정암길 19 (장동)",
    "lat": 35.86130717809475,
    "lng": 127.06017818783836,
    "region": "전북특별자치도"
  },
  {
    "name": "송천2동주민센터(지하주차장 1층)",
    "address": "전북특별자치도 전주시 덕진구 두간9길 6 (송천동1가, 송천2동주민센터)",
    "lat": 35.86498091371959,
    "lng": 127.11555581533622,
    "region": "전북특별자치도"
  },
  {
    "name": "센트럴파크2단지아파트(지하주차장 1~2층)",
    "address": "전북특별자치도 전주시 덕진구 호반로 11 (송천동1가, 송천동센트럴파크2단지아파트)",
    "lat": 35.85319073403761,
    "lng": 127.11735348229824,
    "region": "전북특별자치도"
  },
  {
    "name": "송천동자이아파트(지하주차장 1층)",
    "address": "전북특별자치도 전주시 덕진구 두간6길 10 (송천동1가, GS자이)",
    "lat": 35.866103691960525,
    "lng": 127.11807288162667,
    "region": "전북특별자치도"
  },
  {
    "name": "덕진구청(지하주차장1층)",
    "address": "전북특별자치도 전주시 덕진구 벚꽃로 55 (진북동, 덕진구청)",
    "lat": 35.8290798784615,
    "lng": 127.13440692373072,
    "region": "전북특별자치도"
  },
  {
    "name": "아중지하보도(지하보도 1층)",
    "address": "전북특별자치도 전주시 덕진구 아중로 152 (인후동1가)",
    "lat": 35.82587935345402,
    "lng": 127.16611899102158,
    "region": "전북특별자치도"
  },
  {
    "name": "전북은행 본점(지하주차장 1층)",
    "address": "전북특별자치도 전주시 덕진구 백제대로 566 (금암동)",
    "lat": 35.840151627087195,
    "lng": 127.13171876186196,
    "region": "전북특별자치도"
  },
  {
    "name": "교보생명(지하 1층)",
    "address": "전북특별자치도 전주시 덕진구 기린대로 389 (금암동)",
    "lat": 35.83691790976296,
    "lng": 127.13269129248772,
    "region": "전북특별자치도"
  },
  {
    "name": "한화생명(지하 1층)",
    "address": "전북특별자치도 전주시 덕진구 기린대로 405 (금암동, 한화생명빌딩)",
    "lat": 35.83787162441009,
    "lng": 127.13144855199458,
    "region": "전북특별자치도"
  },
  {
    "name": "송천1동 주민센터 (지하주차장 1층)",
    "address": "전북특별자치도 전주시 덕진구 송천중앙로 116 (송천동1가, 송천1동주민센터)",
    "lat": 35.85713332890597,
    "lng": 127.1208879340563,
    "region": "전북특별자치도"
  },
  {
    "name": "송천동진흥더블파크아파트 (지하주차장 1층)",
    "address": "전북특별자치도 전주시 덕진구 천마산로 100 (송천동1가, 진흥더블파크아파트)",
    "lat": 35.86491172250543,
    "lng": 127.13226511075504,
    "region": "전북특별자치도"
  },
  {
    "name": "아중롯데아파트 105동(지하1층 주차장)",
    "address": "전북특별자치도 전주시 덕진구 중상보로 10 (우아동2가, 롯데아파트)",
    "lat": 35.83225465908652,
    "lng": 127.16830849943604,
    "region": "전북특별자치도"
  },
  {
    "name": "선변오지오아파트 101동(지하1층 주차장)",
    "address": "전북특별자치도 전주시 덕진구 석소2길 30 (우아동2가, 오지오아파트)",
    "lat": 35.83550151041991,
    "lng": 127.16883163716274,
    "region": "전북특별자치도"
  },
  {
    "name": "덕진지하보도(지하 1층)",
    "address": "전북특별자치도 전주시 덕진구 기린대로 472 (덕진동1가)",
    "lat": 35.84213778124012,
    "lng": 127.1262752040614,
    "region": "전북특별자치도"
  },
  {
    "name": "영무예다음아파트(지하주차장 1층)",
    "address": "전북특별자치도 전주시 덕진구 가련산로 24 (덕진동2가, 영무예다음아파트)",
    "lat": 35.84083058559399,
    "lng": 127.11202252264444,
    "region": "전북특별자치도"
  },
  {
    "name": "덕진동 휴먼빌아파트(지하주차장 1층)",
    "address": "전북특별자치도 전주시 덕진구 가리내로 216 (덕진동2가, 하가휴먼빌아파트)",
    "lat": 35.83908997138865,
    "lng": 127.1137274145424,
    "region": "전북특별자치도"
  },
  {
    "name": "선변아파트 전체 동의 지하주차장 1층",
    "address": "전북특별자치도 전주시 덕진구 심방죽로 16 (인후동1가, 인후동선변아파트)",
    "lat": 35.83735001634521,
    "lng": 127.1509693387858,
    "region": "전북특별자치도"
  },
  {
    "name": "하누리홈타운 전체 동의 지하주차장 1-2층",
    "address": "전북특별자치도 전주시 덕진구 팽나무4길 21 (인후동1가, 하누리홈타운)",
    "lat": 35.83492294040391,
    "lng": 127.1550443092646,
    "region": "전북특별자치도"
  },
  {
    "name": "인후휴먼시아 전체 동의 지하주차장 1층",
    "address": "전북특별자치도 전주시 덕진구 팽나무2길 7 (인후동1가, 인후휴먼시아)",
    "lat": 35.83562548065345,
    "lng": 127.15142747731622,
    "region": "전북특별자치도"
  },
  {
    "name": "송정써미트아파트 전체 동의 지하주차장1층",
    "address": "전북특별자치도 전주시 덕진구 안덕원로 325 (인후동1가, 인후동송정써미트아파트)",
    "lat": 35.83856002720784,
    "lng": 127.16240888450363,
    "region": "전북특별자치도"
  },
  {
    "name": "한신휴플러스 아파트 전체 동의 지하주차장1층",
    "address": "전북특별자치도 전주시 덕진구 안덕원로 251 (인후동1가, 한신휴플러스아파트)",
    "lat": 35.83681765058036,
    "lng": 127.15432225659382,
    "region": "전북특별자치도"
  },
  {
    "name": "위브어울림아파트 전체 동의 지하주차장 1층",
    "address": "전북특별자치도 전주시 덕진구 견훤로 333 (인후동1가, 위브어울림아파트)",
    "lat": 35.84127932407763,
    "lng": 127.15462454717743,
    "region": "전북특별자치도"
  },
  {
    "name": "팔복동코스타빌아파트(지하주차장 1층)",
    "address": "전북특별자치도 전주시 덕진구 추천1길 6-0 (팔복동2가, 코스타빌아파트)",
    "lat": 35.848154543711566,
    "lng": 127.10553442096104,
    "region": "전북특별자치도"
  },
  {
    "name": "팔복거성아파트(지하 1층)",
    "address": "전북특별자치도 전주시 덕진구 신복5길 18 (팔복동1가, 팔복거성아파트)",
    "lat": 35.85462966276565,
    "lng": 127.10600125995649,
    "region": "전북특별자치도"
  },
  {
    "name": "전북경제통상진흥원(지하주차장 1층)",
    "address": "전북특별자치도 전주시 덕진구 팔과정로 164-0 (팔복동1가, 전북특별자치도경제통상진흥원)",
    "lat": 35.86121348164511,
    "lng": 127.09473649791182,
    "region": "전북특별자치도"
  },
  {
    "name": "다경일신아파트(지하1층 주차장)",
    "address": "전북특별자치도 전주시 덕진구 호성1길 8-9 (호성동1가, 다경마을일신아파트)",
    "lat": 35.856367596594936,
    "lng": 127.1552683881787,
    "region": "전북특별자치도"
  },
  {
    "name": "진흥더블파크3단지아파트(지하1층 주차장)",
    "address": "전북특별자치도 전주시 덕진구 호성로 170 (호성동2가, 진흥더블파크3단지아파트)",
    "lat": 35.865418548976315,
    "lng": 127.14433488632946,
    "region": "전북특별자치도"
  },
  {
    "name": "중앙하이츠아파트(지하주차장 1층)",
    "address": "전북특별자치도 전주시 덕진구 거북바우3길 15 (금암동, 중앙하이츠아파트)",
    "lat": 35.83782448153926,
    "lng": 127.1390877733677,
    "region": "전북특별자치도"
  },
  {
    "name": "동국해성아파트 103동, 107동(지하주차장1층)",
    "address": "전북특별자치도 전주시 덕진구 진북로 15 (진북동, 동국해성아파트)",
    "lat": 35.82660613374155,
    "lng": 127.134151642074,
    "region": "전북특별자치도"
  },
  {
    "name": "건지산이지움아파트(지하주차장)",
    "address": "전북특별자치도 전주시 덕진구 백동2길 11 (인후동2가)",
    "lat": 35.84626909676635,
    "lng": 127.14783399648564,
    "region": "전북특별자치도"
  },
  {
    "name": "인후동에버파크아파트(지하주차장)",
    "address": "전북특별자치도 전주시 덕진구 심방죽6길 8 (인후동2가, 에버파크아파트)",
    "lat": 35.84094680941459,
    "lng": 127.15092173305275,
    "region": "전북특별자치도"
  },
  {
    "name": "호반베르디움더클래스아파트(지하주차장 1층)",
    "address": "전북특별자치도 전주시 덕진구 출판로 87 (장동, 호반베르디움더클래스)",
    "lat": 35.83982662758327,
    "lng": 127.0623594906385,
    "region": "전북특별자치도"
  },
  {
    "name": "우미린2차아파트(지하주차장 1층)",
    "address": "전북특별자치도 전주시 덕진구 틀못4길 17 (장동, 우미린2단지)",
    "lat": 35.84460536464357,
    "lng": 127.05835466789588,
    "region": "전북특별자치도"
  },
  {
    "name": "혁신우미린1차아파트(지하주차장 1층)",
    "address": "전북특별자치도 전주시 덕진구 오공로 70 (중동, 우미린1단지)",
    "lat": 35.83577462178765,
    "lng": 127.06313278270616,
    "region": "전북특별자치도"
  },
  {
    "name": "에코시티데시앙5블럭아파트 (지하주차장 1~2층)",
    "address": "전북특별자치도 전주시 덕진구 세병로 85 (송천동2가, 에코시티데시앙5블럭)",
    "lat": 35.872367039233296,
    "lng": 127.13343189775696,
    "region": "전북특별자치도"
  },
  {
    "name": "e편한세상 우아아파트(지하주차장 1~2층)",
    "address": "전북특별자치도 전주시 덕진구 우아로 50 (우아동3가, e편한세상우아아파트)",
    "lat": 35.852049640651835,
    "lng": 127.15616467235502,
    "region": "전북특별자치도"
  },
  {
    "name": "전주지방법원(지하1층)",
    "address": "전북특별자치도 전주시 덕진구 가인로 33, 전주지방법원 (만성동)",
    "lat": 35.84243342256956,
    "lng": 127.07461883952202,
    "region": "전북특별자치도"
  },
  {
    "name": "전주지방검찰청(지하1층)",
    "address": "전북특별자치도 전주시 덕진구 가인로 11, 전주지방검찰청 (만성동)",
    "lat": 35.842840216804554,
    "lng": 127.0723509773456,
    "region": "전북특별자치도"
  },
  {
    "name": "전주지방법원(지하1층)",
    "address": "전북특별자치도 전주시 덕진구 가인로 33, 전주지방법원 (만성동)",
    "lat": 35.8425710907465,
    "lng": 127.074745644845,
    "region": "전북특별자치도"
  },
  {
    "name": "전주지방검찰청(지하1층)",
    "address": "전북특별자치도 전주시 덕진구 가인로 11, 전주지방검찰청 (만성동)",
    "lat": 35.8428402170678,
    "lng": 127.072350977341,
    "region": "전북특별자치도"
  },
  {
    "name": "에코시티 더샵2차 아파트 (지하주차장 1층)",
    "address": "전북특별자치도 전주시 덕진구 세병로 175 (송천동2가, 에코시티더샵2차)",
    "lat": 35.878554598862976,
    "lng": 127.13299871002296,
    "region": "전북특별자치도"
  },
  {
    "name": "에코시티 더샵3차 아파트 (지하주차장 1층, 2층)",
    "address": "전북특별자치도 전주시 덕진구 세병로 136 (송천동2가, 에코시티 더샵3차)",
    "lat": 35.876456171096855,
    "lng": 127.13686065438156,
    "region": "전북특별자치도"
  },
  {
    "name": "하가더루벤스아파트(지하주차장 1층)",
    "address": "전북특별자치도 전주시 덕진구 추탄로 61 (덕진동2가, THE RUBENS)",
    "lat": 35.84609374364549,
    "lng": 127.10868319279254,
    "region": "전북특별자치도"
  },
  {
    "name": "전라북도체육회관(지하주차장 1층)",
    "address": "전북특별자치도 전주시 덕진구 들사평로 62, 전북특별자치도체육회관 (덕진동1가)",
    "lat": 35.84095807400521,
    "lng": 127.12591594876731,
    "region": "전북특별자치도"
  },
  {
    "name": "한국국토정보공사(지하주차장 1층)",
    "address": "전북특별자치도 전주시 덕진구 기지로 120, 한국국토정보공사 본사 (중동)",
    "lat": 35.837967614859416,
    "lng": 127.06557621384977,
    "region": "전북특별자치도"
  },
  {
    "name": "전주혁신도시 중흥에스클래스 아파트(지하주차장 1~2층)",
    "address": "전북특별자치도 전주시 덕진구 틀못3길 16 (장동, 중흥S-클래스)",
    "lat": 35.84242787698437,
    "lng": 127.0556286282985,
    "region": "전북특별자치도"
  },
  {
    "name": "해망굴",
    "address": "",
    "lat": 35.992163487475416,
    "lng": 126.70509424115788,
    "region": "전북특별자치도"
  },
  {
    "name": "구암동 현대아파트 1차 지하주차장 1층",
    "address": "전북특별자치도 군산시 서당길 11 (구암동, 현대아파트)",
    "lat": 35.97904028875197,
    "lng": 126.7514776109186,
    "region": "전북특별자치도"
  },
  {
    "name": "구암동 현대아파트 2차 지하주차장 1층",
    "address": "전북특별자치도 군산시 서당길 11 (구암동, 현대아파트)",
    "lat": 35.97904028875197,
    "lng": 126.7514776109186,
    "region": "전북특별자치도"
  },
  {
    "name": "세풍아파트 제1지하주차장 1층",
    "address": "전북특별자치도 군산시 영명길 6 (구암동, 세풍아파트)",
    "lat": 35.98415839627182,
    "lng": 126.74289891701258,
    "region": "전북특별자치도"
  },
  {
    "name": "세풍아파트 제2지하주차장 1층",
    "address": "전북특별자치도 군산시 영명길 6 (구암동, 세풍아파트)",
    "lat": 35.98415839627182,
    "lng": 126.74289891701258,
    "region": "전북특별자치도"
  },
  {
    "name": "세풍아파트 제3지하주차장 1층",
    "address": "전북특별자치도 군산시 영명길 6 (구암동, 세풍아파트)",
    "lat": 35.98415839627182,
    "lng": 126.74289891701258,
    "region": "전북특별자치도"
  },
  {
    "name": "전주지방법원, 전주지방검찰청 군산지청 지하주차장 1층",
    "address": "전북특별자치도 군산시 법원로 68 (조촌동, 전주지방법원군산지원)",
    "lat": 35.96845204355688,
    "lng": 126.74046901643344,
    "region": "전북특별자치도"
  },
  {
    "name": "조촌현대아파트 제1지하주차장 1층",
    "address": "전북특별자치도 군산시 양안로 120 (조촌동, 현대아파트)",
    "lat": 35.97297175950414,
    "lng": 126.7439465505588,
    "region": "전북특별자치도"
  },
  {
    "name": "조촌현대아파트 제2지하주차장 1층",
    "address": "전북특별자치도 군산시 양안로 120 (조촌동, 현대아파트)",
    "lat": 35.97297175950414,
    "lng": 126.7439465505588,
    "region": "전북특별자치도"
  },
  {
    "name": "조촌현대아파트 제3지하주차장 1층",
    "address": "전북특별자치도 군산시 양안로 120 (조촌동, 현대아파트)",
    "lat": 35.97297175950414,
    "lng": 126.7439465505588,
    "region": "전북특별자치도"
  },
  {
    "name": "조촌현대아파트 제4지하주차장 1층",
    "address": "전북특별자치도 군산시 양안로 120 (조촌동, 현대아파트)",
    "lat": 35.97297175950414,
    "lng": 126.7439465505588,
    "region": "전북특별자치도"
  },
  {
    "name": "조촌현대아파트 제5지하주차장 1층",
    "address": "전북특별자치도 군산시 양안로 120 (조촌동, 현대아파트)",
    "lat": 35.97297175950414,
    "lng": 126.7439465505588,
    "region": "전북특별자치도"
  },
  {
    "name": "동신개나리아파트 지하주차장 1층",
    "address": "전북특별자치도 군산시 양안로 119 (조촌동, 동신개나리아파트)",
    "lat": 35.97294476691355,
    "lng": 126.74375442225023,
    "region": "전북특별자치도"
  },
  {
    "name": "조촌부향하나로아파트 지하주차장 1층",
    "address": "전북특별자치도 군산시 번영로 188-22 (조촌동, 부향하나로아파트)",
    "lat": 35.9629870685915,
    "lng": 126.73778381686336,
    "region": "전북특별자치도"
  },
  {
    "name": "수송 현대 아파트 101동 지하실 1층",
    "address": "전북특별자치도 군산시 진포1길 10 (수송동, 현대아파트)",
    "lat": 35.97050836461238,
    "lng": 126.71658001220352,
    "region": "전북특별자치도"
  },
  {
    "name": "수송 현대 아파트 102동 지하실 1층",
    "address": "전북특별자치도 군산시 진포1길 10 (수송동, 현대아파트)",
    "lat": 35.97050836461238,
    "lng": 126.71658001220352,
    "region": "전북특별자치도"
  },
  {
    "name": "수송 현대 아파트 103동 지하실 1층",
    "address": "전북특별자치도 군산시 진포1길 10 (수송동, 현대아파트)",
    "lat": 35.97050836461238,
    "lng": 126.71658001220352,
    "region": "전북특별자치도"
  },
  {
    "name": "수송 현대 아파트 104동 지하실 1층",
    "address": "전북특별자치도 군산시 진포1길 10 (수송동, 현대아파트)",
    "lat": 35.97050836461238,
    "lng": 126.71658001220352,
    "region": "전북특별자치도"
  },
  {
    "name": "수송 현대 아파트 105동 지하실 1층",
    "address": "전북특별자치도 군산시 진포1길 10 (수송동, 현대아파트)",
    "lat": 35.97050836461238,
    "lng": 126.71658001220352,
    "region": "전북특별자치도"
  },
  {
    "name": "수송 현대 아파트 106동 지하실 1층",
    "address": "전북특별자치도 군산시 진포1길 10 (수송동, 현대아파트)",
    "lat": 35.97050836461238,
    "lng": 126.71658001220352,
    "region": "전북특별자치도"
  },
  {
    "name": "수송 동영 임대아파트 지하주차장 1층",
    "address": "전북특별자치도 군산시 신평길 10 (수송동, 동영아파트)",
    "lat": 35.95606542103593,
    "lng": 126.71311906039544,
    "region": "전북특별자치도"
  },
  {
    "name": "수송 제일아파트 지하주차장 1층",
    "address": "전북특별자치도 군산시 축동안길 37 (수송동, 수송동제일아파트)",
    "lat": 35.96686778925644,
    "lng": 126.7141296375364,
    "region": "전북특별자치도"
  },
  {
    "name": "세경아파트 지하주차장 1층",
    "address": "전북특별자치도 군산시 하나운로 28 (나운동, 세경아파트)",
    "lat": 35.96121717176105,
    "lng": 126.7000219582345,
    "region": "전북특별자치도"
  },
  {
    "name": "부향하나로아파트101동 지하주차장 1층",
    "address": "전북특별자치도 군산시 경촌1길 55 (경암동, 경암동부향하나로아파트)",
    "lat": 35.98054468786687,
    "lng": 126.73365040235016,
    "region": "전북특별자치도"
  },
  {
    "name": "부향하나로아파트102,103동 지하주차장 1층",
    "address": "전북특별자치도 군산시 경촌1길 56 (경암동, 경암동부향하나로아파트)",
    "lat": 35.980537711916945,
    "lng": 126.73377136384316,
    "region": "전북특별자치도"
  },
  {
    "name": "새한아파트 지하주차장 1층",
    "address": "전북특별자치도 군산시 경촌3길 23 (경암동, 새한아파트)",
    "lat": 35.98016660705182,
    "lng": 126.7354859025163,
    "region": "전북특별자치도"
  },
  {
    "name": "한화생명 지하주차장 1층",
    "address": "전북특별자치도 군산시 대학로 331 (나운동, 한화생명빌딩)",
    "lat": 35.96419864481769,
    "lng": 126.6940671500176,
    "region": "전북특별자치도"
  },
  {
    "name": "나운1동 주민센터 지하 1층",
    "address": "전북특별자치도 군산시 신설3길 3 (나운동, 나운1동주민센터)",
    "lat": 35.966813348677974,
    "lng": 126.69497474591734,
    "region": "전북특별자치도"
  },
  {
    "name": "26센터 지하주차장 1~3층",
    "address": "전북특별자치도 군산시 대학로 342 (나운동, 동아26빌딩)",
    "lat": 35.963515334005464,
    "lng": 126.69322953516664,
    "region": "전북특별자치도"
  },
  {
    "name": "동아아파트 지하주차장 1층",
    "address": "전북특별자치도 군산시 동아로 160 (소룡동, 동아아파트)",
    "lat": 35.96927275334422,
    "lng": 126.68454143312276,
    "region": "전북특별자치도"
  },
  {
    "name": "신도시아파트 지하주차장 1층",
    "address": "전북특별자치도 군산시 풍전6길 16 (소룡동, 신도시아파트)",
    "lat": 35.97600723844232,
    "lng": 126.67703774768036,
    "region": "전북특별자치도"
  },
  {
    "name": "교보생명 지하주차장 1~3층",
    "address": "전북특별자치도 군산시 대학로 35 (중앙로1가, 교보생명)",
    "lat": 35.98659277163706,
    "lng": 126.71154156767582,
    "region": "전북특별자치도"
  },
  {
    "name": "금광 삼성아파트 지하주차장 1층",
    "address": "전북특별자치도 군산시 대학로 114-1 (금광동, 삼성아파트)",
    "lat": 35.980834020570484,
    "lng": 126.70660980952331,
    "region": "전북특별자치도"
  },
  {
    "name": "군산소방서 지하식당",
    "address": "전북특별자치도 군산시 번영로 308 (사정동, 군산소방서)",
    "lat": 35.96293220571624,
    "lng": 126.7510168063948,
    "region": "전북특별자치도"
  },
  {
    "name": "삼학 대우아파트 지하주차장 1층",
    "address": "전북특별자치도 군산시 축동로 188 (삼학동, 군산삼학대우아파트)",
    "lat": 35.976006695158894,
    "lng": 126.7096693641532,
    "region": "전북특별자치도"
  },
  {
    "name": "현대세솔아파트 지하주차장 1층",
    "address": "전북특별자치도 군산시 풍문2길 35 (장재동, 현대세솔아파트)",
    "lat": 35.978585830245144,
    "lng": 126.71954016455764,
    "region": "전북특별자치도"
  },
  {
    "name": "금호 2차아파트 지하주차장 1층",
    "address": "전북특별자치도 군산시 두란뜸2길 8 (사정동, 금호타운2단지)",
    "lat": 35.96442840250502,
    "lng": 126.750906844781,
    "region": "전북특별자치도"
  },
  {
    "name": "나운4차 현대아파트 지하주차장 1층",
    "address": "전북특별자치도 군산시 나운안1길 24 (나운동)",
    "lat": 35.96333822610513,
    "lng": 126.70402852663658,
    "region": "전북특별자치도"
  },
  {
    "name": "나운 삼성아파트 지하주차장 1층",
    "address": "전북특별자치도 군산시 나운3길 9 (나운동)",
    "lat": 35.96526672701577,
    "lng": 126.7003062723512,
    "region": "전북특별자치도"
  },
  {
    "name": "부향1차 아파트 지하주차장 1층",
    "address": "전북특별자치도 군산시 동아로 12 (산북동, 부향하나로1차아파트)",
    "lat": 35.9607939078106,
    "lng": 126.67549734894628,
    "region": "전북특별자치도"
  },
  {
    "name": "현대오솔아파트 지하주차장 1층",
    "address": "전북특별자치도 군산시 월명로 496 (월명동, 현대오솔아파트)",
    "lat": 35.98495981481541,
    "lng": 126.7070860020519,
    "region": "전북특별자치도"
  },
  {
    "name": "나운 대우아파트 지하주차장 1층",
    "address": "전북특별자치도 군산시 의료원로 136 (나운동, 대우아파트)",
    "lat": 35.95809048899302,
    "lng": 126.70135059667648,
    "region": "전북특별자치도"
  },
  {
    "name": "나운 동신아파트 지하주차장 1층",
    "address": "전북특별자치도 군산시 백토로 216 (나운동, 동신아파트)",
    "lat": 35.9599820963068,
    "lng": 126.70459227797538,
    "region": "전북특별자치도"
  },
  {
    "name": "롯데4차아파트 지하주차장 1층",
    "address": "전북특별자치도 군산시 백토로 242 (나운동, 롯데아파트)",
    "lat": 35.95768556576518,
    "lng": 126.70390910695586,
    "region": "전북특별자치도"
  },
  {
    "name": "미룡 그린빌 아파트 3단지 지하주차장 1층",
    "address": "전북특별자치도 군산시 미룡로 42 (미룡동, 미룡주공3차아파트)",
    "lat": 35.943665747751304,
    "lng": 126.69005667348146,
    "region": "전북특별자치도"
  },
  {
    "name": "나운 청솔아파트 지하주차장 1~3층",
    "address": "전북특별자치도 군산시 나운로 133 (나운동, 나운동청솔아파트)",
    "lat": 35.96167814201478,
    "lng": 126.6961511829966,
    "region": "전북특별자치도"
  },
  {
    "name": "영창아파트 지하주차장 1층",
    "address": "전북특별자치도 군산시 의료원로 137 (나운동, 영창아파트)",
    "lat": 35.95796878688045,
    "lng": 126.70106079744686,
    "region": "전북특별자치도"
  },
  {
    "name": "한울아파트 지하주차장 1층",
    "address": "전북특별자치도 군산시 하나운로 20 (나운동, 한울아파트)",
    "lat": 35.96066640063011,
    "lng": 126.699529414426,
    "region": "전북특별자치도"
  },
  {
    "name": "소룡동  성원 상떼빌 지하주차장 1층",
    "address": "전북특별자치도 군산시 해망로 447 (소룡동, 군산성원아파트)",
    "lat": 35.985918693166724,
    "lng": 126.6927949961677,
    "region": "전북특별자치도"
  },
  {
    "name": "현대 파인빌 아파트 지하주차장 1층",
    "address": "전북특별자치도 군산시 문화로 208-8 (미장동, 파인빌아파트)",
    "lat": 35.96979832317457,
    "lng": 126.72885675602332,
    "region": "전북특별자치도"
  },
  {
    "name": "클래시움아파트 지하주차장 1층",
    "address": "전북특별자치도 군산시 월명1길 3 (월명동, 클래시움 아파트)",
    "lat": 35.98488569671476,
    "lng": 126.70641402474932,
    "region": "전북특별자치도"
  },
  {
    "name": "삼학주공아파트 지하주차장 1층",
    "address": "전북특별자치도 군산시 미원로 61 (삼학동, 군산삼학주공아파트)",
    "lat": 35.978359462888655,
    "lng": 126.71174334654168,
    "region": "전북특별자치도"
  },
  {
    "name": "에듀힐아파트 지하주차장 1층",
    "address": "전북특별자치도 군산시 동흥남길 9 (동흥남동)",
    "lat": 35.97449628196208,
    "lng": 126.71923863632718,
    "region": "전북특별자치도"
  },
  {
    "name": "나운3차현대아파트 지하주차장 1층",
    "address": "전북특별자치도 군산시 나운안2길 8 (나운동)",
    "lat": 35.968071293336074,
    "lng": 126.70484777586852,
    "region": "전북특별자치도"
  },
  {
    "name": "한라 비발디 1차 지하주차장 1층",
    "address": "전북특별자치도 군산시 수송동로 36 (수송동, 한라비발디1단지아파트)",
    "lat": 35.96263682947613,
    "lng": 126.71978006534742,
    "region": "전북특별자치도"
  },
  {
    "name": "수송 아이파크 아파트 지하주차장 1층",
    "address": "전북특별자치도 군산시 수송동로 91 (수송동, 수송아이파크)",
    "lat": 35.9676347368227,
    "lng": 126.7193970698499,
    "region": "전북특별자치도"
  },
  {
    "name": "수송 세영리첼 아파트 지하주차장 1층",
    "address": "전북특별자치도 군산시 수송동로 100 (수송동, 군산수송세영리첼아파트)",
    "lat": 35.96840680713587,
    "lng": 126.71981259073388,
    "region": "전북특별자치도"
  },
  {
    "name": "삼성 쉐르빌 아파트 지하주차장 1층",
    "address": "전북특별자치도 군산시 경포천로 66 (미장동, 수송공원삼성쉐르빌)",
    "lat": 35.965345774185714,
    "lng": 126.7230479698307,
    "region": "전북특별자치도"
  },
  {
    "name": "제일오투그란데아파트 2단지 지하주차장 1층",
    "address": "전북특별자치도 군산시 축동로 34 (수송동, 군산수송동 제일오투그란데 2단지)",
    "lat": 35.96226583773752,
    "lng": 126.71080657399588,
    "region": "전북특별자치도"
  },
  {
    "name": "미장 코아루 아파트 지하주차장 1층",
    "address": "전북특별자치도 군산시 미장안길 42 (미장동, 미장코아루아파트)",
    "lat": 35.96777636560125,
    "lng": 126.72675995692612,
    "region": "전북특별자치도"
  },
  {
    "name": "은파 코아루 아파트 지하주차장 1층",
    "address": "전북특별자치도 군산시 동지곡길 53 (지곡동, 은파코아루아파트)",
    "lat": 35.95512017068814,
    "lng": 126.70693359654553,
    "region": "전북특별자치도"
  },
  {
    "name": "수송금호어울림아파트 지상주차장 1층",
    "address": "전북특별자치도 군산시 서수송2길 23 (나운동)",
    "lat": 35.96573065632216,
    "lng": 126.7083900245607,
    "region": "전북특별자치도"
  },
  {
    "name": "오르빌아파트 지하주차장 1층",
    "address": "전북특별자치도 군산시 번영로 86 (경장동, 오르빌아파트)",
    "lat": 35.96993062221127,
    "lng": 126.7304467404669,
    "region": "전북특별자치도"
  },
  {
    "name": "현대한솔아파트 지하주차장 1~2층",
    "address": "전북특별자치도 군산시 번영로 159 (조촌동, 현대한솔아파트)",
    "lat": 35.96540017359396,
    "lng": 126.73651513823177,
    "region": "전북특별자치도"
  },
  {
    "name": "소룡동 제이파크 아파트 지하주차장 1층",
    "address": "전북특별자치도 군산시 해망로 606 (소룡동, 소룡동 제이파크)",
    "lat": 35.98075387901272,
    "lng": 126.67673406749012,
    "region": "전북특별자치도"
  },
  {
    "name": "조촌세경아파트 지하주차장 1층",
    "address": "전북특별자치도 군산시 양안로 123 (조촌동, 세경아파트)",
    "lat": 35.97356723722305,
    "lng": 126.7436172539702,
    "region": "전북특별자치도"
  },
  {
    "name": "보람더하임아파트 지하주차장 1층",
    "address": "전북특별자치도 군산시 하신3길 7 (나운동, 나운동 보람더하임)",
    "lat": 35.97064061857251,
    "lng": 126.6994395252846,
    "region": "전북특별자치도"
  },
  {
    "name": "미룡 그린빌 아파트 2단지 지하주차장 1층",
    "address": "전북특별자치도 군산시 미룡로 41 (미룡동, 미룡(2)주공아파트)",
    "lat": 35.943749381500346,
    "lng": 126.68982628405338,
    "region": "전북특별자치도"
  },
  {
    "name": "금광베네스타 아파트 지하주차장 1층",
    "address": "전북특별자치도 군산시 용둔길 12 (미룡동, 금광베네스타)",
    "lat": 35.94244092895234,
    "lng": 126.6933151912082,
    "region": "전북특별자치도"
  },
  {
    "name": "현대 메트로타워 아파트 지하주차장 1층",
    "address": "전북특별자치도 군산시 대명길 3 (대명동, 현대메트로타워)",
    "lat": 35.97796678977617,
    "lng": 126.7222766403678,
    "region": "전북특별자치도"
  },
  {
    "name": "타워써미트아파트 지하주차장 1층",
    "address": "전북특별자치도 군산시 공단대로 54 (조촌동, 타워써미트)",
    "lat": 35.96117650021572,
    "lng": 126.73574580870974,
    "region": "전북특별자치도"
  },
  {
    "name": "한성 필 하우스 아파트 지하주차장 1층",
    "address": "전북특별자치도 군산시 요죽길 76 (오식도동, 한성필하우스)",
    "lat": 35.96747055326516,
    "lng": 126.56447816705403,
    "region": "전북특별자치도"
  },
  {
    "name": "군산시청 지하주차장 1층",
    "address": "전북특별자치도 군산시 시청로 17 (조촌동, 군산시청)",
    "lat": 35.96691532388556,
    "lng": 126.73684910105618,
    "region": "전북특별자치도"
  },
  {
    "name": "희망루아파트 지하주차장 1층",
    "address": "전북특별자치도 군산시 월명로 584(해망동, 희망루)",
    "lat": 35.98774836446476,
    "lng": 126.69787800791916,
    "region": "전북특별자치도"
  },
  {
    "name": "하나리움시티 지하주차장 1~2층",
    "address": "전북특별자치도 군산시 칠성7길 56 (산북동, 하나리움시티)",
    "lat": 35.965679877134605,
    "lng": 126.67949934118694,
    "region": "전북특별자치도"
  },
  {
    "name": "대광 로제비앙 아파트 지하주차장 1층",
    "address": "전북특별자치도 군산시 옥산면 월명로 55(군산 대광로제비앙 아파트)",
    "lat": 35.948852899392044,
    "lng": 126.71535517850492,
    "region": "전북특별자치도"
  },
  {
    "name": "힐 스테이트 은파아파트 지하주차장 1층",
    "address": "전북특별자치도 군산시 옥산면 월명로 45(힐스테이트 은파 아파트)",
    "lat": 35.94728593732891,
    "lng": 126.71381300771098,
    "region": "전북특별자치도"
  },
  {
    "name": "군산 디오션시티 푸르지오 지하주차장 1층",
    "address": "전북특별자치도 군산시 궁포2로 20 (조촌동, 군산디오션시티푸르지오)",
    "lat": 35.979865333040905,
    "lng": 126.73984432144296,
    "region": "전북특별자치도"
  },
  {
    "name": "군산 디오션시티 e-편한세상 지하주차장 1~2층",
    "address": "전북특별자치도 군산시 궁포2로 25 (조촌동, e편한세상디오션시티)",
    "lat": 35.98021634456131,
    "lng": 126.74039277784124,
    "region": "전북특별자치도"
  },
  {
    "name": "대야보라무지개아파트 지하주차장 1층",
    "address": "전북특별자치도 군산시 대야면 수림로 7-10 (대야보라무지개아파트)",
    "lat": 35.948982863394846,
    "lng": 126.82118505519104,
    "region": "전북특별자치도"
  },
  {
    "name": "하나리움레비뉴스테이아파트 지하주차장 1~2층",
    "address": "전북특별자치도 군산시 대명4길 9 (금암동, 레비뉴스테이)",
    "lat": 35.98170756337839,
    "lng": 126.72234526202212,
    "region": "전북특별자치도"
  },
  {
    "name": "베스트웨스턴 군산호텔 지하주차장 1층",
    "address": "전북특별자치도 군산시 새만금북로 435, 베스트웨스턴호텔 (오식도동)",
    "lat": 35.948447207088684,
    "lng": 126.58413460316956,
    "region": "전북특별자치도"
  },
  {
    "name": "오션클래스 지하주차장 1층",
    "address": "전북특별자치도 군산시 내정로 27(내흥동, 오션클래스)",
    "lat": 35.99289478071596,
    "lng": 126.75213315133009,
    "region": "전북특별자치도"
  },
  {
    "name": "내흥3LH아파트 지하주차장 1층",
    "address": "전북특별자치도 군산시 사옥로 77(내흥동)",
    "lat": 36.0022039067506,
    "lng": 126.75826642805696,
    "region": "전북특별자치도"
  },
  {
    "name": "내흥7LH아파트 지하주차장 1층",
    "address": "전북특별자치도 군산시 돌끝로 52(내흥동)",
    "lat": 35.99630633771034,
    "lng": 126.75704550788858,
    "region": "전북특별자치도"
  },
  {
    "name": "스카이타운 3차 지하주차장 1층",
    "address": "전북특별자치도 군산시 소룡안3길 34(소룡동, 스카이타운아파트)",
    "lat": 35.96988832894599,
    "lng": 126.68111691744208,
    "region": "전북특별자치도"
  },
  {
    "name": "수송현대아파트 A지하주차장 지하1층",
    "address": "전북특별자치도 군산시 진포1길 10 (수송동, 현대아파트)",
    "lat": 35.9705083648623,
    "lng": 126.716580012202,
    "region": "전북특별자치도"
  },
  {
    "name": "수송현대아파트 B지하주차장 지하1층",
    "address": "전북특별자치도 군산시 진포1길 10 (수송동, 현대아파트)",
    "lat": 35.9705083648623,
    "lng": 126.716580012202,
    "region": "전북특별자치도"
  },
  {
    "name": "미래농정국 지하",
    "address": "전북특별자치도 익산시 함열읍 함열중앙로 83 (원광보건대학제2켐퍼스)",
    "lat": 36.07762616703589,
    "lng": 126.96653935892246,
    "region": "전북특별자치도"
  },
  {
    "name": "제일1차아파트",
    "address": "전북특별자치도 익산시 서동로18길 46-1 (동산동)",
    "lat": 35.93406807079972,
    "lng": 126.96373158551104,
    "region": "전북특별자치도"
  },
  {
    "name": "원광대학교 의과대학병원 외래2관지하",
    "address": "전북특별자치도 익산시 무왕로 895 (신동, 원광대학병원)",
    "lat": 35.9639394127171,
    "lng": 126.9582438802871,
    "region": "전북특별자치도"
  },
  {
    "name": "장미아파트",
    "address": "전북특별자치도 익산시 함열읍 함열9길 36",
    "lat": 36.07736497415803,
    "lng": 126.96469638195975,
    "region": "전북특별자치도"
  },
  {
    "name": "신일고층아파트",
    "address": "전북특별자치도 익산시 함열읍 함열중앙로 76-7",
    "lat": 36.07705414845144,
    "lng": 126.96532718570757,
    "region": "전북특별자치도"
  },
  {
    "name": "라인아파트",
    "address": "전북특별자치도 익산시 동천로 81-12 (동산동, 동산동 라인아파트)",
    "lat": 35.93023726982291,
    "lng": 126.97125117630168,
    "region": "전북특별자치도"
  },
  {
    "name": "원광대학교 학생회관",
    "address": "전북특별자치도 익산시 익산대로 460 (신동, 원광대학교)",
    "lat": 35.96697338737987,
    "lng": 126.9533793222634,
    "region": "전북특별자치도"
  },
  {
    "name": "공설운동장 실내체육관",
    "address": "전북특별자치도 익산시 무왕로 1397 (부송동)",
    "lat": 35.964861001462985,
    "lng": 127.01034444456027,
    "region": "전북특별자치도"
  },
  {
    "name": "동아2차아파트",
    "address": "전북특별자치도 익산시 무왕로26길 33 (부송동)",
    "lat": 35.957691115360355,
    "lng": 126.998608215721,
    "region": "전북특별자치도"
  },
  {
    "name": "우남남부아파트",
    "address": "전북특별자치도 익산시 목천로 346 (동산동)",
    "lat": 35.9267355074748,
    "lng": 126.9589634471555,
    "region": "전북특별자치도"
  },
  {
    "name": "대신쉐르빌아파트",
    "address": "전북특별자치도 익산시 약촌로 31 (금강동)",
    "lat": 35.93687589561748,
    "lng": 126.97854665048406,
    "region": "전북특별자치도"
  },
  {
    "name": "동아1차아파트",
    "address": "전북특별자치도 익산시 무왕로26길 32 (부송동)",
    "lat": 35.957844508845696,
    "lng": 126.99826252623048,
    "region": "전북특별자치도"
  },
  {
    "name": "영등라인1차아파트 지하주차장 1층",
    "address": "전북특별자치도 익산시 고봉로16길 11 (영등동, 영등동라인아파트)",
    "lat": 35.94783718868383,
    "lng": 126.96842166348736,
    "region": "전북특별자치도"
  },
  {
    "name": "부송동신아파트",
    "address": "전북특별자치도 익산시 부송1로 83 (부송동)",
    "lat": 35.95798810769332,
    "lng": 126.99132844076745,
    "region": "전북특별자치도"
  },
  {
    "name": "부송동우남콤비아파트",
    "address": "전북특별자치도 익산시 무왕로26길 11-5 (부송동)",
    "lat": 35.959607873087286,
    "lng": 126.9985409509396,
    "region": "전북특별자치도"
  },
  {
    "name": "영등라인2차아파트 지하주차장 1층",
    "address": "전북특별자치도 익산시 고봉로16길 12 (영등동, 라인2차아파트)",
    "lat": 35.94774193417435,
    "lng": 126.96839484360017,
    "region": "전북특별자치도"
  },
  {
    "name": "영등제일2차아파트 1지구 지하주차장 1층",
    "address": "전북특별자치도 익산시 고봉로24길 30 (영등동, 영등2차제일아파트)",
    "lat": 35.95533840504591,
    "lng": 126.9716909480603,
    "region": "전북특별자치도"
  },
  {
    "name": "영등제일2차아파트 2지구 지하주차장 1층",
    "address": "전북특별자치도 익산시 고봉로24길 18 (영등동, 영등2차제일아파트)",
    "lat": 35.954389688706804,
    "lng": 126.97131040784936,
    "region": "전북특별자치도"
  },
  {
    "name": "제일3차아파트",
    "address": "전북특별자치도 익산시 고봉로34길 35 (영등동)",
    "lat": 35.96025560069565,
    "lng": 126.97524506916102,
    "region": "전북특별자치도"
  },
  {
    "name": "부영2차아파트",
    "address": "전북특별자치도 익산시 동서로61길 34 (어양동)",
    "lat": 35.9543174693591,
    "lng": 126.981171644041,
    "region": "전북특별자치도"
  },
  {
    "name": "영등신일아파트 지하주차장 1층",
    "address": "전북특별자치도 익산시 약촌로 192 (영등동, 신일아파트)",
    "lat": 35.95067948313524,
    "lng": 126.9741635339051,
    "region": "전북특별자치도"
  },
  {
    "name": "부영1차아파트",
    "address": "전북특별자치도 익산시 무왕로20길 17 (어양동)",
    "lat": 35.9570439365424,
    "lng": 126.980109699906,
    "region": "전북특별자치도"
  },
  {
    "name": "어양주공4단지",
    "address": "전북특별자치도 익산시 부송1로 17 (어양동)",
    "lat": 35.95709310704286,
    "lng": 126.98407055224264,
    "region": "전북특별자치도"
  },
  {
    "name": "어양주공5단지(주공5차아파트)",
    "address": "전북특별자치도 익산시 부송1로 17 (어양동)",
    "lat": 35.95709310704286,
    "lng": 126.98407055224264,
    "region": "전북특별자치도"
  },
  {
    "name": "어양주공6단지(주공6차아파트)",
    "address": "전북특별자치도 익산시 무왕로19길 11 (어양동)",
    "lat": 35.96000918252447,
    "lng": 126.98484123752397,
    "region": "전북특별자치도"
  },
  {
    "name": "어양주공7단지",
    "address": "전북특별자치도 익산시 하나로10길 25 (어양동)",
    "lat": 35.96105849190766,
    "lng": 126.98410904943596,
    "region": "전북특별자치도"
  },
  {
    "name": "중앙하이츠아파트",
    "address": "전북특별자치도 익산시 선화로5길 45 (모현동1가)",
    "lat": 35.95264344746788,
    "lng": 126.94358658064948,
    "region": "전북특별자치도"
  },
  {
    "name": "모현 우림한솔",
    "address": "전북특별자치도 익산시 동서로 146-8 (모현동1가, 우림모현한솔맨션)",
    "lat": 35.95508596064392,
    "lng": 126.95073013097117,
    "region": "전북특별자치도"
  },
  {
    "name": "모현현대3차아파트",
    "address": "전북특별자치도 익산시 배산로 91-9 (모현동1가)",
    "lat": 35.94610509392269,
    "lng": 126.93822455634778,
    "region": "전북특별자치도"
  },
  {
    "name": "모현배산제일2차아파트",
    "address": "전북특별자치도 익산시 선화로19길 28 (모현동1가)",
    "lat": 35.953834357794186,
    "lng": 126.94628693758646,
    "region": "전북특별자치도"
  },
  {
    "name": "모현 현대5차아파트",
    "address": "전북특별자치도 익산시 선화로8길 12 (모현동1가, 모현5차현대아파트)",
    "lat": 35.94748333870179,
    "lng": 126.94268526097174,
    "region": "전북특별자치도"
  },
  {
    "name": "제일4차아파트",
    "address": "전북특별자치도 익산시 무왕로9길 60 (영등동)",
    "lat": 35.96366263995108,
    "lng": 126.97316108302914,
    "region": "전북특별자치도"
  },
  {
    "name": "우남그랜드타운",
    "address": "전북특별자치도 익산시 하나로13길 26 (영등동)",
    "lat": 35.960540535248576,
    "lng": 126.97845592276038,
    "region": "전북특별자치도"
  },
  {
    "name": "동이리장례식장",
    "address": "전북특별자치도 익산시 서동로 5 (인화동2가, 동이리장례식장)",
    "lat": 35.9280787267536,
    "lng": 126.95577918364876,
    "region": "전북특별자치도"
  },
  {
    "name": "마동 우림그린아파트 전체 동의 지하1층",
    "address": "전북특별자치도 익산시 서동로 164 (마동, 우림마동그린맨션아파트)",
    "lat": 35.93659022346232,
    "lng": 126.96878509773376,
    "region": "전북특별자치도"
  },
  {
    "name": "원주아파트",
    "address": "전북특별자치도 익산시 목천로 48 (목천동, 목천동원주아파트)",
    "lat": 35.91803540910512,
    "lng": 126.93404276760064,
    "region": "전북특별자치도"
  },
  {
    "name": "부영3차아파트",
    "address": "전북특별자치도 익산시 하나로 483-60 (영등동)",
    "lat": 35.96339072895893,
    "lng": 126.97906503371264,
    "region": "전북특별자치도"
  },
  {
    "name": "모현 현대4차아파트",
    "address": "전북특별자치도 익산시 배산로16길 33 (모현동1가)",
    "lat": 35.946908398287086,
    "lng": 126.94326231623606,
    "region": "전북특별자치도"
  },
  {
    "name": "모현 현대6차아파트",
    "address": "전북특별자치도 익산시 선화로 100-12 (모현동1가)",
    "lat": 35.947993615321735,
    "lng": 126.94140300181928,
    "region": "전북특별자치도"
  },
  {
    "name": "모현 명일아파트",
    "address": "전북특별자치도 익산시 배산로24길 64 (모현동1가, 명일아파트)",
    "lat": 35.950604159480854,
    "lng": 126.9480564869588,
    "region": "전북특별자치도"
  },
  {
    "name": "영등동 지하보도",
    "address": "전북특별자치도 익산시 무왕로 1053 (영등동)",
    "lat": 35.958687927885265,
    "lng": 126.9739402185741,
    "region": "전북특별자치도"
  },
  {
    "name": "모현현대2차아파트",
    "address": "전북특별자치도 익산시 배산로14길 9 (모현동1가, 현대아파트)",
    "lat": 35.94574680864241,
    "lng": 126.94010315950445,
    "region": "전북특별자치도"
  },
  {
    "name": "부영5차아파트",
    "address": "전북특별자치도 익산시 하나로10길 97 (부송동)",
    "lat": 35.96206687807562,
    "lng": 126.99191384691991,
    "region": "전북특별자치도"
  },
  {
    "name": "국민생활관",
    "address": "전북특별자치도 익산시 선화로 255 (남중동, 익산시올림픽기념국민생활관)",
    "lat": 35.94476885104311,
    "lng": 126.95835085477614,
    "region": "전북특별자치도"
  },
  {
    "name": "신일아파트 1동",
    "address": "전북특별자치도 익산시 인북로9길 19 (남중동, 신일아파트)",
    "lat": 35.95274988086378,
    "lng": 126.9565222834923,
    "region": "전북특별자치도"
  },
  {
    "name": "신일아파트 2동",
    "address": "전북특별자치도 익산시 인북로9길 19 (남중동, 신일아파트)",
    "lat": 35.95274988086378,
    "lng": 126.9565222834923,
    "region": "전북특별자치도"
  },
  {
    "name": "성호아파트",
    "address": "전북특별자치도 익산시 동서로27길 6 (남중동, 성호아파트)",
    "lat": 35.953534463229275,
    "lng": 126.96001315931606,
    "region": "전북특별자치도"
  },
  {
    "name": "교보생명",
    "address": "전북특별자치도 익산시 인북로 209 (남중동, 교보생명빌딩)",
    "lat": 35.94745514443766,
    "lng": 126.95647906339526,
    "region": "전북특별자치도"
  },
  {
    "name": "이화아파트",
    "address": "전북특별자치도 익산시 익산대로 255 (남중동, 이화남중아파트)",
    "lat": 35.948813108355615,
    "lng": 126.95052516888776,
    "region": "전북특별자치도"
  },
  {
    "name": "송학동리젠시빌아파트(101동) 지하1층",
    "address": "전북특별자치도 익산시 배산로 33 (송학동, 송학동리젠시빌1단지)",
    "lat": 35.94107414806672,
    "lng": 126.93705912733697,
    "region": "전북특별자치도"
  },
  {
    "name": "송학동리젠시빌아파트(301동) 지하1층",
    "address": "전북특별자치도 익산시 배산로 39-6 (송학동, 송학동리젠시빌아파트)",
    "lat": 35.94162776017652,
    "lng": 126.93688947629003,
    "region": "전북특별자치도"
  },
  {
    "name": "한스빌아파트",
    "address": "전북특별자치도 익산시 목천로 30-14 (목천동, 한스빌아파트)",
    "lat": 35.91647697747359,
    "lng": 126.9338024275456,
    "region": "전북특별자치도"
  },
  {
    "name": "삼성생명",
    "address": "전북특별자치도 익산시 인북로 108 (갈산동)",
    "lat": 35.9385665386946,
    "lng": 126.95351751901072,
    "region": "전북특별자치도"
  },
  {
    "name": "SK빌딩",
    "address": "전북특별자치도 익산시 익산대로16길 39 (창인동1가)",
    "lat": 35.9398545982493,
    "lng": 126.95166518434957,
    "region": "전북특별자치도"
  },
  {
    "name": "ABL생명",
    "address": "전북특별자치도 익산시 익산대로16길 43 (창인동1가)",
    "lat": 35.93980791135327,
    "lng": 126.95205092715636,
    "region": "전북특별자치도"
  },
  {
    "name": "송학동 리젠시빌아파트(102동) 지하 1층",
    "address": "전북특별자치도 익산시 배산로 33, 102동 지하1층 (송학동, 송학동리젠시빌1단지)",
    "lat": 35.94107414806672,
    "lng": 126.93705912733697,
    "region": "전북특별자치도"
  },
  {
    "name": "송학동리젠시빌아파트(201동) 지하1층",
    "address": "전북특별자치도 익산시 배산로 39-4, 송학동리젠시빌아파트2단지 201동동 지하1층 (송학동)",
    "lat": 35.94159172799001,
    "lng": 126.93713999698336,
    "region": "전북특별자치도"
  },
  {
    "name": "제이파크 아파트",
    "address": "전북특별자치도 익산시 서동로 31 (인화동2가)",
    "lat": 35.93037148843978,
    "lng": 126.95667091541468,
    "region": "전북특별자치도"
  },
  {
    "name": "그린팰리스",
    "address": "전북특별자치도 익산시 동천로 25 (동산동)",
    "lat": 35.92895586848525,
    "lng": 126.96601186682452,
    "region": "전북특별자치도"
  },
  {
    "name": "동산여울휴먼시아 3단지",
    "address": "전북특별자치도 익산시 동천로1길 7 (동산동)",
    "lat": 35.92993700951482,
    "lng": 126.96734079398426,
    "region": "전북특별자치도"
  },
  {
    "name": "제일아파트",
    "address": "전북특별자치도 익산시 함열읍 함열5길 19-21",
    "lat": 36.07479007029194,
    "lng": 126.96159393609624,
    "region": "전북특별자치도"
  },
  {
    "name": "동도미소드림 아파트",
    "address": "전북특별자치도 익산시 하나로 498-21 (어양동)",
    "lat": 35.96530643564075,
    "lng": 126.98315940137604,
    "region": "전북특별자치도"
  },
  {
    "name": "익산 자이아파트",
    "address": "전북특별자치도 익산시 동서로 509 (어양동)",
    "lat": 35.95372191141935,
    "lng": 126.98846742774448,
    "region": "전북특별자치도"
  },
  {
    "name": "배산휴먼시아 4단지",
    "address": "전북특별자치도 익산시 선화로1길 25-14 (모현동2가)",
    "lat": 35.95270946072748,
    "lng": 126.93700909505765,
    "region": "전북특별자치도"
  },
  {
    "name": "배산휴먼시아 5단지",
    "address": "전북특별자치도 익산시 선화로1길 57-32 (모현동2가)",
    "lat": 35.95589089074502,
    "lng": 126.93609355327597,
    "region": "전북특별자치도"
  },
  {
    "name": "장신휴먼시아 1단지 아파트",
    "address": "전북특별자치도 익산시 오산면 선화로4길 66 (장신휴먼시아1단지)",
    "lat": 35.9456009460215,
    "lng": 126.931805682107,
    "region": "전북특별자치도"
  },
  {
    "name": "장신휴먼시아 2단지 아파트",
    "address": "전북특별자치도 익산시 오산면 선화로4길 24-9 (장신휴먼시아2단지)",
    "lat": 35.9493509320251,
    "lng": 126.931945005896,
    "region": "전북특별자치도"
  },
  {
    "name": "장신휴먼시아 3단지 아파트",
    "address": "전북특별자치도 익산시 오산면 선화로4길 14 (장신휴먼시아3단지)",
    "lat": 35.950114339398915,
    "lng": 126.93342081057064,
    "region": "전북특별자치도"
  },
  {
    "name": "영무예다음아파트",
    "address": "전북특별자치도 익산시 배산로2길 28 (송학동)",
    "lat": 35.93852538081869,
    "lng": 126.93939765667572,
    "region": "전북특별자치도"
  },
  {
    "name": "리젠시빌아파트 제101동",
    "address": "전북특별자치도 익산시 배산로 39-6 (송학동)",
    "lat": 35.94162776017652,
    "lng": 126.93688947629003,
    "region": "전북특별자치도"
  },
  {
    "name": "리젠시빌아파트 제201동",
    "address": "전북특별자치도 익산시 배산로 39-6 (송학동, 송학동리젠시빌아파트)",
    "lat": 35.94162776017652,
    "lng": 126.93688947629003,
    "region": "전북특별자치도"
  },
  {
    "name": "송학현대아파트 제101동 지하1층",
    "address": "전북특별자치도 익산시 배산로 34-1 (송학동)",
    "lat": 35.9410010007381,
    "lng": 126.93739302189202,
    "region": "전북특별자치도"
  },
  {
    "name": "송학현대아파트 제102동 지하1층",
    "address": "전북특별자치도 익산시 배산로 34-1 (송학동)",
    "lat": 35.9410010007381,
    "lng": 126.93739302189202,
    "region": "전북특별자치도"
  },
  {
    "name": "송학현대아파트 제103동 지하1층",
    "address": "전북특별자치도 익산시 배산로 34-1 (송학동)",
    "lat": 35.9410010007381,
    "lng": 126.93739302189202,
    "region": "전북특별자치도"
  },
  {
    "name": "송학현대아파트 제105동 지하1층",
    "address": "전북특별자치도 익산시 배산로 34-1 (송학동)",
    "lat": 35.9410010007381,
    "lng": 126.93739302189202,
    "region": "전북특별자치도"
  },
  {
    "name": "송학현대아파트 제106동 지하1층",
    "address": "전북특별자치도 익산시 배산로 34-1 (송학동)",
    "lat": 35.9410010007381,
    "lng": 126.93739302189202,
    "region": "전북특별자치도"
  },
  {
    "name": "송학현대아파트 제107동 지하1층",
    "address": "전북특별자치도 익산시 배산로 34-1 (송학동)",
    "lat": 35.9410010007381,
    "lng": 126.93739302189202,
    "region": "전북특별자치도"
  },
  {
    "name": "신동 금호어울림아파트",
    "address": "전북특별자치도 익산시 인북로 334 (신동, 익산금호어울림)",
    "lat": 35.9579152027851,
    "lng": 126.9612317825567,
    "region": "전북특별자치도"
  },
  {
    "name": "이편한세상아파트",
    "address": "전북특별자치도 익산시 선화로10길 17 (모현동1가, 익산e편한세상)",
    "lat": 35.946635981082686,
    "lng": 126.94486578541026,
    "region": "전북특별자치도"
  },
  {
    "name": "부송제일오투그란데",
    "address": "전북특별자치도 익산시 선화로73길 38 (부송동, 부송동오투그란데)",
    "lat": 35.95892541290755,
    "lng": 126.9968166910238,
    "region": "전북특별자치도"
  },
  {
    "name": "하나리움아파트",
    "address": "전북특별자치도 익산시 궁동로 151-9 (부송동, 하나리움아파트)",
    "lat": 35.963607606590614,
    "lng": 126.98774126773873,
    "region": "전북특별자치도"
  },
  {
    "name": "어양이편한세상",
    "address": "전북특별자치도 익산시 동서로63길 25 (어양동, e편한세상어양)",
    "lat": 35.95397763177008,
    "lng": 126.98568681657116,
    "region": "전북특별자치도"
  },
  {
    "name": "금강골드리버파크1단지",
    "address": "전북특별자치도 익산시 약촌로 25 (금강동, 골드리버파크)",
    "lat": 35.93637313244055,
    "lng": 126.97870398856598,
    "region": "전북특별자치도"
  },
  {
    "name": "금강골드리버파크2단지",
    "address": "전북특별자치도 익산시 약촌로 25 (금강동, 골드리버파크)",
    "lat": 35.93637313244055,
    "lng": 126.97870398856598,
    "region": "전북특별자치도"
  },
  {
    "name": "배산부영1차",
    "address": "전북특별자치도 익산시 선화로 41 (모현동1가, 익산배산사랑으로부영1차)",
    "lat": 35.950662249668035,
    "lng": 126.9357904062642,
    "region": "전북특별자치도"
  },
  {
    "name": "배산부영2차",
    "address": "전북특별자치도 익산시 선화로1길 57-33 (모현동2가, 익산배산사랑으로부영2차아파트)",
    "lat": 35.95554337685017,
    "lng": 126.9358495248196,
    "region": "전북특별자치도"
  },
  {
    "name": "배산제일오투그란데",
    "address": "전북특별자치도 익산시 선화로 17 (모현동2가, 배산 제일 오투그란데)",
    "lat": 35.951697005314394,
    "lng": 126.93358623816174,
    "region": "전북특별자치도"
  },
  {
    "name": "부송코아루디펠리체",
    "address": "전북특별자치도 익산시 부송1로 120-11 (부송동, 익산코아루디펠리체아파트)",
    "lat": 35.957361624724406,
    "lng": 126.9955549228104,
    "region": "전북특별자치도"
  },
  {
    "name": "부송오페라하우스",
    "address": "전북특별자치도 익산시 선화로69길 42 (부송동, 오페라 하우스)",
    "lat": 35.957375997204416,
    "lng": 126.99401782729817,
    "region": "전북특별자치도"
  },
  {
    "name": "부송제일까치샘",
    "address": "전북특별자치도 익산시 무왕로21길 18 (부송동, 제일 까치샘)",
    "lat": 35.96087818759938,
    "lng": 126.9866055144058,
    "region": "전북특별자치도"
  },
  {
    "name": "송학 더샾 지하1층",
    "address": "전북특별자치도 익산시 학곤로20길 77 (송학동, 익산 더샵)",
    "lat": 35.94439792326355,
    "lng": 126.93091826300646,
    "region": "전북특별자치도"
  },
  {
    "name": "송학지안리즈 지하1층",
    "address": "전북특별자치도 익산시 학곤로 154-7 (송학동, 송학 지안리즈)",
    "lat": 35.9401353232829,
    "lng": 126.93002955433136,
    "region": "전북특별자치도"
  },
  {
    "name": "어양엘드수목토",
    "address": "전북특별자치도 익산시 무왕로19길 18 (어양동, 엘드수목토)",
    "lat": 35.96069498046693,
    "lng": 126.9849773899299,
    "region": "전북특별자치도"
  },
  {
    "name": "어양제일오투그란데에버",
    "address": "전북특별자치도 익산시 하나로12길 17 (어양동, 어양 제일오투그란데 에버 아파트)",
    "lat": 35.96394815888366,
    "lng": 126.98260536113952,
    "region": "전북특별자치도"
  },
  {
    "name": "영등골든캐슬아파트 지하주차장 1층",
    "address": "전북특별자치도 익산시 약촌로 268 (영등동, 골든캐슬아파트)",
    "lat": 35.957567910090354,
    "lng": 126.97347134879098,
    "region": "전북특별자치도"
  },
  {
    "name": "부송삼성아파트",
    "address": "전북특별자치도 익산시 선화로69길 59(부송동, 삼성아파트)",
    "lat": 35.959015636163954,
    "lng": 126.9935473645382,
    "region": "전북특별자치도"
  },
  {
    "name": "삼바레기 지하차도",
    "address": "전북특별자치도 익산시 황등면 황등로 210",
    "lat": 36.0103446606761,
    "lng": 126.942702522426,
    "region": "전북특별자치도"
  },
  {
    "name": "동연지하차도",
    "address": "",
    "lat": 36.0074776098141,
    "lng": 126.943738858539,
    "region": "전북특별자치도"
  },
  {
    "name": "함열올림픽스포츠센터",
    "address": "전북특별자치도 익산시 함열읍 함낭로 511, 함열올림픽스포츠센터",
    "lat": 36.07494077212614,
    "lng": 126.96392760433268,
    "region": "전북특별자치도"
  },
  {
    "name": "한국식품산업클러스터진흥원",
    "address": "전북특별자치도 익산시 왕궁면 국가식품로 100, 한국식품산업클러스터진흥원 지하 1층",
    "lat": 35.97982803071214,
    "lng": 127.08616767303708,
    "region": "전북특별자치도"
  },
  {
    "name": "코아루디펠리체아파트 전체 동의 지하 1~2층",
    "address": "전북특별자치도 익산시 선화로55길 6(마동, 코아루디펠리체)",
    "lat": 35.94568031863304,
    "lng": 126.9635494296907,
    "region": "전북특별자치도"
  },
  {
    "name": "솜리문화예술회관(익산예술의전당 분관) 지하1층",
    "address": "전북특별자치도 익산시 선화1로 106, 익산예술의전당 분관 (마동)",
    "lat": 35.93922915935745,
    "lng": 126.96947593928984,
    "region": "전북특별자치도"
  },
  {
    "name": "한국전력 익산지점 지하1층",
    "address": "전북특별자치도 익산시 석암로15길 156, 한국전력익산지점 (팔봉동)",
    "lat": 35.96156325093804,
    "lng": 127.00445398924896,
    "region": "전북특별자치도"
  },
  {
    "name": "익산소방서 지하 1층",
    "address": "전북특별자치도 익산시 무왕로 1338, 익산소방서 (팔봉동)",
    "lat": 35.96221339387576,
    "lng": 127.00492905331248,
    "region": "전북특별자치도"
  },
  {
    "name": "송학크래지움캐슬",
    "address": "전북특별자치도 익산시 학곤로16길 52-16 (송학동, 송학 크레지움캐슬)",
    "lat": 35.9412616856661,
    "lng": 126.932307774902,
    "region": "전북특별자치도"
  },
  {
    "name": "영무예다음 2차",
    "address": "전북특별자치도 익산시 학곤로1길 13 (송학동, 송학동 영무예다음 2차아파트)",
    "lat": 35.9390182632678,
    "lng": 126.928660656954,
    "region": "전북특별자치도"
  },
  {
    "name": "익산시청(신청사)",
    "address": "전북특별자치도 익산시 인북로32길 1, 익산시청 (남중동)",
    "lat": 35.9476382228947,
    "lng": 126.957627592059,
    "region": "전북특별자치도"
  },
  {
    "name": "신흥장미아파트 1차 102동 지하 1층",
    "address": "전북특별자치도 정읍시 용흥1길 15-48 (상평동, 신흥장미아파트)",
    "lat": 35.566003855116364,
    "lng": 126.8378744344645,
    "region": "전북특별자치도"
  },
  {
    "name": "신흥장미아파트 2차 105동 지하 1층",
    "address": "전북특별자치도 정읍시 용흥1길 15-25 (상평동, 신흥장미아파트)",
    "lat": 35.566322461432215,
    "lng": 126.83784266732458,
    "region": "전북특별자치도"
  },
  {
    "name": "신흥장미아파트1차 101동 지하 1층",
    "address": "전북특별자치도 정읍시 용흥2길 14 (상평동, 신흥장미아파트)",
    "lat": 35.566397796868635,
    "lng": 126.83732985865124,
    "region": "전북특별자치도"
  },
  {
    "name": "정읍시청 본관 지하1층",
    "address": "전북특별자치도 정읍시 충정로 234 (수성동, 정읍시청)",
    "lat": 35.5694774965785,
    "lng": 126.8558434039318,
    "region": "전북특별자치도"
  },
  {
    "name": "신흥장미아파트2차 103동 지하 1층",
    "address": "전북특별자치도 정읍시 용흥2길 14 (상평동, 신흥장미아파트)",
    "lat": 35.566397796868635,
    "lng": 126.83732985865124,
    "region": "전북특별자치도"
  },
  {
    "name": "유창2차아파트 지하 1층",
    "address": "전북특별자치도 정읍시 남산5길 5 (시기동)",
    "lat": 35.559156601003714,
    "lng": 126.84830110116202,
    "region": "전북특별자치도"
  },
  {
    "name": "은하아파트 지하 1층",
    "address": "전북특별자치도 정읍시 초산1길 17 (시기동, 은하식당)",
    "lat": 35.55998314630807,
    "lng": 126.85334874562102,
    "region": "전북특별자치도"
  },
  {
    "name": "영화아파트 지하 1층",
    "address": "전북특별자치도 정읍시 천변로 310 (시기동, 영화아파트)",
    "lat": 35.5579727864853,
    "lng": 126.86044790795992,
    "region": "전북특별자치도"
  },
  {
    "name": "유창1차아파트 지하 1층",
    "address": "전북특별자치도 정읍시 남산5길 19-9 (시기동, 유창파크맨션1차)",
    "lat": 35.56059918080552,
    "lng": 126.8483552494524,
    "region": "전북특별자치도"
  },
  {
    "name": "부영1차아파트 103동 지하주차장 1층",
    "address": "전북특별자치도 정읍시 수성택지2길 17 (수성동, 부영1차아파트)",
    "lat": 35.57690342680929,
    "lng": 126.85656377520004,
    "region": "전북특별자치도"
  },
  {
    "name": "부영2차아파트201동 지하주차장 1층",
    "address": "전북특별자치도 정읍시 샘골로 158(수성동, 부영2차아파트)",
    "lat": 35.5827077648708,
    "lng": 126.86020001942448,
    "region": "전북특별자치도"
  },
  {
    "name": "부영1차아파트 104동 지하주차장 1층",
    "address": "전북특별자치도 정읍시 수성택지2길 17 (수성동, 부영1차아파트)",
    "lat": 35.57690342680929,
    "lng": 126.85656377520004,
    "region": "전북특별자치도"
  },
  {
    "name": "부영1차아파트 102동 지하주차장 1층",
    "address": "전북특별자치도 정읍시 수성택지2길 17 (수성동, 부영1차아파트)",
    "lat": 35.57690342680929,
    "lng": 126.85656377520004,
    "region": "전북특별자치도"
  },
  {
    "name": "부영2차아파트 204동 지하주차장 1층",
    "address": "전북특별자치도 정읍시 샘골로 158 (수성동, 부영2차아파트)",
    "lat": 35.5827077648708,
    "lng": 126.86020001942448,
    "region": "전북특별자치도"
  },
  {
    "name": "부영2차아파트 203동 지하주차장 1층",
    "address": "전북특별자치도 정읍시 샘골로 158 (수성동, 부영2차아파트)",
    "lat": 35.5827077648708,
    "lng": 126.86020001942448,
    "region": "전북특별자치도"
  },
  {
    "name": "부영2차아파트 202동 지하주차장 1층",
    "address": "전북특별자치도 정읍시 샘골로 158 (수성동, 부영2차아파트)",
    "lat": 35.5827077648708,
    "lng": 126.86020001942448,
    "region": "전북특별자치도"
  },
  {
    "name": "삼화그린아파트 지하주차장 1층",
    "address": "전북특별자치도 정읍시 대흥3길 21-13, 103층 (시기동, 삼화그린아파트)",
    "lat": 35.5670516711092,
    "lng": 126.84985635603036,
    "region": "전북특별자치도"
  },
  {
    "name": "현대3차아파트301동 지하 1층",
    "address": "전북특별자치도 정읍시 상동중앙로 62-16 (상동, 3차현대아파트)",
    "lat": 35.561675691700074,
    "lng": 126.8697286717278,
    "region": "전북특별자치도"
  },
  {
    "name": "상동우미타운아파트 지하주차장 1층",
    "address": "전북특별자치도 정읍시 학산로 95 (상동, 우미타운)",
    "lat": 35.55980762028689,
    "lng": 126.87356618069832,
    "region": "전북특별자치도"
  },
  {
    "name": "상동 LG아파트 지하주차장 1층",
    "address": "전북특별자치도 정읍시 상사3길 47 (상동, 엘지아파트)",
    "lat": 35.561588497524255,
    "lng": 126.86589994131766,
    "region": "전북특별자치도"
  },
  {
    "name": "상동대림아파트 지하주차장 1층",
    "address": "전북특별자치도 정읍시 금붕1길 1 (금붕동)",
    "lat": 35.55568459703736,
    "lng": 126.87331895484137,
    "region": "전북특별자치도"
  },
  {
    "name": "대우드림채아파트 지하주차장 1층",
    "address": "전북특별자치도 정읍시 학산로 103-4 (상동, 대우드림채아파트)",
    "lat": 35.55904828478215,
    "lng": 126.87331634962092,
    "region": "전북특별자치도"
  },
  {
    "name": "엘드수목토아파트1단지 지하주차장 1층",
    "address": "전북특별자치도 정읍시 학산로 89 (상동, 엘드수목토)",
    "lat": 35.56040094697796,
    "lng": 126.87390322918542,
    "region": "전북특별자치도"
  },
  {
    "name": "휴먼시아아파트 2단지 지하주차장 1층",
    "address": "전북특별자치도 정읍시 학산로 89-71 (상동, 상동휴먼시아2단지)",
    "lat": 35.55691369945326,
    "lng": 126.875922705793,
    "region": "전북특별자치도"
  },
  {
    "name": "휴먼시아아파트3단지 지하주차장 1층",
    "address": "전북특별자치도 정읍시 학산로 89-71 (상동, 상동휴먼시아2단지)",
    "lat": 35.55691369945326,
    "lng": 126.875922705793,
    "region": "전북특별자치도"
  },
  {
    "name": "신성미소지움아파트 지하주차장",
    "address": "전북특별자치도 정읍시 상동중앙로 41 (상동, 정읍신성미소지움아파트)",
    "lat": 35.560525874800625,
    "lng": 126.86786009821678,
    "region": "전북특별자치도"
  },
  {
    "name": "센트럴카운티아파트103동 지하주차장",
    "address": "전북특별자치도 정읍시 시기1길 22 (시기동, 정읍센트럴카운티)",
    "lat": 35.554689059745726,
    "lng": 126.86206181159744,
    "region": "전북특별자치도"
  },
  {
    "name": "센트럴카운티아파트102동 지하주차장",
    "address": "전북특별자치도 정읍시 시기1길 22 (시기동, 정읍센트럴카운티)",
    "lat": 35.554689059745726,
    "lng": 126.86206181159744,
    "region": "전북특별자치도"
  },
  {
    "name": "센트럴카운티아파트101동 지하주차장",
    "address": "전북특별자치도 정읍시 시기1길 22 (시기동, 정읍센트럴카운티)",
    "lat": 35.554689059745726,
    "lng": 126.86206181159744,
    "region": "전북특별자치도"
  },
  {
    "name": "양우내안애아파트 지하주차장 1층",
    "address": "전북특별자치도 정읍시 천변로 394-16 (쌍암동)",
    "lat": 35.5539299303083,
    "lng": 126.86736861058866,
    "region": "전북특별자치도"
  },
  {
    "name": "영무예다음아파트 지하주차장 1층",
    "address": "전북특별자치도 정읍시 중앙로 55 (연지동, 정읍연지동영무예다음)",
    "lat": 35.571663308505755,
    "lng": 126.84782959329456,
    "region": "전북특별자치도"
  },
  {
    "name": "뉴캐슬아파트 지하주차장 1층",
    "address": "전북특별자치도 정읍시 수성택지2길 65 (수성동, 뉴캐슬아파트)",
    "lat": 35.57915790528805,
    "lng": 126.85847692610572,
    "region": "전북특별자치도"
  },
  {
    "name": "신태인주공아파트 103동 지하 1층",
    "address": "전북특별자치도 정읍시 신태인읍 호남철로 32-13, 103동 지하1층 (정읍신태인주공아파트)",
    "lat": 35.693952607518426,
    "lng": 126.88457287320136,
    "region": "전북특별자치도"
  },
  {
    "name": "신태인주공아파트 104동 지하 1층",
    "address": "전북특별자치도 정읍시 신태인읍 호남철로 32-13, 104동 지하1층 (정읍신태인주공아파트)",
    "lat": 35.693952607518426,
    "lng": 126.88457287320136,
    "region": "전북특별자치도"
  },
  {
    "name": "신태인농협 지하 1층",
    "address": "전북특별자치도 정읍시 신태인읍 정신로 1165, 농협신태인점",
    "lat": 35.688509880699435,
    "lng": 126.88477206097234,
    "region": "전북특별자치도"
  },
  {
    "name": "남원시청 지하1층",
    "address": "전북특별자치도 남원시 시청로 60 (도통동)",
    "lat": 35.41580668603278,
    "lng": 127.38989802362748,
    "region": "전북특별자치도"
  },
  {
    "name": "켄싱턴리조트 지하1층",
    "address": "전북특별자치도 남원시 소리길 66 (어현동)",
    "lat": 35.40266740806486,
    "lng": 127.38512553787132,
    "region": "전북특별자치도"
  },
  {
    "name": "지리산낙협 지하주차장 1층",
    "address": "전북특별자치도 남원시 의총로 28 (금동, 농협)",
    "lat": 35.40307229482723,
    "lng": 127.37625427549447,
    "region": "전북특별자치도"
  },
  {
    "name": "부영1차아파트 101동 지하주차장 1층",
    "address": "전북특별자치도 남원시 용성로 207 (도통동, 부영1차아파트)",
    "lat": 35.4164515881787,
    "lng": 127.39531561917478,
    "region": "전북특별자치도"
  },
  {
    "name": "명지2단지아파트 지하주차장 1층",
    "address": "전북특별자치도 남원시 성황단길 38 (왕정동, 명지아파트2단지)",
    "lat": 35.41105953786262,
    "lng": 127.36916470747713,
    "region": "전북특별자치도"
  },
  {
    "name": "비사벌아파트 지하주차장 1층",
    "address": "전북특별자치도 남원시 광천남길 410 (왕정동)",
    "lat": 35.409145809804656,
    "lng": 127.37193199371929,
    "region": "전북특별자치도"
  },
  {
    "name": "금호프라자 지하주차장 1층",
    "address": "전북특별자치도 남원시 남문로 385-16 (왕정동)",
    "lat": 35.40770281944827,
    "lng": 127.3744655559827,
    "region": "전북특별자치도"
  },
  {
    "name": "한신아파트 지하주차장 1층",
    "address": "전북특별자치도 남원시 노송로 1229 (노암동)",
    "lat": 35.39417676517295,
    "lng": 127.37626387725074,
    "region": "전북특별자치도"
  },
  {
    "name": "비안아파트 지하주차장 1층",
    "address": "전북특별자치도 남원시 노송로 1237 (노암동)",
    "lat": 35.394791601449285,
    "lng": 127.37699920343636,
    "region": "전북특별자치도"
  },
  {
    "name": "부영2차아파트 204동 지하주차장 1층",
    "address": "전북특별자치도 남원시 오들1길 97 (월락동, 부영2차아파트)",
    "lat": 35.42028937057879,
    "lng": 127.40169650070412,
    "region": "전북특별자치도"
  },
  {
    "name": "부영2차아파트 205동 지하주차장 1층",
    "address": "전북특별자치도 남원시 오들1길 97 (월락동, 부영2차아파트)",
    "lat": 35.42028937057879,
    "lng": 127.40169650070412,
    "region": "전북특별자치도"
  },
  {
    "name": "부영2차아파트 206동 지하주차장 1층",
    "address": "전북특별자치도 남원시 오들1길 97 (월락동, 부영2차아파트)",
    "lat": 35.42028937057879,
    "lng": 127.40169650070412,
    "region": "전북특별자치도"
  },
  {
    "name": "부영2차아파트 207동 지하주차장 1층",
    "address": "전북특별자치도 남원시 오들1길 97 (월락동)",
    "lat": 35.42028937057879,
    "lng": 127.40169650070412,
    "region": "전북특별자치도"
  },
  {
    "name": "부영2차아파트 208동 지하주차장 1층",
    "address": "전북특별자치도 남원시 오들1길 97 (월락동)",
    "lat": 35.42028937057879,
    "lng": 127.40169650070412,
    "region": "전북특별자치도"
  },
  {
    "name": "부영3차아파트 303동 지하주차장 1층",
    "address": "전북특별자치도 남원시 오들1길 82 (월락동)",
    "lat": 35.4198526486709,
    "lng": 127.4013107498747,
    "region": "전북특별자치도"
  },
  {
    "name": "부영5차아파트 504동 지하주차장 1층",
    "address": "전북특별자치도 남원시 오들1길 26 (도통동)",
    "lat": 35.41820225696975,
    "lng": 127.39894257631082,
    "region": "전북특별자치도"
  },
  {
    "name": "부영3차아파트 305동 지하주차장 1층",
    "address": "전북특별자치도 남원시 오들1길 82 (월락동)",
    "lat": 35.4198526486709,
    "lng": 127.4013107498747,
    "region": "전북특별자치도"
  },
  {
    "name": "부영5차아파트  506동 지하주차장 1층",
    "address": "전북특별자치도 남원시 오들1길 26 (도통동)",
    "lat": 35.41820225696975,
    "lng": 127.39894257631082,
    "region": "전북특별자치도"
  },
  {
    "name": "부영5차아파트  507동 지하주차장 1층",
    "address": "전북특별자치도 남원시 오들1길 26 (도통동)",
    "lat": 35.41820225696975,
    "lng": 127.39894257631082,
    "region": "전북특별자치도"
  },
  {
    "name": "국민은행남원지점 지하주차장 1층",
    "address": "전북특별자치도 남원시 광한서로 64 (하정동, 국민은행)",
    "lat": 35.40679239753221,
    "lng": 127.3781971018329,
    "region": "전북특별자치도"
  },
  {
    "name": "남원새마을금고 본점 지하주차장 1층",
    "address": "전북특별자치도 남원시 남문로 445, 남원새마을금고 (하정동)",
    "lat": 35.40649392130369,
    "lng": 127.38003862437246,
    "region": "전북특별자치도"
  },
  {
    "name": "남진빌라 지하주차장 1층",
    "address": "전북특별자치도 남원시 동헌길 198 (죽항동, 남진빌라)",
    "lat": 35.407588920561125,
    "lng": 127.38733416453633,
    "region": "전북특별자치도"
  },
  {
    "name": "현대아파트 104동 지하주차장 1층",
    "address": "전북특별자치도 남원시 동문로 83 (동충동)",
    "lat": 35.4131043603936,
    "lng": 127.38601451899972,
    "region": "전북특별자치도"
  },
  {
    "name": "전라북도 공무원교육원 지하1층",
    "address": "전북특별자치도 남원시 산성길 87 (산곡동)",
    "lat": 35.42320912139201,
    "lng": 127.37172423015376,
    "region": "전북특별자치도"
  },
  {
    "name": "도립노인요양병원 지하1층",
    "address": "전북특별자치도 남원시 산성길 51-15 (산곡동, 전북도립남원노인요양병원)",
    "lat": 35.42094695702976,
    "lng": 127.37302319228218,
    "region": "전북특별자치도"
  },
  {
    "name": "메카센트럴아파트 지하주차장 1층",
    "address": "전북특별자치도 남원시 요천로 1300 (조산동, 메카센트럴)",
    "lat": 35.396584867232995,
    "lng": 127.36655940172663,
    "region": "전북특별자치도"
  },
  {
    "name": "부영1차아파트",
    "address": "전북특별자치도 남원시 용성로 207 (도통동, 부영1차아파트)",
    "lat": 35.4164515881787,
    "lng": 127.39531561917478,
    "region": "전북특별자치도"
  },
  {
    "name": "금동휴먼시아아파트 103동 지하주차장 1층",
    "address": "전북특별자치도 남원시 가방뜰길 57 (금동, 금동휴먼시아)",
    "lat": 35.39968327742425,
    "lng": 127.36952496237848,
    "region": "전북특별자치도"
  },
  {
    "name": "금동휴먼시아아파트 108동 지하주차장 1층",
    "address": "전북특별자치도 남원시 가방뜰길 57 (금동, 금동휴먼시아)",
    "lat": 35.39968327742425,
    "lng": 127.36952496237848,
    "region": "전북특별자치도"
  },
  {
    "name": "수창해뜨레아파트 지하주차장 1층",
    "address": "전북특별자치도 남원시 농원길 27 (조산동, 남원수창해뜨레아파트)",
    "lat": 35.39607382339093,
    "lng": 127.36701669712808,
    "region": "전북특별자치도"
  },
  {
    "name": "운봉초등학교 지하1층",
    "address": "전북특별자치도 남원시 운봉읍 운봉로 725, 운봉초등학교",
    "lat": 35.4401878262547,
    "lng": 127.532941657205,
    "region": "전북특별자치도"
  },
  {
    "name": "한국경마축산고등학교 지하1층",
    "address": "전북특별자치도 남원시 운봉읍 황산로 952, 한국경마축산고등학교",
    "lat": 35.4405235679895,
    "lng": 127.51659811674156,
    "region": "전북특별자치도"
  },
  {
    "name": "장애인 종합복지관 지하1층",
    "address": "전북특별자치도 남원시 이백면 닭뫼안길 87, 남원장애인종합복지관",
    "lat": 35.45262484701449,
    "lng": 127.44139546167467,
    "region": "전북특별자치도"
  },
  {
    "name": "하늘아래아파트 지하1층",
    "address": "전북특별자치도 남원시 인월면 인월1길 25(하늘아래아파트)",
    "lat": 35.46243147887727,
    "lng": 127.59820320624944,
    "region": "전북특별자치도"
  },
  {
    "name": "인월만나재가복지센터 지하1층",
    "address": "전북특별자치도 남원시 인월면 인월장터로 27",
    "lat": 35.46214071720714,
    "lng": 127.60111149939505,
    "region": "전북특별자치도"
  },
  {
    "name": "아영초등학교 다목적체육관",
    "address": "전북특별자치도 남원시 아영면 고인청계길 15, 아영초등학교",
    "lat": 35.50595236168849,
    "lng": 127.6100395116377,
    "region": "전북특별자치도"
  },
  {
    "name": "일성지리산콘도 지하1층",
    "address": "전북특별자치도 남원시 산내면 천왕봉로 626-25, 일성지리산콘도미니엄",
    "lat": 35.42323351122104,
    "lng": 127.62105756543106,
    "region": "전북특별자치도"
  },
  {
    "name": "김제시청 지하 1층 식당",
    "address": "전북특별자치도 김제시 중앙로 40 (서암동, 김제시청)",
    "lat": 35.80449505773891,
    "lng": 126.88058556640384,
    "region": "전북특별자치도"
  },
  {
    "name": "검산 부영1차아파트 지하주차장 1층",
    "address": "전북특별자치도 김제시 도작로 111 (검산동, 부영아파트)",
    "lat": 35.80436962153136,
    "lng": 126.89932465129334,
    "region": "전북특별자치도"
  },
  {
    "name": "두일로얄아파트지하 1층",
    "address": "전북특별자치도 김제시 요촌5길 14 (요촌동, 두일로얄아파트)",
    "lat": 35.8034552659897,
    "lng": 126.8872810707594,
    "region": "전북특별자치도"
  },
  {
    "name": "김제시청 지하 1층 대피소",
    "address": "전북특별자치도 김제시 중앙로 40 (서암동, 김제시청)",
    "lat": 35.80449505773891,
    "lng": 126.88058556640384,
    "region": "전북특별자치도"
  },
  {
    "name": "시립도서관 지하 1층",
    "address": "전북특별자치도 김제시 서낭당길 151 (요촌동, 김제시립도서관)",
    "lat": 35.79902982778792,
    "lng": 126.89246886172523,
    "region": "전북특별자치도"
  },
  {
    "name": "한국농어촌공사 동진지사 지하 1층",
    "address": "전북특별자치도 김제시 화동길 112 (신풍동)",
    "lat": 35.798282115288806,
    "lng": 126.89378914661742,
    "region": "전북특별자치도"
  },
  {
    "name": "부영3차아파트 지하주차장 1층",
    "address": "전북특별자치도 김제시 도작로 33 (신풍동)",
    "lat": 35.79822640089138,
    "lng": 126.90350721905872,
    "region": "전북특별자치도"
  },
  {
    "name": "김제보건소 지하 주차장 1층",
    "address": "전북특별자치도 김제시 성산길 138 (요촌동, 보건소)",
    "lat": 35.80102065485875,
    "lng": 126.88322970845208,
    "region": "전북특별자치도"
  },
  {
    "name": "대방아파트 지하주차장 1층",
    "address": "전북특별자치도 김제시 금성8길 56 (신풍동, 대방아파트)",
    "lat": 35.80153672737759,
    "lng": 126.8993717292485,
    "region": "전북특별자치도"
  },
  {
    "name": "성산그린빌아파트 지하주차장 1층",
    "address": "전북특별자치도 김제시 벽지산로 70 (신풍동, 성산그린빌아파트)",
    "lat": 35.790199896347175,
    "lng": 126.89293869283075,
    "region": "전북특별자치도"
  },
  {
    "name": "새한아파트 지하주차장 1층",
    "address": "전북특별자치도 김제시 금성2길 12 (신풍동, 새한아파트)",
    "lat": 35.79491445649492,
    "lng": 126.89374848929508,
    "region": "전북특별자치도"
  },
  {
    "name": "현대아파트 지하주차장 1층",
    "address": "전북특별자치도 김제시 중앙16길 51 (신풍동, 현대아파트)",
    "lat": 35.792757149310695,
    "lng": 126.89895167275544,
    "region": "전북특별자치도"
  },
  {
    "name": "만경도서관 지하 1층",
    "address": "전북특별자치도 김제시 만경읍 만경로 776 (만경 도서관)",
    "lat": 35.84928965084821,
    "lng": 126.8167595190135,
    "region": "전북특별자치도"
  },
  {
    "name": "위드아파트 지하주차장 1층",
    "address": "전북특별자치도 김제시 남북로 267 (서암동, 위드아파트)",
    "lat": 35.80770783804129,
    "lng": 126.8832114534729,
    "region": "전북특별자치도"
  },
  {
    "name": "LH 교동휴먼시아 아파트 지하주차장 1층",
    "address": "전북특별자치도 김제시 교정길 36 (교동, 김제교동휴먼시아)",
    "lat": 35.79802677687961,
    "lng": 126.87830872265684,
    "region": "전북특별자치도"
  },
  {
    "name": "검산샬레1차아파트 지하주자장 1층",
    "address": "전북특별자치도 김제시 검산택지4길 30 (검산동, 김제검산샬레1차아파트)",
    "lat": 35.803035383047614,
    "lng": 126.906320656069,
    "region": "전북특별자치도"
  },
  {
    "name": "하동 오투그란데아파트 지하주차장 1층",
    "address": "전북특별자치도 김제시 요촌중길 146 (하동, 하동제일오투그란데)",
    "lat": 35.80942040335097,
    "lng": 126.89125033652482,
    "region": "전북특별자치도"
  },
  {
    "name": "모다아울렛 지하주차장 1층",
    "address": "전북특별자치도 김제시 용지면 콩쥐팥쥐로 855, 모다아울렛",
    "lat": 35.817233662927094,
    "lng": 126.99366008458937,
    "region": "전북특별자치도"
  },
  {
    "name": "하우스디 아파트 지하주차장 1층",
    "address": "전북특별자치도 김제시 벽지산로 200 (옥산동, 김제 하우스디)",
    "lat": 35.7943954995642,
    "lng": 126.88066839689,
    "region": "전북특별자치도"
  },
  {
    "name": "신풍 오투그란데 아파트 지하주차장 1층",
    "address": "전북특별자치도 김제시 신풍길 146 (신풍동, 제일오투그란데아파트)",
    "lat": 35.7966558271752,
    "lng": 126.895410112582,
    "region": "전북특별자치도"
  },
  {
    "name": "봉동명진로얄2차아파트 전체 동의 지하주차장 1층",
    "address": "전북특별자치도 완주군 봉동읍 봉동동서로 76(봉동2차 명진로얄아파트)",
    "lat": 35.93621609483206,
    "lng": 127.16111609190354,
    "region": "전북특별자치도"
  },
  {
    "name": "봉동한신1차아파트 전체 동의 지하주차장 1층",
    "address": "전북특별자치도 완주군 봉동읍 봉동로 19(봉동한신아파트)",
    "lat": 35.927287515578335,
    "lng": 127.16578438379408,
    "region": "전북특별자치도"
  },
  {
    "name": "LS엠트론 기술교육아카데미 지하 1층",
    "address": "전북특별자치도 완주군 봉동읍 봉동로 396, 완주군종합복지회관",
    "lat": 35.95426233719673,
    "lng": 127.14912586898056,
    "region": "전북특별자치도"
  },
  {
    "name": "현대자동차 전주공장 지하 1층",
    "address": "전북특별자치도 완주군 봉동읍 완주산단5로 163, 현대자동차",
    "lat": 35.943946544512684,
    "lng": 127.13545292055534,
    "region": "전북특별자치도"
  },
  {
    "name": "우석대학교 문화관 지하 1층",
    "address": "전북특별자치도 완주군 삼례읍 삼례로 443, 우석대학교",
    "lat": 35.91514216872863,
    "lng": 127.06730894142108,
    "region": "전북특별자치도"
  },
  {
    "name": "완주군립 삼례도서관 지하 1층",
    "address": "전북특별자치도 완주군 삼례읍 삼봉로 215-12, 완주군립삼례도서관",
    "lat": 35.92049601210923,
    "lng": 127.09324048967662,
    "region": "전북특별자치도"
  },
  {
    "name": "삼례대명아파트 전체 동의 지하주차장 1층",
    "address": "전북특별자치도 완주군 삼례읍 충혼길 50(삼례대명아파트)",
    "lat": 35.90447531661877,
    "lng": 127.07046933260489,
    "region": "전북특별자치도"
  },
  {
    "name": "삼례우성아파트 전체 동의 지하주차장 1층",
    "address": "전북특별자치도 완주군 삼례읍 삼례로 333(삼례우성아파트)",
    "lat": 35.90732950953855,
    "lng": 127.0744392154946,
    "region": "전북특별자치도"
  },
  {
    "name": "대영1차아파트 전체 동의 지하주차장 1층",
    "address": "전북특별자치도 완주군 삼례읍 왕궁로 10(대영1차아파트)",
    "lat": 35.91646906052753,
    "lng": 127.0800681198032,
    "region": "전북특별자치도"
  },
  {
    "name": "동원맨션 전체 동의 지하주차장 1층",
    "address": "전북특별자치도 완주군 삼례읍 삼봉로 111(동원맨션아파트)",
    "lat": 35.91690731951316,
    "lng": 127.08208789342152,
    "region": "전북특별자치도"
  },
  {
    "name": "덕천하이트아파트 전체 동의 지하주차장 1층",
    "address": "전북특별자치도 완주군 용진읍 가목길 21(덕천하이트아파트)",
    "lat": 35.923542937758015,
    "lng": 127.17207404245424,
    "region": "전북특별자치도"
  },
  {
    "name": "용진대영아파트 전체 동의 지하주차장 1층",
    "address": "전북특별자치도 완주군 용진읍 완주로 812(대영아파트)",
    "lat": 35.933669130426026,
    "lng": 127.1731753069402,
    "region": "전북특별자치도"
  },
  {
    "name": "용진원주아파트 전체 동의 지하주차장 1층",
    "address": "전북특별자치도 완주군 용진읍 완주로 716(용진원주아파트)",
    "lat": 35.92509232120386,
    "lng": 127.1724894022988,
    "region": "전북특별자치도"
  },
  {
    "name": "전주첨단코아루아파트 전체 동의 지하주차장 1층",
    "address": "전북특별자치도 완주군 봉동읍 둔산3로 63(전주첨단코아루아파트)",
    "lat": 35.960661918335795,
    "lng": 127.12632777589138,
    "region": "전북특별자치도"
  },
  {
    "name": "전주첨단코아루2차아파트 전체 동의 지하주차장 1층",
    "address": "전북특별자치도 완주군 봉동읍 둔산1로 130(전주첨단코아루2차아파트)",
    "lat": 35.96286352853883,
    "lng": 127.12219840580056,
    "region": "전북특별자치도"
  },
  {
    "name": "벽산e-솔렌스힐 아파트 전체 동의 지하주차장 1층",
    "address": "전북특별자치도 완주군 봉동읍 둔산3로 119-7(전주과학산업단지 벽산e-솔렌스힐아파트)",
    "lat": 35.96513648409783,
    "lng": 127.12536825495926,
    "region": "전북특별자치도"
  },
  {
    "name": "라송센트럴카운티아파트 전체 동의 지하주차장 1층",
    "address": "전북특별자치도 완주군 봉동읍 둔산1로 107(라송 센트럴카운티)",
    "lat": 35.960923831959775,
    "lng": 127.12188484460944,
    "region": "전북특별자치도"
  },
  {
    "name": "모아엘가아파트 전체 동의 지하주차장 1층",
    "address": "전북특별자치도 완주군 봉동읍 둔산1로 131 (모아엘가)",
    "lat": 35.96306232481262,
    "lng": 127.1218313884752,
    "region": "전북특별자치도"
  },
  {
    "name": "완주봉동주공1차아파트 전체 동의 지하주차장 1층",
    "address": "전북특별자치도 완주군 봉동읍 봉동중앙로 53-18(봉동주공아파트)",
    "lat": 35.92907967592794,
    "lng": 127.15891625008187,
    "region": "전북특별자치도"
  },
  {
    "name": "완주봉동주공2차아파트 전체 동의 지하주차장 1층",
    "address": "전북특별자치도 완주군 봉동읍 봉동중앙로 53-20(봉동주공아파트)",
    "lat": 35.92904524431369,
    "lng": 127.15882959659044,
    "region": "전북특별자치도"
  },
  {
    "name": "이노힐스아파트 전체 동의 지하주차장 1층",
    "address": "전북특별자치도 완주군 이서면 갈산1로 71(이노힐스아파트)",
    "lat": 35.83722325199345,
    "lng": 127.05353757914,
    "region": "전북특별자치도"
  },
  {
    "name": "전북혁신도시코오롱하늘채아파트 전체 동의 지하주차장 1층",
    "address": "전북특별자치도 완주군 이서면 출판로 25(혁신도시코오롱하늘채아파트)",
    "lat": 35.83977641934895,
    "lng": 127.05557281172192,
    "region": "전북특별자치도"
  },
  {
    "name": "전북혁신LH9단지아파트 전체 동의 지하주차장 1층",
    "address": "전북특별자치도 완주군 이서면 갈산1로 72(전북혁신엘에이치아파트9단지)",
    "lat": 35.837024170093834,
    "lng": 127.05352558018087,
    "region": "전북특별자치도"
  },
  {
    "name": "전북혁신LH10단지아파트 전체 동의 지하주차장 1층",
    "address": "전북특별자치도 완주군 이서면 갈산1로 12(전북혁신엘에이치아파트10단지)",
    "lat": 35.83443400447679,
    "lng": 127.05443344677032,
    "region": "전북특별자치도"
  },
  {
    "name": "혁신도시에코르2단지아파트 전체 동의 지하주차장 1층",
    "address": "전북특별자치도 완주군 이서면 지사제로 29(혁신도시 에코르 2단지 아파트)",
    "lat": 35.82803573516444,
    "lng": 127.02140594145672,
    "region": "전북특별자치도"
  },
  {
    "name": "혁신도시에코르3단지아파트 전체 동의 지하주차장 1층",
    "address": "전북특별자치도 완주군 이서면 반교로 51(혁신도시 에코르 3단지)",
    "lat": 35.82561595071313,
    "lng": 127.02299298978365,
    "region": "전북특별자치도"
  },
  {
    "name": "전북도립미술관 지하 1층",
    "address": "전북특별자치도 완주군 구이면 모악산길 111-6, 전북도립미술관",
    "lat": 35.72820939308285,
    "lng": 127.10709050190565,
    "region": "전북특별자치도"
  },
  {
    "name": "고산면행정복지센터 지하 1층",
    "address": "전북특별자치도 완주군 고산면 고산로 69-13, 고산면사무소",
    "lat": 35.976127687565125,
    "lng": 127.20528559232976,
    "region": "전북특별자치도"
  },
  {
    "name": "고산농협 지하 1층",
    "address": "전북특별자치도 완주군 고산면 고산로 77, 고산농협",
    "lat": 35.97525593226425,
    "lng": 127.20547889161652,
    "region": "전북특별자치도"
  },
  {
    "name": "신세대지큐빌아파트 전체 동의 지하주차장 1층",
    "address": "전북특별자치도 완주군 상관면 신리로 99 (신세대 지큐빌)",
    "lat": 35.7709539514252,
    "lng": 127.207845278686,
    "region": "전북특별자치도"
  },
  {
    "name": "구이중학교 강당 지상 1층",
    "address": "전북특별자치도 완주군 구이면 구이로 1505, 구이중학교",
    "lat": 35.7339671137184,
    "lng": 127.11993778204564,
    "region": "전북특별자치도"
  },
  {
    "name": "고산동우더리치아파트 전체 동의 지하주차장 1층",
    "address": "전북특별자치도 완주군 고산면 고산로 147-9(고산 동우더리치 아파트)",
    "lat": 35.97485820890098,
    "lng": 127.21307604982395,
    "region": "전북특별자치도"
  },
  {
    "name": "천호성지부활성당 지상 1층",
    "address": "전북특별자치도 완주군 비봉면 천호성지길 124, 천호성지",
    "lat": 36.03777782643712,
    "lng": 127.13025482977464,
    "region": "전북특별자치도"
  },
  {
    "name": "대둔산호텔 지하 1층",
    "address": "전북특별자치도 완주군 운주면 대둔산공원길 37, 대둔산관광호텔",
    "lat": 36.11647343632345,
    "lng": 127.33147265074425,
    "region": "전북특별자치도"
  },
  {
    "name": "화산중학교 강당 지상 1층",
    "address": "전북특별자치도 완주군 화산면 화산로 874, 화산중학교",
    "lat": 36.034510652247015,
    "lng": 127.19877498625596,
    "region": "전북특별자치도"
  },
  {
    "name": "대아월랑아파트 지하주차장 1층",
    "address": "전북특별자치도 진안군 진안읍 대광1길 4(대아월랑아파트)",
    "lat": 35.78730441431725,
    "lng": 127.42061073817584,
    "region": "전북특별자치도"
  },
  {
    "name": "진안군청 지하구내식당",
    "address": "전북특별자치도 진안군 진안읍 중앙로 67, 진안군청",
    "lat": 35.79146547577855,
    "lng": 127.42537762976067,
    "region": "전북특별자치도"
  },
  {
    "name": "문예체육회관 지하주차장 1층",
    "address": "전북특별자치도 진안군 진안읍 진무로 1054-38, 문예체육관",
    "lat": 35.78649902672947,
    "lng": 127.42631869313256,
    "region": "전북특별자치도"
  },
  {
    "name": "목화예식장 지하",
    "address": "전북특별자치도 진안군 진안읍 진장로 19",
    "lat": 35.79273392282981,
    "lng": 127.43314773246335,
    "region": "전북특별자치도"
  },
  {
    "name": "진안경찰서 지하",
    "address": "전북특별자치도 진안군 진안읍 우화산길 3",
    "lat": 35.791340107558504,
    "lng": 127.42584119541748,
    "region": "전북특별자치도"
  },
  {
    "name": "한국전력공사 진안지점 지하식당",
    "address": "전북특별자치도 진안군 진안읍 대괭이길 7-21, 한국전력",
    "lat": 35.79027395845913,
    "lng": 127.42201502012844,
    "region": "전북특별자치도"
  },
  {
    "name": "진안읍사무소 지하",
    "address": "전북특별자치도 진안군 진안읍 대성길 3, 진안읍행정복지센터",
    "lat": 35.789107644268434,
    "lng": 127.42324819419936,
    "region": "전북특별자치도"
  },
  {
    "name": "진안청소년수련관 지하",
    "address": "전북특별자치도 진안군 진안읍 진무로 1054-14, 진안군 청소년 수련관",
    "lat": 35.78835470931104,
    "lng": 127.42657155274826,
    "region": "전북특별자치도"
  },
  {
    "name": "진안성당 지하식당",
    "address": "전북특별자치도 진안군 진안읍 대광길 22",
    "lat": 35.78803031079767,
    "lng": 127.4207293982496,
    "region": "전북특별자치도"
  },
  {
    "name": "진안군 의료원",
    "address": "전북특별자치도 진안군 진안읍 진무로 1145",
    "lat": 35.79447062652642,
    "lng": 127.43272966462796,
    "region": "전북특별자치도"
  },
  {
    "name": "KT 진안지점",
    "address": "전북특별자치도 진안군 진안읍 중앙로 78",
    "lat": 35.79180383326231,
    "lng": 127.42606705325863,
    "region": "전북특별자치도"
  },
  {
    "name": "진안우체국 지하",
    "address": "전북특별자치도 진안군 진안읍 진무로 1114, 진안우체국",
    "lat": 35.79205595770548,
    "lng": 127.43036407971606,
    "region": "전북특별자치도"
  },
  {
    "name": "홍삼스파 지하 기계실",
    "address": "전북특별자치도 진안군 진안읍 외사양길 16-10, 홍삼스파",
    "lat": 35.776220369290286,
    "lng": 127.4172733790669,
    "region": "전북특별자치도"
  },
  {
    "name": "진안 홍삼빌 지하 기계실",
    "address": "전북특별자치도 진안군 진안읍 외사양길 16-14, 홍삼빌",
    "lat": 35.77669059438051,
    "lng": 127.41676383278836,
    "region": "전북특별자치도"
  },
  {
    "name": "진안읍 에코르아파트 지하주차장 1층",
    "address": "전북특별자치도 진안군 진안읍 향교길 66(진안에코르)",
    "lat": 35.795427356539335,
    "lng": 127.42792910009312,
    "region": "전북특별자치도"
  },
  {
    "name": "무주군청 지하1층 구내식당",
    "address": "전북특별자치도 무주군 무주읍 주계로 97 (무주군청)",
    "lat": 36.006495680685056,
    "lng": 127.66087426845756,
    "region": "전북특별자치도"
  },
  {
    "name": "무주군청 지하주차장 1층",
    "address": "전북특별자치도 무주군 무주읍 주계로 97 (무주군청)",
    "lat": 36.006495680685056,
    "lng": 127.66087426845756,
    "region": "전북특별자치도"
  },
  {
    "name": "보건의료원 장례식장 지하1~2층",
    "address": "전북특별자치도 무주군 무주읍 한풍루로 413 (무주군보건의료원)",
    "lat": 36.00572661329013,
    "lng": 127.67172534623133,
    "region": "전북특별자치도"
  },
  {
    "name": "무주남대천휴먼시아아파트 지하주차장 1층",
    "address": "전북특별자치도 무주군 무주읍 장터로 26 (무주남대천휴먼시아)",
    "lat": 36.006372845333814,
    "lng": 127.65277528693228,
    "region": "전북특별자치도"
  },
  {
    "name": "무풍면 행정복지센터 지하1층",
    "address": "전북특별자치도 무주군 무풍면 현내로 171",
    "lat": 35.96990085204671,
    "lng": 127.8444416188324,
    "region": "전북특별자치도"
  },
  {
    "name": "설천면 행정복지센터 지하1층",
    "address": "전북특별자치도 무주군 설천면 무설로 1607",
    "lat": 36.00804142006425,
    "lng": 127.78904822715772,
    "region": "전북특별자치도"
  },
  {
    "name": "안성면 행정복지센터 지하1층",
    "address": "전북특별자치도 무주군 안성면 안성로 246-17",
    "lat": 35.86352169386552,
    "lng": 127.65286335059837,
    "region": "전북특별자치도"
  },
  {
    "name": "무주 부영아파트 지하주차장 1층",
    "address": "전북특별자치도 무주군 무주읍 신교로 49 (무주읍내리사랑으로부영아파트)",
    "lat": 36.00988314593204,
    "lng": 127.6679456822742,
    "region": "전북특별자치도"
  },
  {
    "name": "무주에코르아파트 지하주차장 1층",
    "address": "전북특별자치도 무주군 설천면 하평지1길 10 (무주에코르 아파트)",
    "lat": 36.01132469231566,
    "lng": 127.78706033004887,
    "region": "전북특별자치도"
  },
  {
    "name": "미래드림2차아파트 지하주차장 1층",
    "address": "전북특별자치도 무주군 무주읍 당산강변로 224(미래드림2차)",
    "lat": 36.00556317755308,
    "lng": 127.665530111808,
    "region": "전북특별자치도"
  },
  {
    "name": "장수군청 지하주차장 1층",
    "address": "전북특별자치도 장수군 장수읍 호비로 10 (장수군청)",
    "lat": 35.647008497821815,
    "lng": 127.5209035263867,
    "region": "전북특별자치도"
  },
  {
    "name": "보건의료원 지하 식당 및 주차장 1층",
    "address": "전북특별자치도 장수군 장수읍 장천로 247 (장수보건의료원)",
    "lat": 35.6543303387902,
    "lng": 127.52028653695253,
    "region": "전북특별자치도"
  },
  {
    "name": "장수우체국 지하주차장 1층",
    "address": "전북특별자치도 장수군 장수읍 싸리재로 5 (장수우체국)",
    "lat": 35.64927890406661,
    "lng": 127.51947050379164,
    "region": "전북특별자치도"
  },
  {
    "name": "장수군노인장애인복지관",
    "address": "전북특별자치도 장수군 장수읍 노하3길 16 (장수군노인복지관)",
    "lat": 35.65268973702921,
    "lng": 127.51675357514344,
    "region": "전북특별자치도"
  },
  {
    "name": "장수경찰서 지하 식당 1층",
    "address": "전북특별자치도 장수군 장수읍 신천로 8 (장수경찰서)",
    "lat": 35.64691807099195,
    "lng": 127.51593673314268,
    "region": "전북특별자치도"
  },
  {
    "name": "타코마리조트",
    "address": "전북특별자치도 장수군 계남면 장수로 2662-11",
    "lat": 35.676078033250086,
    "lng": 127.55070459085884,
    "region": "전북특별자치도"
  },
  {
    "name": "장계에코르아파트 지하주차장 1층",
    "address": "전북특별자치도 장수군 장계면 북동로 61-6(장계 에코르)",
    "lat": 35.73388534771758,
    "lng": 127.58536195773917,
    "region": "전북특별자치도"
  },
  {
    "name": "임실군청 지하(주차장) 1층",
    "address": "전북특별자치도 임실군 임실읍 수정로 30",
    "lat": 35.618314588581974,
    "lng": 127.2886798077866,
    "region": "전북특별자치도"
  },
  {
    "name": "보건의료원 지하(식당) 1층",
    "address": "전북특별자치도 임실군 임실읍 호국로 1680",
    "lat": 35.61275809684252,
    "lng": 127.2865689418934,
    "region": "전북특별자치도"
  },
  {
    "name": "전라북도보건환경연구원 지하1층",
    "address": "전북특별자치도 임실군 임실읍 호국로 1601",
    "lat": 35.60959783780693,
    "lng": 127.27875151505648,
    "region": "전북특별자치도"
  },
  {
    "name": "임실우체국 지하주차장 1층",
    "address": "전북특별자치도 임실군 임실읍 봉황8길 27",
    "lat": 35.61374385887697,
    "lng": 127.28282411298817,
    "region": "전북특별자치도"
  },
  {
    "name": "임실군민회관 지하1층",
    "address": "전북특별자치도 임실군 임실읍 호국로 1703",
    "lat": 35.6150635502601,
    "lng": 127.28690739086512,
    "region": "전북특별자치도"
  },
  {
    "name": "전라북도119안전체험관 지하1층",
    "address": "전북특별자치도 임실군 임실읍 호국로 1630 (전북119안전체험관)",
    "lat": 35.60478489934067,
    "lng": 127.28248825282066,
    "region": "전북특별자치도"
  },
  {
    "name": "KT임실지사 지하1층",
    "address": "전북특별자치도 임실군 임실읍 봉황로 143 (K.T 임실점)",
    "lat": 35.6135352175676,
    "lng": 127.27881995023618,
    "region": "전북특별자치도"
  },
  {
    "name": "코아루더베스트 아파트 지하주차장 1층",
    "address": "전북특별자치도 임실군 임실읍 호반로 12(전북임실코아루더베스트)",
    "lat": 35.61039075760889,
    "lng": 127.27929577950584,
    "region": "전북특별자치도"
  },
  {
    "name": "임실 에코르 아파트 지하주차장 1층",
    "address": "전북특별자치도 임실군 임실읍 봉황11길 94(임실 에코르)",
    "lat": 35.61581217944799,
    "lng": 127.28574227286548,
    "region": "전북특별자치도"
  },
  {
    "name": "효성아파트 지하주차장 1층",
    "address": "전북특별자치도 임실군 오수면 오수7길 50 (오수 효성상가프라자)",
    "lat": 35.5380358736381,
    "lng": 127.3264834834796,
    "region": "전북특별자치도"
  },
  {
    "name": "임실읍행복누리원(임실읍사무소) 지하주차장 1층",
    "address": "전북특별자치도 임실군 임실읍 봉황로 144, 임실읍행복누리원",
    "lat": 35.61346890905848,
    "lng": 127.27906238035882,
    "region": "전북특별자치도"
  },
  {
    "name": "순정축협 지하 1층",
    "address": "전북특별자치도 순창군 순창읍 옥천로 41 (순정축협)",
    "lat": 35.3763982678621,
    "lng": 127.14061234718636,
    "region": "전북특별자치도"
  },
  {
    "name": "대석아파트 지하주차장 1층",
    "address": "전북특별자치도 순창군 순창읍 양지길 81 (대석아파트)",
    "lat": 35.37477995897814,
    "lng": 127.147471182921,
    "region": "전북특별자치도"
  },
  {
    "name": "해태타운 지하 1층",
    "address": "전북특별자치도 순창군 순창읍 남계로 96 (해태타운)",
    "lat": 35.375101184898746,
    "lng": 127.14596201354702,
    "region": "전북특별자치도"
  },
  {
    "name": "대신파크 지하 1층",
    "address": "전북특별자치도 순창군 순창읍 장류로 296 (대신파크맨션)",
    "lat": 35.376009822420954,
    "lng": 127.1349267899153,
    "region": "전북특별자치도"
  },
  {
    "name": "순창군청 지하 1층",
    "address": "전북특별자치도 순창군 순창읍 경천로 33 (순창군청)",
    "lat": 35.374134662402824,
    "lng": 127.13689033277748,
    "region": "전북특별자치도"
  },
  {
    "name": "행복누리센터 지하 1층",
    "address": "전북특별자치도 순창군 순창읍 순창로 127 (순창군보건의료원)",
    "lat": 35.367025976053824,
    "lng": 127.14076065203082,
    "region": "전북특별자치도"
  },
  {
    "name": "순창읍사무소 지하 1층",
    "address": "전북특별자치도 순창군 순창읍 장류로 407-7 (순창읍사무소)",
    "lat": 35.37687765260712,
    "lng": 127.14705769201215,
    "region": "전북특별자치도"
  },
  {
    "name": "장류연구소 지하 1층",
    "address": "전북특별자치도 순창군 순창읍 민속마을길 61 (순창장류연구소)",
    "lat": 35.36629797343411,
    "lng": 127.10690396204711,
    "region": "전북특별자치도"
  },
  {
    "name": "순창경찰서 지하 1층",
    "address": "전북특별자치도 순창군 순창읍 장류로 311 (순창경찰서)",
    "lat": 35.37688806730553,
    "lng": 127.13642205796256,
    "region": "전북특별자치도"
  },
  {
    "name": "순창농협 남계지소 하나로마트 지하 1층",
    "address": "전북특별자치도 순창군 순창읍 장류로 388 (농협하나로마트)",
    "lat": 35.37600956631536,
    "lng": 127.144527096436,
    "region": "전북특별자치도"
  },
  {
    "name": "순창요양병원 지하 1층",
    "address": "전북특별자치도 순창군 순창읍 순창로 105 (순창요양병원)",
    "lat": 35.36527959407688,
    "lng": 127.1412893179909,
    "region": "전북특별자치도"
  },
  {
    "name": "신안프라자 지하주차장 1층",
    "address": "전북특별자치도 순창군 순창읍 장류로 347 (신안프라자)",
    "lat": 35.37680949529875,
    "lng": 127.14033870712812,
    "region": "전북특별자치도"
  },
  {
    "name": "옥천인재숙 지하 1층",
    "address": "전북특별자치도 순창군 순창읍 옥천로 145-8 (옥천인재숙)",
    "lat": 35.385711330293915,
    "lng": 127.14027260984652,
    "region": "전북특별자치도"
  },
  {
    "name": "광명메이루즈아파트 지하주차장 1층",
    "address": "전북특별자치도 순창군 순창읍 장류로 422 (광명메이루즈아파트)",
    "lat": 35.37542361135129,
    "lng": 127.14856486505144,
    "region": "전북특별자치도"
  },
  {
    "name": "온리뷰 1차 아파트 지하주차장 1층",
    "address": "전북특별자치도 순창군 순창읍 금산로 22(온리뷰아파트)",
    "lat": 35.37825730207126,
    "lng": 127.13467488954107,
    "region": "전북특별자치도"
  },
  {
    "name": "온리뷰 2차 아파트 지하주차장 1층",
    "address": "전북특별자치도 순창군 순창읍 금산로 34(온리뷰 2차아파트)",
    "lat": 35.378958036987775,
    "lng": 127.1339437646217,
    "region": "전북특별자치도"
  },
  {
    "name": "KT남원순창지사 지하 1층",
    "address": "전북특별자치도 순창군 순창읍 순창로 208",
    "lat": 35.373601515212464,
    "lng": 127.14277716969552,
    "region": "전북특별자치도"
  },
  {
    "name": "미르채아파트 지하주차장1층",
    "address": "전북특별자치도 순창군 순창읍 장류로 420-9 (미르채아파트)",
    "lat": 35.37469369728282,
    "lng": 127.14837536824072,
    "region": "전북특별자치도"
  },
  {
    "name": "남양휴튼아파트 지하주차장1층",
    "address": "전북특별자치도 순창군 순창읍 교성로 55 (순창 남양휴튼 아파트)",
    "lat": 35.371546510876435,
    "lng": 127.13814927767186,
    "region": "전북특별자치도"
  },
  {
    "name": "고창성북교회 지하 1층",
    "address": "전북특별자치도 고창군 고창읍 중앙로 273, 고창성북교회",
    "lat": 35.43508721128396,
    "lng": 126.70540967981906,
    "region": "전북특별자치도"
  },
  {
    "name": "고창중앙교회 지하 1층",
    "address": "전북특별자치도 고창군 고창읍 고인돌대로 1792, 고창중앙교회",
    "lat": 35.43975455052416,
    "lng": 126.69282229623894,
    "region": "전북특별자치도"
  },
  {
    "name": "고창군청 지하1층",
    "address": "전북특별자치도 고창군 고창읍 중앙로 245, 고창군청",
    "lat": 35.435179787355786,
    "lng": 126.70214919155828,
    "region": "전북특별자치도"
  },
  {
    "name": "고창종합병원 본관 지하 1층",
    "address": "전북특별자치도 고창군 고창읍 화신1길 9",
    "lat": 35.43618324686908,
    "lng": 126.69335661679148,
    "region": "전북특별자치도"
  },
  {
    "name": "온천마을제일아파트 102동 앞 지하주차장 1층",
    "address": "전북특별자치도 고창군 고창읍 월곡로 83 (온천마을제일아파트)",
    "lat": 35.439084502848104,
    "lng": 126.71167411478032,
    "region": "전북특별자치도"
  },
  {
    "name": "월곡주공아파트 102동 앞 지하 주차장 1층",
    "address": "전북특별자치도 고창군 고창읍 월곡1길 43 (월곡주공아파트)",
    "lat": 35.4384966132592,
    "lng": 126.7099945293348,
    "region": "전북특별자치도"
  },
  {
    "name": "청소년수련관 지하 1층 수영장",
    "address": "전북특별자치도 고창군 고창읍 운동장길 36",
    "lat": 35.43254268650454,
    "lng": 126.723810885867,
    "region": "전북특별자치도"
  },
  {
    "name": "성산현대아파트 전체 동의 지하 1층~3층",
    "address": "전북특별자치도 고창군 고창읍 보릿골로 195 (성산 현대아파트)",
    "lat": 35.44264246251932,
    "lng": 126.694557133413,
    "region": "전북특별자치도"
  },
  {
    "name": "상원모양맨션아파트 지하 주차장 1층",
    "address": "전북특별자치도 고창군 고창읍 중거리당산로 108 (상원모양맨션)",
    "lat": 35.42912887212452,
    "lng": 126.69914456590324,
    "region": "전북특별자치도"
  },
  {
    "name": "성산아파트 101동 지하주차장 1층~2층",
    "address": "전북특별자치도 고창군 고창읍 동리로 172-14 (성산아파트)",
    "lat": 35.43043937662572,
    "lng": 126.70958311633488,
    "region": "전북특별자치도"
  },
  {
    "name": "진흥하이츠2차 아파트 지하주차장 1층",
    "address": "전북특별자치도 고창군 고창읍 모양성로 108 (진흥하이츠 2차 아파트)",
    "lat": 35.44092973865357,
    "lng": 126.6989503917286,
    "region": "전북특별자치도"
  },
  {
    "name": "고창읍내휴먼시아아파트 102동 앞 지하주차장 1층",
    "address": "전북특별자치도 고창군 고창읍 성산로 19 (고창읍내휴먼시아)",
    "lat": 35.43862085892468,
    "lng": 126.69464256038124,
    "region": "전북특별자치도"
  },
  {
    "name": "아르미안아파트 지하주차장 1층",
    "address": "전북특별자치도 고창군 고창읍 천변남로 12 (아르미안아파트)",
    "lat": 35.4340979642465,
    "lng": 126.69349905733353,
    "region": "전북특별자치도"
  },
  {
    "name": "선운프라자아파트 전체 동의 지하주차장 1층",
    "address": "전북특별자치도 고창군 고창읍 보릿골로 191 (선운프라자)",
    "lat": 35.442347268453496,
    "lng": 126.69516499300306,
    "region": "전북특별자치도"
  },
  {
    "name": "고창신용협동조합 지하주차장 1층",
    "address": "전북특별자치도 고창군 고창읍 동리로 46, 신협",
    "lat": 35.43304077957037,
    "lng": 126.69724579070063,
    "region": "전북특별자치도"
  },
  {
    "name": "고창부안축협 본점 지하주차장 1층",
    "address": "전북특별자치도 고창군 고창읍 중앙로 214",
    "lat": 35.435033150382345,
    "lng": 126.69884818075666,
    "region": "전북특별자치도"
  },
  {
    "name": "유정요양병원 지하 1층",
    "address": "전북특별자치도 고창군 고창읍 보릿골로 8",
    "lat": 35.42602809120036,
    "lng": 126.69468586538896,
    "region": "전북특별자치도"
  },
  {
    "name": "다솜가연립주택 지하주차장 1층",
    "address": "전북특별자치도 고창군 고창읍 소반2길 15 (다솜가 연립주택)",
    "lat": 35.43898526964605,
    "lng": 126.69743547241588,
    "region": "전북특별자치도"
  },
  {
    "name": "아로마아파트 지하주차장 1층",
    "address": "전북특별자치도 고창군 고창읍 교촌2길 20 (구산아로마아파트)",
    "lat": 35.43653709743916,
    "lng": 126.70671972336773,
    "region": "전북특별자치도"
  },
  {
    "name": "봉덕주공2차아파트",
    "address": "전북특별자치도 부안군 부안읍 석정로 286 (봉덕주공2단지)",
    "lat": 35.720084505485694,
    "lng": 126.737282402134,
    "region": "전북특별자치도"
  },
  {
    "name": "서외주공3차아파트",
    "address": "전북특별자치도 부안군 부안읍 부풍로 122 (부안서외주공아파트)",
    "lat": 35.720361956759646,
    "lng": 126.7308399331722,
    "region": "전북특별자치도"
  },
  {
    "name": "진성아파트",
    "address": "전북특별자치도 부안군 부안읍 진성길 11(부안진성아파트)",
    "lat": 35.72446466830322,
    "lng": 126.73851227895594,
    "region": "전북특별자치도"
  },
  {
    "name": "동원아파트",
    "address": "전북특별자치도 부안군 부안읍 학동길 11-6(동원맨션)",
    "lat": 35.72450262959632,
    "lng": 126.73928476927335,
    "region": "전북특별자치도"
  },
  {
    "name": "봉덕주공1차아파트",
    "address": "전북특별자치도 부안군 부안읍 학동길 4(봉덕주공아파트)",
    "lat": 35.72362457347195,
    "lng": 126.73998191308962,
    "region": "전북특별자치도"
  },
  {
    "name": "부안예술회관",
    "address": "전북특별자치도 부안군 부안읍 예술회관길 11, 부안예술회관",
    "lat": 35.72423475739144,
    "lng": 126.72597449440512,
    "region": "전북특별자치도"
  },
  {
    "name": "대림낭주골아파트",
    "address": "전북특별자치도 부안군 부안읍 낭주길 5(대림낭주골아파트)",
    "lat": 35.72918159656939,
    "lng": 126.73790264861589,
    "region": "전북특별자치도"
  },
  {
    "name": "상원아파트",
    "address": "전북특별자치도 부안군 부안읍 상원길 19(상원아파트)",
    "lat": 35.730536438831315,
    "lng": 126.73906021312082,
    "region": "전북특별자치도"
  },
  {
    "name": "하이안아파트 지하1층",
    "address": "전북특별자치도 부안군 부안읍 오리정로 172(하이안아파트)",
    "lat": 35.72265272313803,
    "lng": 126.740933701581,
    "region": "전북특별자치도"
  },
  {
    "name": "부안군청지하주차장 1,2층",
    "address": "전북특별자치도 부안군 부안읍 당산로 91, 부안군청",
    "lat": 35.731688699225685,
    "lng": 126.7332672576468,
    "region": "전북특별자치도"
  },
  {
    "name": "변산송림아파트 지하1층",
    "address": "전북특별자치도 부안군 변산면 지서로 80(변산송림아파트)",
    "lat": 35.66439579689382,
    "lng": 126.52812578527084,
    "region": "전북특별자치도"
  },
  {
    "name": "소노벨 변산 지하1층",
    "address": "전북특별자치도 부안군 변산면 변산해변로 51, 소노벨 변산",
    "lat": 35.63184440047542,
    "lng": 126.47059204353518,
    "region": "전북특별자치도"
  },
  {
    "name": "변산양우아파트",
    "address": "전북특별자치도 부안군 변산면 격포윗길 20(양우아파트)",
    "lat": 35.62502221961724,
    "lng": 126.4741042690921,
    "region": "전북특별자치도"
  },
  {
    "name": "미소가애주공4차아파트 지하1층",
    "address": "전북특별자치도 부안군 부안읍 석정로 262(미소가애)",
    "lat": 35.722240346626286,
    "lng": 126.73721787288756,
    "region": "전북특별자치도"
  },
  {
    "name": "라온프라이빗 지하1층",
    "address": "전북특별자치도 부안군 부안읍 쟁갈길 19(라온프라이빗아파트)",
    "lat": 35.72061705252086,
    "lng": 126.74175721441756,
    "region": "전북특별자치도"
  },
  {
    "name": "오투1차 지하1층",
    "address": "전북특별자치도 부안군 부안읍 오리정로 162-58(부안봉덕오투그란데)",
    "lat": 35.72117953553133,
    "lng": 126.74088477005344,
    "region": "전북특별자치도"
  },
  {
    "name": "오투2차 지하 1층",
    "address": "전북특별자치도 부안군 부안읍 번영로 63-10",
    "lat": 35.727532911435546,
    "lng": 126.72808875693998,
    "region": "전북특별자치도"
  },
  {
    "name": "현대아파트 지하1층",
    "address": "전북특별자치도 부안군 부안읍 봉신길 19(부안현대아파트)",
    "lat": 35.72036164885088,
    "lng": 126.73375194946289,
    "region": "전북특별자치도"
  }
]