[
  {
    "name": "신성미소지움아파트 지하주차장 1~2층",
    "address": "충청남도 천안시 동남구 천안대로 483-8(구성동, 신성미소지움아파트)",
    "lat": 36.79136929466019,
    "lng": 127.16397847894714,
    "region": "충청남도"
  },
  {
    "name": "파고다아파트 지하주차장 지하1~2층",
    "address": "충청남도 천안시 동남구 큰시장길 37 (영성동, 파고다주상복합아파트)",
    "lat": 36.8022562589493,
    "lng": 127.15096744806,
    "region": "충청남도"
  },
  {
    "name": "교보생명 지하주차장 1층",
    "address": "충청남도 천안시 동남구 충절로 138 (원성동, 교보생명)",
    "lat": 36.80663137766115,
    "lng": 127.15849543675444,
    "region": "충청남도"
  },
  {
    "name": "초원라이프아파트 지하주차장 1층",
    "address": "충청남도 천안시 동남구 원성5길 17 (원성동, 초원라이프타운)",
    "lat": 36.80797060600546,
    "lng": 127.16253314459672,
    "region": "충청남도"
  },
  {
    "name": "청수현대아파트 지하주차장 1~2층",
    "address": "충청남도 천안시 동남구 풍세로 1010-31(청수동, 청수현대아파트)",
    "lat": 36.79761649000054,
    "lng": 127.15500329231487,
    "region": "충청남도"
  },
  {
    "name": "두레현대1단지아파트 지하주차장 1층",
    "address": "충청남도 천안시 동남구 일봉로 34 (신방동, 두레현대아파트)",
    "lat": 36.793259409323895,
    "lng": 127.13220879685451,
    "region": "충청남도"
  },
  {
    "name": "두레현대2단지아파트 지하주차장 1층",
    "address": "충청남도 천안시 동남구 서부대로 252 (신방동, 신방동두레현대아파트2단지)",
    "lat": 36.79071787138378,
    "lng": 127.1292423199687,
    "region": "충청남도"
  },
  {
    "name": "신동아아파트 지하주차장 1~2층",
    "address": "충청남도 천안시 동남구 새말4길 5 (신방동, 신동아아파트)",
    "lat": 36.79394057147056,
    "lng": 127.13232553871664,
    "region": "충청남도"
  },
  {
    "name": "대흥동지하상가 지하 1~2층",
    "address": "충청남도 천안시 동남구 버들로 지하 2 (대흥동, 지하상가)",
    "lat": 36.80932167569608,
    "lng": 127.14815171047196,
    "region": "충청남도"
  },
  {
    "name": "천안CGV 지하주차장 1층",
    "address": "충청남도 천안시 동남구 명동길 47 (대흥동, CGV)",
    "lat": 36.80746732602374,
    "lng": 127.14857503193062,
    "region": "충청남도"
  },
  {
    "name": "천안동부새마을금고 지하주차장 2층",
    "address": "충청남도 천안시 동남구 충절로 196 (원성동, 천안동부새마을금고)",
    "lat": 36.80147097572492,
    "lng": 127.15884418991013,
    "region": "충청남도"
  },
  {
    "name": "청솔엘지에스케이아파트 지하주차장 1~2층",
    "address": "충청남도 천안시 동남구 청수로 98 (청수동, 청솔LG아파트)",
    "lat": 36.79157688198493,
    "lng": 127.15634407711624,
    "region": "충청남도"
  },
  {
    "name": "대림한들아파트 지하주차장 1층",
    "address": "충청남도 천안시 동남구 터미널9길 59 (신부동, 대림한들아파트)",
    "lat": 36.82309792965348,
    "lng": 127.15911734364464,
    "region": "충청남도"
  },
  {
    "name": "부영1단지아파트 지하주차장 1층",
    "address": "충청남도 천안시 동남구 목천읍 삼성5길 42(부영아파트)",
    "lat": 36.76012474755935,
    "lng": 127.17692420944664,
    "region": "충청남도"
  },
  {
    "name": "부영2단지아파트 지하주차장 1층",
    "address": "충청남도 천안시 동남구 목천읍 삼성5길 41(원앙마을 부영아파트)",
    "lat": 36.76062530110461,
    "lng": 127.17685601295145,
    "region": "충청남도"
  },
  {
    "name": "봉명청솔3차아파트 지하주차장 1층~2층(307동 제외)",
    "address": "충청남도 천안시 동남구 봉서8길 13 (봉명동, 청솔3차아파트)",
    "lat": 36.81009212914317,
    "lng": 127.13250048183956,
    "region": "충청남도"
  },
  {
    "name": "초원그린아파트 지하주차장 1층",
    "address": "충청남도 천안시 동남구 신촌4로 16 (신방동, 초원아파트)",
    "lat": 36.78736312242686,
    "lng": 127.12842736377254,
    "region": "충청남도"
  },
  {
    "name": "한라동백2차아파트 지하주차장 1층",
    "address": "충청남도 천안시 동남구 서부대로 226-12 (신방동, 한라동백2차아파트)",
    "lat": 36.78813256272196,
    "lng": 127.12998393817293,
    "region": "충청남도"
  },
  {
    "name": "향촌현대아파트 지하주차장 1~2층",
    "address": "충청남도 천안시 동남구 서부대로 226-11 (신방동, 향촌현대아파트)",
    "lat": 36.78850834029208,
    "lng": 127.12998599913,
    "region": "충청남도"
  },
  {
    "name": "성지새말1단지아파트 지하주차장 1층",
    "address": "충청남도 천안시 동남구 일봉로 17 (신방동, 성지새말아파트)",
    "lat": 36.79369572944388,
    "lng": 127.13039554862613,
    "region": "충청남도"
  },
  {
    "name": "성지새말2단지아파트 지하주차장 1층",
    "address": "충청남도 천안시 동남구 일봉로 20 (신방동, 성지새말아파트)",
    "lat": 36.793368563646894,
    "lng": 127.13059720132298,
    "region": "충청남도"
  },
  {
    "name": "신도브래뉴2차아파트 지하주차장 1층",
    "address": "충청남도 천안시 동남구 목천읍 목천안터2길 19(신도브래뉴2차아파트)",
    "lat": 36.7763865375745,
    "lng": 127.21115805999504,
    "region": "충청남도"
  },
  {
    "name": "원성극동아파트 지하주차장 1~2층",
    "address": "충청남도 천안시 동남구 충절로 190 (원성동, 원성극동아파트)",
    "lat": 36.80186136591029,
    "lng": 127.1588477011414,
    "region": "충청남도"
  },
  {
    "name": "우성VIP아파트 지하주차장 1층",
    "address": "충청남도 천안시 동남구 충무로 455-3 (원성동, 우성VIP아파트)",
    "lat": 36.79885598678042,
    "lng": 127.15576402271078,
    "region": "충청남도"
  },
  {
    "name": "충남근로자복지회관 지하주차장 1층",
    "address": "충청남도 천안시 동남구 충무로 457 (원성동, 충청남도근로자복지회관)",
    "lat": 36.798737634069056,
    "lng": 127.15607672653836,
    "region": "충청남도"
  },
  {
    "name": "광성장여관 지하주차장 2층",
    "address": "충청남도 천안시 동남구 고재3길 20 (원성동, 광성장)",
    "lat": 36.80603691212524,
    "lng": 127.16122128923048,
    "region": "충청남도"
  },
  {
    "name": "정원맨숀 지하주차장 1층",
    "address": "충청남도 천안시 동남구 고재5길 50 (원성동, 정원맨숀)",
    "lat": 36.80573198718167,
    "lng": 127.16278369430177,
    "region": "충청남도"
  },
  {
    "name": "동일하이빌1단지아파트 제1,4,5 지하주차장 1~2층",
    "address": "충청남도 천안시 동남구 일봉로 71 (용곡동, 동일하이빌1단지아파트)",
    "lat": 36.79218333648509,
    "lng": 127.13592672321552,
    "region": "충청남도"
  },
  {
    "name": "청당벽산블루밍아파트 지하주차장 1~2층",
    "address": "충청남도 천안시 동남구 청당2길 118 (청당동, 청당벽산블루밍아파트)",
    "lat": 36.77970580070683,
    "lng": 127.156165526604,
    "region": "충청남도"
  },
  {
    "name": "농협은행 대흥동지점 앞 지하상가주차장(지하1층)",
    "address": "충청남도 천안시 동남구 영성로 103 (문화동)",
    "lat": 36.80745430206417,
    "lng": 127.14979425088416,
    "region": "충청남도"
  },
  {
    "name": "방죽안휴먼시아아파트 지하주차장 1층",
    "address": "충청남도 천안시 동남구 천안천8길 45 (신부동, 방죽안휴먼시아아파트)",
    "lat": 36.82173482116311,
    "lng": 127.15573107247532,
    "region": "충청남도"
  },
  {
    "name": "포스코더샵오피스텔 지하주차장 1층 ~ 6층",
    "address": "충청남도 천안시 동남구 만남로 9 (신부동, 더샵오피스텔)",
    "lat": 36.81895164647207,
    "lng": 127.15238894197007,
    "region": "충청남도"
  },
  {
    "name": "다가동 한화꿈에그린아파트 지하주차장 1층",
    "address": "충청남도 천안시 동남구 다가말2길 54 (다가동, 한화꿈에그린아파트)",
    "lat": 36.79782179420957,
    "lng": 127.13781696353712,
    "region": "충청남도"
  },
  {
    "name": "용곡마을세광2차엔리치타워아파트 지하주차장 1~2층",
    "address": "충청남도 천안시 동남구 풍세로 769-28 (용곡동)",
    "lat": 36.78048412988184,
    "lng": 127.13847237980508,
    "region": "충청남도"
  },
  {
    "name": "북면 중앙아파트 지하주차장 1~2층",
    "address": "충청남도 천안시 동남구 북면 충절로 1456(중앙아파트)",
    "lat": 36.77019356516692,
    "lng": 127.26906414346485,
    "region": "충청남도"
  },
  {
    "name": "신세계아파트지하주차장1층",
    "address": "충청남도 천안시 동남구 병천면 병천2로 86(신세계아파트)",
    "lat": 36.76755275770034,
    "lng": 127.30527935403792,
    "region": "충청남도"
  },
  {
    "name": "아우내아파트지하주차장1층",
    "address": "충청남도 천안시 동남구 병천면 아우내장터1길 7(아우내아파트)",
    "lat": 36.76055627907922,
    "lng": 127.2952938148222,
    "region": "충청남도"
  },
  {
    "name": "레이크팰리스아파트101동 지하주차장2층",
    "address": "충청남도 천안시 동남구 병천면 충절로 1896",
    "lat": 36.764588202470655,
    "lng": 127.31663629389568,
    "region": "충청남도"
  },
  {
    "name": "천안예술의전당 지하주차장 1~2층",
    "address": "충청남도 천안시 동남구 성남면 종합휴양지로 185, 천안예술의전당",
    "lat": 36.75621086546284,
    "lng": 127.22584266827604,
    "region": "충청남도"
  },
  {
    "name": "고운여의주아파트 지하주차장 1층 ~ 2층",
    "address": "충청남도 천안시 동남구 안서1길 5-16(안서동, 고운여의주아파트)",
    "lat": 36.83029628621591,
    "lng": 127.1777975424552,
    "region": "충청남도"
  },
  {
    "name": "동남구 행정복합타운 지하주차장(지하2~3층)",
    "address": "충청남도 천안시 동남구 옛시청길 39, 동남구 행정복합타운 (문화동)",
    "lat": 36.80652212683484,
    "lng": 127.15143821205253,
    "region": "충청남도"
  },
  {
    "name": "행정타운 두산위브더파크 지하주차장 1층",
    "address": "충청남도 천안시 동남구 청당3길 147 (청당동, 행정타운 두산위브더파크)",
    "lat": 36.7783161844748,
    "lng": 127.160041975039,
    "region": "충청남도"
  },
  {
    "name": "천안한양수자인에코시티 지하주차장 1~2층",
    "address": "충청남도 천안시 동남구 풍세면 풍세산단로 290 (천안 한양수자인 에코시티)",
    "lat": 36.7255303392086,
    "lng": 127.105775280114,
    "region": "충청남도"
  },
  {
    "name": "성정빌딩 지하주차장 1층",
    "address": "충청남도 천안시 서북구 서부4길 41(성정동)",
    "lat": 36.822122858842725,
    "lng": 127.14144124934484,
    "region": "충청남도"
  },
  {
    "name": "우리은행 천안중앙금융센터 지하주차장 1층",
    "address": "충청남도 천안시 서북구 쌍용대로 251, 우리은행 (성정동)",
    "lat": 36.81985116058566,
    "lng": 127.13570453414928,
    "region": "충청남도"
  },
  {
    "name": "대우타워아파트 전체동 지하주차장 1층",
    "address": "충청남도 천안시 서북구 미라15길 24(쌍용동, 대우타워아파트)",
    "lat": 36.80684677120728,
    "lng": 127.13146583061582,
    "region": "충청남도"
  },
  {
    "name": "선경해누리아파트 지하주차장 1층",
    "address": "충청남도 천안시 서북구 충무로 158-10(쌍용동, 선경해누리아파트)",
    "lat": 36.792865084423326,
    "lng": 127.12541603054338,
    "region": "충청남도"
  },
  {
    "name": "광명아파트 전체동 지하주차장 1~2층",
    "address": "충청남도 천안시 서북구 미라2길 19(쌍용동, 광명아파트)",
    "lat": 36.80124735292712,
    "lng": 127.12916296857829,
    "region": "충청남도"
  },
  {
    "name": "삼풍아파트 지하주차장 1층",
    "address": "충청남도 천안시 서북구 성환읍 성환2로 56(삼풍아파트)",
    "lat": 36.91241279135477,
    "lng": 127.13087888975932,
    "region": "충청남도"
  },
  {
    "name": "쌍용현대3차아파트 전체동 지하주차장 1층",
    "address": "충청남도 천안시 서북구 충무로 208(쌍용동, 쌍용현대3차아파트)",
    "lat": 36.79632022356207,
    "lng": 127.12932413804872,
    "region": "충청남도"
  },
  {
    "name": "일성2차버들아파트 지하주차장 1층",
    "address": "충청남도 천안시 서북구 봉서8길 6(쌍용동, 일성2차버들아파트)",
    "lat": 36.81003502616284,
    "lng": 127.13172872223744,
    "region": "충청남도"
  },
  {
    "name": "상록수현대4차아파트 지하주차장 1층",
    "address": "충청남도 천안시 서북구 쌍용17길 52(쌍용동, 현대4차아파트)",
    "lat": 36.79593939861417,
    "lng": 127.12249132529952,
    "region": "충청남도"
  },
  {
    "name": "계룡푸른마을아파트 지하주차장 1층",
    "address": "충청남도 천안시 서북구 충무로 143-8(쌍용동, 계룡푸른마을아파트)",
    "lat": 36.79368725662512,
    "lng": 127.12291428187572,
    "region": "충청남도"
  },
  {
    "name": "월봉대우아파트 지하주차장 1층",
    "address": "충청남도 천안시 서북구 월봉4로 88-11(쌍용동, 월봉대우아파트)",
    "lat": 36.79485483041209,
    "lng": 127.1158141085197,
    "region": "충청남도"
  },
  {
    "name": "현대한솔아파트 지하주차장 1층",
    "address": "충청남도 천안시 서북구 성환읍 성월2길 16(현대한솔아파트)",
    "lat": 36.91809269076354,
    "lng": 127.13649054114155,
    "region": "충청남도"
  },
  {
    "name": "월봉벽산태영아파트 지하주차장 1층",
    "address": "충청남도 천안시 서북구 월봉4로 140-16(쌍용동, 월봉벽산태영아파트)",
    "lat": 36.799179229058005,
    "lng": 127.11667003759408,
    "region": "충청남도"
  },
  {
    "name": "월봉현대아파트 지하주차장 1층",
    "address": "충청남도 천안시 서북구 월봉4로 91(쌍용동, 월봉현대아파트)",
    "lat": 36.79537487862727,
    "lng": 127.11441731197247,
    "region": "충청남도"
  },
  {
    "name": "주공8단지아파트 지하주차장 1층",
    "address": "충청남도 천안시 서북구 봉정로 381(두정동, 주공아파트)",
    "lat": 36.83608305927332,
    "lng": 127.14509354998351,
    "region": "충청남도"
  },
  {
    "name": "성환부영2차아파트 지하주차장 1층",
    "address": "충청남도 천안시 서북구 성환읍 천안대로 1853(부영아파트)",
    "lat": 36.90390403961364,
    "lng": 127.13555590379768,
    "region": "충청남도"
  },
  {
    "name": "성거백승아파트 지하주차장 1층",
    "address": "충청남도 천안시 서북구 성거읍 천흥4길 6(성거백승아파트)",
    "lat": 36.87387739482911,
    "lng": 127.20219185844948,
    "region": "충청남도"
  },
  {
    "name": "선경아파트 지하주차장 1층",
    "address": "충청남도 천안시 서북구 도원2길 39(성정동, 선경아파트)",
    "lat": 36.82218018299557,
    "lng": 127.13446380150866,
    "region": "충청남도"
  },
  {
    "name": "화승아파트 지하주차장 1층",
    "address": "충청남도 천안시 서북구 서부4길 34(성정동, 화승아파트)",
    "lat": 36.82150549464509,
    "lng": 127.1414656659758,
    "region": "충청남도"
  },
  {
    "name": "월봉일성아파트 지하주차장 1층",
    "address": "충청남도 천안시 서북구 월봉4로 120-16(쌍용동, 월봉일성아파트)",
    "lat": 36.797393548122685,
    "lng": 127.11659131695484,
    "region": "충청남도"
  },
  {
    "name": "월봉청솔2차아파트 지하주차장 1~4층",
    "address": "충청남도 천안시 서북구 월봉7길 77(쌍용동, 청솔2차아파트)",
    "lat": 36.79364303550547,
    "lng": 127.11748819311346,
    "region": "충청남도"
  },
  {
    "name": "라이프타운아파트 102동105동 사이 지하주차장 1층",
    "address": "충청남도 천안시 서북구 쌍용11길 33(쌍용동, 라이프타운아파트)",
    "lat": 36.80245675634603,
    "lng": 127.12248812965764,
    "region": "충청남도"
  },
  {
    "name": "주공9단지아파트 404동407동 사이 지하주차장 1층",
    "address": "충청남도 천안시 서북구 봉서산샛길 65(쌍용동, 주공9단지아파트)",
    "lat": 36.80479091925065,
    "lng": 127.12089691241788,
    "region": "충청남도"
  },
  {
    "name": "용암마을아파트 110동 앞 지하주차장 1층",
    "address": "충청남도 천안시 서북구 월봉로 131(쌍용동, 용암마을아파트)",
    "lat": 36.80247659461785,
    "lng": 127.11857681164028,
    "region": "충청남도"
  },
  {
    "name": "현대6차1단지아파트 지하주차장 1~2층",
    "address": "충청남도 천안시 서북구 충무로 124-24(쌍용동, 현대아이파크)",
    "lat": 36.79141791826087,
    "lng": 127.12369811915106,
    "region": "충청남도"
  },
  {
    "name": "직산부영아파트 지하주차장 1층",
    "address": "충청남도 천안시 서북구 직산읍 천안대로 1718(부영아파트)",
    "lat": 36.893077474525406,
    "lng": 127.13844941094992,
    "region": "충청남도"
  },
  {
    "name": "대우푸르지오3차아파트 지하주차장 1층",
    "address": "충청남도 천안시 서북구 성정두정로 142(두정동, 대우푸르지오3차아파트)",
    "lat": 36.83826670112173,
    "lng": 127.14233318235212,
    "region": "충청남도"
  },
  {
    "name": "두정우남아파트 지하주차장 1층",
    "address": "충청남도 천안시 서북구 두정역서5길 11(두정동, 우남아파트)",
    "lat": 36.83787695050932,
    "lng": 127.14694084764052,
    "region": "충청남도"
  },
  {
    "name": "후생빌딩 지하주차장 1층",
    "address": "충청남도 천안시 서북구 성정로 82, 후생빌딩 (성정동)",
    "lat": 36.81364644111806,
    "lng": 127.13918571108088,
    "region": "충청남도"
  },
  {
    "name": "대우성촌프라자아파트 지하주차장 1층",
    "address": "충청남도 천안시 서북구 성정15길 6(성정동, 대우성촌프라자아파트)",
    "lat": 36.81778393075767,
    "lng": 127.13845661777212,
    "region": "충청남도"
  },
  {
    "name": "신동아파밀리에아파트 지하주차장 1층",
    "address": "충청남도 천안시 서북구 천안천4길 18-10(와촌동, 신동아파밀리에아파트)",
    "lat": 36.808108158387,
    "lng": 127.14411817087404,
    "region": "충청남도"
  },
  {
    "name": "현대6차2단지아파트 지하주차장 1~2층",
    "address": "충청남도 천안시 서북구 충무로 124-25(쌍용동, 현대아이파크홈타운)",
    "lat": 36.79171307785512,
    "lng": 127.1239233277364,
    "region": "충청남도"
  },
  {
    "name": "주공그린빌11단지3차아파트 지하주차장 1층",
    "address": "충청남도 천안시 서북구 백석3로 70(백석동, 주공그린빌11단지3차아파트)",
    "lat": 36.8210457635445,
    "lng": 127.11913356831636,
    "region": "충청남도"
  },
  {
    "name": "벽산블루밍1차아파트 지하주차장 1~2층",
    "address": "충청남도 천안시 서북구 번영로 278-12(백석동, 벽산블루밍1차아파트)",
    "lat": 36.82538415502729,
    "lng": 127.11404125249857,
    "region": "충청남도"
  },
  {
    "name": "성환이편한세상아파트 지하주차장 1~2층",
    "address": "충청남도 천안시 서북구 성환읍 성환1로 54-45(천안성환e편한세상아파트)",
    "lat": 36.90233373650591,
    "lng": 127.13188023827398,
    "region": "충청남도"
  },
  {
    "name": "쌍용동일하이빌아파트 지하주차장 1~3층",
    "address": "충청남도 천안시 서북구 충무로 5-16(쌍용동, 쌍용동일하이빌아파트)",
    "lat": 36.78593122800161,
    "lng": 127.11347344489933,
    "region": "충청남도"
  },
  {
    "name": "쌍용역푸르지오아파트 지하주차장 1층",
    "address": "충청남도 천안시 서북구 충무로 93(쌍용동, 쌍용역푸르지오)",
    "lat": 36.790905199898525,
    "lng": 127.11916380443104,
    "region": "충청남도"
  },
  {
    "name": "성거벽산아파트 지하주차장 1층 , 3곳",
    "address": "충청남도 천안시 서북구 성거읍 봉주로 107-6(성거벽산아파트)",
    "lat": 36.87821340557139,
    "lng": 127.15844212896118,
    "region": "충청남도"
  },
  {
    "name": "삼환나우빌아파트 지하주차장1층(중앙,105동,109동)",
    "address": "충청남도 천안시 서북구 성거읍 봉주로 120(삼환나우빌아파트)",
    "lat": 36.8775226293994,
    "lng": 127.1597118729978,
    "region": "충청남도"
  },
  {
    "name": "두정이편한세상아파트 지하주차장 1층",
    "address": "충청남도 천안시 서북구 두정중2길 12(두정동, 두정e-편한세상아파트)",
    "lat": 36.83469157593512,
    "lng": 127.14039576407544,
    "region": "충청남도"
  },
  {
    "name": "두정한성3차필하우스아파트 지하주차장 1층",
    "address": "충청남도 천안시 서북구 봉정로 366(두정동, 한성3차필하우스아파트)",
    "lat": 36.8345546877505,
    "lng": 127.1459571984094,
    "region": "충청남도"
  },
  {
    "name": "경남아너스빌아파트 지하주차장 1~2층",
    "address": "충청남도 천안시 서북구 두정중11길 17(두정동, 경남아너스빌아파트)",
    "lat": 36.83799458508832,
    "lng": 127.14011804273667,
    "region": "충청남도"
  },
  {
    "name": "두정역푸르지오아파트 지하주차장 1~2층",
    "address": "충청남도 천안시 서북구 두정역길 48(두정동, 두정역푸르지오아파트)",
    "lat": 36.83498858585531,
    "lng": 127.15071409158594,
    "region": "충청남도"
  },
  {
    "name": "신당코아루아파트 지하주차장 1층",
    "address": "충청남도 천안시 서북구 신당새터2길 55(신당동, 코아루아파트)",
    "lat": 36.853126878850766,
    "lng": 127.15968250708752,
    "region": "충청남도"
  },
  {
    "name": "백석계룡리슈빌아파트 지하주차장 1층",
    "address": "충청남도 천안시 서북구 한들3로 107(백석동, 백석계룡리슈빌아파트)",
    "lat": 36.83286681886726,
    "lng": 127.12337147212592,
    "region": "충청남도"
  },
  {
    "name": "충남타워 지하주차장 1층~3층",
    "address": "충청남도 천안시 서북구 동서대로 163, 충남타워 (성정동)",
    "lat": 36.82595192409753,
    "lng": 127.14135951933638,
    "region": "충청남도"
  },
  {
    "name": "직산코아루아파트 지하주차장 1층",
    "address": "충청남도 천안시 서북구 직산읍 삼은3길 34(코아루아파트)",
    "lat": 36.87880723276444,
    "lng": 127.1532118731702,
    "region": "충청남도"
  },
  {
    "name": "직산세광엔리치빌1차2단지아파트 지하주차장 1층",
    "address": "충청남도 천안시 서북구 직산읍 삼은4길 18-23(직산세광엔리치빌2차아파트)",
    "lat": 36.880346934501766,
    "lng": 127.15079635579768,
    "region": "충청남도"
  },
  {
    "name": "직산세광엔리치빌1차1단지아파트 지하주차장 1층",
    "address": "충청남도 천안시 서북구 직산읍 삼은5길 12-12(직산세광엔리치빌1차아파트)",
    "lat": 36.87941664834728,
    "lng": 127.15258437080152,
    "region": "충청남도"
  },
  {
    "name": "한성필하우스2차아파트 지하주차장 1층",
    "address": "충청남도 천안시 서북구 두정고8길 24(두정동, 한성필하우스)",
    "lat": 36.83760265968267,
    "lng": 127.13352742003644,
    "region": "충청남도"
  },
  {
    "name": "계룡리슈빌아파트 지하주차장 1층",
    "address": "충청남도 천안시 서북구 부성8길 29(두정동, 계룡리슈빌아파트)",
    "lat": 36.83798077551495,
    "lng": 127.1369849568093,
    "region": "충청남도"
  },
  {
    "name": "한성필하우스1차 지하주차장 1층",
    "address": "충청남도 천안시 서북구 부성6길 11(두정동, 한성아파트)",
    "lat": 36.83585026218565,
    "lng": 127.1349062432571,
    "region": "충청남도"
  },
  {
    "name": "세광엔리치빌3단지아파트 지하주차장 1층",
    "address": "충청남도 천안시 서북구 늘푸른1길 29(두정동, 세광3차아파트)",
    "lat": 36.82796542527993,
    "lng": 127.12927840958476,
    "region": "충청남도"
  },
  {
    "name": "서해그랑블아파트 지하주차장 1층",
    "address": "충청남도 천안시 서북구 늘푸른1길 32(두정동, 서해그랑블아파트)",
    "lat": 36.828267303506536,
    "lng": 127.12951285923889,
    "region": "충청남도"
  },
  {
    "name": "극동늘푸른아파트 지하주차장 1층",
    "address": "충청남도 천안시 서북구 늘푸른6길 42(두정동, 극동늘푸른아파트)",
    "lat": 36.82872021380005,
    "lng": 127.13197545595624,
    "region": "충청남도"
  },
  {
    "name": "부경파크빌아파트 지하주차장 1층~2층",
    "address": "충청남도 천안시 서북구 늘푸른1길 19(두정동, 부경아파트)",
    "lat": 36.8271277329878,
    "lng": 127.1292459004844,
    "region": "충청남도"
  },
  {
    "name": "대우푸르지오4차아파트 지하주차장 1층",
    "address": "충청남도 천안시 서북구 늘푸른1길 50(두정동, 대우푸르지오4차아파트)",
    "lat": 36.82981657707628,
    "lng": 127.129586518918,
    "region": "충청남도"
  },
  {
    "name": "우성아파트 지하주차장 1층",
    "address": "충청남도 천안시 서북구 두정고7길 36(두정동, 우성아파트)",
    "lat": 36.83694938119124,
    "lng": 127.13336100237062,
    "region": "충청남도"
  },
  {
    "name": "대주파크빌아파트 지하주차장 1층",
    "address": "충청남도 천안시 서북구 두정고7길 9(두정동, 대주파크빌)",
    "lat": 36.83666562318894,
    "lng": 127.13034610205524,
    "region": "충청남도"
  },
  {
    "name": "대우푸르지오5차아파트 지하주차장 1층",
    "address": "충청남도 천안시 서북구 두정고1길 9(두정동, 대우푸르지오5차아파트)",
    "lat": 36.834793208531366,
    "lng": 127.1294963794608,
    "region": "충청남도"
  },
  {
    "name": "e편한세상두정2차아파트 지하주차장 1층",
    "address": "충청남도 천안시 서북구 노태산로 145(두정동, e편한세상 두정2차)",
    "lat": 36.837021181534105,
    "lng": 127.1295617761717,
    "region": "충청남도"
  },
  {
    "name": "불당아이파크아파트 지하주차장 1~2층",
    "address": "충청남도 천안시 서북구 불당17길 14(불당동, 불당아이파크)",
    "lat": 36.80831826993764,
    "lng": 127.11055430771655,
    "region": "충청남도"
  },
  {
    "name": "불당동일하이빌아파트 지하주차장 1~2층",
    "address": "충청남도 천안시 서북구 시청로 73(불당동, 불당마을동일하이빌아파트)",
    "lat": 36.80840788977345,
    "lng": 127.11379245440214,
    "region": "충청남도"
  },
  {
    "name": "대동다숲아파트 지하주차장 1층",
    "address": "충청남도 천안시 서북구 시청로 39(불당동, 대동다숲아파트)",
    "lat": 36.80534300844922,
    "lng": 127.11283354004264,
    "region": "충청남도"
  },
  {
    "name": "불당한성필하우스아파트 지하주차장 1층",
    "address": "충청남도 천안시 서북구 불당11로 68(불당동, 한성아파트)",
    "lat": 36.80320293802365,
    "lng": 127.11364896500388,
    "region": "충청남도"
  },
  {
    "name": "대원칸타빌아파트 지하주차장 1~2층",
    "address": "충청남도 천안시 서북구 불당11로 82(불당동, 대원칸타빌아파트)",
    "lat": 36.80350469846385,
    "lng": 127.11516027071804,
    "region": "충청남도"
  },
  {
    "name": "불당호반리젠시빌아파트 지하주차장 1~2층",
    "address": "충청남도 천안시 서북구 봉서산로 85(불당동, 호반리젠시빌아파트)",
    "lat": 36.80550442719595,
    "lng": 127.11647528128822,
    "region": "충청남도"
  },
  {
    "name": "불당한화꿈에그린아파트 지하주차장 2~3층",
    "address": "충청남도 천안시 서북구 광장로 260(불당동, 불당한화꿈에그린아파트)",
    "lat": 36.80102546082514,
    "lng": 127.1126330465514,
    "region": "충청남도"
  },
  {
    "name": "천안시청 지하주차장 1층",
    "address": "충청남도 천안시 서북구 번영로 156, 천안시청 (불당동)",
    "lat": 36.8146005737976,
    "lng": 127.11240815953224,
    "region": "충청남도"
  },
  {
    "name": "천안축구센터 본관동 지하주차장 1층",
    "address": "충청남도 천안시 서북구 축구센터로 150, 천안축구센터 (성정동)",
    "lat": 36.82147823267557,
    "lng": 127.14489456677305,
    "region": "충청남도"
  },
  {
    "name": "e편한세상스마일시티아파트 지하주차장 1층",
    "address": "충청남도 천안시 서북구 스마일시티1로 55(차암동, e편한세상 스마일시티)",
    "lat": 36.84456895820675,
    "lng": 127.10477231877934,
    "region": "충청남도"
  },
  {
    "name": "백석2차아이파크아파트 지하주차장 2층",
    "address": "충청남도 천안시 서북구 한들3로 35-23(백석동, 천안백석2차아이파크)",
    "lat": 36.82636137585488,
    "lng": 127.12169585532752,
    "region": "충청남도"
  },
  {
    "name": "불당리더힐스아파트 전체동의 지하주차장 2층",
    "address": "충청남도 천안시 서북구 불당24로 10(불당동, 불당리더힐스)",
    "lat": 36.822853419398015,
    "lng": 127.1031117567826,
    "region": "충청남도"
  },
  {
    "name": "호반 베르디움 센트로 포레 지하주차장 1층",
    "address": "충청남도 천안시 서북구 불당23로 10(불당동, 호반 베르디움 센트로 포레)",
    "lat": 36.8190799397256,
    "lng": 127.10219751618786,
    "region": "충청남도"
  },
  {
    "name": "불당 중흥S클래스 프라디움레이크 지하주차장 3~5층",
    "address": "충청남도 천안시 서북구 공원로 120, 천안불당2차 중흥s클래스 프라디움레이크 (불당동)",
    "lat": 36.79438683837188,
    "lng": 127.09887700844156,
    "region": "충청남도"
  },
  {
    "name": "천안불당 호반써밋플레이스 지하주차장 2층",
    "address": "충청남도 천안시 서북구 불당21로 40(불당동, 천안불당 호반써밋플레이스)",
    "lat": 36.81325737959788,
    "lng": 127.10448852352734,
    "region": "충청남도"
  },
  {
    "name": "한성아파트 지하주차장 1층",
    "address": "충청남도 천안시 서북구 입장면 도림길 10(한성아파트)",
    "lat": 36.91420359510297,
    "lng": 127.245120866545,
    "region": "충청남도"
  },
  {
    "name": "연합아파트 지하주차장 1층",
    "address": "충청남도 천안시 서북구 입장면 성진로 718(연합아파트)",
    "lat": 36.91256880591059,
    "lng": 127.21056894455694,
    "region": "충청남도"
  },
  {
    "name": "e편한세상 두정3차 지하주차장 1~3층",
    "address": "충청남도 천안시 서북구 북일로 21 (두정동, e편한세상 두정3차)",
    "lat": 36.83172508940362,
    "lng": 127.15448696999896,
    "region": "충청남도"
  },
  {
    "name": "두정역 이안 더 센트럴 지하주차장 1층",
    "address": "충청남도 천안시 서북구 천안대로 999-7 (두정동, 이안더센트럴)",
    "lat": 36.83087095081039,
    "lng": 127.15096102795732,
    "region": "충청남도"
  },
  {
    "name": "두정역 효성해링턴플레이스 지하주차장 1~3층",
    "address": "충청남도 천안시 서북구 봉정로 324 (두정동, 두정역 효성해링턴 플레이스)",
    "lat": 36.8308972343771,
    "lng": 127.145492397687,
    "region": "충청남도"
  },
  {
    "name": "범양레우스 알파 지하주차장 1~2층",
    "address": "충청남도 천안시 서북구 두정공원2길 26 (두정동, 두정역범양레우스 알파)",
    "lat": 36.83513086893569,
    "lng": 127.1546687928537,
    "region": "충청남도"
  },
  {
    "name": "e편한세상 천안부성 지하주차장 1~2층",
    "address": "충청남도 천안시 서북구 천안대로 1287-1 (신당동, e편한세상 천안부성)",
    "lat": 36.85574769186107,
    "lng": 127.15163716061164,
    "region": "충청남도"
  },
  {
    "name": "불당파크푸르지오1단지아파트 지하주차장 2층",
    "address": "충청남도 천안시 서북구 불당26로 144(불당동, 천안불당파크푸르지오1단지)",
    "lat": 36.8208569217453,
    "lng": 127.10784568829584,
    "region": "충청남도"
  },
  {
    "name": "천안불당린스트라우스 2단지 아파트 지하주차장 1~2층",
    "address": "충청남도 천안시 서북구 불당19로 111(불당동, 천안불당린스트라우스2단지)",
    "lat": 36.81532585617883,
    "lng": 127.1001493678608,
    "region": "충청남도"
  },
  {
    "name": "천안불당린스트라우스 1단지 아파트 지하주차장 1~2층",
    "address": "충청남도 천안시 서북구 불당19로 95(불당동, 천안불당린스트라우스1단지)",
    "lat": 36.816680272663504,
    "lng": 127.10055200048504,
    "region": "충청남도"
  },
  {
    "name": "주공그린빌11단지3차아파트 지하주차장 1층",
    "address": "충청남도 천안시 서북구 백석3로 70, 지하 1층 (백석동, 주공그린빌11단지3차아파트)",
    "lat": 36.8210457636975,
    "lng": 127.119133846054,
    "region": "충청남도"
  },
  {
    "name": "공주대 자연과학관(지하1층)",
    "address": "충청남도 공주시 공주대학로 56 (신관동)",
    "lat": 36.46993969412948,
    "lng": 127.1384232187813,
    "region": "충청남도"
  },
  {
    "name": "공주대 중앙도서관(지하1층)",
    "address": "충청남도 공주시 공주대학로 56 (신관동)",
    "lat": 36.46993969412948,
    "lng": 127.1384232187813,
    "region": "충청남도"
  },
  {
    "name": "공주대 인문사회관(지하1층)",
    "address": "충청남도 공주시 공주대학로 56 (신관동)",
    "lat": 36.46993969412948,
    "lng": 127.1384232187813,
    "region": "충청남도"
  },
  {
    "name": "공주금강홍수통제소(지하1층)",
    "address": "충청남도 공주시 금벽로 551 (신관동, 금강홍수통제소)",
    "lat": 36.46100531035227,
    "lng": 127.14445790463787,
    "region": "충청남도"
  },
  {
    "name": "웅진동행정복지센터(지하1층)",
    "address": "충청남도 공주시 백미고을길 9-8 (금성동)",
    "lat": 36.46488866022312,
    "lng": 127.12217145231534,
    "region": "충청남도"
  },
  {
    "name": "새뜸현대3차아파트(제1지하주차장, 지하1층)",
    "address": "충청남도 공주시 신금1길 72 (신관동, 새뜸현대3차아파트)",
    "lat": 36.4767298521295,
    "lng": 127.147685883803,
    "region": "충청남도"
  },
  {
    "name": "한아름아파트(지하1층 주차장)",
    "address": "충청남도 공주시 의당로 3-8 (신관동, 유진한아름아파트)",
    "lat": 36.47269508565645,
    "lng": 127.12838735389296,
    "region": "충청남도"
  },
  {
    "name": "새뜸현대3차아파트(제2지하주차장, 지하1층)",
    "address": "충청남도 공주시 신금1길 72 (신관동, 새뜸현대3차아파트)",
    "lat": 36.4767298521295,
    "lng": 127.147685883803,
    "region": "충청남도"
  },
  {
    "name": "새뜸현대3차아파트(제3지하주차장, 지하1층)",
    "address": "충청남도 공주시 신금1길 72 (신관동, 새뜸현대3차아파트)",
    "lat": 36.4767298521295,
    "lng": 127.147685883803,
    "region": "충청남도"
  },
  {
    "name": "신관주공4단지아파트(제1지하주차장, 지하1층)",
    "address": "충청남도 공주시 신금2길 48 (신관동, 주공4단지아파트)",
    "lat": 36.47281527533909,
    "lng": 127.1455302905272,
    "region": "충청남도"
  },
  {
    "name": "비둘기 아파트(지하1층 주차장)",
    "address": "충청남도 공주시 유구읍 창말길 34(동진비둘기 아파트)",
    "lat": 36.55360558379133,
    "lng": 126.95661446654816,
    "region": "충청남도"
  },
  {
    "name": "신관주공4단지아파트(제2지하주차장, 지하1층)",
    "address": "충청남도 공주시 신금2길 48 (신관동, 주공4단지아파트)",
    "lat": 36.4728152755331,
    "lng": 127.14553056827,
    "region": "충청남도"
  },
  {
    "name": "신관주공4단지아파트(제3지하주차장, 지하1층)",
    "address": "충청남도 공주시 신금2길 48 (신관동, 주공4단지아파트)",
    "lat": 36.4728152755331,
    "lng": 127.14553056827,
    "region": "충청남도"
  },
  {
    "name": "신관주공4단지아파트(제4지하주차장, 지하1층)",
    "address": "충청남도 공주시 신금2길 48 (신관동, 주공4단지아파트)",
    "lat": 36.4728152755331,
    "lng": 127.14553056827,
    "region": "충청남도"
  },
  {
    "name": "삼성생명공주사옥(지하2~3층 주차장)",
    "address": "충청남도 공주시 웅진로 186 (산성동, 삼성생명)",
    "lat": 36.45697145802144,
    "lng": 127.1249417696651,
    "region": "충청남도"
  },
  {
    "name": "대전지방법원 공주지원(지하1층 주차장)",
    "address": "충청남도 공주시 한적2길 34-15 (금흥동, 대전지방법원 공주지원)",
    "lat": 36.47814504802568,
    "lng": 127.14223663380729,
    "region": "충청남도"
  },
  {
    "name": "공주시청(지하1층)",
    "address": "충청남도 공주시 봉황로 1 (봉황동, 공주시청)",
    "lat": 36.44667203041014,
    "lng": 127.11992693923943,
    "region": "충청남도"
  },
  {
    "name": "공주대학교 옥룡캠퍼스(유아교육관 지하1층)",
    "address": "충청남도 공주시 우금티로 753 (옥룡동, 공주대학교옥룡캠퍼스)",
    "lat": 36.45188164231782,
    "lng": 127.13346662448626,
    "region": "충청남도"
  },
  {
    "name": "백제맨션(지하1층 주차장)",
    "address": "충청남도 공주시 옥룡2길 14 (옥룡동, 백제맨션)",
    "lat": 36.45489588681576,
    "lng": 127.13178062314756,
    "region": "충청남도"
  },
  {
    "name": "덕성그린타운(지하1층 주차장)",
    "address": "충청남도 공주시 우금티로 704 (옥룡동, 덕성그린타운)",
    "lat": 36.44792205444988,
    "lng": 127.13600297337878,
    "region": "충청남도"
  },
  {
    "name": "늘푸른요양원(지하1층)",
    "address": "충청남도 공주시 금강공원길 37-10 (금성동)",
    "lat": 36.46727949240872,
    "lng": 127.11943976988928,
    "region": "충청남도"
  },
  {
    "name": "덕성공원빌리지(지하1층 주차장)",
    "address": "충청남도 공주시 남문길 13 (산성동, 공원빌리지)",
    "lat": 36.46033602937253,
    "lng": 127.125625986531,
    "region": "충청남도"
  },
  {
    "name": "대우아파트(제1지하주차장, 지하1~2층)",
    "address": "충청남도 공주시 무령로 169-5 (교동, 대우아파트)",
    "lat": 36.4569133815792,
    "lng": 127.118853114159,
    "region": "충청남도"
  },
  {
    "name": "공주중앙감리교회(지하1층)",
    "address": "충청남도 공주시 무령로 171-7 (교동)",
    "lat": 36.456879962043786,
    "lng": 127.1191989832245,
    "region": "충청남도"
  },
  {
    "name": "꽃모시아파트(지하1층 주차장)",
    "address": "충청남도 공주시 우금티로 496-5 (금학동, 태영꽃모시아파트)",
    "lat": 36.43850460990559,
    "lng": 127.11973327019425,
    "region": "충청남도"
  },
  {
    "name": "대우아파트(제2지하주차장, 지하1~2층)",
    "address": "충청남도 공주시 무령로 169-5 (교동, 대우아파트)",
    "lat": 36.4569133815792,
    "lng": 127.118853114159,
    "region": "충청남도"
  },
  {
    "name": "상화샤인빌(지하1층 주차장)",
    "address": "충청남도 공주시 제민천1길 123 (교동, 상화샤인빌)",
    "lat": 36.45696936165065,
    "lng": 127.12225746845942,
    "region": "충청남도"
  },
  {
    "name": "공주대 제2도서관(지하1층)",
    "address": "충청남도 공주시 공주대학로 56 (신관동)",
    "lat": 36.46993969412948,
    "lng": 127.1384232187813,
    "region": "충청남도"
  },
  {
    "name": "공주대 간호보건대학 예술대학관(지하1층)",
    "address": "충청남도 공주시 공주대학로 56 (신관동)",
    "lat": 36.46993969412948,
    "lng": 127.1384232187813,
    "region": "충청남도"
  },
  {
    "name": "우남퍼스트빌아파트(지하1~2층)",
    "address": "충청남도 공주시 한적2길 51-14 (금흥동, 공주신금우남퍼스트빌)",
    "lat": 36.478992747096896,
    "lng": 127.1387373924393,
    "region": "충청남도"
  },
  {
    "name": "대한예수교장로회 평안교회(지하1층)",
    "address": "충청남도 공주시 유구읍 중앙2길 80-10",
    "lat": 36.5511100464873,
    "lng": 126.95344587585323,
    "region": "충청남도"
  },
  {
    "name": "공주의료원(지하1~2층 주차장)",
    "address": "충청남도 공주시 무령로 77 (웅진동, 공주의료원)",
    "lat": 36.45869316803695,
    "lng": 127.10931378825772,
    "region": "충청남도"
  },
  {
    "name": "e편한세상 아파트(지하2층 지하주차장)",
    "address": "충청남도 공주시 우금티로 580 (금학동, 금학e-편한세상)",
    "lat": 36.44287520721058,
    "lng": 127.12477803039788,
    "region": "충청남도"
  },
  {
    "name": "덕성그린시티빌 아파트(지하1~2층 주차장)",
    "address": "충청남도 공주시 관골2길 24-5 (신관동, 덕성그린시티빌)",
    "lat": 36.47512211112261,
    "lng": 127.1334112395145,
    "region": "충청남도"
  },
  {
    "name": "하늘소망교회(지하1층)",
    "address": "충청남도 공주시 반포면 송곡로 41",
    "lat": 36.39645194266576,
    "lng": 127.25360484977313,
    "region": "충청남도"
  },
  {
    "name": "정안농협(지하1층)",
    "address": "충청남도 공주시 정안면 정안중앙길 172",
    "lat": 36.60959959588341,
    "lng": 127.12141690317546,
    "region": "충청남도"
  },
  {
    "name": "공주월송 흥화하브아파트(지하2층 주차장)",
    "address": "충청남도 공주시 무령로 599-40 (금흥동, 공주월송 흥화하브)",
    "lat": 36.47831018994649,
    "lng": 127.15001018039398,
    "region": "충청남도"
  },
  {
    "name": "공주월송지평더웰아파트(지하1층 주차장)",
    "address": "충청남도 공주시 무령로 599-50, 공주월송 지평더웰 (금흥동)",
    "lat": 36.4791259461514,
    "lng": 127.149895620252,
    "region": "충청남도"
  },
  {
    "name": "아이젠아파트(지하1층 주차장)",
    "address": "충청남도 공주시 창벽로 42-31 (소학동, 아이젠아파트)",
    "lat": 36.4567036096009,
    "lng": 127.142295982585,
    "region": "충청남도"
  },
  {
    "name": "효성해링턴 플레이스아파트(지하1~2층 주차장)",
    "address": "충청남도 공주시 관골2길 35 (신관동, 공주 신관동 효성해링턴 플레이스)",
    "lat": 36.4761059254353,
    "lng": 127.133029680011,
    "region": "충청남도"
  },
  {
    "name": "비체팰리스 지하1층",
    "address": "충청남도 보령시 웅천읍 열린바다1길 78 (비체펠리스)",
    "lat": 36.239356298210026,
    "lng": 126.53154846198244,
    "region": "충청남도"
  },
  {
    "name": "보령아산병원 지하1층",
    "address": "충청남도 보령시 죽성로 136 (죽정동)",
    "lat": 36.38097940039625,
    "lng": 126.6228361941765,
    "region": "충청남도"
  },
  {
    "name": "죽정동 현대아파트 지하1층",
    "address": "충청남도 보령시 현대로 26 (죽정동, 현대아파트)",
    "lat": 36.360879534158094,
    "lng": 126.60324305217974,
    "region": "충청남도"
  },
  {
    "name": "태영아파트 지하1층",
    "address": "충청남도 보령시 남대천로 91 (대천동)",
    "lat": 36.345908140492455,
    "lng": 126.59146373714913,
    "region": "충청남도"
  },
  {
    "name": "대우아파트 지하1층",
    "address": "충청남도 보령시 봉황로 116 (죽정동, 대우아파트)",
    "lat": 36.35997943767059,
    "lng": 126.5961148128462,
    "region": "충청남도"
  },
  {
    "name": "아남아파트 지하1층",
    "address": "충청남도 보령시 봉산1길 88 (대천동, 아남아파트)",
    "lat": 36.35450170780055,
    "lng": 126.59923499301512,
    "region": "충청남도"
  },
  {
    "name": "흥화아파트 지하주차장 1~3층",
    "address": "충청남도 보령시 보령북로 195 (대천동, 흥화아파트)",
    "lat": 36.35787878441474,
    "lng": 126.58639376016366,
    "region": "충청남도"
  },
  {
    "name": "동부아파트 지하주차장 1층",
    "address": "충청남도 보령시 중앙로 178 (대천동, 동부아파트)",
    "lat": 36.35417560134398,
    "lng": 126.58542390766962,
    "region": "충청남도"
  },
  {
    "name": "동대동 현대아파트 지하1층",
    "address": "충청남도 보령시 동현로 46 (동대동, 현대아파트)",
    "lat": 36.34973931775835,
    "lng": 126.61189470685912,
    "region": "충청남도"
  },
  {
    "name": "명천주공5차아파트 지하1층",
    "address": "충청남도 보령시 주공로 65 (명천동, 명천주공3,4,5차아파트)",
    "lat": 36.34161608225018,
    "lng": 126.60587082235187,
    "region": "충청남도"
  },
  {
    "name": "보령시청 지하1층",
    "address": "충청남도 보령시 성주산로 77 (명천동, 보령시청)",
    "lat": 36.33354553253402,
    "lng": 126.6116798154011,
    "region": "충청남도"
  },
  {
    "name": "한화리조트 대천파로스 지하1층",
    "address": "충청남도 보령시 해수욕장3길 11-10 (신흑동, 한화콘도)",
    "lat": 36.30537192779039,
    "lng": 126.5191758255964,
    "region": "충청남도"
  },
  {
    "name": "성지리벨루스아파트 지하1층",
    "address": "충청남도 보령시 지장골길 78 (죽정동, 성지리벨루스)",
    "lat": 36.36159430720332,
    "lng": 126.60225114021456,
    "region": "충청남도"
  },
  {
    "name": "광명샤인빌아파트 지하1층",
    "address": "충청남도 보령시 한내로터리길 119-11 (동대동, 광명샤인빌)",
    "lat": 36.35054546613826,
    "lng": 126.61304838995598,
    "region": "충청남도"
  },
  {
    "name": "부경파크빌아파트 지하1층",
    "address": "충청남도 보령시 지장골길 160 (죽정동, 부경파크빌아파트)",
    "lat": 36.36261731728776,
    "lng": 126.6000662059938,
    "region": "충청남도"
  },
  {
    "name": "휴먼시아 3단지 주공아파트 지하1층",
    "address": "충청남도 보령시 한내로터리길 92 (동대동, 휴먼시아3단지,4단지주공아파트)",
    "lat": 36.34771147640453,
    "lng": 126.61160605284904,
    "region": "충청남도"
  },
  {
    "name": "SK뷰아파트 지하1층",
    "address": "충청남도 보령시 현충탑길 65 (궁촌동, 에스케이뷰아파트)",
    "lat": 36.34128669881326,
    "lng": 126.59742672504744,
    "region": "충청남도"
  },
  {
    "name": "코아루아파트 지하1층",
    "address": "충청남도 보령시 주공로 99 (명천동, 명천코아루)",
    "lat": 36.339873264220735,
    "lng": 126.60938157891128,
    "region": "충청남도"
  },
  {
    "name": "정은스카이빌아파트 지하1층",
    "address": "충청남도 보령시 명천중앙길 20 (명천동, 정은스카이빌아파트)",
    "lat": 36.3435769195245,
    "lng": 126.60132511213804,
    "region": "충청남도"
  },
  {
    "name": "시티타워 지하1층",
    "address": "충청남도 보령시 원동1길 69 (대천동, 시티타워)",
    "lat": 36.35068563680177,
    "lng": 126.59905902544884,
    "region": "충청남도"
  },
  {
    "name": "호텔쏠레르 지하1~2층",
    "address": "충청남도 보령시 해수욕장8길 28 (신흑동)",
    "lat": 36.3138054391624,
    "lng": 126.51218127803794,
    "region": "충청남도"
  },
  {
    "name": "한성필하우스아파트 지하1층",
    "address": "충청남도 보령시 한내로터리길 130 (동대동, 동대한성필하우스)",
    "lat": 36.35035886593898,
    "lng": 126.61460780845424,
    "region": "충청남도"
  },
  {
    "name": "동대 센트럴파크 지하1층",
    "address": "충청남도 보령시 한내로터리길 165(동대동, 동대 센트럴파크)",
    "lat": 36.35310854928981,
    "lng": 126.61667484209188,
    "region": "충청남도"
  },
  {
    "name": "e편한세상보령 지하1층",
    "address": "충청남도 보령시 한내로터리길 170 (동대동, e편한세상보령)",
    "lat": 36.35290106226285,
    "lng": 126.61691129155346,
    "region": "충청남도"
  },
  {
    "name": "라온프라이빗 지하주차장 1층",
    "address": "충청남도 보령시 대관초등길 100 (대천동, 라온프라이빗아파트)",
    "lat": 36.35673962065976,
    "lng": 126.58557389232804,
    "region": "충청남도"
  },
  {
    "name": "더퍼스트예미지아파트 지하1층",
    "address": "충청남도 보령시 주공로 100 (명천동, 더 퍼스트 예미지)",
    "lat": 36.339020963805446,
    "lng": 126.6082843344239,
    "region": "충청남도"
  },
  {
    "name": "더베스트예미지아파트 지하1층",
    "address": "충청남도 보령시 명천로 94(명천동, 더 베스트 예미지 아파트)",
    "lat": 36.33620186863355,
    "lng": 126.6066554732315,
    "region": "충청남도"
  },
  {
    "name": "시티프라디움 지하2층",
    "address": "충청남도 보령시 명천로 106(명천동, 시티프라디움 아파트)",
    "lat": 36.33534410926102,
    "lng": 126.605753385296,
    "region": "충청남도"
  },
  {
    "name": "온양빌딩 지하주차장 1층",
    "address": "충청남도 아산시 온천대로 1502-3, 피자헛 (온천동)",
    "lat": 36.780800923940674,
    "lng": 127.00457063625328,
    "region": "충청남도"
  },
  {
    "name": "KT 아산지사 지하주차장 1층",
    "address": "충청남도 아산시 충무로 93, KT아산지점 (권곡동)",
    "lat": 36.78942526578731,
    "lng": 127.00672812949392,
    "region": "충청남도"
  },
  {
    "name": "라이프 아파트 지하주차장 1층",
    "address": "충청남도 아산시 번영로206번길 32(모종동, 라이프타운)",
    "lat": 36.78194348172022,
    "lng": 127.01262174310318,
    "region": "충청남도"
  },
  {
    "name": "인정프린스아파트(지하1층)",
    "address": "충청남도 아산시 어의정로183번길 15(풍기동, 인정프린스아파트)",
    "lat": 36.7761282790005,
    "lng": 127.01569335629546,
    "region": "충청남도"
  },
  {
    "name": "제일타워 지하주차장 3층~5층",
    "address": "충청남도 아산시 시민로 346, 제일타워 (온천동)",
    "lat": 36.779703839531486,
    "lng": 126.99910184175552,
    "region": "충청남도"
  },
  {
    "name": "초원아파트 지하주차장 1층",
    "address": "충청남도 아산시 고불로 669(좌부동, 초원설화타운(2단지))",
    "lat": 36.75354381563642,
    "lng": 127.0307057218354,
    "region": "충청남도"
  },
  {
    "name": "벽산아파트 지하주차장 1층~2층",
    "address": "충청남도 아산시 문화로 33-10(실옥동, 벽산아파트)",
    "lat": 36.78842189478532,
    "lng": 126.98948215060388,
    "region": "충청남도"
  },
  {
    "name": "동아1차 아파트 지하주차장 1층~2층",
    "address": "충청남도 아산시 온천대로1333번길 7(방축동, 동아나래1차아파트)",
    "lat": 36.78613080290853,
    "lng": 126.98669156630253,
    "region": "충청남도"
  },
  {
    "name": "용화주공 3단지 아파트 지하주차장 1층",
    "address": "충청남도 아산시 온중로 22(용화동, 주공3차아파트)",
    "lat": 36.77260096994834,
    "lng": 126.99651571003474,
    "region": "충청남도"
  },
  {
    "name": "온양관광호텔 지하 2층 연회장",
    "address": "충청남도 아산시 온천대로 1459, 온양관광호텔 (온천동)",
    "lat": 36.78269356265515,
    "lng": 127.00003408521306,
    "region": "충청남도"
  },
  {
    "name": "부영아파트 지하주차장 1층",
    "address": "충청남도 아산시 온천대로 1105-17(득산동, 부영아파트)",
    "lat": 36.78651002065309,
    "lng": 126.96039764701112,
    "region": "충청남도"
  },
  {
    "name": "한라동백아파트 지하주차장 1층",
    "address": "충청남도 아산시 삼동로 34(모종동, 한라동백아파트)",
    "lat": 36.78244269972003,
    "lng": 127.0120194993856,
    "region": "충청남도"
  },
  {
    "name": "중앙하이츠 1차 아파트 지하주차장 1층",
    "address": "충청남도 아산시 배방읍 배방로 58-10(중앙하이츠오르젠1단지)",
    "lat": 36.772326846903056,
    "lng": 127.0533906172897,
    "region": "충청남도"
  },
  {
    "name": "연화마을 8단지 아파트 지하주차장 1층",
    "address": "충청남도 아산시 배방읍 연화로 36(연화마을8단지)",
    "lat": 36.786054336247474,
    "lng": 127.09406607192231,
    "region": "충청남도"
  },
  {
    "name": "모아미래도아파트 지하주차장 3층",
    "address": "충청남도 아산시 온중로 6(용화동, 모아미래도아파트)",
    "lat": 36.77143925290814,
    "lng": 126.99638179919664,
    "region": "충청남도"
  },
  {
    "name": "한라비발디아파트 지하주차장 1층",
    "address": "충청남도 아산시 배방읍 배방로 131(한라비발디아파트)",
    "lat": 36.77103645046545,
    "lng": 127.06055856217635,
    "region": "충청남도"
  },
  {
    "name": "모종1차 한성필하우스 아파트 지하주차장 1층",
    "address": "충청남도 아산시 모종로 21(모종동, 모종1차한성필하우스)",
    "lat": 36.78587533205472,
    "lng": 127.01911872067504,
    "region": "충청남도"
  },
  {
    "name": "시청본관 지하 1층",
    "address": "충청남도 아산시 시민로 456, 아산시청 (온천동)",
    "lat": 36.78958027205545,
    "lng": 127.00177961027175,
    "region": "충청남도"
  },
  {
    "name": "일성청룡아파트 지하주차장 1층",
    "address": "충청남도 아산시 시민로 485(온천동, 일성청룡아파트)",
    "lat": 36.79182352329301,
    "lng": 127.00080571725272,
    "region": "충청남도"
  },
  {
    "name": "온양힐스테이트아파트 지하주차장 1층~2층",
    "address": "충청남도 아산시 남산로 126(온천동, 온양힐스테이트)",
    "lat": 36.77882949282292,
    "lng": 127.0071093757066,
    "region": "충청남도"
  },
  {
    "name": "푸르지오아파트 지하주차장 1층~2층",
    "address": "충청남도 아산시 아산로117번길 17, 아산푸르지오아파트 (실옥동)",
    "lat": 36.79132321782482,
    "lng": 126.99290372133092,
    "region": "충청남도"
  },
  {
    "name": "천안아산역 리슈빌 아파트 지하주차장 2층",
    "address": "충청남도 아산시 배방읍 장재로 27(천안아산역 리슈빌)",
    "lat": 36.78672887581015,
    "lng": 127.1106892080248,
    "region": "충청남도"
  },
  {
    "name": "롯데캐슬아파트 지하주차장 1층",
    "address": "충청남도 아산시 배방읍 북수로 183(롯데캐슬아파트)",
    "lat": 36.77466336967503,
    "lng": 127.08100161813717,
    "region": "충청남도"
  },
  {
    "name": "모종푸르지오아파트 지하주차장 1층",
    "address": "충청남도 아산시 문화로 353(모종동, 아산모종 푸르지오)",
    "lat": 36.78259957008391,
    "lng": 127.02014817969916,
    "region": "충청남도"
  },
  {
    "name": "탕정 삼성트라팰리스 5클러스터 지하주차장 1층",
    "address": "충청남도 아산시 탕정면 탕정면로 37(탕정삼성트라팰리스아파트)",
    "lat": 36.79907895417257,
    "lng": 127.06142051393772,
    "region": "충청남도"
  },
  {
    "name": "갑을오토텍 사원아파트 지하주차장 1층",
    "address": "충청남도 아산시 탕정면 탕정면로 405(모딘코리아사원아파트)",
    "lat": 36.82125655021838,
    "lng": 127.0855437880658,
    "region": "충청남도"
  },
  {
    "name": "둔포 이지더원 1단지 아파트 지하주차장 1층",
    "address": "충청남도 아산시 둔포면 아산밸리중앙로 50(아산테크노밸리이지더원1단지아파트)",
    "lat": 36.92330544724205,
    "lng": 127.05334344326148,
    "region": "충청남도"
  },
  {
    "name": "더샵레이크사이드 지하주차장 1층(3~6동,9~10동)",
    "address": "충청남도 아산시 음봉면 음봉로 567(더샵레이크사이드아파트)",
    "lat": 36.83901535380773,
    "lng": 127.07290832345234,
    "region": "충청남도"
  },
  {
    "name": "아산더샵레이크시티 2차 아파트 지하주차장 1층",
    "address": "충청남도 아산시 음봉면 음봉로 515-38(더샵 레이크시티2차 아파트)",
    "lat": 36.84380452767925,
    "lng": 127.0690154140632,
    "region": "충청남도"
  },
  {
    "name": "신창주공소화마을 아파트 지하주차장 1층",
    "address": "충청남도 아산시 신창면 남성길 116-8(소화마을아파트)",
    "lat": 36.78993817898783,
    "lng": 126.95468350229488,
    "region": "충청남도"
  },
  {
    "name": "풍기동 아이파크아파트 지하주차장 1층~2층",
    "address": "충청남도 아산시 남부로 321-8 (풍기동, 아산아이파크)",
    "lat": 36.77259997847448,
    "lng": 127.01639441150076,
    "region": "충청남도"
  },
  {
    "name": "풍기동 이지더원 2차 아파트 지하주차장 2층",
    "address": "충청남도 아산시 어의정로 182 (풍기동, 이지더원 2차 아파트)",
    "lat": 36.77442031347252,
    "lng": 127.01552115929668,
    "region": "충청남도"
  },
  {
    "name": "서산의료원 지하1층",
    "address": "충청남도 서산시 중앙로 149, 서산의료원 (석림동)",
    "lat": 36.77490912199886,
    "lng": 126.46515290252712,
    "region": "충청남도"
  },
  {
    "name": "서산시청 지하1층",
    "address": "충청남도 서산시 관아문길 1, 서산시청 (읍내동)",
    "lat": 36.784303482304686,
    "lng": 126.45070760818686,
    "region": "충청남도"
  },
  {
    "name": "한화토탈 성화 생활관 102동 지하1층",
    "address": "충청남도 서산시 대산읍 망일산로 812, 한화토탈기숙사",
    "lat": 36.94201361477658,
    "lng": 126.43920194615464,
    "region": "충청남도"
  },
  {
    "name": "하은타워맨션 지하주차장 1층",
    "address": "충청남도 서산시 한마음5로 94 (석림동, 하은타워맨션)",
    "lat": 36.77662000384935,
    "lng": 126.46041004643357,
    "region": "충청남도"
  },
  {
    "name": "동남1차아파트 지하주차장 1층",
    "address": "충청남도 서산시 한성지3로 29 (수석동)",
    "lat": 36.759777264430944,
    "lng": 126.4840004471894,
    "region": "충청남도"
  },
  {
    "name": "현대아파트 지하주차장 1층",
    "address": "충청남도 서산시 율지6로 29 (동문동, 현대아파트)",
    "lat": 36.7799975499819,
    "lng": 126.46223959249336,
    "region": "충청남도"
  },
  {
    "name": "한정형외과 지하주차장 1층",
    "address": "충청남도 서산시 율지8로 4 (동문동)",
    "lat": 36.78189780832047,
    "lng": 126.45973578221464,
    "region": "충청남도"
  },
  {
    "name": "서인크리닉 지하주차장 1층",
    "address": "충청남도 서산시 안견로 191 (동문동)",
    "lat": 36.7813192910129,
    "lng": 126.45946983474596,
    "region": "충청남도"
  },
  {
    "name": "엘지사원아파트 지하 1층",
    "address": "충청남도 서산시 대산읍 명지1로 259-14 (엘지사원아파트)",
    "lat": 36.97575965030533,
    "lng": 126.3866846143676,
    "region": "충청남도"
  },
  {
    "name": "대산휴먼시아아파트 지하1층",
    "address": "충청남도 서산시 대산읍 망일산로 834-6 (대산휴먼시아아파트)",
    "lat": 36.94103390972725,
    "lng": 126.43721997471374,
    "region": "충청남도"
  },
  {
    "name": "롯데케미칼사택아파트 지하 1층",
    "address": "충청남도 서산시 대산읍 물안1로 123 (롯데케미칼사택)",
    "lat": 36.96667955517631,
    "lng": 126.425492168984,
    "region": "충청남도"
  },
  {
    "name": "현대오일뱅크사원아파트 지하주차장 1층",
    "address": "충청남도 서산시 대산읍 평신2로 26 (현대오일뱅크사원연립주택)",
    "lat": 36.99251184452675,
    "lng": 126.41490897357671,
    "region": "충청남도"
  },
  {
    "name": "부영아파트 지하주차장 1층",
    "address": "충청남도 서산시 부춘1로 19 (읍내동, 부영아파트)",
    "lat": 36.783698082711865,
    "lng": 126.44451966482931,
    "region": "충청남도"
  },
  {
    "name": "동신아파트 지하주차장 1층",
    "address": "충청남도 서산시 문화로 131 (읍내동, 동신아파트)",
    "lat": 36.785594586733176,
    "lng": 126.44183118820192,
    "region": "충청남도"
  },
  {
    "name": "대림,동신아파트 지하주차장 1층",
    "address": "충청남도 서산시 부춘2로 47 (읍내동, 대림,동신아파트)",
    "lat": 36.78592185989499,
    "lng": 126.44317374107317,
    "region": "충청남도"
  },
  {
    "name": "세창리베하우스아파트 지하 1층",
    "address": "충청남도 서산시 갓고개길 14 (갈산동, 세창리베하우스)",
    "lat": 36.78678251360911,
    "lng": 126.4326638284545,
    "region": "충청남도"
  },
  {
    "name": "서산읍내현대아파트 지하주차장 1층",
    "address": "충청남도 서산시 호수공원6로 19 (읍내동, 서산읍내현대아파트)",
    "lat": 36.77464545103909,
    "lng": 126.4460981423826,
    "region": "충청남도"
  },
  {
    "name": "동문동코아루아파트 지하주차장 1~2층",
    "address": "충청남도 서산시 고운로 275-14 (동문동, 동문동 코아루아파트)",
    "lat": 36.78569486732069,
    "lng": 126.46557538068863,
    "region": "충청남도"
  },
  {
    "name": "기산아파트 지하주차장 1층",
    "address": "충청남도 서산시 대사동10로 22 (동문동, 기산아파트)",
    "lat": 36.78544037971727,
    "lng": 126.45716945716282,
    "region": "충청남도"
  },
  {
    "name": "보령훼미리아파트 지하주차장 1층",
    "address": "충청남도 서산시 서령로 42 (동문동, 보령훼미리아파트)",
    "lat": 36.786218133411424,
    "lng": 126.4550553465109,
    "region": "충청남도"
  },
  {
    "name": "그린필백화점 지하주차장 1~3층",
    "address": "충청남도 서산시 시장2로 20 (동문동)",
    "lat": 36.782899363953454,
    "lng": 126.4570149314057,
    "region": "충청남도"
  },
  {
    "name": "영진크로바아파트 지하주차장 1층",
    "address": "충청남도 서산시 석남1로 12 (석남동, 영진크로바아파트)",
    "lat": 36.77015683828182,
    "lng": 126.45476548466571,
    "region": "충청남도"
  },
  {
    "name": "신한미지엔아파트 지하주차장 1층",
    "address": "충청남도 서산시 서령로 157 (동문동, 서산 동문동 신한 미지엔 아파트)",
    "lat": 36.79415272486213,
    "lng": 126.46317521096202,
    "region": "충청남도"
  },
  {
    "name": "현진에버빌아파트 지하주차장 1~2층",
    "address": "충청남도 서산시 향교4로 8-13 (동문동, 현진에버빌)",
    "lat": 36.79185541305985,
    "lng": 126.45752800724522,
    "region": "충청남도"
  },
  {
    "name": "대산한성필하우스 지하주차장 1~2층",
    "address": "충청남도 서산시 대산읍 정자동2로 16",
    "lat": 36.93973612887019,
    "lng": 126.42840349192558,
    "region": "충청남도"
  },
  {
    "name": "서산 동문 동아 더프라임아파트 지하주차장 2~3층",
    "address": "충청남도 서산시 안견로 91 (동문동, 서산 동문 동아 더프라임)",
    "lat": 36.789241886502666,
    "lng": 126.45601300042,
    "region": "충청남도"
  },
  {
    "name": "서산예천푸르지오아파트 지하주차장 1~2층",
    "address": "충청남도 서산시 호수공원11로 11 (예천동, 서산 예천 푸르지오)",
    "lat": 36.77264116407547,
    "lng": 126.44713696962684,
    "region": "충청남도"
  },
  {
    "name": "예천한성필하우스아파트 지하주차장 1층",
    "address": "충청남도 서산시 동서1로 182 (예천동, 예천한성필하우스)",
    "lat": 36.76723336528677,
    "lng": 126.45067360694016,
    "region": "충청남도"
  },
  {
    "name": "이편한세상서산예천아파트 지하주차장 1~2층",
    "address": "충청남도 서산시 동서1로 230 (예천동, 이편한세상서산예천아파트)",
    "lat": 36.76782476167276,
    "lng": 126.44548307316172,
    "region": "충청남도"
  },
  {
    "name": "효성해링턴플레이스아파트 지하주차장 1~2층",
    "address": "충청남도 서산시 예천3로 43 (예천동, 효성해링턴플레이스)",
    "lat": 36.76967687498815,
    "lng": 126.44258755937716,
    "region": "충청남도"
  },
  {
    "name": "석림한성필하우스아파트 지하주차장 1층",
    "address": "충청남도 서산시 동서2로 15 (석림동, 석림한성필하우스)",
    "lat": 36.774313885037365,
    "lng": 126.46820499671992,
    "region": "충청남도"
  },
  {
    "name": "동문동한성필하우스아파트 지하주차장 1~2층",
    "address": "충청남도 서산시 서령로 36 (동문동, 동문동 한성필하우스)",
    "lat": 36.785935882048655,
    "lng": 126.4545890096437,
    "region": "충청남도"
  },
  {
    "name": "e편한세상 서산테크노밸리아파트",
    "address": "충청남도 서산시 성연면 성연4로 46 (e편한세상 테크노밸리 아파트)",
    "lat": 36.82250239036,
    "lng": 126.452981481952,
    "region": "충청남도"
  },
  {
    "name": "서산 금호어울림 에듀퍼스트",
    "address": "충청남도 서산시 성연면 성연5로 92-7 (서산 금호어울림에듀퍼스트)",
    "lat": 36.8246266451292,
    "lng": 126.445603638345,
    "region": "충청남도"
  },
  {
    "name": "코아루시티",
    "address": "충청남도 서산시 안견로 271, 서산호수공원 코아루시티 (동문동)",
    "lat": 36.7769395817291,
    "lng": 126.453449866326,
    "region": "충청남도"
  },
  {
    "name": "석림 중앙하이츠빌",
    "address": "충청남도 서산시 석림1로 20 (석림동, 석림중앙하이츠빌)",
    "lat": 36.7671119537655,
    "lng": 126.467231822217,
    "region": "충청남도"
  },
  {
    "name": "연무읍 행정복지센터(연무읍사무소)",
    "address": "충청남도 논산시 연무읍 안심로 50, 연무읍사무소",
    "lat": 36.12544021085901,
    "lng": 127.09885138954508,
    "region": "충청남도"
  },
  {
    "name": "논산시청 지하 1층",
    "address": "충청남도 논산시 시민로210번길 9 (내동, 논산시청)",
    "lat": 36.18632424177772,
    "lng": 127.09854443820542,
    "region": "충청남도"
  },
  {
    "name": "부영아파트(지하1층)",
    "address": "충청남도 논산시 시민로307번길 28 (강산동, 부영아파트)",
    "lat": 36.19225432565645,
    "lng": 127.08881766352424,
    "region": "충청남도"
  },
  {
    "name": "기산아파트 지하2층",
    "address": "충청남도 논산시 연무읍 동안로 870(기산아파트)",
    "lat": 36.13418151371826,
    "lng": 127.10148864675524,
    "region": "충청남도"
  },
  {
    "name": "내동 동신아파트 지하 1층",
    "address": "충청남도 논산시 체육로 48-6 (내동, 동신아파트)",
    "lat": 36.18958981105937,
    "lng": 127.10102637266198,
    "region": "충청남도"
  },
  {
    "name": "대림아파트(지하1층)",
    "address": "충청남도 논산시 대림길 7 (부창동, 대림아파트)",
    "lat": 36.19745179119146,
    "lng": 127.0845184178867,
    "region": "충청남도"
  },
  {
    "name": "동신아파트(지하1층)",
    "address": "충청남도 논산시 시민로307번길 19 (강산동, 동신아파트)",
    "lat": 36.191841221284776,
    "lng": 127.08960397314792,
    "region": "충청남도"
  },
  {
    "name": "조흥아파트(지하1층)",
    "address": "충청남도 논산시 강경읍 대흥로5번길 37(조흥아파트)",
    "lat": 36.15265680229111,
    "lng": 127.01194266321966,
    "region": "충청남도"
  },
  {
    "name": "건양대학교(건양회관, 명학관, 의공학관)",
    "address": "충청남도 논산시 대학로 121 (관촉동)",
    "lat": 36.180874613873335,
    "lng": 127.11109318552444,
    "region": "충청남도"
  },
  {
    "name": "금강빌리지아파트 지하1층",
    "address": "충청남도 논산시 강경읍 동안로 96(금강빌리지임대아파트)",
    "lat": 36.15106323042559,
    "lng": 127.02320453478804,
    "region": "충청남도"
  },
  {
    "name": "청소년수련관 지하 1층",
    "address": "충청남도 논산시 논산대로 424 (지산동, 논산시청소년수련관)",
    "lat": 36.19748625538565,
    "lng": 127.10619174071292,
    "region": "충청남도"
  },
  {
    "name": "제이파크 1단지 지하 1층",
    "address": "충청남도 논산시 시민로258번길 9 (내동, 논산제이파크1단지)",
    "lat": 36.19018663483129,
    "lng": 127.09663511824267,
    "region": "충청남도"
  },
  {
    "name": "취암리슈빌아파트 지하 1층",
    "address": "충청남도 논산시 번영로29번길 10 (취암동, 취암 리슈빌아파트)",
    "lat": 36.19971363088498,
    "lng": 127.09343097344252,
    "region": "충청남도"
  },
  {
    "name": "세중세미클래식 지하 1층",
    "address": "충청남도 논산시 체육로 39(취암동, 세중세미클래식아파트 1동)",
    "lat": 36.189769875411805,
    "lng": 127.10001341662549,
    "region": "충청남도"
  },
  {
    "name": "강경클래시움아파트 지하1층",
    "address": "충청남도 논산시 강경읍 금백로 74-1, 강경 클래시움 아파트",
    "lat": 36.15932713589383,
    "lng": 127.01212814031908,
    "region": "충청남도"
  },
  {
    "name": "논산중앙교회(지하1층)",
    "address": "충청남도 논산시 득안대로 1371 (강산동)",
    "lat": 36.18701706484424,
    "lng": 127.0909609630493,
    "region": "충청남도"
  },
  {
    "name": "부창모닝빌아파트(지하1층)",
    "address": "충청남도 논산시 부창로 69-5 (부창동, 모닝빌아파트)",
    "lat": 36.19636681408558,
    "lng": 127.08531006694842,
    "region": "충청남도"
  },
  {
    "name": "제이파크2단지아파트 지하 1층",
    "address": "충청남도 논산시 시민로258번길 10 (내동, 논산제이파크2단지)",
    "lat": 36.18972025229906,
    "lng": 127.09674229502124,
    "region": "충청남도"
  },
  {
    "name": "리벤하임아파트 지하 1층",
    "address": "충청남도 논산시 대학로65번길 46 (내동, 리벤하임아파트)",
    "lat": 36.18200050561381,
    "lng": 127.10344210201306,
    "region": "충청남도"
  },
  {
    "name": "내동LH2단지아파트 지하 1층",
    "address": "충청남도 논산시 대학로65번길 19 (내동, 논산내동2단지)",
    "lat": 36.17985959182947,
    "lng": 127.10445108278432,
    "region": "충청남도"
  },
  {
    "name": "내동모닝빌아파트 지하 1층",
    "address": "충청남도 논산시 체육로 13 (내동, 모닝빌2차아파트)",
    "lat": 36.18831040225856,
    "lng": 127.09765432222603,
    "region": "충청남도"
  },
  {
    "name": "대교코아루1차아파트(지하1층)",
    "address": "충청남도 논산시 대화로133번길 13(대교동, 논산 대교 코아루)",
    "lat": 36.21179629125155,
    "lng": 127.0898523618008,
    "region": "충청남도"
  },
  {
    "name": "취암모닝빌아파트 지하 1층",
    "address": "충청남도 논산시 중앙로 281-6 (취암동)",
    "lat": 36.19178007662411,
    "lng": 127.09717328471092,
    "region": "충청남도"
  },
  {
    "name": "연무행복마을아파트 지하1층",
    "address": "충청남도 논산시 연무읍 안심로 139-1(연무행복마을아파트)",
    "lat": 36.13303762854891,
    "lng": 127.09826722474578,
    "region": "충청남도"
  },
  {
    "name": "힐스테이트자이논산아파트 지하1층",
    "address": "충청남도 논산시 시민로132번길 7 (내동, 힐스테이트자이논산)",
    "lat": 36.1799364434172,
    "lng": 127.101922549174,
    "region": "충청남도"
  },
  {
    "name": "금산교육지원청(지하1층)",
    "address": "충청남도 금산군 금산읍 인삼로 14, 금산교육청",
    "lat": 36.10363972921246,
    "lng": 127.48327897076489,
    "region": "충청남도"
  },
  {
    "name": "금산군청(지하1층)",
    "address": "충청남도 금산군 금산읍 군청길 13, 금산군청",
    "lat": 36.10854490089949,
    "lng": 127.48802964022644,
    "region": "충청남도"
  },
  {
    "name": "금산군보건소(지하1층)",
    "address": "충청남도 금산군 금산읍 금산로 1559, 금산군보건소",
    "lat": 36.111771853951865,
    "lng": 127.49196682484754,
    "region": "충청남도"
  },
  {
    "name": "농협중앙회금산군지부(지하주차장1층)",
    "address": "충청남도 금산군 금산읍 인삼로 84, 농협중앙회금산군지부",
    "lat": 36.10270464291338,
    "lng": 127.49088949497076,
    "region": "충청남도"
  },
  {
    "name": "금산인삼관(지하1층)",
    "address": "충청남도 금산군 금산읍 인삼광장로 30, 금산인삼관",
    "lat": 36.10015350218205,
    "lng": 127.50052213463626,
    "region": "충청남도"
  },
  {
    "name": "대화아파트(지하주차장1층)",
    "address": "충청남도 금산군 금산읍 방아동2길 30(대화)",
    "lat": 36.09651842316143,
    "lng": 127.48746091817516,
    "region": "충청남도"
  },
  {
    "name": "대신아파트(지하주차장1층)",
    "address": "충청남도 금산군 금산읍 금산로 1379(대신아파트)",
    "lat": 36.09694166214507,
    "lng": 127.48659744978876,
    "region": "충청남도"
  },
  {
    "name": "주공아파트 1단지(지하주차장1층)",
    "address": "충청남도 금산군 금산읍 비호산로 5(금산상리주공1단지아파트)",
    "lat": 36.110418804959856,
    "lng": 127.48909402380346,
    "region": "충청남도"
  },
  {
    "name": "낙원아파트 201동(지하주차장1층)",
    "address": "충청남도 금산군 금산읍 약초로 20(낙원아파트)",
    "lat": 36.09858737784352,
    "lng": 127.4962435065766,
    "region": "충청남도"
  },
  {
    "name": "낙원아파트 101동(지하주차장1층)",
    "address": "충청남도 금산군 금산읍 약초로 18(낙원아파트)",
    "lat": 36.09841319166178,
    "lng": 127.49606024375066,
    "region": "충청남도"
  },
  {
    "name": "산마루아파트(지하주차장1층)",
    "address": "충청남도 금산군 금산읍 동산3길 27(금산대원산마루아파트)",
    "lat": 36.09769022687501,
    "lng": 127.49300205648755,
    "region": "충청남도"
  },
  {
    "name": "칸타빌아파트(지하주차장1층)",
    "address": "충청남도 금산군 금산읍 사직로 150(대원칸타빌)",
    "lat": 36.11097734849024,
    "lng": 127.47947026265594,
    "region": "충청남도"
  },
  {
    "name": "e편한세상금산프라임포레(지하주차장1층)",
    "address": "충청남도 금산군 금산읍 진악로 869 (e편한세상 금산 프라임포레)",
    "lat": 36.1020574270422,
    "lng": 127.465350874206,
    "region": "충청남도"
  },
  {
    "name": "e편한세상금산센터하임(지하주차장1,2층)",
    "address": "충청남도 금산군 금산읍 금산로 1554 (e편한세상 금산 센터하임)",
    "lat": 36.1119575201402,
    "lng": 127.494416443333,
    "region": "충청남도"
  },
  {
    "name": "국립부여박물관 전시동 지하1층",
    "address": "충청남도 부여군 부여읍 금성로 5, 국립부여박물관 전시동 지하1층",
    "lat": 36.276178925075634,
    "lng": 126.91711751599314,
    "region": "충청남도"
  },
  {
    "name": "부여우체국 지하1층 창고",
    "address": "충청남도 부여군 부여읍 사비로 82, 부여우체국 지하1층",
    "lat": 36.27985194944606,
    "lng": 126.9107005953696,
    "region": "충청남도"
  },
  {
    "name": "부여교육지원청 지하1층 체력단련실",
    "address": "충청남도 부여군 부여읍 금성로 69-10, 부여교육지원청 지하1층",
    "lat": 36.272992278238426,
    "lng": 126.9216015876054,
    "region": "충청남도"
  },
  {
    "name": "KT부여지사 지하주차장 지하1층",
    "address": "충청남도 부여군 부여읍 석탑로 33, KT부여지사 지하주차장1층",
    "lat": 36.279584546181965,
    "lng": 126.91231675371814,
    "region": "충청남도"
  },
  {
    "name": "백제관광호텔 지하1층 식당",
    "address": "충청남도 부여군 부여읍 북포로 108, 백제관광호텔 지하1층",
    "lat": 36.2917936186805,
    "lng": 126.92222565261665,
    "region": "충청남도"
  },
  {
    "name": "금성빌딩 지하주차장 지하1층",
    "address": "충청남도 부여군 부여읍 사비로100번길 12, 금성빌딩 지하1층주차장",
    "lat": 36.28145684695885,
    "lng": 126.91163661555282,
    "region": "충청남도"
  },
  {
    "name": "여성문화회관 체력단련실 지하1층",
    "address": "충청남도 부여군 부여읍 사비로 32, 여성문화회관 지하1층",
    "lat": 36.27549236087506,
    "lng": 126.91069883489553,
    "region": "충청남도"
  },
  {
    "name": "부여군청 본관 식당 지하1층",
    "address": "충청남도 부여군 부여읍 사비로 33, 부여군청 지하1층 식당",
    "lat": 36.27569974054567,
    "lng": 126.91002323666672,
    "region": "충청남도"
  },
  {
    "name": "부여읍사무소 교육관 지하1층",
    "address": "충청남도 부여군 부여읍 사비로 36, 부여읍사무소 지하1층",
    "lat": 36.27562589441299,
    "lng": 126.91111177955582,
    "region": "충청남도"
  },
  {
    "name": "부여축협 지하주차장 지하1층",
    "address": "충청남도 부여군 부여읍 성왕로 195, 부여축협하나로마트 지하1층",
    "lat": 36.28225744375001,
    "lng": 126.90913689549708,
    "region": "충청남도"
  },
  {
    "name": "부여장로교회 지하1층",
    "address": "충청남도 부여군 부여읍 성왕로 239-7, 부여장로교회 지하1층",
    "lat": 36.28378204318534,
    "lng": 126.9136604832336,
    "region": "충청남도"
  },
  {
    "name": "부여제일교회 지하1층",
    "address": "충청남도 부여군 부여읍 반월로 11, 교회 본건물 지하",
    "lat": 36.28354066639037,
    "lng": 126.909294741574,
    "region": "충청남도"
  },
  {
    "name": "부여관광유스텔 식당 지하1층",
    "address": "충청남도 부여군 부여읍 백제문화로 33, 부여관광유스텔 지하1층",
    "lat": 36.286718615276286,
    "lng": 126.93149293656536,
    "region": "충청남도"
  },
  {
    "name": "군민회관 지하창고 지하1층",
    "address": "충청남도 부여군 부여읍 사비로 41, 부여군민회관 지하1층",
    "lat": 36.27641158286198,
    "lng": 126.9099393083512,
    "region": "충청남도"
  },
  {
    "name": "부여문화원 본관 지하1층 소강당",
    "address": "충청남도 부여군 부여읍 의열로 43, 부여문화원 지하1층",
    "lat": 36.278753955353245,
    "lng": 126.91694528428798,
    "region": "충청남도"
  },
  {
    "name": "홍선아파트 104동, 107동 지하주차장(지하1,2층)",
    "address": "충청남도 부여군 부여읍 성왕로328번길 18-7(홍선금동아파트)",
    "lat": 36.28233882040244,
    "lng": 126.92290200163866,
    "region": "충청남도"
  },
  {
    "name": "강산아파트 지하주차장 지하1,2층",
    "address": "충청남도 부여군 규암면 흥수로 646, 지하1,2층 (강산아파트)",
    "lat": 36.26844773746024,
    "lng": 126.85354628132444,
    "region": "충청남도"
  },
  {
    "name": "무지개아파트 지하주차장 지하1층",
    "address": "충청남도 부여군 규암면 흥수로 771-5(무지개아파트)",
    "lat": 36.27312265819974,
    "lng": 126.86673640430168,
    "region": "충청남도"
  },
  {
    "name": "홍산비홍아파트 지하주차장 지하1층",
    "address": "충청남도 부여군 홍산면 홍산시장로 14(홍산덕암비홍아파트)",
    "lat": 36.211503448286685,
    "lng": 126.75999250592638,
    "region": "충청남도"
  },
  {
    "name": "롯데부여리조트 지하주차장 지하1층",
    "address": "충청남도 부여군 규암면 백제문로 400, 롯데부여리조트 지하주차장",
    "lat": 36.304148825427546,
    "lng": 126.90080512875602,
    "region": "충청남도"
  },
  {
    "name": "부여군청 신관 지하주차장 지하1층",
    "address": "충청남도 부여군 부여읍 사비로 33, 부여군청 지하1층 주차장",
    "lat": 36.27569974054567,
    "lng": 126.91002323666672,
    "region": "충청남도"
  },
  {
    "name": "부여보건소 지하창고 지하1층",
    "address": "충청남도 부여군 부여읍 성왕로 205, 부여군 보건소 지하1층",
    "lat": 36.28309472688706,
    "lng": 126.90976914906707,
    "region": "충청남도"
  },
  {
    "name": "궁남초등학교 앞 지하도 지하1층",
    "address": "충청남도 부여군 부여읍 계백로 233-1, 건물 앞 지하도",
    "lat": 36.276278912091,
    "lng": 126.90595385095185,
    "region": "충청남도"
  },
  {
    "name": "대동황토방아파트 지하1층 주차장",
    "address": "충청남도 부여군 규암면 호수로 32 (대동황토방아파트)",
    "lat": 36.27287218509042,
    "lng": 126.86198723515967,
    "region": "충청남도"
  },
  {
    "name": "부여센트럴휴엔하임아파트 201동 지하1층 주차장",
    "address": "충청남도 부여군 규암면 흥수로 878 (부여센트럴휴엔하임)",
    "lat": 36.27417081222939,
    "lng": 126.8779894841622,
    "region": "충청남도"
  },
  {
    "name": "부여국민체육센터 지하1층 체력단련실",
    "address": "충청남도 부여군 규암면 호수로 82, 부여국민체육센터",
    "lat": 36.27737716784881,
    "lng": 126.86189459332556,
    "region": "충청남도"
  },
  {
    "name": "부여군 공동체활성화재단 지하1층 청년센터",
    "address": "충청남도 부여군 부여읍 사비로100번길 10, 부여군공동체활성화재단 지하1층",
    "lat": 36.28148976973832,
    "lng": 126.91145084615032,
    "region": "충청남도"
  },
  {
    "name": "신흥아파트 지하주차장 1층",
    "address": "충청남도 서천군 장항읍 신창서로 81 (신흥아파트)",
    "lat": 36.0159727084224,
    "lng": 126.68725089942296,
    "region": "충청남도"
  },
  {
    "name": "정원아파트 지하주차장 1층",
    "address": "충청남도 서천군 서천읍 사곡로75번길 7 (정원아파트)",
    "lat": 36.084328838714434,
    "lng": 126.69154727931256,
    "region": "충청남도"
  },
  {
    "name": "문예의 전당 지하 1층",
    "address": "충청남도 서천군 서천읍 서천로14번길 20 (문예의전당)",
    "lat": 36.076271934620095,
    "lng": 126.69834721657053,
    "region": "충청남도"
  },
  {
    "name": "한솔제지 장항공장 지하 1층",
    "address": "충청남도 서천군 장항읍 장산로 149",
    "lat": 36.00957843032046,
    "lng": 126.67695111926668,
    "region": "충청남도"
  },
  {
    "name": "금강아파트 지하주차장 대피시설 지하 1층",
    "address": "충청남도 서천군 장항읍 성화로 194 (금강아파트)",
    "lat": 36.01516607019452,
    "lng": 126.70470788442464,
    "region": "충청남도"
  },
  {
    "name": "서천우체국 지하주차장 1층",
    "address": "충청남도 서천군 서천읍 서천로 59 (서천우체국)",
    "lat": 36.076439205051415,
    "lng": 126.69291453673968,
    "region": "충청남도"
  },
  {
    "name": "KT 서천지사 지하 1층",
    "address": "충청남도 서천군 서천읍 사곡안길 1 (케이티서천지점)",
    "lat": 36.08086347712079,
    "lng": 126.68645144430968,
    "region": "충청남도"
  },
  {
    "name": "천산스카이빌아파트지하주차장 1층",
    "address": "충청남도 서천군 서천읍 서천로143번길 51 (천산스카이빌아파트)",
    "lat": 36.08154809104013,
    "lng": 126.6846329212731,
    "region": "충청남도"
  },
  {
    "name": "서천학생수영장 지하 1층",
    "address": "충청남도 서천군 장항읍 성주길 6-21 (서천학생수영장)",
    "lat": 36.01925551503367,
    "lng": 126.70048584824669,
    "region": "충청남도"
  },
  {
    "name": "클래시움아파트 지하주차장 1층",
    "address": "충청남도 서천군 서천읍 사곡로75번길 6 (서천클래시움아파트)",
    "lat": 36.08409770542261,
    "lng": 126.6917263611318,
    "region": "충청남도"
  },
  {
    "name": "청소년문화센터 지하 1층",
    "address": "충청남도 서천군 서천읍 군청로 16-2",
    "lat": 36.07537287554041,
    "lng": 126.69152620695286,
    "region": "충청남도"
  },
  {
    "name": "장항원수 휴먼시아 공동구 지하1층",
    "address": "충청남도 서천군 장항읍 장항로 285-0 (휴먼시아아파트)",
    "lat": 36.00665924177834,
    "lng": 126.706958806932,
    "region": "충청남도"
  },
  {
    "name": "서천사곡 휴먼시아 지하 1층",
    "address": "충청남도 서천군 서천읍 사곡로 17 (휴먼시아아파트)",
    "lat": 36.084006051382985,
    "lng": 126.6849165330311,
    "region": "충청남도"
  },
  {
    "name": "신영골든빌아파트 지하 1층",
    "address": "충청남도 서천군 서천읍 사곡로28번길 8 (신영골든빌아파트)",
    "lat": 36.083000100593786,
    "lng": 126.6856241755168,
    "region": "충청남도"
  },
  {
    "name": "국립해양생물자원관 지하 1층",
    "address": "충청남도 서천군 장항읍 장산로101번길 75 (국립해양생물자원관)",
    "lat": 36.01694928797314,
    "lng": 126.67152337370564,
    "region": "충청남도"
  },
  {
    "name": "장항이테크더리브아파트 지하주차장 1층",
    "address": "충청남도 서천군 장항읍 성화로 156, 장항 이테크 더리브 아파트",
    "lat": 36.015865273978555,
    "lng": 126.700506671272,
    "region": "충청남도"
  },
  {
    "name": "서천코아루천년가아파트 지하주차장 1층",
    "address": "충청남도 서천군 서천읍 대백제로 1042-41 (서천 코아루 천년가 아파트)",
    "lat": 36.08552822363093,
    "lng": 126.68460455798234,
    "region": "충청남도"
  },
  {
    "name": "서천장항LH1단지아파트",
    "address": "충청남도 서천군 장항읍 장항산단1길 60",
    "lat": 36.03856746211515,
    "lng": 126.66960601530856,
    "region": "충청남도"
  },
  {
    "name": "서천군청",
    "address": "충청남도 서천군 서천읍 서림로 19, 서천군청",
    "lat": 36.07757721945378,
    "lng": 126.70265021724948,
    "region": "충청남도"
  },
  {
    "name": "청양군문화체육센타 지하 1층",
    "address": "충청남도 청양군 청양읍 칠갑산로 221 (청양군문화체육센타)",
    "lat": 36.45147637456076,
    "lng": 126.80111980957189,
    "region": "충청남도"
  },
  {
    "name": "청양농협회관 지하1층",
    "address": "충청남도 청양군 청양읍 칠갑산로 220 (청양농협회관)",
    "lat": 36.45105032671599,
    "lng": 126.80085008799256,
    "region": "충청남도"
  },
  {
    "name": "원향빌딩 지하1층",
    "address": "충청남도 청양군 청양읍 중앙로9길 7",
    "lat": 36.45153773099185,
    "lng": 126.80224899619964,
    "region": "충청남도"
  },
  {
    "name": "청양우체국 지하1층",
    "address": "충청남도 청양군 청양읍 칠갑산로 249 (청양우체국)",
    "lat": 36.45089717000901,
    "lng": 126.80420718676812,
    "region": "충청남도"
  },
  {
    "name": "천강아파트 지하1층",
    "address": "충청남도 청양군 청양읍 청산로 29 (천강아파트)",
    "lat": 36.44524394929643,
    "lng": 126.80293676389286,
    "region": "충청남도"
  },
  {
    "name": "세아아파트 지하1층",
    "address": "충청남도 청양군 청양읍 중앙로 80-1 (세아아파트)",
    "lat": 36.44670694393169,
    "lng": 126.80222696461048,
    "region": "충청남도"
  },
  {
    "name": "장안아파트 지하1층",
    "address": "충청남도 청양군 청양읍 청산로 35 (장안아파트)",
    "lat": 36.44541600084207,
    "lng": 126.80343970188966,
    "region": "충청남도"
  },
  {
    "name": "청양교회 지하1층",
    "address": "충청남도 청양군 청양읍 중앙로12길 43 (청양교회)",
    "lat": 36.45283778313322,
    "lng": 126.80813450337108,
    "region": "충청남도"
  },
  {
    "name": "청양군청 지하1층",
    "address": "충청남도 청양군 청양읍 문화예술로 222 (청양군청)",
    "lat": 36.458245865346434,
    "lng": 126.80222153064403,
    "region": "충청남도"
  },
  {
    "name": "청양복지타운 복지센터B동 지하1층",
    "address": "충청남도 청양군 청양읍 칠갑산로9길 32",
    "lat": 36.453455770415616,
    "lng": 126.80645349528211,
    "region": "충청남도"
  },
  {
    "name": "청양교육지원청 지하1층",
    "address": "충청남도 청양군 청양읍 중앙로 252, 청양교육지원청",
    "lat": 36.4602478345939,
    "lng": 126.799672473467,
    "region": "충청남도"
  },
  {
    "name": "충남도립대 도서관 지하1층",
    "address": "충청남도 청양군 청양읍 학사길 55, 충남도립대학교",
    "lat": 36.4374128646931,
    "lng": 126.799915065885,
    "region": "충청남도"
  },
  {
    "name": "홍성의료원 지하주차장 1~2층",
    "address": "충청남도 홍성군 홍성읍 조양로 224, 홍성의료원",
    "lat": 36.59961784152899,
    "lng": 126.6744991302258,
    "region": "충청남도"
  },
  {
    "name": "경성큰마을아파트 지하주차장 1층",
    "address": "충청남도 홍성군 홍성읍 문화로80번길 32-14 (경성큰마을아파트)",
    "lat": 36.59405867529634,
    "lng": 126.6650663797994,
    "region": "충청남도"
  },
  {
    "name": "현대아파트 지하주차장 1층",
    "address": "충청남도 홍성군 홍성읍 월계천길 41-11 (현대아파트)",
    "lat": 36.60224360418421,
    "lng": 126.65522845006286,
    "region": "충청남도"
  },
  {
    "name": "청솔아파트 지하주차장 1층",
    "address": "충청남도 홍성군 홍성읍 내포로146번길 46 (청솔아파트)",
    "lat": 36.59853543247297,
    "lng": 126.65409019005185,
    "region": "충청남도"
  },
  {
    "name": "주공그린빌아파트 지하주차장 1층",
    "address": "충청남도 홍성군 홍성읍 문화로72번길 92 (주공그린빌)",
    "lat": 36.59141933871845,
    "lng": 126.66855369034182,
    "region": "충청남도"
  },
  {
    "name": "부영1차아파트 지하주차장 1층",
    "address": "충청남도 홍성군 홍성읍 월산로30번길 39 (부영아파트)",
    "lat": 36.60188586586613,
    "lng": 126.64975287881111,
    "region": "충청남도"
  },
  {
    "name": "부영2차아파트 지하주차장 1층",
    "address": "충청남도 홍성군 홍성읍 월산로30번길 38 (부영아파트)",
    "lat": 36.6014581709066,
    "lng": 126.64998414450046,
    "region": "충청남도"
  },
  {
    "name": "세광엔리치타워아파트 지하주차장 1층",
    "address": "충청남도 홍성군 홍성읍 충서로 1506 (세광엔리치타워)",
    "lat": 36.6044349980582,
    "lng": 126.65887778837975,
    "region": "충청남도"
  },
  {
    "name": "홍성남장2단지주공아파트 지하주차장 1층",
    "address": "충청남도 홍성군 홍성읍 문화로72번길 72 (홍성남장2주공아파트)",
    "lat": 36.58948328790124,
    "lng": 126.66513562509826,
    "region": "충청남도"
  },
  {
    "name": "홍성옥암하늘채아파트 지하주차장 1층",
    "address": "충청남도 홍성군 홍성읍 문화로33번길 11 (홍성옥암하늘채아파트)",
    "lat": 36.59232791139119,
    "lng": 126.65703186369076,
    "region": "충청남도"
  },
  {
    "name": "신동아파밀리에아파트 지하주차장 1층",
    "address": "충청남도 홍성군 홍성읍 충절로953번길 20 (신동아파밀리에아파트)",
    "lat": 36.59282163783932,
    "lng": 126.67395866085248,
    "region": "충청남도"
  },
  {
    "name": "충청남도청 지하주차장 1~2층",
    "address": "충청남도 홍성군 홍북읍 충남대로 21, 충청남도청",
    "lat": 36.657545769345816,
    "lng": 126.67305686579311,
    "region": "충청남도"
  },
  {
    "name": "LH스타힐스아파트 지하주차장 1~2층",
    "address": "충청남도 홍성군 홍북읍 홍예로 213 (엘에이치스타힐스)",
    "lat": 36.64639719284146,
    "lng": 126.68260663699056,
    "region": "충청남도"
  },
  {
    "name": "신리마을상록아파트 지하주차장 1~2층",
    "address": "충청남도 홍성군 홍북읍 홍학로 25 (신리마을상록아파트)",
    "lat": 36.65080985343123,
    "lng": 126.67025776520238,
    "region": "충청남도"
  },
  {
    "name": "까치마을 유익아파트(지하1층)",
    "address": "충청남도 예산군 예산읍 아리랑로 43(석탑유익아파트)",
    "lat": 36.68632219119338,
    "lng": 126.83403253494652,
    "region": "충청남도"
  },
  {
    "name": "신례원현대아파트102동(지하1층)",
    "address": "충청남도 예산군 예산읍 창신로 55(신례원현대아파트)",
    "lat": 36.72278000014677,
    "lng": 126.83820154600352,
    "region": "충청남도"
  },
  {
    "name": "능금마을 신성아파트 101동(지하1층)",
    "address": "충청남도 예산군 예산읍 아리랑로144번길 19(능금마을신성아파트)",
    "lat": 36.68499218958049,
    "lng": 126.843925563161,
    "region": "충청남도"
  },
  {
    "name": "석탑아파트(지하1층)",
    "address": "충청남도 예산군 예산읍 아리랑로 43(석탑유익아파트)",
    "lat": 36.68632219119338,
    "lng": 126.83403253494652,
    "region": "충청남도"
  },
  {
    "name": "서오1차아파트101동(지하1층)",
    "address": "충청남도 예산군 예산읍 역전로 150-6(서오아파트)",
    "lat": 36.69245745074406,
    "lng": 126.830867392702,
    "region": "충청남도"
  },
  {
    "name": "서오1차아파트102동(지하1층)",
    "address": "충청남도 예산군 예산읍 역전로 150-6(서오아파트)",
    "lat": 36.69245745074406,
    "lng": 126.830867392702,
    "region": "충청남도"
  },
  {
    "name": "국민은행예산지점(지하1층)",
    "address": "충청남도 예산군 예산읍 예산로 201, 국민은행 예산지점",
    "lat": 36.679902000741535,
    "lng": 126.84708334525529,
    "region": "충청남도"
  },
  {
    "name": "남선아파트(지하1층)",
    "address": "충청남도 예산군 삽교읍 두리학교길 28",
    "lat": 36.68704097668008,
    "lng": 126.74482217531832,
    "region": "충청남도"
  },
  {
    "name": "봉림아파트(지하1층)",
    "address": "충청남도 예산군 삽교읍 삽교로 131-7 (봉림아파트)",
    "lat": 36.68653510160252,
    "lng": 126.74301739162831,
    "region": "충청남도"
  },
  {
    "name": "양우아파트(지하1층)",
    "address": "충청남도 예산군 삽교읍 두리3길 29 (양우아파트)",
    "lat": 36.68783526423861,
    "lng": 126.73883926694135,
    "region": "충청남도"
  },
  {
    "name": "서오2차아파트201동(지하1층)",
    "address": "충청남도 예산군 예산읍 역전로 150-13(서오2차아파트)",
    "lat": 36.69229723591891,
    "lng": 126.83178066697587,
    "region": "충청남도"
  },
  {
    "name": "서오2차아파트202동(지하1층)",
    "address": "충청남도 예산군 예산읍 역전로 150-13(서오2차아파트)",
    "lat": 36.69229723591891,
    "lng": 126.83178066697587,
    "region": "충청남도"
  },
  {
    "name": "서오백송 아파트 301동(지하1층)",
    "address": "충청남도 예산군 예산읍 역전로160번길 16(한신아파트)",
    "lat": 36.69336964490882,
    "lng": 126.83211737654472,
    "region": "충청남도"
  },
  {
    "name": "서오백송 아파트 303동(지하1층)",
    "address": "충청남도 예산군 예산읍 역전로160번길 16(한신아파트)",
    "lat": 36.69336964490882,
    "lng": 126.83211737654472,
    "region": "충청남도"
  },
  {
    "name": "서오백송 아파트 304동(지하1층)",
    "address": "충청남도 예산군 예산읍 역전로160번길 16(한신아파트)",
    "lat": 36.69336964490882,
    "lng": 126.83211737654472,
    "region": "충청남도"
  },
  {
    "name": "신례원현대아파트103동(지하1층)",
    "address": "충청남도 예산군 예산읍 창신로 55(신례원현대아파트)",
    "lat": 36.72278000014677,
    "lng": 126.83820154600352,
    "region": "충청남도"
  },
  {
    "name": "신례원현대아파트104동(지하1층)",
    "address": "충청남도 예산군 예산읍 창신로 55(신례원현대아파트)",
    "lat": 36.72278000014677,
    "lng": 126.83820154600352,
    "region": "충청남도"
  },
  {
    "name": "신례원현대아파트105동(지하1층)",
    "address": "충청남도 예산군 예산읍 창신로 55(신례원현대아파트)",
    "lat": 36.72278000014677,
    "lng": 126.83820154600352,
    "region": "충청남도"
  },
  {
    "name": "능금마을 신성아파트102동(지하1층)",
    "address": "충청남도 예산군 예산읍 아리랑로144번길 19(능금마을신성아파트)",
    "lat": 36.68499218958049,
    "lng": 126.843925563161,
    "region": "충청남도"
  },
  {
    "name": "능금마을 신성아파트103동(지하1층)",
    "address": "충청남도 예산군 예산읍 아리랑로144번길 19(능금마을신성아파트)",
    "lat": 36.68499218958049,
    "lng": 126.843925563161,
    "region": "충청남도"
  },
  {
    "name": "능금마을 신성아파트 104동(지하1층)",
    "address": "충청남도 예산군 예산읍 아리랑로144번길 19(능금마을신성아파트)",
    "lat": 36.68499218958049,
    "lng": 126.843925563161,
    "region": "충청남도"
  },
  {
    "name": "능금마을 신성아파트 105동(지하1층)",
    "address": "충청남도 예산군 예산읍 아리랑로144번길 19(능금마을신성아파트)",
    "lat": 36.68499218958049,
    "lng": 126.843925563161,
    "region": "충청남도"
  },
  {
    "name": "서오백송 아파트 302동(지하1층)",
    "address": "충청남도 예산군 예산읍 역전로160번길 16(한신아파트)",
    "lat": 36.69336964490882,
    "lng": 126.83211737654472,
    "region": "충청남도"
  },
  {
    "name": "서오백송 아파트 지하주차장(지하1층)",
    "address": "충청남도 예산군 예산읍 역전로160번길 16(한신아파트)",
    "lat": 36.69336964490882,
    "lng": 126.83211737654472,
    "region": "충청남도"
  },
  {
    "name": "KT예산지사(지하1층)",
    "address": "충청남도 예산군 예산읍 예산로 122, KT 예산지점",
    "lat": 36.67883768167252,
    "lng": 126.83865678544932,
    "region": "충청남도"
  },
  {
    "name": "한국전력공사예산지사(지하1층)",
    "address": "충청남도 예산군 예산읍 금오대로 151, 한국전력공사",
    "lat": 36.68863749401133,
    "lng": 126.84289426657512,
    "region": "충청남도"
  },
  {
    "name": "우방유쉘아파트 지하주차장(지하1층)",
    "address": "충청남도 예산군 예산읍 벚꽃로 175-17(예산우방유쉘아파트)",
    "lat": 36.69598315314019,
    "lng": 126.83499945300592,
    "region": "충청남도"
  },
  {
    "name": "세광엔리치타워아파트 지하주차장(지하1~2층)",
    "address": "충청남도 예산군 예산읍 아리랑로 93-10 (예산1차세광엔리치타워아파트)",
    "lat": 36.68778859186327,
    "lng": 126.8401615514716,
    "region": "충청남도"
  },
  {
    "name": "아름채아파트 지하주차장(지하1층)",
    "address": "충청남도 예산군 예산읍 창신로 51-7(아름채 아파트)",
    "lat": 36.72315873189628,
    "lng": 126.83800881982953,
    "region": "충청남도"
  },
  {
    "name": "예산발연계룡리슈빌아파트 지하주차장(지하1층)",
    "address": "충청남도 예산군 예산읍 벚꽃로155번길 50(예산발연계룡리슈빌)",
    "lat": 36.695297012021136,
    "lng": 126.83192447610212,
    "region": "충청남도"
  },
  {
    "name": "산성주공아파트 지하주차장(지하1층)",
    "address": "충청남도 예산군 예산읍 아리랑로 77-6(주공아파트)",
    "lat": 36.68737911219692,
    "lng": 126.83839604748948,
    "region": "충청남도"
  },
  {
    "name": "써니밸리아파트 지하주차장(지하1층)",
    "address": "충청남도 예산군 덕산면 덕산온천로 413-26 (덕산써니벨리아파트)",
    "lat": 36.70437605326246,
    "lng": 126.66474513175538,
    "region": "충청남도"
  },
  {
    "name": "태안군청 지하1층",
    "address": "충청남도 태안군 태안읍 군청로 1, 태안군청",
    "lat": 36.74551158828318,
    "lng": 126.29945834030946,
    "region": "충청남도"
  },
  {
    "name": "태안도서관 지하1층",
    "address": "충청남도 태안군 태안읍 원이로 20, 태안도서관",
    "lat": 36.75952724981534,
    "lng": 126.29064959994498,
    "region": "충청남도"
  },
  {
    "name": "진흥아파트 지하주차장 1층",
    "address": "충청남도 태안군 태안읍 군청10길 14(진흥더블파크아파트)",
    "lat": 36.74640186331136,
    "lng": 126.29736857481072,
    "region": "충청남도"
  },
  {
    "name": "태안교육지원청 지하1층",
    "address": "충청남도 태안군 태안읍 원이로 28, 충청남도태안교육청",
    "lat": 36.76041867904347,
    "lng": 126.29088599576744,
    "region": "충청남도"
  },
  {
    "name": "한주아파트 지하주차장 1층",
    "address": "충청남도 태안군 태안읍 백화로 136(한주아파트)",
    "lat": 36.7556575322645,
    "lng": 126.30499095410607,
    "region": "충청남도"
  },
  {
    "name": "초원아파트 지하주차장 1층",
    "address": "충청남도 태안군 태안읍 한양길 61-28(초원아파트)",
    "lat": 36.75645554351436,
    "lng": 126.30212522869782,
    "region": "충청남도"
  },
  {
    "name": "태안읍사무소 지하1층",
    "address": "충청남도 태안군 태안읍 백화로 54, 태안읍사무소",
    "lat": 36.75792253328343,
    "lng": 126.29648862229118,
    "region": "충청남도"
  },
  {
    "name": "태안청솔주공아파트 지하주차장 1층",
    "address": "충청남도 태안군 태안읍 동문7길 20(주공아파트)",
    "lat": 36.7487148327385,
    "lng": 126.3072640103231,
    "region": "충청남도"
  },
  {
    "name": "평천휴먼시아아파트 지하주차장 1층",
    "address": "충청남도 태안군 태안읍 동평로 42(평천휴먼시아아파트)",
    "lat": 36.750154716160665,
    "lng": 126.3093093416624,
    "region": "충청남도"
  },
  {
    "name": "태안군청소년수련관 지하 1층",
    "address": "충청남도 태안군 태안읍 백화로 199, 청소년수련관",
    "lat": 36.7564248979555,
    "lng": 126.31325219901724,
    "region": "충청남도"
  },
  {
    "name": "태안남문코아루아파트 지하주차장 1층",
    "address": "충청남도 태안군 태안읍 후곡로 16(코아루아파트)",
    "lat": 36.75024267798119,
    "lng": 126.29663648452632,
    "region": "충청남도"
  },
  {
    "name": "새빛마을아파트 지하주차장 1층",
    "address": "충청남도 태안군 태안읍 동평로 16(새빛마을)",
    "lat": 36.74771889916772,
    "lng": 126.30907517228609,
    "region": "충청남도"
  },
  {
    "name": "신성 미소지움 1차 아파트 지하주차장 1층",
    "address": "충청남도 계룡시 장안1길 9 (금암동)",
    "lat": 36.27176047456828,
    "lng": 127.24808019972892,
    "region": "충청남도"
  },
  {
    "name": "신성 미소지움 2차 아파트 지하주차장 1층",
    "address": "충청남도 계룡시 서금암5길 9(금암동, 신성미소지움2차아파트)",
    "lat": 36.26882509398525,
    "lng": 127.25583788405837,
    "region": "충청남도"
  },
  {
    "name": "우림루미아트 아파트 지하주차장 1층",
    "address": "충청남도 계룡시 장안로 75 (금암동)",
    "lat": 36.271264323904425,
    "lng": 127.24907181007404,
    "region": "충청남도"
  },
  {
    "name": "엄사사거리 지하보도 (지하 1층)",
    "address": "충청남도 계룡시 엄사면 번영로 34",
    "lat": 36.28876909231491,
    "lng": 127.24139823373874,
    "region": "충청남도"
  },
  {
    "name": "대동황토방아파트 지하주차장 1층",
    "address": "충청남도 계룡시 엄사면 번영3길 91(대동황토방아파트)",
    "lat": 36.28101449884715,
    "lng": 127.23639737237026,
    "region": "충청남도"
  },
  {
    "name": "삼진아파트 지하주차장 1층",
    "address": "충청남도 계룡시 엄사면 번영3길 73-12(삼진아파트)",
    "lat": 36.28216595901141,
    "lng": 127.23807413451418,
    "region": "충청남도"
  },
  {
    "name": "계룡대림e편한세상아파트 지하주차장 1층",
    "address": "충청남도 계룡시 두마면 사계로 51(계룡대림e편한세상아파트)",
    "lat": 36.26870084352584,
    "lng": 127.2654352084346,
    "region": "충청남도"
  },
  {
    "name": "계룡더샵아파트 지하주차장 1층",
    "address": "충청남도 계룡시 두마면 사계로 101(계룡 더 샵 아파트)",
    "lat": 36.26731496461327,
    "lng": 127.27077775203752,
    "region": "충청남도"
  },
  {
    "name": "엄사상점가 공영지하주차장 (지하 1층, 2층)",
    "address": "충청남도 계룡시 엄사면 번영1길 5-17, 엄사상점가 공영주차장",
    "lat": 36.28909539280506,
    "lng": 127.24290713950612,
    "region": "충청남도"
  },
  {
    "name": "해미르 아파트 지하주차장 1층",
    "address": "충청남도 계룡시 신도안면 신도안3길 55(계룡대해미르아파트)",
    "lat": 36.29592030584818,
    "lng": 127.24243026032036,
    "region": "충청남도"
  },
  {
    "name": "파라디아아파트 지하주차장 1층",
    "address": "충청남도 계룡시 엄사면 번영로 113-32(계룡파라디아)",
    "lat": 36.283773994834064,
    "lng": 127.23278826532344,
    "region": "충청남도"
  },
  {
    "name": "계룡대실LH리슈빌아파트\n지하주차장 1층, 2층",
    "address": "충청남도 계룡시 두마면 농소로 64(계룡대실 LH리슈빌)",
    "lat": 36.260959319632136,
    "lng": 127.2581176508465,
    "region": "충청남도"
  },
  {
    "name": "계룡푸르지오더퍼스트아파트\n지하주차장 1층, 2층",
    "address": "충청남도 계룡시 두마면 농소로 63(계룡 푸르지오 더 퍼스트)",
    "lat": 36.26085693465441,
    "lng": 127.25852537359634,
    "region": "충청남도"
  },
  {
    "name": "두산신성아파트 지하배관실 민방위 대피시설",
    "address": "충청남도 계룡시 엄사면 엄사중앙로 65-9 (두산신성아파트)",
    "lat": 36.2866097617537,
    "lng": 127.240014917932,
    "region": "충청남도"
  },
  {
    "name": "합덕읍사무소(지하1층)",
    "address": "충청남도 당진시 합덕읍 예덕로 403 (합덕읍사무소)",
    "lat": 36.809683176847074,
    "lng": 126.76446106095374,
    "region": "충청남도"
  },
  {
    "name": "세원목화아파트(지하1층)",
    "address": "충청남도 당진시 계성3길 56-23 (읍내동, 목화아파트)",
    "lat": 36.90043188712677,
    "lng": 126.63416161227676,
    "region": "충청남도"
  },
  {
    "name": "벽산아파트(지하1층)",
    "address": "충청남도 당진시 계성2길 51 (읍내동, 벽산아파트)",
    "lat": 36.89826598955398,
    "lng": 126.631050312472,
    "region": "충청남도"
  },
  {
    "name": "청구아파트(지하1층)",
    "address": "충청남도 당진시 원당골길 31-0 (원당동, 당진청구아파트)",
    "lat": 36.90760370275504,
    "lng": 126.65610079037286,
    "region": "충청남도"
  },
  {
    "name": "한중아파트 (지하1층)",
    "address": "충청남도 당진시 서부로 271 (채운동, 한중아파트)",
    "lat": 36.89531102197869,
    "lng": 126.62320949172428,
    "region": "충청남도"
  },
  {
    "name": "순성세안아파트(지하1층)",
    "address": "충청남도 당진시 순성면 순성로 454 (세안근로자복지아파트)",
    "lat": 36.842297108134495,
    "lng": 126.70904661954414,
    "region": "충청남도"
  },
  {
    "name": "동부제강사원아파트 전체 동의 지하주차장 1층",
    "address": "충청남도 당진시 송악읍 신평로 1469, 지하1층 (동부제강(주)사원임대아파트)",
    "lat": 36.93075511579296,
    "lng": 126.74473377859148,
    "region": "충청남도"
  },
  {
    "name": "수웅누리아파트 전체 동의 지하주차장 1층",
    "address": "충청남도 당진시 송악읍 송악로 520, 지하1층 (수웅누리아파트)",
    "lat": 36.93324848916818,
    "lng": 126.72994563628242,
    "region": "충청남도"
  },
  {
    "name": "대상아파트(지하1층)",
    "address": "충청남도 당진시 송산면 송산로 164(대상아파트)",
    "lat": 36.92279960292709,
    "lng": 126.65874470579531,
    "region": "충청남도"
  },
  {
    "name": "송산중명아파트(지하1층)",
    "address": "충청남도 당진시 송산면 송산로 809(송산 중명아파트)",
    "lat": 36.95903245661236,
    "lng": 126.69570465014068,
    "region": "충청남도"
  },
  {
    "name": "페럼빌(관리동 지하1층)",
    "address": "충청남도 당진시 송산면 송산로 125(페럼빌)",
    "lat": 36.922824061691166,
    "lng": 126.65396949986004,
    "region": "충청남도"
  },
  {
    "name": "대동다숲아파트 (지하1층)",
    "address": "충청남도 당진시 대호만로 30-17 (채운동, 대동다:숲아파트)",
    "lat": 36.89873455773618,
    "lng": 126.62228105642812,
    "region": "충청남도"
  },
  {
    "name": "남산공원휴먼빌아파트(지하1층)",
    "address": "충청남도 당진시 무수동옛길 99 (읍내동, 남산공원휴먼빌아파트)",
    "lat": 36.89150885091462,
    "lng": 126.63610701463318,
    "region": "충청남도"
  },
  {
    "name": "부경1차아파트(지하1층)",
    "address": "충청남도 당진시 당진중앙2로 331-0 (원당동, 파크빌아파트)",
    "lat": 36.898219135500185,
    "lng": 126.6416693741533,
    "region": "충청남도"
  },
  {
    "name": "삼성쉐르빌아파트 (지하1층)",
    "address": "충청남도 당진시 대호만로 23-13 (채운동, 삼성쉐르빌)",
    "lat": 36.89750569980675,
    "lng": 126.62097459694472,
    "region": "충청남도"
  },
  {
    "name": "합덕도서관(지하1층)",
    "address": "충청남도 당진시 합덕읍 면천로 1578-1 (당진시립합덕도서관)",
    "lat": 36.81163510815156,
    "lng": 126.76064314633152,
    "region": "충청남도"
  },
  {
    "name": "홍인아이리스아파트(지하1~2층)",
    "address": "충청남도 당진시 합덕읍 운산로 116 (홍인아이리스아파트)",
    "lat": 36.80602233670312,
    "lng": 126.76844955995932,
    "region": "충청남도"
  },
  {
    "name": "송악신성미소지움아파트 지하주차장 1층",
    "address": "충청남도 당진시 송악읍 신복운로3길 28, 지하1층 (신성당진미소지움아파트)",
    "lat": 36.9378872863763,
    "lng": 126.77997181434392,
    "region": "충청남도"
  },
  {
    "name": "당진종합운동장 관리동(지하1층)",
    "address": "충청남도 당진시 고대면 고대로 33 (당진종합운동장 관리사무소 지하)",
    "lat": 36.92376138619901,
    "lng": 126.59919049042443,
    "region": "충청남도"
  },
  {
    "name": "순성농협(지하1층)",
    "address": "충청남도 당진시 순성면 순성로 495 (순성농협)",
    "lat": 36.842893473435296,
    "lng": 126.71351435105328,
    "region": "충청남도"
  },
  {
    "name": "송악이편한세상아파트 지하주차장 1층",
    "address": "충청남도 당진시 송악읍 반촌로 103, 지하1층 (송악e편한세상)",
    "lat": 36.90559054208597,
    "lng": 126.69364437892604,
    "region": "충청남도"
  },
  {
    "name": "당진시청(지하1층 다목적실)",
    "address": "충청남도 당진시 시청1로 1 (수청동, 당진시청)",
    "lat": 36.88959684331925,
    "lng": 126.64581313673546,
    "region": "충청남도"
  },
  {
    "name": "당진푸르지오1차아파트(지하1층)",
    "address": "충청남도 당진시 북문로 15 (읍내동, 당진1차푸르지오)",
    "lat": 36.89939953343063,
    "lng": 126.62705451114434,
    "region": "충청남도"
  },
  {
    "name": "하늘채아파트(지하1층)",
    "address": "충청남도 당진시 무수동7길 124 (읍내동, 하늘채아파트)",
    "lat": 36.892291822059626,
    "lng": 126.64024875754863,
    "region": "충청남도"
  },
  {
    "name": "리가아파트(지하1층)",
    "address": "충청남도 당진시 신평면 신평로 792(당진신평 LIG 리가아파트)",
    "lat": 36.88279396802866,
    "lng": 126.7769544832623,
    "region": "충청남도"
  },
  {
    "name": "풍림아이원아파트(지하1층)",
    "address": "충청남도 당진시 신평면 솔안말길 21(당진 신평 풍림아이원)",
    "lat": 36.88045677071453,
    "lng": 126.75687808859466,
    "region": "충청남도"
  },
  {
    "name": "신평코아루아파트(지하1층)",
    "address": "충청남도 당진시 신평면 거산3거리길 74-11(당진신평코아루아파트)",
    "lat": 36.88309757676252,
    "lng": 126.75741945339364,
    "region": "충청남도"
  },
  {
    "name": "대희지센트아파트(지하1층)",
    "address": "충청남도 당진시 신평면 덕평로 1406-14(당진대희지센트아파트)",
    "lat": 36.88060936692448,
    "lng": 126.75152764646664,
    "region": "충청남도"
  },
  {
    "name": "우민늘사랑아파트(지하2층)",
    "address": "충청남도 당진시 서해로 6216 (시곡동, 우민늘사랑아파트)",
    "lat": 36.901763380522574,
    "lng": 126.67628367608133,
    "region": "충청남도"
  },
  {
    "name": "당진 엠코아파트(지하1층)",
    "address": "충청남도 당진시 송산면 유곡로 20(당진엠코타운)",
    "lat": 36.96488999087284,
    "lng": 126.68795111813212,
    "region": "충청남도"
  },
  {
    "name": "천년나무아파트1단지(지하1층)",
    "address": "충청남도 당진시 석문면 해명1로 199(LH 천년나무 1단지아파트)",
    "lat": 36.98068866348714,
    "lng": 126.58660038831398,
    "region": "충청남도"
  },
  {
    "name": "천년나무아파트2단지(지하1층)",
    "address": "충청남도 당진시 석문면 해명1로 200(LH 천년나무 2단지아파트)",
    "lat": 36.9806962152029,
    "lng": 126.58723966948985,
    "region": "충청남도"
  },
  {
    "name": "롯데캐슬아파트 지하주차장 1층",
    "address": "충청남도 당진시 송악읍 반촌로 108, 지하1층 (당진롯데캐슬)",
    "lat": 36.9041244860619,
    "lng": 126.69594791365851,
    "region": "충청남도"
  },
  {
    "name": "힐스테이트1차아파트 지하주차장 2층",
    "address": "충청남도 당진시 송악읍 틀모시로 738, 지하2층 (힐스테이트 당진1차)",
    "lat": 36.89992978553199,
    "lng": 126.6938074050678,
    "region": "충청남도"
  },
  {
    "name": "신평미소지움아파트(지하1층)",
    "address": "충청남도 당진시 신평면 거산3거리길 74-32 (신평신성미소지움아파트)",
    "lat": 36.88215848449939,
    "lng": 126.7589532228834,
    "region": "충청남도"
  },
  {
    "name": "이안아파트(지하1층)",
    "address": "충청남도 당진시 무수동7길 78 (이안아파트)",
    "lat": 36.89022385892932,
    "lng": 126.64023823048974,
    "region": "충청남도"
  },
  {
    "name": "푸르지오2차아파트(지하1층)",
    "address": "충청남도 당진시 북문로 16 (당진2차푸르지오)",
    "lat": 36.89961164657318,
    "lng": 126.62735800268658,
    "region": "충청남도"
  },
  {
    "name": "신성대학교 보건과학관 (지하1층)",
    "address": "충청남도 당진시 정미면 대학로 1, 신성대학교 지하1층",
    "lat": 36.8521737702201,
    "lng": 126.596591411922,
    "region": "충청남도"
  },
  {
    "name": "유탑유블레스아파트 지하주차장(지하1층)",
    "address": "충청남도 당진시 우강면 합우로 323-9, 지하1층 (합덕 우강 유탑유블레스)",
    "lat": 36.8106165846852,
    "lng": 126.781690288481,
    "region": "충청남도"
  },
  {
    "name": "호반써밋시그니처1차 지하주차장(지하1층)",
    "address": "충청남도 당진시 수청3로 20 (수청동, 호반써밋 시그니처 1차)",
    "lat": 36.8908072169171,
    "lng": 126.649791979229,
    "region": "충청남도"
  },
  {
    "name": "호반써밋시그니처2차 지하주차장(지하1층)",
    "address": "충청남도 당진시 수청1로 51 (수청동, 호반써밋 시그니처 2차)",
    "lat": 36.8902986976911,
    "lng": 126.654548047156,
    "region": "충청남도"
  },
  {
    "name": "동부센트레빌르네블루1차 지하주차장(지하1층)",
    "address": "충청남도 당진시 수청중앙로 85 (수청동, 당진 센트레빌 르네블루 1차)",
    "lat": 36.8989812143548,
    "lng": 126.650750140869,
    "region": "충청남도"
  }
]