[
  {
    "name": "구 지하상가 지하1층",
    "address": "대전광역시 동구 중앙로 지하 200 (중동, 구지하상가)",
    "lat": 36.3310574658591,
    "lng": 127.43220845854108,
    "region": "대전광역시"
  },
  {
    "name": "용운주공2단지아파트 206동 지하1층",
    "address": "대전광역시 동구 백룡로 138 (용운동, 주공아파트)",
    "lat": 36.32873386342401,
    "lng": 127.45401817401148,
    "region": "대전광역시"
  },
  {
    "name": "용운주공2단지아파트 203동 지하1층",
    "address": "대전광역시 동구 백룡로 138 (용운동, 주공아파트)",
    "lat": 36.32873386342401,
    "lng": 127.45401817401148,
    "region": "대전광역시"
  },
  {
    "name": "대전대학교 학생회관 식당(지하1층)",
    "address": "대전광역시 동구 대학로 62 (대전대학교)",
    "lat": 36.33525655718825,
    "lng": 127.4582843795763,
    "region": "대전광역시"
  },
  {
    "name": "동대전성결교회 지하주차장 1층",
    "address": "대전광역시 동구 미래길 4 (자양동, 동대전성결교회)",
    "lat": 36.3319155465647,
    "lng": 127.440982969537,
    "region": "대전광역시"
  },
  {
    "name": "인동현대아파트101동 지하실(지하1층)",
    "address": "대전광역시 동구 대전로 664 (인동, 현대아파트)",
    "lat": 36.31979227377691,
    "lng": 127.43897057158624,
    "region": "대전광역시"
  },
  {
    "name": "인동현대아파트106동 지하실(지하1층)",
    "address": "대전광역시 동구 대전로 664 (인동)",
    "lat": 36.31979227377691,
    "lng": 127.43897057158624,
    "region": "대전광역시"
  },
  {
    "name": "동대전정신병원 지하1층",
    "address": "대전광역시 동구 옥천로 315 (삼정동)",
    "lat": 36.3229498830978,
    "lng": 127.4713842556835,
    "region": "대전광역시"
  },
  {
    "name": "평화아파트 지하주차장(지하1층)",
    "address": "대전광역시 동구 비래서로62번길 5 (가양동, 평화아파트)",
    "lat": 36.35391580690807,
    "lng": 127.45116296631429,
    "region": "대전광역시"
  },
  {
    "name": "판암초등학교 지하1층",
    "address": "대전광역시 동구 옥천로180번길 32 (판암동, 대전판암초등학교)",
    "lat": 36.31601199669117,
    "lng": 127.46111622222304,
    "region": "대전광역시"
  },
  {
    "name": "판암주공아파트 104동 지하1층",
    "address": "대전광역시 동구 옥천로180번길 47-2 (판암동, 주공아파트)",
    "lat": 36.31558374908282,
    "lng": 127.4620182723746,
    "region": "대전광역시"
  },
  {
    "name": "판암주공아파트 105동 지하1층",
    "address": "대전광역시 동구 옥천로180번길 47-2 (판암동, 주공아파트)",
    "lat": 36.31558374908282,
    "lng": 127.4620182723746,
    "region": "대전광역시"
  },
  {
    "name": "판암주공아파트 207동 지하1층",
    "address": "대전광역시 동구 옥천로180번길 23 (판암동, 주공아파트)",
    "lat": 36.316472180258174,
    "lng": 127.46111373460654,
    "region": "대전광역시"
  },
  {
    "name": "판암주공아파트 208동 지하1층",
    "address": "대전광역시 동구 옥천로180번길 23 (판암동, 주공아파트)",
    "lat": 36.316472180258174,
    "lng": 127.46111373460654,
    "region": "대전광역시"
  },
  {
    "name": "판암주공아파트 210동 지하1층",
    "address": "대전광역시 동구 옥천로180번길 23 (판암동, 주공아파트)",
    "lat": 36.316472180258174,
    "lng": 127.46111373460654,
    "region": "대전광역시"
  },
  {
    "name": "삼정하이츠타운 1동 지하1층",
    "address": "대전광역시 동구 동부로73번길 95 (용운동, 삼정하이츠타운)",
    "lat": 36.32605609982475,
    "lng": 127.45830336713932,
    "region": "대전광역시"
  },
  {
    "name": "삼정하이츠타운 5동 지하1층",
    "address": "대전광역시 동구 동부로73번길 95 (용운동, 삼정하이츠타운)",
    "lat": 36.32605609982475,
    "lng": 127.45830336713932,
    "region": "대전광역시"
  },
  {
    "name": "삼정하이츠타운 6동 지하1층",
    "address": "대전광역시 동구 동부로73번길 95 (용운동, 삼정하이츠타운)",
    "lat": 36.32605609982475,
    "lng": 127.45830336713932,
    "region": "대전광역시"
  },
  {
    "name": "동아마이스터고등학교 지하실 1층",
    "address": "대전광역시 동구 충정로 97 (자양동, 동아마이스터고등학교)",
    "lat": 36.3445432925184,
    "lng": 127.452678911861,
    "region": "대전광역시"
  },
  {
    "name": "대전보건대학 지하주차장(지하1층)",
    "address": "대전광역시 동구 충정로 21 (가양동, 대전보건대학)",
    "lat": 36.34859152782427,
    "lng": 127.45358131265522,
    "region": "대전광역시"
  },
  {
    "name": "대전대학교 한의학관 주차장(지하1층)",
    "address": "대전광역시 동구 대학로 62 (용운동, 대전대학교)",
    "lat": 36.33525655718825,
    "lng": 127.4582843795763,
    "region": "대전광역시"
  },
  {
    "name": "우송뷰티센터 지하실 1층",
    "address": "대전광역시 동구 동대전로 143 (자양동)",
    "lat": 36.33505222202893,
    "lng": 127.44624182870756,
    "region": "대전광역시"
  },
  {
    "name": "상수도 동부사업소 지하식당(지하1층)",
    "address": "대전광역시 동구 동대전로 292 (가양동)",
    "lat": 36.34691209497999,
    "lng": 127.44501518124036,
    "region": "대전광역시"
  },
  {
    "name": "판암주공아파트 401동 지하1층",
    "address": "대전광역시 동구 동부로 56-8 (판암동, 주공아파트)",
    "lat": 36.321133027769314,
    "lng": 127.45917427322424,
    "region": "대전광역시"
  },
  {
    "name": "판암주공아파트 505동 지하1층",
    "address": "대전광역시 동구 동부로 73 (판암동, 주공아파트)",
    "lat": 36.32262746067063,
    "lng": 127.46036867504544,
    "region": "대전광역시"
  },
  {
    "name": "판암주공아파트 603동 지하1층",
    "address": "대전광역시 동구 동부로 55-58 (주공아파트6단지)",
    "lat": 36.32365932174247,
    "lng": 127.45867141554034,
    "region": "대전광역시"
  },
  {
    "name": "대웅제약빌딩 지하주차장 1층",
    "address": "대전광역시 동구 동대전로 331 (가양동)",
    "lat": 36.349857910836846,
    "lng": 127.44266569290352,
    "region": "대전광역시"
  },
  {
    "name": "삼덕빌라 지하주차장(지하1층)",
    "address": "대전광역시 동구 동대전로284번길 64 (가양동, 삼덕빌라)",
    "lat": 36.34758811253855,
    "lng": 127.4485466942086,
    "region": "대전광역시"
  },
  {
    "name": "삼진빌딩 지하1층 주차장",
    "address": "대전광역시 동구 동부로 47-0 (판암동)",
    "lat": 36.32090156380652,
    "lng": 127.45802276044704,
    "region": "대전광역시"
  },
  {
    "name": "대전대학교 2생활관 학생식당(지하1층)",
    "address": "대전광역시 동구 대학로 62 (용운동, 대전대학교)",
    "lat": 36.33525655718825,
    "lng": 127.4582843795763,
    "region": "대전광역시"
  },
  {
    "name": "우송예술회관 지하실 1층",
    "address": "대전광역시 동구 동대전로 171 (자양동)",
    "lat": 36.33751886549275,
    "lng": 127.44715123487217,
    "region": "대전광역시"
  },
  {
    "name": "현암아파트 1동 지하1층",
    "address": "대전광역시 동구 대전로994번길 75 (홍도동, 현암아파트)",
    "lat": 36.34378915850223,
    "lng": 127.42461380492404,
    "region": "대전광역시"
  },
  {
    "name": "현암아파트 2동 지하1층",
    "address": "대전광역시 동구 대전로994번길 75 (홍도동, 현암아파트)",
    "lat": 36.34378915850223,
    "lng": 127.42461380492404,
    "region": "대전광역시"
  },
  {
    "name": "현암아파트 3동 지하1층",
    "address": "대전광역시 동구 대전로994번길 75 (홍도동, 현암아파트)",
    "lat": 36.34378915850223,
    "lng": 127.42461380492404,
    "region": "대전광역시"
  },
  {
    "name": "동구청소년자연수련관 지하시설 지하1층",
    "address": "대전광역시 동구 산내로474번길 123 (상소동, 대전광역시동구청소년자연수련관)",
    "lat": 36.2224074558593,
    "lng": 127.44965791046408,
    "region": "대전광역시"
  },
  {
    "name": "대전대학교 지산도서관 지하주차장 (지하1층)",
    "address": "대전광역시 동구 대학로 62 (용운동, 대전대학교)",
    "lat": 36.33525655718825,
    "lng": 127.4582843795763,
    "region": "대전광역시"
  },
  {
    "name": "대전대학교 인문학관(6호관) 학생식당(지하1층)",
    "address": "대전광역시 동구 대학로 62 (용운동, 대전대학교)",
    "lat": 36.33525655718825,
    "lng": 127.4582843795763,
    "region": "대전광역시"
  },
  {
    "name": "효동현대아파트 103동 앞 지하주차장 1층~2층",
    "address": "대전광역시 동구 대전로 646 (효동, 효동현대아파트)",
    "lat": 36.3182148562036,
    "lng": 127.4395630832204,
    "region": "대전광역시"
  },
  {
    "name": "선샤인호텔 지하주차장 1층",
    "address": "대전광역시 동구 동서대로 1700 (가양동)",
    "lat": 36.34919921307117,
    "lng": 127.43856866966468,
    "region": "대전광역시"
  },
  {
    "name": "판암 미리내아파트 103동 지하1층 주차장",
    "address": "대전광역시 동구 동구청로203번길 36 (판암동, 미리내아파트)",
    "lat": 36.31609593841016,
    "lng": 127.45467530864836,
    "region": "대전광역시"
  },
  {
    "name": "판암 미리내아파트 101동 지하1층 주차장",
    "address": "대전광역시 동구 동구청로203번길 35 (판암동, 미리내아파트)",
    "lat": 36.3159655651106,
    "lng": 127.454706467039,
    "region": "대전광역시"
  },
  {
    "name": "판암테크노타운 지하1층 주차장",
    "address": "대전광역시 동구 새울로 41-0",
    "lat": 36.32206616430352,
    "lng": 127.46240942478778,
    "region": "대전광역시"
  },
  {
    "name": "한숲아파트 101동 앞 지하주차장 1층",
    "address": "대전광역시 동구 계족로489번길 73 (용전동, 한숲아파트)",
    "lat": 36.35542825347848,
    "lng": 127.42864551007202,
    "region": "대전광역시"
  },
  {
    "name": "한숲아파트 105동 앞 지하주차장 1층",
    "address": "대전광역시 동구 계족로489번길 73 (용전동, 한숲아파트)",
    "lat": 36.35542825347848,
    "lng": 127.42864551007202,
    "region": "대전광역시"
  },
  {
    "name": "한숲아파트 107동 앞 지하주차장 1층",
    "address": "대전광역시 동구 계족로489번길 73 (용전동, 한숲아파트)",
    "lat": 36.35542825347848,
    "lng": 127.42864551007202,
    "region": "대전광역시"
  },
  {
    "name": "한숲아파트 109동 앞 지하주차장 1층",
    "address": "대전광역시 동구 계족로489번길 73 (용전동, 한숲아파트)",
    "lat": 36.35542825347848,
    "lng": 127.42864551007202,
    "region": "대전광역시"
  },
  {
    "name": "한숲아파트 114동 앞 지하주차장 1층",
    "address": "대전광역시 동구 계족로489번길 73 (용전동, 한숲아파트)",
    "lat": 36.35542825347848,
    "lng": 127.42864551007202,
    "region": "대전광역시"
  },
  {
    "name": "큰솔아파트1단지 지하주차장 1층",
    "address": "대전광역시 동구 계족로512번길 52 (용전동, 큰솔아파트1단지)",
    "lat": 36.35584461228136,
    "lng": 127.43487969560375,
    "region": "대전광역시"
  },
  {
    "name": "석촌마을아파트 지하주차장 1층",
    "address": "대전광역시 동구 우암로 186 (성남동, 석촌마을)",
    "lat": 36.34120669433788,
    "lng": 127.43780312219852,
    "region": "대전광역시"
  },
  {
    "name": "솔랑마을아파트 지하 1층 주차장",
    "address": "대전광역시 동구 대전로 968 (삼성동, 솔랑마을아파트)",
    "lat": 36.34340857076067,
    "lng": 127.42294115583856,
    "region": "대전광역시"
  },
  {
    "name": "용방마을아파트 303동 앞 주차건물 지하1층",
    "address": "대전광역시 동구 용운로 80 (용운동, 용방마을아파트)",
    "lat": 36.32700088946982,
    "lng": 127.45136517506776,
    "region": "대전광역시"
  },
  {
    "name": "용방마을아파트 308동 앞 주차건물 지하1층",
    "address": "대전광역시 동구 용운로 80 (용운동, 용방마을아파트)",
    "lat": 36.32700088946982,
    "lng": 127.45136517506776,
    "region": "대전광역시"
  },
  {
    "name": "용방마을아파트 318동 앞 주차건물 지하1층",
    "address": "대전광역시 동구 용운로 80 (용운동, 용방마을아파트)",
    "lat": 36.32700088946982,
    "lng": 127.45136517506776,
    "region": "대전광역시"
  },
  {
    "name": "석천들마을아파트 지하1층 주차장(103동과 104동사이",
    "address": "대전광역시 동구 산내로1257번길 40 (낭월동, 석천들주공아파트)",
    "lat": 36.27652529761622,
    "lng": 127.46795440030036,
    "region": "대전광역시"
  },
  {
    "name": "석천들마을아파트 지하1층 주차장(104동과 105동사이",
    "address": "대전광역시 동구 산내로1257번길 40 (낭월동, 석천들주공아파트)",
    "lat": 36.27652529761622,
    "lng": 127.46795440030036,
    "region": "대전광역시"
  },
  {
    "name": "석천들마을아파트 지하1층 주차장(114동과 115동사이",
    "address": "대전광역시 동구 산내로1257번길 40 (낭월동, 석천들주공아파트)",
    "lat": 36.27652529761622,
    "lng": 127.46795440030036,
    "region": "대전광역시"
  },
  {
    "name": "부성한울아파트 지하주차장(지하1층)",
    "address": "대전광역시 동구 동서대로1770번길 76 (가양동, 한울아파트)",
    "lat": 36.352182046250256,
    "lng": 127.44753233377452,
    "region": "대전광역시"
  },
  {
    "name": "큰솔아파트 지하주차장(지하1층)",
    "address": "대전광역시 동구 충정로18번길 60 (가양동, 큰솔아파트)",
    "lat": 36.34703120619327,
    "lng": 127.45085421115256,
    "region": "대전광역시"
  },
  {
    "name": "효촌마을아파트 208동 지하주차장 1층",
    "address": "대전광역시 동구 계족로368번길 11 (성남동, 효촌마을아파트)",
    "lat": 36.344920315049286,
    "lng": 127.4345282348834,
    "region": "대전광역시"
  },
  {
    "name": "어진마을아파트 지하주차장(지하1층)",
    "address": "대전광역시 동구 계족로 65 (인동)",
    "lat": 36.320719388259405,
    "lng": 127.44298131411152,
    "region": "대전광역시"
  },
  {
    "name": "한밭여자중학교 본관 지하1층",
    "address": "대전광역시 동구 동대전로110번길 74-57 (대동, 한밭여자중학교)",
    "lat": 36.33017000491851,
    "lng": 127.44834787887427,
    "region": "대전광역시"
  },
  {
    "name": "신동아파밀리에아파트 1단지 지하주차장 1층",
    "address": "대전광역시 동구 동산초교로 46 (홍도동, 신동아파밀리에아파트1단지)",
    "lat": 36.34772711321398,
    "lng": 127.42518095225525,
    "region": "대전광역시"
  },
  {
    "name": "오투그란데아파트 지하1층 주차장",
    "address": "대전광역시 동구 산내로 1375 (낭월동, 오투그란데아파트)",
    "lat": 36.28573463850036,
    "lng": 127.46504208660708,
    "region": "대전광역시"
  },
  {
    "name": "은어송마을2단지아파트 지하1층 주차장",
    "address": "대전광역시 동구 동구청로 35 (대성동, 은어송마을2단지코오롱하늘채)",
    "lat": 36.30192299100447,
    "lng": 127.45949844505228,
    "region": "대전광역시"
  },
  {
    "name": "대전도시철도공사 판암역 지하1,2층",
    "address": "대전광역시 동구 옥천로 지하 162 (판암동, 판암역)",
    "lat": 36.31691349405213,
    "lng": 127.45834396956386,
    "region": "대전광역시"
  },
  {
    "name": "대전도시철도공사 대전역 지하1층~5층",
    "address": "대전광역시 동구 중앙로 지하 218 (중동, 대전역(도시철도))",
    "lat": 36.33113959318519,
    "lng": 127.43314242945225,
    "region": "대전광역시"
  },
  {
    "name": "도시철도 대동역사 1번~ 6번 출구 지하1층~3층",
    "address": "대전광역시 동구 계족로 지하176, 대동역 (대동)",
    "lat": 36.32936996216789,
    "lng": 127.44264784894284,
    "region": "대전광역시"
  },
  {
    "name": "대전도시철도공사 신흥역 지하1,2층",
    "address": "대전광역시 동구 옥천로 71 (판암동)",
    "lat": 36.3197602917644,
    "lng": 127.44920732328,
    "region": "대전광역시"
  },
  {
    "name": "천동휴먼시아1단지 107동 옆 지하1층 주차장",
    "address": "대전광역시 동구 대전로542번길 78 (천동, 휴먼시아1단지아파트)",
    "lat": 36.3154466747184,
    "lng": 127.4457935075381,
    "region": "대전광역시"
  },
  {
    "name": "은어송마을1단지 108동 앞 지하 1층 주차장",
    "address": "대전광역시 동구 동구청로 67 (가오동, 은어송마을1단지)",
    "lat": 36.303987448700326,
    "lng": 127.45762963680424,
    "region": "대전광역시"
  },
  {
    "name": "은어송마을3단지 307동 옆  지하 1층 주차장",
    "address": "대전광역시 동구 은어송로 117 (가오동, 은어송마을3단지)",
    "lat": 36.31070557208716,
    "lng": 127.45961891640032,
    "region": "대전광역시"
  },
  {
    "name": "은어송마을6단지 601동 뒤편 지하 1층 주차장",
    "address": "대전광역시 동구 신기로 100 (가오동, 은어송마을6단지)",
    "lat": 36.31037005396893,
    "lng": 127.45706030586452,
    "region": "대전광역시"
  },
  {
    "name": "새피앙아파트 101동 지하주차장 1층",
    "address": "대전광역시 동구 홍도로 60 (용전동, 새피앙아파트)",
    "lat": 36.35105495895284,
    "lng": 127.42898928342558,
    "region": "대전광역시"
  },
  {
    "name": "새피앙아파트 102동 지하주차장 1층",
    "address": "대전광역시 동구 홍도로46번길 20 (용전동, 새피앙아파트)",
    "lat": 36.35060332343272,
    "lng": 127.42907266390544,
    "region": "대전광역시"
  },
  {
    "name": "아침마을101동~104동지하주차장 1층",
    "address": "대전광역시 동구 우암로 192 (가양동, 아침마을)",
    "lat": 36.34157776862814,
    "lng": 127.4388557889967,
    "region": "대전광역시"
  },
  {
    "name": "아침마을105동~107동지하주차장 1층",
    "address": "대전광역시 동구 우암로 192 (가양동, 아침마을)",
    "lat": 36.34157776862814,
    "lng": 127.4388557889967,
    "region": "대전광역시"
  },
  {
    "name": "아침마을110동,114동~116동지하주차장 1층",
    "address": "대전광역시 동구 우암로 192 (가양동, 아침마을)",
    "lat": 36.34157776862814,
    "lng": 127.4388557889967,
    "region": "대전광역시"
  },
  {
    "name": "아침마을108동~109동,111동~113동지하주차장1층",
    "address": "대전광역시 동구 우암로 192 (가양동, 아침마을)",
    "lat": 36.34157776862814,
    "lng": 127.4388557889967,
    "region": "대전광역시"
  },
  {
    "name": "참좋은아파트 지하주차장 1층",
    "address": "대전광역시 동구 대전로 706 (인동, 동구인동참좋은아파트)",
    "lat": 36.32342814023784,
    "lng": 127.43716644614366,
    "region": "대전광역시"
  },
  {
    "name": "신흥마을아파트 지하주차장(지하1층)",
    "address": "대전광역시 동구 옥천로 38 (신흥동)",
    "lat": 36.32083854235599,
    "lng": 127.44546502502256,
    "region": "대전광역시"
  },
  {
    "name": "한밭자이아파트 지하 1층 주차장",
    "address": "대전광역시 동구 대전로 935 (삼성동, 한밭자이아파트)",
    "lat": 36.341011552265726,
    "lng": 127.42504858377325,
    "region": "대전광역시"
  },
  {
    "name": "맑은미소아파트 지하 1층 주차장",
    "address": "대전광역시 동구 대전로 872 (삼성동, 맑은미소아파트)",
    "lat": 36.33697053189,
    "lng": 127.4303094536792,
    "region": "대전광역시"
  },
  {
    "name": "삼성타운1단지아파트 지하 1층 주차장",
    "address": "대전광역시 동구 우암로 133 (삼성동, 주공삼성타운아파트)",
    "lat": 36.33981637817504,
    "lng": 127.43268057964843,
    "region": "대전광역시"
  },
  {
    "name": "삼성타운2단지아파트 지하 1층 주차장",
    "address": "대전광역시 동구 우암로 133-1 (삼성동, 주공삼성타운아파트)",
    "lat": 36.34047832202308,
    "lng": 127.4326315269761,
    "region": "대전광역시"
  },
  {
    "name": "스마트뷰아파트 101동 지하주차장 1층~2층",
    "address": "대전광역시 동구 성남로 15 (성남동, 스마트뷰)",
    "lat": 36.3434505490189,
    "lng": 127.43234231979466,
    "region": "대전광역시"
  },
  {
    "name": "대전복합터미널 동관 지하1층",
    "address": "대전광역시 동구 동서대로1695번길 30 (용전동)",
    "lat": 36.35099474379561,
    "lng": 127.43745295935548,
    "region": "대전광역시"
  },
  {
    "name": "대전복합터미널 서관 지하2층",
    "address": "대전광역시 동구 동서대로 1689 (용전동)",
    "lat": 36.349986548127134,
    "lng": 127.43697032577248,
    "region": "대전광역시"
  },
  {
    "name": "남대전e편한세상아파트 지하1층 주차장",
    "address": "대전광역시 동구 산내로 1330 (낭월동, 남대전e편한세상)",
    "lat": 36.28223777429379,
    "lng": 127.46799810627802,
    "region": "대전광역시"
  },
  {
    "name": "펜타뷰아파트 지하1층주차장",
    "address": "대전광역시 동구 계족로140번길 33 (대동, 펜타뷰)",
    "lat": 36.32638069921923,
    "lng": 127.4466604180387,
    "region": "대전광역시"
  },
  {
    "name": "새들뫼휴먼시아1단지\n지하1층주차장",
    "address": "대전광역시 동구 계족로 137 (대동, 새들뫼휴먼시아1단지)",
    "lat": 36.32640462176787,
    "lng": 127.44208711037416,
    "region": "대전광역시"
  },
  {
    "name": "광제사 지하실 1층",
    "address": "대전광역시 동구 성동로13번길 10 (자양동)",
    "lat": 36.33777197023405,
    "lng": 127.45290393853672,
    "region": "대전광역시"
  },
  {
    "name": "신동아파밀리에아파트 2단지 지하주차장 1층",
    "address": "대전광역시 동구 동산초교로 34 (홍도동, 신동아파밀리에아파트2단지)",
    "lat": 36.34703299661394,
    "lng": 127.42615134893538,
    "region": "대전광역시"
  },
  {
    "name": "신동아파밀리에아파트 3단지 지하주차장 1층",
    "address": "대전광역시 동구 동산초교로55번길 20 (홍도동, 신동아파밀리에아파트3단지)",
    "lat": 36.34791657778338,
    "lng": 127.42328328030078,
    "region": "대전광역시"
  },
  {
    "name": "신동아파밀리에아파트 4단지 지하주차장 1층",
    "address": "대전광역시 동구 동산초교로 47 (홍도동, 신동아파밀리에아파트4단지)",
    "lat": 36.347815422060826,
    "lng": 127.42474911452514,
    "region": "대전광역시"
  },
  {
    "name": "행복한어르신복지관 지하 1층",
    "address": "대전광역시 동구 동부로 23 (판암동)",
    "lat": 36.319288775643294,
    "lng": 127.45636862416636,
    "region": "대전광역시"
  },
  {
    "name": "탑그린빌라 지하 1층 주차장",
    "address": "대전광역시 동구 현암로10번길 47 (삼성동, 탑그린빌라)",
    "lat": 36.34414266439797,
    "lng": 127.42013193085548,
    "region": "대전광역시"
  },
  {
    "name": "홍익아파트 지하1층 주차장",
    "address": "대전광역시 동구 대전로 529 (천동, 천동홍익아파트)",
    "lat": 36.31121605297359,
    "lng": 127.44687674739536,
    "region": "대전광역시"
  },
  {
    "name": "대청동다목적회관 지하1층",
    "address": "대전광역시 동구 세천로 3 (세천동, 대청동다목적회관)",
    "lat": 36.34067039841951,
    "lng": 127.493240362728,
    "region": "대전광역시"
  },
  {
    "name": "대청호자연생태관 지하1층",
    "address": "대전광역시 동구 천개동로 41 (추동, 대청호자연생태관)",
    "lat": 36.37363417076344,
    "lng": 127.4709241262046,
    "region": "대전광역시"
  },
  {
    "name": "푸른아파트 지하주차장 1층",
    "address": "대전광역시 동구 계족로512번길 96 (용전동, 푸른아파트)",
    "lat": 36.35438962346383,
    "lng": 127.4366347644659,
    "region": "대전광역시"
  },
  {
    "name": "남대전장례식장 지하1층",
    "address": "대전광역시 동구 산서로1660번길 142 (대별동, 남대전장례식장)",
    "lat": 36.28353740369873,
    "lng": 127.4631084146306,
    "region": "대전광역시"
  },
  {
    "name": "은어송코오롱하늘채2차아파트 지하1층~2층 주차장",
    "address": "대전광역시 동구 대전로340번길 15 (대성동, 은어송코오롱하늘채2차)",
    "lat": 36.29838974781684,
    "lng": 127.45976522188847,
    "region": "대전광역시"
  },
  {
    "name": "대전 동구청 지하1층, 지하2층 주차장",
    "address": "대전광역시 동구 동구청로 147 (가오동, 동구청)",
    "lat": 36.31142159939714,
    "lng": 127.45474362453756,
    "region": "대전광역시"
  },
  {
    "name": "대주파크빌 101동 앞 지하주차장(지하1층)",
    "address": "대전광역시 동구 충정로 136 (가양동, 대주파크빌)",
    "lat": 36.34307539802891,
    "lng": 127.44924168751612,
    "region": "대전광역시"
  },
  {
    "name": "대주파크빌 103동 앞 지하주차장(지하1층)",
    "address": "대전광역시 동구 충정로 136 (가양동, 대주파크빌)",
    "lat": 36.34307539802891,
    "lng": 127.44924168751612,
    "region": "대전광역시"
  },
  {
    "name": "대주파크빌 106동 앞 지하주차장(지하1층)",
    "address": "대전광역시 동구 충정로 136 (가양동, 대주파크빌)",
    "lat": 36.34307539802891,
    "lng": 127.44924168751612,
    "region": "대전광역시"
  },
  {
    "name": "이스트시티2단지 지하주차장 1층",
    "address": "대전광역시 동구 동대전로46번길 120 (신흥동, LH이스트시티2단지)",
    "lat": 36.32342546923959,
    "lng": 127.44058091620585,
    "region": "대전광역시"
  },
  {
    "name": "신흥 SK뷰(아) 지하주차장 1층",
    "address": "대전광역시 동구 충무로 255 (신흥동, 신흥 SKVIEW아파트)",
    "lat": 36.323488452564455,
    "lng": 127.44312564563472,
    "region": "대전광역시"
  },
  {
    "name": "에코포레아파트 전체 동의 지하주차장(지하2층)",
    "address": "대전광역시 동구 용운로 203(용운동, e편한세상 대전에코포레)",
    "lat": 36.327456993946726,
    "lng": 127.4650939176557,
    "region": "대전광역시"
  },
  {
    "name": "이스트시티1단지아파트지하주차장(지하1층)",
    "address": "대전광역시 동구 동대전로46번길 30(대동, 이스트시티1단지)",
    "lat": 36.32711078365471,
    "lng": 127.4402666816852,
    "region": "대전광역시"
  },
  {
    "name": "한울아파트 지하2층 주차장",
    "address": "대전광역시 동구 대흥로206번길 54 (인동, 한울아파트)",
    "lat": 36.3241201021892,
    "lng": 127.435593000268,
    "region": "대전광역시"
  },
  {
    "name": "충남대학교병원 전체 동의 지하1층",
    "address": "대전광역시 중구 문화로 282 (대사동, 충남대학교병원)",
    "lat": 36.3177310828008,
    "lng": 127.41564074036572,
    "region": "대전광역시"
  },
  {
    "name": "남대전성결교회 지하실 1층",
    "address": "대전광역시 중구 문창로 30 (문창동)",
    "lat": 36.316331070754,
    "lng": 127.43534829209322,
    "region": "대전광역시"
  },
  {
    "name": "서문교회",
    "address": "대전광역시 중구 산성로138번길 8 (문화동)",
    "lat": 36.31177137302648,
    "lng": 127.40224854072828,
    "region": "대전광역시"
  },
  {
    "name": "은혜아파트 3,4라인 지하1층",
    "address": "대전광역시 중구 대종로334번길 40 (문창동)",
    "lat": 36.31624657558462,
    "lng": 127.43575568000838,
    "region": "대전광역시"
  },
  {
    "name": "유진하나아파트 지하주차장 1층",
    "address": "대전광역시 중구 태평로44번길 53 (유천동, 유진하나아파트)",
    "lat": 36.32148671106192,
    "lng": 127.39575101835452,
    "region": "대전광역시"
  },
  {
    "name": "플래티늄 요양원 지하주차장",
    "address": "대전광역시 중구 계룡로 934 (대사동)",
    "lat": 36.31944958866513,
    "lng": 127.4158755776419,
    "region": "대전광역시"
  },
  {
    "name": "삼부아파트 4단지 전체 동의 지하1층",
    "address": "대전광역시 중구 태평로 55 (태평동, 삼부아파트4단지)",
    "lat": 36.32192099077738,
    "lng": 127.39301279013112,
    "region": "대전광역시"
  },
  {
    "name": "산성동 우성아파트",
    "address": "대전광역시 중구 당디로 45 (산성동, 우성아파트)",
    "lat": 36.30912531189604,
    "lng": 127.3931435307816,
    "region": "대전광역시"
  },
  {
    "name": "중앙로 지하상가",
    "address": "대전광역시 중구 중앙로 지하145, 지하상가 (대흥동)",
    "lat": 36.32893056973114,
    "lng": 127.42539257730448,
    "region": "대전광역시"
  },
  {
    "name": "중도빌딩 쇼핑",
    "address": "대전광역시 중구 목중로26번길 45 (중촌동, 중도상가(지하주차장))",
    "lat": 36.337635674316765,
    "lng": 127.41290751877102,
    "region": "대전광역시"
  },
  {
    "name": "유천현대1차아파트 관리사무소 지하 1층",
    "address": "대전광역시 중구 계백로1615번길 34(유천동, 현대아파트)",
    "lat": 36.32049156389037,
    "lng": 127.39924916847016,
    "region": "대전광역시"
  },
  {
    "name": "산성동 한밭가든아파트",
    "address": "대전광역시 중구 유등천동로 280 (산성동, 한밭가든아파트(101동~107동 전동지하))",
    "lat": 36.30760425896502,
    "lng": 127.38493877911786,
    "region": "대전광역시"
  },
  {
    "name": "중구 민방위교육장",
    "address": "대전광역시 중구 문화로46번길 50 (산성동, 민방위교육장)",
    "lat": 36.30850739908028,
    "lng": 127.39130877780244,
    "region": "대전광역시"
  },
  {
    "name": "센트리아오피스텔",
    "address": "대전광역시 중구 계백로 1719 (오류동, 센트리아오피스텔)",
    "lat": 36.32210273044687,
    "lng": 127.410413855974,
    "region": "대전광역시"
  },
  {
    "name": "삼부아파트 5단지 지하주차장 1~3층",
    "address": "대전광역시 중구 태평로 89 (태평동, 삼부아파트5단지)",
    "lat": 36.32480916634226,
    "lng": 127.3942162615026,
    "region": "대전광역시"
  },
  {
    "name": "선병원",
    "address": "대전광역시 중구 목중로 29 (목동, 선병원)",
    "lat": 36.336264507023074,
    "lng": 127.41049501340912,
    "region": "대전광역시"
  },
  {
    "name": "유천현대2차아파트 지하주차장 1층",
    "address": "대전광역시 중구 계백로1615번길 34(유천동, 현대아파트)",
    "lat": 36.32049156389037,
    "lng": 127.39924916847016,
    "region": "대전광역시"
  },
  {
    "name": "SK텔레콤&안전체험교육관",
    "address": "대전광역시 중구 보문로 82 (부사동)",
    "lat": 36.31359339276924,
    "lng": 127.43190982810052,
    "region": "대전광역시"
  },
  {
    "name": "성공빌딩",
    "address": "대전광역시 중구 계룡로 786 (오류동, 사학연금회관)",
    "lat": 36.32889932033088,
    "lng": 127.40432596331448,
    "region": "대전광역시"
  },
  {
    "name": "벽산프라자 지하주차장 2층 ~ 4층",
    "address": "대전광역시 중구 계백로 1619, 벽산프라자 (유천동)",
    "lat": 36.31918262830507,
    "lng": 127.3998037993527,
    "region": "대전광역시"
  },
  {
    "name": "벽산빌딩 지하주차장 2층 ~ 4층",
    "address": "대전광역시 중구 계백로 1625, 벽산빌딩 (유천동)",
    "lat": 36.31931995240228,
    "lng": 127.40037303875545,
    "region": "대전광역시"
  },
  {
    "name": "삼성푸른아파트 102동 앞 지하주차장",
    "address": "대전광역시 중구 보문산로161번길 56 (문화동, 삼성푸른아파트(102,108동앞 지하주차장))",
    "lat": 36.30803545759199,
    "lng": 127.39754279748472,
    "region": "대전광역시"
  },
  {
    "name": "새손병원",
    "address": "대전광역시 중구 계룡로 858 (오류동)",
    "lat": 36.32442791663985,
    "lng": 127.409759836024,
    "region": "대전광역시"
  },
  {
    "name": "을지의과대학",
    "address": "대전광역시 중구 계룡로771번길 90 (목동, 을지의과대학(을지관 지하주차장))",
    "lat": 36.33284654401186,
    "lng": 127.40653433993462,
    "region": "대전광역시"
  },
  {
    "name": "중앙로역",
    "address": "대전광역시 중구 중앙로 지하 145, 지하상가 (은행동)",
    "lat": 36.32893056973114,
    "lng": 127.42539257730448,
    "region": "대전광역시"
  },
  {
    "name": "하나은행",
    "address": "대전광역시 중구 계룡로 820 (오류동)",
    "lat": 36.32679537098345,
    "lng": 127.4068537699714,
    "region": "대전광역시"
  },
  {
    "name": "한신휴플러스보르미아파트",
    "address": "대전광역시 중구 계백로1686번길 16 (문화동, 한신휴플러스보르미아파트)",
    "lat": 36.32024888652904,
    "lng": 127.40698242239868,
    "region": "대전광역시"
  },
  {
    "name": "대흥동 참좋은아파트 지하2층",
    "address": "대전광역시 중구 대종로 425 (대흥동, 동건참좋은아파트)",
    "lat": 36.32286161256008,
    "lng": 127.4290141998539,
    "region": "대전광역시"
  },
  {
    "name": "대흥동 듀오빌아파트 지하2층",
    "address": "대전광역시 중구 보문로230번길 32 (대흥동, 듀오빌아파트)",
    "lat": 36.32362640064896,
    "lng": 127.4246428661222,
    "region": "대전광역시"
  },
  {
    "name": "탑스빌아파트 지하2층",
    "address": "대전광역시 중구 대흥로 115 (대흥동, 대흥탑스빌)",
    "lat": 36.323468808170745,
    "lng": 127.42504621080856,
    "region": "대전광역시"
  },
  {
    "name": "중구청역 지하2층",
    "address": "대전광역시 중구 중앙로 지하 71, 중구청역 (선화동)",
    "lat": 36.32485745641108,
    "lng": 127.41958442788165,
    "region": "대전광역시"
  },
  {
    "name": "푸른뫼아파트 101동",
    "address": "대전광역시 중구 수침로 122 (태평동, 푸른뫼아파트)",
    "lat": 36.3301967294574,
    "lng": 127.3985755109522,
    "region": "대전광역시"
  },
  {
    "name": "유등마을아파트 101동",
    "address": "대전광역시 중구 수침로 138 (태평동, 유등마을아파트)",
    "lat": 36.331598086789214,
    "lng": 127.39797820699911,
    "region": "대전광역시"
  },
  {
    "name": "태평아파트 101동",
    "address": "대전광역시 중구 평촌로 111 (태평동, 태평아파트)",
    "lat": 36.32311140433549,
    "lng": 127.3990076195947,
    "region": "대전광역시"
  },
  {
    "name": "루이스호텔",
    "address": "대전광역시 중구 대종로386번길 53 (문창동)",
    "lat": 36.32096634304626,
    "lng": 127.43363537655723,
    "region": "대전광역시"
  },
  {
    "name": "대흥동 현대아파트 1차 지하실 1층",
    "address": "대전광역시 중구 대흥로 176-15 (대흥동, 현대아파트)",
    "lat": 36.32458074007472,
    "lng": 127.43136877599738,
    "region": "대전광역시"
  },
  {
    "name": "대흥동 현대아파트 2차 지하주차장 1층",
    "address": "대전광역시 중구 보문로162번길 23 (대흥동)",
    "lat": 36.31834777941305,
    "lng": 127.42676494543625,
    "region": "대전광역시"
  },
  {
    "name": "미르마을아파트 104동",
    "address": "대전광역시 중구 선화로22번길 25 (용두동, 미르마을아파트)",
    "lat": 36.32509934689873,
    "lng": 127.41270070062303,
    "region": "대전광역시"
  },
  {
    "name": "오룡역",
    "address": "대전광역시 중구 계룡로 지하 793 (오류동, 오룡역)",
    "lat": 36.328599322359786,
    "lng": 127.40507340464372,
    "region": "대전광역시"
  },
  {
    "name": "문화마을금호어울림아파트",
    "address": "대전광역시 중구 계백로1716번길 40 (문화동, 문화마을금호어울림아파트)",
    "lat": 36.31996907194506,
    "lng": 127.4105819098585,
    "region": "대전광역시"
  },
  {
    "name": "센트럴파크아파트 2단지",
    "address": "대전광역시 중구 서문로 96 (문화동, 센트럴파크2단지아파트(전동 지하주차장))",
    "lat": 36.31682014001581,
    "lng": 127.4074973279722,
    "region": "대전광역시"
  },
  {
    "name": "쌍용예가아파트",
    "address": "대전광역시 중구 평촌로 93 (태평동, 쌍용예가아파트)",
    "lat": 36.32263680621172,
    "lng": 127.39712704180585,
    "region": "대전광역시"
  },
  {
    "name": "목양마을아파트 101,102동",
    "address": "대전광역시 중구 목동로 37 (목동, 목양마을아파트)",
    "lat": 36.33416929141632,
    "lng": 127.4072695055346,
    "region": "대전광역시"
  },
  {
    "name": "금호한사랑아파트",
    "address": "대전광역시 중구 동서대로 1388 (목동, 금호한사랑아파트)",
    "lat": 36.33261258957872,
    "lng": 127.41179223470114,
    "region": "대전광역시"
  },
  {
    "name": "남대전종합시장 아이비아파트 지하주차장",
    "address": "대전광역시 중구 대종로316번길 19 (부사동, 남대전종합시장아이비)",
    "lat": 36.31434871376288,
    "lng": 127.43539396323295,
    "region": "대전광역시"
  },
  {
    "name": "창조아파트 지하주차장",
    "address": "대전광역시 중구 부용로 15 (부사동, 창조아파트)",
    "lat": 36.31223801746825,
    "lng": 127.43137705212096,
    "region": "대전광역시"
  },
  {
    "name": "대자연아파트 지하주차장",
    "address": "대전광역시 중구 보문산로 375 (대사동, 대자연아파트)",
    "lat": 36.31525204655205,
    "lng": 127.41701463559934,
    "region": "대전광역시"
  },
  {
    "name": "우남스타원 아파트",
    "address": "대전광역시 중구 안영로 68 (사정동, 성산마을우남스타원아파트(104,108동 앞 지하주차장))",
    "lat": 36.29450106878129,
    "lng": 127.38203640524904,
    "region": "대전광역시"
  },
  {
    "name": "애플릿타워",
    "address": "대전광역시 중구 계백로 1580 (유천동)",
    "lat": 36.317752041637526,
    "lng": 127.3955488587912,
    "region": "대전광역시"
  },
  {
    "name": "큰솔아파트 제102동",
    "address": "대전광역시 중구 대둔산로 503 (유천동)",
    "lat": 36.31394877133809,
    "lng": 127.3893052041224,
    "region": "대전광역시"
  },
  {
    "name": "유등탑스빌",
    "address": "대전광역시 중구 유천로33번길 106 (유천동, 유등탑스빌)",
    "lat": 36.31424136590223,
    "lng": 127.3927838200418,
    "region": "대전광역시"
  },
  {
    "name": "한밭우성아파트",
    "address": "대전광역시 중구 서문로 32 (문화동, 한밭우성아파트)",
    "lat": 36.31120458807231,
    "lng": 127.40845900949978,
    "region": "대전광역시"
  },
  {
    "name": "산성 경성공원아파트",
    "address": "대전광역시 중구 보문산로141번길 11 (산성동)",
    "lat": 36.30591351331524,
    "lng": 127.39591605364257,
    "region": "대전광역시"
  },
  {
    "name": "서대전네거리역",
    "address": "대전광역시 중구 계룡로 지하 889 (용두동, 서대전네거리역)",
    "lat": 36.32248296175403,
    "lng": 127.41251857488416,
    "region": "대전광역시"
  },
  {
    "name": "한밭체육관 옆 지하주차장(베이스볼드림파크 옆 지하주차장",
    "address": "대전광역시 중구 대종로 373, 한밭체육관 (부사동)",
    "lat": 36.3185455580134,
    "lng": 127.431008222091,
    "region": "대전광역시"
  },
  {
    "name": "더샵아파트",
    "address": "대전광역시 중구 목동로22번길 16 (목동, 목동더샵)",
    "lat": 36.33351751152886,
    "lng": 127.4093331308713,
    "region": "대전광역시"
  },
  {
    "name": "평제빌딩",
    "address": "대전광역시 중구 대종로 626 (중촌동, 평제빌딩)",
    "lat": 36.33707930579583,
    "lng": 127.41566410165844,
    "region": "대전광역시"
  },
  {
    "name": "금호아파트 (전동지하)",
    "address": "대전광역시 중구 대종로 713 (중촌동, 금호아파트)",
    "lat": 36.3422781355175,
    "lng": 127.4084521080562,
    "region": "대전광역시"
  },
  {
    "name": "중촌동 현대아파트 (전동지하)",
    "address": "대전광역시 중구 목중로26번길 29 (중촌동, 현대아파트)",
    "lat": 36.337088087724354,
    "lng": 127.41218692705806,
    "region": "대전광역시"
  },
  {
    "name": "주공아파트 2단지 (전동지하)",
    "address": "대전광역시 중구 대전천서로 695 (중촌동, 주공아파트2단지)",
    "lat": 36.344283133876246,
    "lng": 127.41135836224754,
    "region": "대전광역시"
  },
  {
    "name": "주공아파트 3단지 (지하주차장)",
    "address": "대전광역시 중구 목중로 69 (중촌동, 주공아파트3단지)",
    "lat": 36.338885583321485,
    "lng": 127.40749598485962,
    "region": "대전광역시"
  },
  {
    "name": "대석침례교회 구관 지하 1층",
    "address": "대전광역시 중구 대종로 175(석교동)",
    "lat": 36.306818196947226,
    "lng": 127.4471270019106,
    "region": "대전광역시"
  },
  {
    "name": "대석침례교회 신관 지하 1층",
    "address": "대전광역시 중구 대종로 175-0 (석교동)",
    "lat": 36.306818196947226,
    "lng": 127.4471270019106,
    "region": "대전광역시"
  },
  {
    "name": "황제장어나라 지하주차장 1층",
    "address": "대전광역시 중구 대종로 159 (호동)",
    "lat": 36.30582866785641,
    "lng": 127.44821498887907,
    "region": "대전광역시"
  },
  {
    "name": "충일성결교회 지하 1층",
    "address": "대전광역시 중구 대종로 76 (옥계동)",
    "lat": 36.29986179552681,
    "lng": 127.45393202198365,
    "region": "대전광역시"
  },
  {
    "name": "선화동 센트럴뷰아파트",
    "address": "대전광역시 중구 중앙로 45 (선화동, 센트럴뷰아파트)",
    "lat": 36.32343847189297,
    "lng": 127.41711210131982,
    "region": "대전광역시"
  },
  {
    "name": "극동아파트 102동 지하주차장",
    "address": "대전광역시 중구 송리로 6 (문화동, 극동아파트(102동 지하주차장))",
    "lat": 36.30638696389688,
    "lng": 127.40164354538568,
    "region": "대전광역시"
  },
  {
    "name": "목양마을아파트 103~105,107,108,110동",
    "address": "대전광역시 중구 목동로 37 (목동, 목양마을아파트)",
    "lat": 36.33416929141632,
    "lng": 127.4072695055346,
    "region": "대전광역시"
  },
  {
    "name": "목양마을아파트 106,109,111~113동",
    "address": "대전광역시 중구 목동로 37 (목동, 목양마을아파트)",
    "lat": 36.33416929141632,
    "lng": 127.4072695055346,
    "region": "대전광역시"
  },
  {
    "name": "목양마을아파트 114동",
    "address": "대전광역시 중구 목동로 37 (목동, 목양마을아파트)",
    "lat": 36.33416929141632,
    "lng": 127.4072695055346,
    "region": "대전광역시"
  },
  {
    "name": "목양마을아파트 115~117동",
    "address": "대전광역시 중구 목동로 37 (목동, 목양마을아파트)",
    "lat": 36.33416929141632,
    "lng": 127.4072695055346,
    "region": "대전광역시"
  },
  {
    "name": "미르마을아파트 109동",
    "address": "대전광역시 중구 선화로22번길 25 (용두동, 미르마을아파트)",
    "lat": 36.32509934689873,
    "lng": 127.41270070062303,
    "region": "대전광역시"
  },
  {
    "name": "미르마을아파트 111동",
    "address": "대전광역시 중구 선화로22번길 25 (용두동, 미르마을아파트)",
    "lat": 36.32509934689873,
    "lng": 127.41270070062303,
    "region": "대전광역시"
  },
  {
    "name": "푸른뫼아파트 103동",
    "address": "대전광역시 중구 수침로 122 (태평동, 푸른뫼아파트)",
    "lat": 36.3301967294574,
    "lng": 127.3985755109522,
    "region": "대전광역시"
  },
  {
    "name": "푸른뫼아파트 105동",
    "address": "대전광역시 중구 수침로 122 (태평동, 푸른뫼아파트)",
    "lat": 36.3301967294574,
    "lng": 127.3985755109522,
    "region": "대전광역시"
  },
  {
    "name": "푸른뫼아파트 107동",
    "address": "대전광역시 중구 수침로 122 (태평동, 푸른뫼아파트)",
    "lat": 36.3301967294574,
    "lng": 127.3985755109522,
    "region": "대전광역시"
  },
  {
    "name": "유등마을아파트 104동",
    "address": "대전광역시 중구 수침로 138 (태평동, 유등마을아파트)",
    "lat": 36.331598086789214,
    "lng": 127.39797820699911,
    "region": "대전광역시"
  },
  {
    "name": "유등마을아파트 106동",
    "address": "대전광역시 중구 수침로 138 (태평동, 유등마을아파트)",
    "lat": 36.331598086789214,
    "lng": 127.39797820699911,
    "region": "대전광역시"
  },
  {
    "name": "유등마을아파트 108동",
    "address": "대전광역시 중구 수침로 138 (태평동, 유등마을아파트)",
    "lat": 36.331598086789214,
    "lng": 127.39797820699911,
    "region": "대전광역시"
  },
  {
    "name": "유등마을아파트 110동",
    "address": "대전광역시 중구 수침로 138 (태평동, 유등마을아파트)",
    "lat": 36.331598086789214,
    "lng": 127.39797820699911,
    "region": "대전광역시"
  },
  {
    "name": "유등마을아파트 111동",
    "address": "대전광역시 중구 수침로 138 (태평동, 유등마을아파트)",
    "lat": 36.331598086789214,
    "lng": 127.39797820699911,
    "region": "대전광역시"
  },
  {
    "name": "유등마을아파트 112동",
    "address": "대전광역시 중구 수침로 138 (태평동, 유등마을아파트)",
    "lat": 36.331598086789214,
    "lng": 127.39797820699911,
    "region": "대전광역시"
  },
  {
    "name": "태평아파트 103동",
    "address": "대전광역시 중구 평촌로 111 (태평동, 태평아파트)",
    "lat": 36.32311140433549,
    "lng": 127.3990076195947,
    "region": "대전광역시"
  },
  {
    "name": "태평아파트 104동",
    "address": "대전광역시 중구 평촌로 111 (태평동, 태평아파트)",
    "lat": 36.32311140433549,
    "lng": 127.3990076195947,
    "region": "대전광역시"
  },
  {
    "name": "태평아파트 106동",
    "address": "대전광역시 중구 평촌로 111 (태평동, 태평아파트)",
    "lat": 36.32311140433549,
    "lng": 127.3990076195947,
    "region": "대전광역시"
  },
  {
    "name": "태평아파트 107동",
    "address": "대전광역시 중구 평촌로 111 (태평동, 태평아파트)",
    "lat": 36.32311140433549,
    "lng": 127.3990076195947,
    "region": "대전광역시"
  },
  {
    "name": "태평아파트 109동",
    "address": "대전광역시 중구 평촌로 111 (태평동, 태평아파트)",
    "lat": 36.32311140433549,
    "lng": 127.3990076195947,
    "region": "대전광역시"
  },
  {
    "name": "센트럴파크1단지아파트",
    "address": "대전광역시 중구 서문로 95, 102동 (문화동, 센트럴파크1단지아파트)",
    "lat": 36.31670039294986,
    "lng": 127.4070537379114,
    "region": "대전광역시"
  },
  {
    "name": "극동늘푸른아파트 103동",
    "address": "대전광역시 중구 동서대로 1347 (용두동, 늘푸른아파트)",
    "lat": 36.33010968838512,
    "lng": 127.40846449545889,
    "region": "대전광역시"
  },
  {
    "name": "버드내마을아파트(143주차장, 지하1층)",
    "address": "대전광역시 중구 태평로 15 (태평동, 버드내마을아파트)",
    "lat": 36.31830480800342,
    "lng": 127.39176477723171,
    "region": "대전광역시"
  },
  {
    "name": "파라곤 아파트 제2주차장 지하 1층~2층",
    "address": "대전광역시 중구 유등천동로 428(태평동, 파라곤아파트)",
    "lat": 36.31977919633135,
    "lng": 127.38679311397296,
    "region": "대전광역시"
  },
  {
    "name": "유천1동 행정복지센터",
    "address": "대전광역시 중구 계백로1566번길 57, 유천1동행정복지센터 (유천동)",
    "lat": 36.3150165541453,
    "lng": 127.395308736715,
    "region": "대전광역시"
  },
  {
    "name": "중촌역푸르지오센터파크",
    "address": "대전광역시 중구 대전천서로 709 (중촌동, 중촌역푸르지오센터파크)",
    "lat": 36.3454596235006,
    "lng": 127.410843790899,
    "region": "대전광역시"
  },
  {
    "name": "내동 코오롱아파트 2동 지하 1층",
    "address": "대전광역시 서구 동서대로 967(내동, 코오롱아파트)",
    "lat": 36.33463394976737,
    "lng": 127.37018653337806,
    "region": "대전광역시"
  },
  {
    "name": "내동 코오롱아파트 3동 지하 1층",
    "address": "대전광역시 서구 동서대로 967 (코오롱아파트)",
    "lat": 36.33463394976737,
    "lng": 127.37018653337806,
    "region": "대전광역시"
  },
  {
    "name": "내동 코오롱아파트 5동 지하 1층",
    "address": "대전광역시 서구 동서대로 967 (내동, 코오롱아파트)",
    "lat": 36.33463394976737,
    "lng": 127.37018653337806,
    "region": "대전광역시"
  },
  {
    "name": "내동 코오롱아파트 6동 지하 1층",
    "address": "대전광역시 서구 동서대로 967 (코오롱아파트)",
    "lat": 36.33463394976737,
    "lng": 127.37018653337806,
    "region": "대전광역시"
  },
  {
    "name": "내동 코오롱아파트 7동 지하 1층",
    "address": "대전광역시 서구 동서대로 967 (코오롱아파트)",
    "lat": 36.33463394976737,
    "lng": 127.37018653337806,
    "region": "대전광역시"
  },
  {
    "name": "내동 코오롱아파트 8동 지하 1층",
    "address": "대전광역시 서구 동서대로 967 (코오롱아파트)",
    "lat": 36.33463394976737,
    "lng": 127.37018653337806,
    "region": "대전광역시"
  },
  {
    "name": "내동 코오롱아파트 9동 지하 1층",
    "address": "대전광역시 서구 동서대로 967 (코오롱아파트)",
    "lat": 36.33463394976737,
    "lng": 127.37018653337806,
    "region": "대전광역시"
  },
  {
    "name": "둔산3동 가람아파트5동지하주차장(지하1층)",
    "address": "대전광역시 서구 둔산북로 215 (둔산동, 가람아파트)",
    "lat": 36.35597259103273,
    "lng": 127.39837006028182,
    "region": "대전광역시"
  },
  {
    "name": "둔산3동 가람아파트15동 지하주차장(지하1층)",
    "address": "대전광역시 서구 둔산북로 215 (둔산동, 가람아파트)",
    "lat": 36.35597259103273,
    "lng": 127.39837006028182,
    "region": "대전광역시"
  },
  {
    "name": "둔산3동 국화아파트103동지하주차장(지하1층)",
    "address": "대전광역시 서구 둔산로 201 (둔산동, 국화아파트)",
    "lat": 36.3514426938557,
    "lng": 127.39612998962616,
    "region": "대전광역시"
  },
  {
    "name": "둔산3동국화아파트 202동 지하주차장(지하1층)",
    "address": "대전광역시 서구 둔산로 201 (둔산동, 국화아파트)",
    "lat": 36.3514426938557,
    "lng": 127.39612998962616,
    "region": "대전광역시"
  },
  {
    "name": "둔산3동 국화아파트304동지하주차장(지하1층)",
    "address": "대전광역시 서구 둔산로 201 (둔산동, 국화아파트)",
    "lat": 36.3514426938557,
    "lng": 127.39612998962616,
    "region": "대전광역시"
  },
  {
    "name": "둔산3동 국화아파트 503동지하주차장(지하1층)",
    "address": "대전광역시 서구 둔산로 201 (둔산동, 국화아파트)",
    "lat": 36.3514426938557,
    "lng": 127.39612998962616,
    "region": "대전광역시"
  },
  {
    "name": "둔산3동 국화아파트 602동 지하주차장(지하1층)",
    "address": "대전광역시 서구 둔산로 201 (둔산동, 국화아파트)",
    "lat": 36.3514426938557,
    "lng": 127.39612998962616,
    "region": "대전광역시"
  },
  {
    "name": "둔산3동 청솔아파트 1동 지하주차장(지하1층)",
    "address": "대전광역시 서구 둔산로 223 (둔산동, 청솔아파트)",
    "lat": 36.351431483879225,
    "lng": 127.39867549789102,
    "region": "대전광역시"
  },
  {
    "name": "둔산3동 청솔아파트 6동 지하주차장(지하1층)",
    "address": "대전광역시 서구 둔산로 223 (둔산동, 청솔아파트)",
    "lat": 36.351431483879225,
    "lng": 127.39867549789102,
    "region": "대전광역시"
  },
  {
    "name": "둔산3동 세이브존(구한신코아)지하주차장(지하3층)",
    "address": "대전광역시 서구 둔산로 201 (둔산동, 국화아파트)",
    "lat": 36.3514426938557,
    "lng": 127.39612998962616,
    "region": "대전광역시"
  },
  {
    "name": "가수원동 은아아파트 501~503동 지하주차장 1층",
    "address": "대전광역시 서구 가수원로 6 (가수원동, 은아아파트5단지)",
    "lat": 36.29840289596245,
    "lng": 127.35533044221364,
    "region": "대전광역시"
  },
  {
    "name": "가수원동 은아아파트 504~505동 지하주차장 1층",
    "address": "대전광역시 서구 가수원로 5 (가수원동, 은아아파트5단지)",
    "lat": 36.29756141924052,
    "lng": 127.35563138824249,
    "region": "대전광역시"
  },
  {
    "name": "복수동 삼익목화1차아파트 1-1지하주차장 1층",
    "address": "대전광역시 서구 복수서로 50 (복수동, 삼익목화아파트)",
    "lat": 36.3087510197552,
    "lng": 127.37401680544528,
    "region": "대전광역시"
  },
  {
    "name": "복수동 삼익목화1차아파트 1-2지하주차장 1층",
    "address": "대전광역시 서구 복수서로 50 (복수동, 삼익목화아파트)",
    "lat": 36.3087510197552,
    "lng": 127.37401680544528,
    "region": "대전광역시"
  },
  {
    "name": "복수동 삼익목화1차아파트 1-3지하주차장 1층",
    "address": "대전광역시 서구 복수서로 50 (복수동, 삼익목화아파트)",
    "lat": 36.3087510197552,
    "lng": 127.37401680544528,
    "region": "대전광역시"
  },
  {
    "name": "복수동 삼익목화1차아파트 2-1지하주차장 1층",
    "address": "대전광역시 서구 복수북로 51 (복수동, 삼익목화아파트)",
    "lat": 36.30853377470702,
    "lng": 127.37555789931248,
    "region": "대전광역시"
  },
  {
    "name": "복수동 삼익목화1차아파트 2-2지하주차장 1층",
    "address": "대전광역시 서구 복수북로 51 (삼익목화아파트)",
    "lat": 36.30853377470702,
    "lng": 127.37555789931248,
    "region": "대전광역시"
  },
  {
    "name": "복수동 삼익목화1차아파트 3-1지하주차장 1층",
    "address": "대전광역시 서구 복수중로 38",
    "lat": 36.30769764688061,
    "lng": 127.37542232063308,
    "region": "대전광역시"
  },
  {
    "name": "복수동 삼익목화1차아파트 3-2지하주차장 1층",
    "address": "대전광역시 서구 복수중로 38",
    "lat": 36.30769764688061,
    "lng": 127.37542232063308,
    "region": "대전광역시"
  },
  {
    "name": "복수동 삼익목화1차아파트 3-3지하주차장 1층",
    "address": "대전광역시 서구 복수중로 38",
    "lat": 36.30769764688061,
    "lng": 127.37542232063308,
    "region": "대전광역시"
  },
  {
    "name": "월평1동 월평타운아파트 전체 동의 지하주차장 1층",
    "address": "대전광역시 서구 계룡로264번길 4",
    "lat": 36.35301301695501,
    "lng": 127.3587187658357,
    "region": "대전광역시"
  },
  {
    "name": "만년동 상록수아파트101-102동 지하주차장 1층",
    "address": "대전광역시 서구 만년남로 8, 101동 (만년동, 상록수아파트 지하주차장)",
    "lat": 36.36584333735924,
    "lng": 127.37683372507352,
    "region": "대전광역시"
  },
  {
    "name": "만년동 상록수아파트103-105동 지하주차장 1층",
    "address": "대전광역시 서구 만년남로 8, 103동 (만년동, 상록수아파트 지하주차장)",
    "lat": 36.36584333735924,
    "lng": 127.37683372507352,
    "region": "대전광역시"
  },
  {
    "name": "만년동 상록수아파트 108동 지하주차장 1층",
    "address": "대전광역시 서구 만년남로 8, 108동 (만년동, 상록수아파트 지하주차장)",
    "lat": 36.36584333735924,
    "lng": 127.37683372507352,
    "region": "대전광역시"
  },
  {
    "name": "만년동 초원아파트101동 지하주차장 1층",
    "address": "대전광역시 서구 만년로 45, 101동 (만년동, 초원아파트 지하주차장)",
    "lat": 36.36747792322356,
    "lng": 127.37859209628846,
    "region": "대전광역시"
  },
  {
    "name": "만년동 초원아파트106-108동 지하주차장 1층",
    "address": "대전광역시 서구 만년로 45 (만년동, 초원아파트)",
    "lat": 36.36747792322356,
    "lng": 127.37859209628846,
    "region": "대전광역시"
  },
  {
    "name": "만년동 상아아파트 101동 지하주차장 1층",
    "address": "대전광역시 서구 대덕대로 415, 101동 (만년동, 상아아파트 지하주차장)",
    "lat": 36.3698029525756,
    "lng": 127.3791560102389,
    "region": "대전광역시"
  },
  {
    "name": "만년동 상아아파트 103동 지하주차장 1층",
    "address": "대전광역시 서구 대덕대로 415, 103동 (만년동, 상아아파트 지하주차장)",
    "lat": 36.3698029525756,
    "lng": 127.3791560102389,
    "region": "대전광역시"
  },
  {
    "name": "만년동 상아아파트 105동 지하주차장 1층",
    "address": "대전광역시 서구 대덕대로 415, 105동 (만년동, 상아아파트 지하주차장)",
    "lat": 36.3698029525756,
    "lng": 127.3791560102389,
    "region": "대전광역시"
  },
  {
    "name": "만년동 상아아파트 109동 지하주차장 1층",
    "address": "대전광역시 서구 대덕대로 415, 109동 (만년동, 상아아파트 지하주차장)",
    "lat": 36.3698029525756,
    "lng": 127.3791560102389,
    "region": "대전광역시"
  },
  {
    "name": "만년동 강변아파트 101동 지하주차장 1층",
    "address": "대전광역시 서구 만년로 25, 101동 (만년동, 강변아파트)",
    "lat": 36.36750213442661,
    "lng": 127.37605167217971,
    "region": "대전광역시"
  },
  {
    "name": "만년동 강변아파트 103동 지하주차장 1층",
    "address": "대전광역시 서구 만년로 25, 103동 (만년동, 강변아파트 지하주차장)",
    "lat": 36.36750213442661,
    "lng": 127.37605167217971,
    "region": "대전광역시"
  },
  {
    "name": "만년동 강변아파트 107-110동 지하주차장 1층",
    "address": "대전광역시 서구 만년로 25, 107동 (만년동, 강변아파트 지하추자장)",
    "lat": 36.36750213442661,
    "lng": 127.37605167217971,
    "region": "대전광역시"
  },
  {
    "name": "만년동 강변아파트 108-111 동 지하주차장 1층",
    "address": "대전광역시 서구 만년로 25, 108동 (만년동, 강변아파트 지하주차장)",
    "lat": 36.36750213442661,
    "lng": 127.37605167217971,
    "region": "대전광역시"
  },
  {
    "name": "만년동 강변아파트 102동 지하주차장 1층",
    "address": "대전광역시 서구 만년로 25, 102동 (만년동, 강변아파트 지하주차장)",
    "lat": 36.36750213442661,
    "lng": 127.37605167217971,
    "region": "대전광역시"
  },
  {
    "name": "만년동 강변아파트 106동 지하주차장 1층",
    "address": "대전광역시 서구 만년로 25, 106동 (만년동, 강변아파트 지하주차장)",
    "lat": 36.36750213442661,
    "lng": 127.37605167217971,
    "region": "대전광역시"
  },
  {
    "name": "만년동 강변아파트 109-112동 지하주차장 1층",
    "address": "대전광역시 서구 만년로 25, 109동 (만년동, 강변아파트 지하주차장)",
    "lat": 36.36750213442661,
    "lng": 127.37605167217971,
    "region": "대전광역시"
  },
  {
    "name": "만년동 강변아파트 104동 지하주차장 1층",
    "address": "대전광역시 서구 만년로 25, 104동 (만년동, 강변아파트 지하주차장)",
    "lat": 36.36750213442661,
    "lng": 127.37605167217971,
    "region": "대전광역시"
  },
  {
    "name": "만년동 엑스포오피스텔 지하주차장 1층",
    "address": "대전광역시 서구 둔산대로117번길 44 (만년동, 지하주차장)",
    "lat": 36.36692153816596,
    "lng": 127.38240019252954,
    "region": "대전광역시"
  },
  {
    "name": "둔산2동 평송 지하보도 지하1층",
    "address": "대전광역시 서구 문예로 174 (둔산동, 샘머리아파트)",
    "lat": 36.3624104984078,
    "lng": 127.391566382305,
    "region": "대전광역시"
  },
  {
    "name": "둔산2동 대덕 지하보도 지하1층",
    "address": "대전광역시 서구 대덕대로 211, 대덕 지하보도 (둔산동)",
    "lat": 36.3519879015747,
    "lng": 127.378164761777,
    "region": "대전광역시"
  },
  {
    "name": "둔산2동 수정타운아파트 전체 동의 지하1층 주차장",
    "address": "대전광역시 서구 청사로 282 (둔산동, 수정타운아파트 지하주차장)",
    "lat": 36.36001975892456,
    "lng": 127.39575628930628,
    "region": "대전광역시"
  },
  {
    "name": "둔산2동 은초롱아파트 전체 동의 지하1층 주차장",
    "address": "대전광역시 서구 청사로 269 (둔산동, 은초롱아파트)",
    "lat": 36.36005216902858,
    "lng": 127.39394845075272,
    "region": "대전광역시"
  },
  {
    "name": "둔산2동 꿈나무아파트 전체 동의 지하1층 주차장",
    "address": "대전광역시 서구 청사로 253 (둔산동, 꿈나무아파트)",
    "lat": 36.3600011428829,
    "lng": 127.39099604291216,
    "region": "대전광역시"
  },
  {
    "name": "둔산2동 둥지아파트 전체 동의 지하1층 주차장",
    "address": "대전광역시 서구 청사로 254 (둔산동, 둥지아파트)",
    "lat": 36.35906324307605,
    "lng": 127.39265242522973,
    "region": "대전광역시"
  },
  {
    "name": "둔산2동 녹원아파트 전체 동의 지하1층 주차장",
    "address": "대전광역시 서구 둔산남로 30 (둔산동, 녹원아파트)",
    "lat": 36.3484249002003,
    "lng": 127.38138218672678,
    "region": "대전광역시"
  },
  {
    "name": "둔산2동 은하수아파트 전체 동의 지하1층 주차장",
    "address": "대전광역시 서구 둔산남로 15 (둔산동, 은하수아파트)",
    "lat": 36.35002237701575,
    "lng": 127.38007719676612,
    "region": "대전광역시"
  },
  {
    "name": "둔산2동 향촌아파트 전체 동의 지하1층 주차장",
    "address": "대전광역시 서구 둔산로 15 (둔산동, 향촌아파트)",
    "lat": 36.353328588395385,
    "lng": 127.37634086118992,
    "region": "대전광역시"
  },
  {
    "name": "둔산2동 파랑새아파트 전체 동의 지하1층 주차장",
    "address": "대전광역시 서구 둔지로 75 (둔산동, 파랑새아파트)",
    "lat": 36.3563928284117,
    "lng": 127.3746117282106,
    "region": "대전광역시"
  },
  {
    "name": "둔산2동 대전광역시 교육청 지하1층 주차장",
    "address": "대전광역시 서구 둔산로 89, 대전광역시교육청 (둔산동)",
    "lat": 36.35242060781333,
    "lng": 127.38374608460347,
    "region": "대전광역시"
  },
  {
    "name": "둔산2동 대전상공회의소 지하1층~2층 주차장",
    "address": "대전광역시 서구 대덕대로176번길 51, 대전상공회의소 (둔산동)",
    "lat": 36.34712330963615,
    "lng": 127.37890805875053,
    "region": "대전광역시"
  },
  {
    "name": "둔산2동 둔산타임월드 지하1층~6층 주차장",
    "address": "대전광역시 서구 대덕대로 211, 갤러리아타임월드백화점 (둔산동)",
    "lat": 36.35195016505942,
    "lng": 127.37816789410874,
    "region": "대전광역시"
  },
  {
    "name": "둔산2동 샘머리1단지아파트 전 동의 지하1층~2층주차장",
    "address": "대전광역시 서구 문예로 174 (둔산동, 샘머리아파트)",
    "lat": 36.36338329483951,
    "lng": 127.3914823364664,
    "region": "대전광역시"
  },
  {
    "name": "둔산2동 샘머리2단지아파트 전 동의 지하1층~2층주차장",
    "address": "대전광역시 서구 청사로 281 (둔산동, 샘머리아파트2단지)",
    "lat": 36.36178447086834,
    "lng": 127.39432505270172,
    "region": "대전광역시"
  },
  {
    "name": "월평2동 백합아파트 104동 지하주차장 1층",
    "address": "대전광역시 서구 청사서로 41 (월평동)",
    "lat": 36.361692721678885,
    "lng": 127.37649624807136,
    "region": "대전광역시"
  },
  {
    "name": "월평2동 백합아파트 105동 지하주차장 1층",
    "address": "대전광역시 서구 청사서로 41 (월평동)",
    "lat": 36.361692721678885,
    "lng": 127.37649624807136,
    "region": "대전광역시"
  },
  {
    "name": "월평2동 샛별아파트 103동 부속주차장 1층",
    "address": "대전광역시 서구 청사서로 29 (월평동)",
    "lat": 36.36048967461037,
    "lng": 127.37649270481757,
    "region": "대전광역시"
  },
  {
    "name": "월평2동 한아름아파트 101동 지하주차장 1층",
    "address": "대전광역시 서구 청사서로 65 (월평동)",
    "lat": 36.3635122622699,
    "lng": 127.3764693230626,
    "region": "대전광역시"
  },
  {
    "name": "월평2동 한아름아파트 103동 부속주차장 1층",
    "address": "대전광역시 서구 청사서로 65 (월평동)",
    "lat": 36.3635122622699,
    "lng": 127.3764693230626,
    "region": "대전광역시"
  },
  {
    "name": "월평2동 한아름아파트 106동 지하주차장 1층",
    "address": "대전광역시 서구 청사서로 65 (월평동)",
    "lat": 36.3635122622699,
    "lng": 127.3764693230626,
    "region": "대전광역시"
  },
  {
    "name": "월평2동 한아름아파트 108동 지하주차장 1층",
    "address": "대전광역시 서구 청사서로 65 (월평동)",
    "lat": 36.3635122622699,
    "lng": 127.3764693230626,
    "region": "대전광역시"
  },
  {
    "name": "월평2동 무지개아파트 105동 지하주차장 1층",
    "address": "대전광역시 서구 청사서로 11",
    "lat": 36.35888934078461,
    "lng": 127.3764482607972,
    "region": "대전광역시"
  },
  {
    "name": "월평2동 무지개아파트 106동 지하주차장 1층",
    "address": "대전광역시 서구 청사서로 11",
    "lat": 36.35888934078461,
    "lng": 127.3764482607972,
    "region": "대전광역시"
  },
  {
    "name": "월평2동 무궁화아파트 102동 지하주차장 1층",
    "address": "대전광역시 서구 청사서로 70 (월평동)",
    "lat": 36.364065796062285,
    "lng": 127.37683634075296,
    "region": "대전광역시"
  },
  {
    "name": "월평2동 무궁화아파트 105동 지하주차장 1층",
    "address": "대전광역시 서구 청사서로 70 (월평동)",
    "lat": 36.364065796062285,
    "lng": 127.37683634075296,
    "region": "대전광역시"
  },
  {
    "name": "월평2동 무궁화아파트 202동 지하주차장 1층",
    "address": "대전광역시 서구 청사서로 70",
    "lat": 36.364065796062285,
    "lng": 127.37683634075296,
    "region": "대전광역시"
  },
  {
    "name": "월평2동 무궁화아파트 204동 지하주차장 1층",
    "address": "대전광역시 서구 청사서로 70 (월평동)",
    "lat": 36.364065796062285,
    "lng": 127.37683634075296,
    "region": "대전광역시"
  },
  {
    "name": "내동 코오롱아파트 1동 지하 1층",
    "address": "대전광역시 서구 동서대로 967 (코오롱아파트)",
    "lat": 36.33463394976737,
    "lng": 127.37018653337806,
    "region": "대전광역시"
  },
  {
    "name": "만년동 KBS 대전방송총국 지하주차장 1층",
    "address": "대전광역시 서구 둔산대로117번길 128 (만년동, 한국방송공사대전방송총국)",
    "lat": 36.36984890004887,
    "lng": 127.38099223131168,
    "region": "대전광역시"
  },
  {
    "name": "월평3동 하나로아파트 106동 지하주차장 1층",
    "address": "대전광역시 서구 청사로 5 (월평동, 하나로아파트)",
    "lat": 36.36011371282122,
    "lng": 127.36439380303204,
    "region": "대전광역시"
  },
  {
    "name": "갈마2동 큰마을아파트 101동 지하주차장 1층",
    "address": "대전광역시 서구 대덕대로 150, 101동 (갈마동, 큰마을아파트)",
    "lat": 36.34684671546742,
    "lng": 127.37586294775664,
    "region": "대전광역시"
  },
  {
    "name": "갈마2동 큰마을아파트 103동 지하주차장 1층",
    "address": "대전광역시 서구 대덕대로 150 (갈마동)",
    "lat": 36.34684671546742,
    "lng": 127.37586294775664,
    "region": "대전광역시"
  },
  {
    "name": "갈마2동 큰마을아파트 106동 지하주차장 1층",
    "address": "대전광역시 서구 대덕대로 150, 106동 (갈마동, 큰마을아파트)",
    "lat": 36.34684671546742,
    "lng": 127.37586294775664,
    "region": "대전광역시"
  },
  {
    "name": "갈마2동 큰마을아파트 107동 지하주차장 1층",
    "address": "대전광역시 서구 대덕대로 150, 107동 (갈마동, 큰마을아파트)",
    "lat": 36.34684671546742,
    "lng": 127.37586294775664,
    "region": "대전광역시"
  },
  {
    "name": "갈마2동 큰마을아파트 109동 지하주차장 1층",
    "address": "대전광역시 서구 대덕대로 150, 109동 (갈마동, 큰마을아파트)",
    "lat": 36.34684671546742,
    "lng": 127.37586294775664,
    "region": "대전광역시"
  },
  {
    "name": "갈마2동 큰마을아파트 110동 지하주차장 1~2층",
    "address": "대전광역시 서구 대덕대로 150, 110동 (갈마동)",
    "lat": 36.34684671546742,
    "lng": 127.37586294775664,
    "region": "대전광역시"
  },
  {
    "name": "갈마2동 큰마을아파트 112동 지하주차장 1층",
    "address": "대전광역시 서구 대덕대로 150, 112동 (갈마동, 큰마을아파트)",
    "lat": 36.34684671546742,
    "lng": 127.37586294775664,
    "region": "대전광역시"
  },
  {
    "name": "갈마2동 큰마을아파트 113동 지하주차장 1층",
    "address": "대전광역시 서구 대덕대로 150, 113동 (갈마동)",
    "lat": 36.34684671546742,
    "lng": 127.37586294775664,
    "region": "대전광역시"
  },
  {
    "name": "갈마2동 큰마을아파트 118동 지하주차장 1~4층",
    "address": "대전광역시 서구 대덕대로 150, 118동 (갈마동)",
    "lat": 36.34684671546742,
    "lng": 127.37586294775664,
    "region": "대전광역시"
  },
  {
    "name": "갈마2동 큰마을아파트 120동 지하주차장 1층",
    "address": "대전광역시 서구 대덕대로 150, 120동 (갈마동)",
    "lat": 36.34684671546742,
    "lng": 127.37586294775664,
    "region": "대전광역시"
  },
  {
    "name": "갈마2동 큰마을아파트 121동 지하주차장 1층",
    "address": "대전광역시 서구 대덕대로 150, 121동 (갈마동)",
    "lat": 36.34684671546742,
    "lng": 127.37586294775664,
    "region": "대전광역시"
  },
  {
    "name": "갈마2동 큰마을아파트 122동 지하주차장 1~4층",
    "address": "대전광역시 서구 대덕대로 150, 122동 (갈마동)",
    "lat": 36.34684671546742,
    "lng": 127.37586294775664,
    "region": "대전광역시"
  },
  {
    "name": "갈마2동 큰마을아파트 125동 지하주차장 1층",
    "address": "대전광역시 서구 대덕대로 150, 125동 (갈마동)",
    "lat": 36.34684671546742,
    "lng": 127.37586294775664,
    "region": "대전광역시"
  },
  {
    "name": "갈마2동 큰마을아파트 127동 지하주차장 1층",
    "address": "대전광역시 서구 대덕대로 150, 127동 (갈마동)",
    "lat": 36.34684671546742,
    "lng": 127.37586294775664,
    "region": "대전광역시"
  },
  {
    "name": "월평3동 진달래아파트 104동 지하주차장 1층",
    "address": "대전광역시 서구 월평동로 45 (진달래아파트)",
    "lat": 36.35896423944116,
    "lng": 127.36815645593607,
    "region": "대전광역시"
  },
  {
    "name": "월평3동 진달래아파트 105동 지하주차장 1층",
    "address": "대전광역시 서구 월평동로 45",
    "lat": 36.35896423944116,
    "lng": 127.36815645593607,
    "region": "대전광역시"
  },
  {
    "name": "월평3동 진달래아파트 102동 지하주차장 1층",
    "address": "대전광역시 서구 월평동로 45",
    "lat": 36.35896423944116,
    "lng": 127.36815645593607,
    "region": "대전광역시"
  },
  {
    "name": "월평3동 진달래아파트 107동 110동 지하주차장 1층",
    "address": "대전광역시 서구 월평동로 45",
    "lat": 36.35896423944116,
    "lng": 127.36815645593607,
    "region": "대전광역시"
  },
  {
    "name": "월평3동 진달래아파트 108동 111동 지하주차장 1층",
    "address": "대전광역시 서구 월평동로 45",
    "lat": 36.35896423944116,
    "lng": 127.36815645593607,
    "region": "대전광역시"
  },
  {
    "name": "월평3동 황실타운아파트 102동 지하주차장 1층",
    "address": "대전광역시 서구 청사로 65",
    "lat": 36.35996204601747,
    "lng": 127.37172266490094,
    "region": "대전광역시"
  },
  {
    "name": "월평3동 황실타운아파트 106동 지하주차장 1층",
    "address": "대전광역시 서구 청사로 65",
    "lat": 36.35996204601747,
    "lng": 127.37172266490094,
    "region": "대전광역시"
  },
  {
    "name": "월평3동 황실타운아파트 109동 지하주차장 1층",
    "address": "대전광역시 서구 청사로 65",
    "lat": 36.35996204601747,
    "lng": 127.37172266490094,
    "region": "대전광역시"
  },
  {
    "name": "월평3동 황실타운아파트 112동 지하주차장 1층",
    "address": "대전광역시 서구 청사로 65",
    "lat": 36.35996204601747,
    "lng": 127.37172266490094,
    "region": "대전광역시"
  },
  {
    "name": "월평3동 황실타운아파트 117동 지하주차장 1층",
    "address": "대전광역시 서구 청사로 65",
    "lat": 36.35996204601747,
    "lng": 127.37172266490094,
    "region": "대전광역시"
  },
  {
    "name": "월평3동 전원아파트 101동 지하주차장 1층",
    "address": "대전광역시 서구 월평중로 50",
    "lat": 36.35901544693038,
    "lng": 127.36410382708632,
    "region": "대전광역시"
  },
  {
    "name": "월평3동 전원아파트 102동 지하주차장 1층",
    "address": "대전광역시 서구 월평중로 50",
    "lat": 36.35901544693038,
    "lng": 127.36410382708632,
    "region": "대전광역시"
  },
  {
    "name": "월평3동 다모아아파트 101동 지하주차장 1층",
    "address": "대전광역시 서구 월평동로 83",
    "lat": 36.36248363711708,
    "lng": 127.36801672062884,
    "region": "대전광역시"
  },
  {
    "name": "월평3동 다모아아파트 102동 지하주차장 1층",
    "address": "대전광역시 서구 월평동로 83",
    "lat": 36.36248363711708,
    "lng": 127.36801672062884,
    "region": "대전광역시"
  },
  {
    "name": "월평3동 다모아아파트 107동 지하주차장 1층",
    "address": "대전광역시 서구 월평동로 83",
    "lat": 36.36248363711708,
    "lng": 127.36801672062884,
    "region": "대전광역시"
  },
  {
    "name": "월평3동 다모아아파트 110동 지하주차장 1층",
    "address": "대전광역시 서구 월평동로 83",
    "lat": 36.36248363711708,
    "lng": 127.36801672062884,
    "region": "대전광역시"
  },
  {
    "name": "월평3동 다모아아파트 111동 지하주차장 1층",
    "address": "대전광역시 서구 월평동로 83",
    "lat": 36.36248363711708,
    "lng": 127.36801672062884,
    "region": "대전광역시"
  },
  {
    "name": "월평3동 누리아파트 101동 지하주차장 1층",
    "address": "대전광역시 서구 청사로 70",
    "lat": 36.359696720657055,
    "lng": 127.37155539717816,
    "region": "대전광역시"
  },
  {
    "name": "월평3동 누리아파트 103동 지하주차장 1층",
    "address": "대전광역시 서구 청사로 70",
    "lat": 36.359696720657055,
    "lng": 127.37155539717816,
    "region": "대전광역시"
  },
  {
    "name": "월평3동 누리아파트 109동 지하주차장 1층",
    "address": "대전광역시 서구 청사로 70",
    "lat": 36.359696720657055,
    "lng": 127.37155539717816,
    "region": "대전광역시"
  },
  {
    "name": "월평3동 누리아파트 111동 지하주차장 1층",
    "address": "대전광역시 서구 청사로 70",
    "lat": 36.359696720657055,
    "lng": 127.37155539717816,
    "region": "대전광역시"
  },
  {
    "name": "도마1동 효성타운 전동 지하 주차장(지하 1층)",
    "address": "대전광역시 서구 도산로 11 (도마동, 효성타운)",
    "lat": 36.31134431222246,
    "lng": 127.38389007356272,
    "region": "대전광역시"
  },
  {
    "name": "관저1동 원앙마을 101동 지하주차장 2층",
    "address": "대전광역시 서구 관저북로 87 (관저동)",
    "lat": 36.3096227894365,
    "lng": 127.336850721102,
    "region": "대전광역시"
  },
  {
    "name": "관저1동 원앙마을 102동 지하주차장 2층",
    "address": "대전광역시 서구 관저북로 87 (관저동)",
    "lat": 36.3096227894365,
    "lng": 127.336850721102,
    "region": "대전광역시"
  },
  {
    "name": "관저1동 원앙마을 402동 지하주차장 2층",
    "address": "대전광역시 서구 관저북로 14 (관저동)",
    "lat": 36.3030592621626,
    "lng": 127.337238023114,
    "region": "대전광역시"
  },
  {
    "name": "관저1동 원앙마을 404동 지하주차장 1층",
    "address": "대전광역시 서구 관저북로 14 (관저동)",
    "lat": 36.3030592621626,
    "lng": 127.337238023114,
    "region": "대전광역시"
  },
  {
    "name": "관저1동 원앙마을 414동 지하주차장 1층",
    "address": "대전광역시 서구 관저북로 14 (관저동)",
    "lat": 36.3030592621626,
    "lng": 127.337238023114,
    "region": "대전광역시"
  },
  {
    "name": "관저1동 대자연마을 103동 지하주차장 1층",
    "address": "대전광역시 서구 관저북로 52 (관저동, 대자연마을아파트)",
    "lat": 36.306385353634525,
    "lng": 127.33731784994312,
    "region": "대전광역시"
  },
  {
    "name": "용문동 서우아파트 지하1층 지하실",
    "address": "대전광역시 서구 도산로370번길 55 (용문동서우아파트)",
    "lat": 36.33535204627014,
    "lng": 127.3943104214558,
    "region": "대전광역시"
  },
  {
    "name": "도마2동 경남아파트 101동 지하 1층",
    "address": "대전광역시 서구 배재로 155-7",
    "lat": 36.32238330419437,
    "lng": 127.3696605862089,
    "region": "대전광역시"
  },
  {
    "name": "도마2동 경남아파트 102동 지하 1층",
    "address": "대전광역시 서구 배재로 155-7",
    "lat": 36.32238330419437,
    "lng": 127.3696605862089,
    "region": "대전광역시"
  },
  {
    "name": "도마2동 경남아파트 103동 지하 1층",
    "address": "대전광역시 서구 배재로 155-7",
    "lat": 36.32238330419437,
    "lng": 127.3696605862089,
    "region": "대전광역시"
  },
  {
    "name": "도마2동 경남아파트 105동 지하 1층",
    "address": "대전광역시 서구 배재로 155-7",
    "lat": 36.32238330419437,
    "lng": 127.3696605862089,
    "region": "대전광역시"
  },
  {
    "name": "도마2동 경남아파트 106동 지하 1층",
    "address": "대전광역시 서구 배재로 155-7",
    "lat": 36.32238330419437,
    "lng": 127.3696605862089,
    "region": "대전광역시"
  },
  {
    "name": "도마2동 경남아파트 107동 지하 1층",
    "address": "대전광역시 서구 배재로 155-7",
    "lat": 36.32238330419437,
    "lng": 127.3696605862089,
    "region": "대전광역시"
  },
  {
    "name": "도마2동 경남아파트 108동 지하 1층",
    "address": "대전광역시 서구 배재로 155-7",
    "lat": 36.32238330419437,
    "lng": 127.3696605862089,
    "region": "대전광역시"
  },
  {
    "name": "도마2동 경남아파트 109동 지하 1층",
    "address": "대전광역시 서구 배재로 155-26 (경남아파트2단지)",
    "lat": 36.32265417489325,
    "lng": 127.36865691633471,
    "region": "대전광역시"
  },
  {
    "name": "도마2동 경남아파트 110동 지하 1층",
    "address": "대전광역시 서구 배재로 155-26 (경남아파트2단지)",
    "lat": 36.32265417489325,
    "lng": 127.36865691633471,
    "region": "대전광역시"
  },
  {
    "name": "도마2동 경남아파트 111동 지하 1층",
    "address": "대전광역시 서구 배재로 155-26 (경남아파트2단지)",
    "lat": 36.32265417489325,
    "lng": 127.36865691633471,
    "region": "대전광역시"
  },
  {
    "name": "도마2동 경남아파트 112동 지하 1층",
    "address": "대전광역시 서구 배재로 155-26 (경남아파트2단지)",
    "lat": 36.32265417489325,
    "lng": 127.36865691633471,
    "region": "대전광역시"
  },
  {
    "name": "도마2동 경남아파트 113동 지하 1층",
    "address": "대전광역시 서구 배재로 139-31 (경남아파트2단지)",
    "lat": 36.32063988631432,
    "lng": 127.36901082590896,
    "region": "대전광역시"
  },
  {
    "name": "도마2동 경남아파트 114동 지하 1층",
    "address": "대전광역시 서구 배재로 139-31 (경남아파트2단지)",
    "lat": 36.32063988631432,
    "lng": 127.36901082590896,
    "region": "대전광역시"
  },
  {
    "name": "도마2동 경남아파트 115동 지하 1층",
    "address": "대전광역시 서구 배재로 139-65 (경남아파트2단지)",
    "lat": 36.32063402243484,
    "lng": 127.36886815857576,
    "region": "대전광역시"
  },
  {
    "name": "도마2동 경남아파트 116동 지하 1층",
    "address": "대전광역시 서구 배재로 139-65 (경남아파트2단지)",
    "lat": 36.32063402243484,
    "lng": 127.36886815857576,
    "region": "대전광역시"
  },
  {
    "name": "도마2동 대아아파트 지하주차장 1층",
    "address": "대전광역시 서구 배재로 185 (도마동)",
    "lat": 36.32513847081298,
    "lng": 127.37016599782474,
    "region": "대전광역시"
  },
  {
    "name": "도마2동 대아아파트 101동 지하 1층",
    "address": "대전광역시 서구 배재로 185",
    "lat": 36.32513847081298,
    "lng": 127.37016599782474,
    "region": "대전광역시"
  },
  {
    "name": "도마2동 대아아파트 102동 지하 1층",
    "address": "대전광역시 서구 배재로 185",
    "lat": 36.32513847081298,
    "lng": 127.37016599782474,
    "region": "대전광역시"
  },
  {
    "name": "도마2동 대아아파트 103동 지하 1층",
    "address": "대전광역시 서구 배재로 185",
    "lat": 36.32513847081298,
    "lng": 127.37016599782474,
    "region": "대전광역시"
  },
  {
    "name": "도마2동 대아아파트 104동 지하 1층",
    "address": "대전광역시 서구 배재로 185",
    "lat": 36.32513847081298,
    "lng": 127.37016599782474,
    "region": "대전광역시"
  },
  {
    "name": "도마2동 대아아파트 105동 지하 1층",
    "address": "대전광역시 서구 배재로 185",
    "lat": 36.32513847081298,
    "lng": 127.37016599782474,
    "region": "대전광역시"
  },
  {
    "name": "도마2동 대아아파트 106동 지하 1층",
    "address": "대전광역시 서구 배재로 185",
    "lat": 36.32513847081298,
    "lng": 127.37016599782474,
    "region": "대전광역시"
  },
  {
    "name": "도마2동 양지타운 1동 지하주차장 1층",
    "address": "대전광역시 서구 배재로91번길 38-22",
    "lat": 36.31790689063115,
    "lng": 127.3694602489302,
    "region": "대전광역시"
  },
  {
    "name": "도마2동 양지타운 2동 지하주차장 1층",
    "address": "대전광역시 서구 배재로91번길 38-22",
    "lat": 36.31790689063115,
    "lng": 127.3694602489302,
    "region": "대전광역시"
  },
  {
    "name": "도마2동 양지타운 3동 지하주차장 1층",
    "address": "대전광역시 서구 배재로91번길 38-22",
    "lat": 36.31790689063115,
    "lng": 127.3694602489302,
    "region": "대전광역시"
  },
  {
    "name": "도마2동 써머스빌아파트 지하주차장 1층",
    "address": "대전광역시 서구 계백로 1426",
    "lat": 36.31271606484305,
    "lng": 127.3797135849454,
    "region": "대전광역시"
  },
  {
    "name": "도마2동 도마정형외과 지하주차장 1층",
    "address": "대전광역시 서구 도산로 63 (도마정형외과)",
    "lat": 36.314173982905615,
    "lng": 127.37936076218872,
    "region": "대전광역시"
  },
  {
    "name": "변동 천일월드빌아파트 전체 동의 지하주차장 1층",
    "address": "대전광역시 서구 유등로 343",
    "lat": 36.32203828264884,
    "lng": 127.3846993510601,
    "region": "대전광역시"
  },
  {
    "name": "괴정동 마광빌딩 지하1층 주차장",
    "address": "대전광역시 서구 갈마로 209 (미광빌딩)",
    "lat": 36.33641170752696,
    "lng": 127.37866618198392,
    "region": "대전광역시"
  },
  {
    "name": "둔산1동 목련아파트 101동 지하주차장 1층",
    "address": "대전광역시 서구 둔산남로 127 (둔산동)",
    "lat": 36.34916211018232,
    "lng": 127.39165575698496,
    "region": "대전광역시"
  },
  {
    "name": "둔산1동 목련아파트 103동 지하주차장 1층",
    "address": "대전광역시 서구 둔산남로 127 (둔산동)",
    "lat": 36.34916211018232,
    "lng": 127.39165575698496,
    "region": "대전광역시"
  },
  {
    "name": "둔산1동 목련아파트 201동 지하주차장 1층",
    "address": "대전광역시 서구 둔산남로 127 (둔산동)",
    "lat": 36.34916211018232,
    "lng": 127.39165575698496,
    "region": "대전광역시"
  },
  {
    "name": "둔산1동 목련아파트 203동 지하주차장 1층",
    "address": "대전광역시 서구 둔산남로 127 (둔산동)",
    "lat": 36.34916211018232,
    "lng": 127.39165575698496,
    "region": "대전광역시"
  },
  {
    "name": "둔산1동 목련아파트 205동 지하주차장 1층",
    "address": "대전광역시 서구 둔산남로 127 (둔산동)",
    "lat": 36.34916211018232,
    "lng": 127.39165575698496,
    "region": "대전광역시"
  },
  {
    "name": "둔산1동 목련아파트 301동 지하주차장 1층",
    "address": "대전광역시 서구 둔산남로 127 (둔산동)",
    "lat": 36.34916211018232,
    "lng": 127.39165575698496,
    "region": "대전광역시"
  },
  {
    "name": "둔산1동 목련아파트 303동 지하주차장 1층",
    "address": "대전광역시 서구 둔산남로 127 (둔산동, 목련아파트)",
    "lat": 36.34916211018232,
    "lng": 127.39165575698496,
    "region": "대전광역시"
  },
  {
    "name": "둔산1동 목련아파트 305동 지하주차장 1층",
    "address": "대전광역시 서구 둔산남로 127-0 (둔산동)",
    "lat": 36.34916211018232,
    "lng": 127.39165575698496,
    "region": "대전광역시"
  },
  {
    "name": "둔산1동 크로바아파트 117동 지하주차장 1층",
    "address": "대전광역시 서구 둔산로 155 (둔산동)",
    "lat": 36.351430524909325,
    "lng": 127.39160246204597,
    "region": "대전광역시"
  },
  {
    "name": "둔산1동 크로바아파트 102동 지하주차장 1층",
    "address": "대전광역시 서구 둔산로 155 (둔산동)",
    "lat": 36.351430524909325,
    "lng": 127.39160246204597,
    "region": "대전광역시"
  },
  {
    "name": "둔산1동 크로바아파트 103동 지하주차장 1층",
    "address": "대전광역시 서구 둔산로 155 (둔산동)",
    "lat": 36.351430524909325,
    "lng": 127.39160246204597,
    "region": "대전광역시"
  },
  {
    "name": "둔산1동 크로바아파트 104동 지하주차장 1층",
    "address": "대전광역시 서구 둔산로 155 (둔산동)",
    "lat": 36.351430524909325,
    "lng": 127.39160246204597,
    "region": "대전광역시"
  },
  {
    "name": "둔산1동 크로바아파트 105동 지하주차장 1층",
    "address": "대전광역시 서구 둔산로 155 (둔산동)",
    "lat": 36.351430524909325,
    "lng": 127.39160246204597,
    "region": "대전광역시"
  },
  {
    "name": "둔산1동 크로바아파트 106동 지하주차장 1층",
    "address": "대전광역시 서구 둔산로 155 (둔산동)",
    "lat": 36.351430524909325,
    "lng": 127.39160246204597,
    "region": "대전광역시"
  },
  {
    "name": "둔산1동 크로바아파트 107동 지하주차장 1층",
    "address": "대전광역시 서구 둔산로 155 (둔산동)",
    "lat": 36.351430524909325,
    "lng": 127.39160246204597,
    "region": "대전광역시"
  },
  {
    "name": "둔산1동 크로바아파트 108동 지하주차장 1층",
    "address": "대전광역시 서구 둔산로 155 (둔산동)",
    "lat": 36.351430524909325,
    "lng": 127.39160246204597,
    "region": "대전광역시"
  },
  {
    "name": "둔산1동 크로바아파트 109동 지하주차장 1층",
    "address": "대전광역시 서구 둔산로 155 (둔산동)",
    "lat": 36.351430524909325,
    "lng": 127.39160246204597,
    "region": "대전광역시"
  },
  {
    "name": "둔산1동 크로바아파트 118동 지하주차장 1층",
    "address": "대전광역시 서구 둔산로 155 (둔산동)",
    "lat": 36.351430524909325,
    "lng": 127.39160246204597,
    "region": "대전광역시"
  },
  {
    "name": "둔산1동 크로바아파트 119동 지하주차장 1층",
    "address": "대전광역시 서구 둔산로 155 (둔산동)",
    "lat": 36.351430524909325,
    "lng": 127.39160246204597,
    "region": "대전광역시"
  },
  {
    "name": "둔산1동 크로바아파트 112동 지하주차장 1층",
    "address": "대전광역시 서구 둔산로 155 (둔산동)",
    "lat": 36.351430524909325,
    "lng": 127.39160246204597,
    "region": "대전광역시"
  },
  {
    "name": "둔산1동 크로바아파트 113동 지하주차장 1층",
    "address": "대전광역시 서구 둔산로 155 (둔산동)",
    "lat": 36.351430524909325,
    "lng": 127.39160246204597,
    "region": "대전광역시"
  },
  {
    "name": "둔산1동 크로바아파트 114동 지하주차장 1층",
    "address": "대전광역시 서구 둔산로 155 (둔산동)",
    "lat": 36.351430524909325,
    "lng": 127.39160246204597,
    "region": "대전광역시"
  },
  {
    "name": "둔산1동 크로바아파트 115동 지하주차장 1층",
    "address": "대전광역시 서구 둔산로 155 (둔산동)",
    "lat": 36.351430524909325,
    "lng": 127.39160246204597,
    "region": "대전광역시"
  },
  {
    "name": "둔산1동 크로바아파트 116동 지하주차장 1층",
    "address": "대전광역시 서구 둔산로 155 (둔산동)",
    "lat": 36.351430524909325,
    "lng": 127.39160246204597,
    "region": "대전광역시"
  },
  {
    "name": "둔산1동 한마루아파트 1동 지하주차장 1층",
    "address": "대전광역시 서구 둔산북로 160 (둔산동)",
    "lat": 36.355667882880525,
    "lng": 127.39207584101548,
    "region": "대전광역시"
  },
  {
    "name": "둔산1동 한마루아파트 5동 지하주차장 1층",
    "address": "대전광역시 서구 둔산북로 160 (둔산동)",
    "lat": 36.355667882880525,
    "lng": 127.39207584101548,
    "region": "대전광역시"
  },
  {
    "name": "둔산1동 한마루아파트 3동 지하주차장 1층",
    "address": "대전광역시 서구 둔산북로 160 (둔산동)",
    "lat": 36.355667882880525,
    "lng": 127.39207584101548,
    "region": "대전광역시"
  },
  {
    "name": "둔산1동 한마루아파트 104동 지하주차장 1층",
    "address": "대전광역시 서구 둔산북로 160 (둔산동)",
    "lat": 36.355667882880525,
    "lng": 127.39207584101548,
    "region": "대전광역시"
  },
  {
    "name": "둔산1동 한마루아파트 106동 지하주차장 1층",
    "address": "대전광역시 서구 둔산북로 160 (둔산동)",
    "lat": 36.355667882880525,
    "lng": 127.39207584101548,
    "region": "대전광역시"
  },
  {
    "name": "둔산1동 한마루아파트 108동 지하주차장 1층",
    "address": "대전광역시 서구 둔산북로 160 (둔산동)",
    "lat": 36.355667882880525,
    "lng": 127.39207584101548,
    "region": "대전광역시"
  },
  {
    "name": "둔산1동 햇님아파트 1동 지하주차장 1층",
    "address": "대전광역시 서구 둔산북로 175 (둔산동)",
    "lat": 36.35590880393892,
    "lng": 127.39396442930553,
    "region": "대전광역시"
  },
  {
    "name": "둔산1동 대전시청 지하주차장 1층",
    "address": "대전광역시 서구 둔산로 100",
    "lat": 36.35064412122493,
    "lng": 127.38482092687242,
    "region": "대전광역시"
  },
  {
    "name": "갈마1동 갈마아파트 101동 지하1층",
    "address": "대전광역시 서구 신갈마로 95 (갈마아파트)",
    "lat": 36.34260758645674,
    "lng": 127.36725167032164,
    "region": "대전광역시"
  },
  {
    "name": "갈마1동 갈마아파트 102동 지하1층",
    "address": "대전광역시 서구 신갈마로 95 (갈마아파트)",
    "lat": 36.34260758645674,
    "lng": 127.36725167032164,
    "region": "대전광역시"
  },
  {
    "name": "갈마1동 갈마아파트 104동 지하1층",
    "address": "대전광역시 서구 신갈마로 95 (갈마아파트)",
    "lat": 36.34260758645674,
    "lng": 127.36725167032164,
    "region": "대전광역시"
  },
  {
    "name": "갈마1동 갈마아파트 103동 지하1층",
    "address": "대전광역시 서구 신갈마로 95 (갈마아파트)",
    "lat": 36.34260758645674,
    "lng": 127.36725167032164,
    "region": "대전광역시"
  },
  {
    "name": "갈마1동 갈마아파트 105동 지하1층",
    "address": "대전광역시 서구 신갈마로 95 (갈마아파트)",
    "lat": 36.34260758645674,
    "lng": 127.36725167032164,
    "region": "대전광역시"
  },
  {
    "name": "갈마1동 갈마아파트 106동 지하1층",
    "address": "대전광역시 서구 신갈마로113번길 40 (갈마동, 갈마아파트)",
    "lat": 36.34400629410551,
    "lng": 127.36621641444684,
    "region": "대전광역시"
  },
  {
    "name": "갈마1동 갈마아파트 202동 지하1층",
    "address": "대전광역시 서구 신갈마로 102 (갈마동, 갈마아파트)",
    "lat": 36.342875078071,
    "lng": 127.368056127465,
    "region": "대전광역시"
  },
  {
    "name": "갈마1동 갈마아파트 203동 지하1층",
    "address": "대전광역시 서구 신갈마로 102 (갈마아파트)",
    "lat": 36.342875078071,
    "lng": 127.368056127465,
    "region": "대전광역시"
  },
  {
    "name": "갈마1동 갈마아파트 204동 지하1층",
    "address": "대전광역시 서구 신갈마로86번길 14 (갈마아파트)",
    "lat": 36.34176533319688,
    "lng": 127.3675585438914,
    "region": "대전광역시"
  },
  {
    "name": "갈마1동 갈마아파트 205동 지하1층",
    "address": "대전광역시 서구 신갈마로86번길 14 (갈마동, 갈마아파트)",
    "lat": 36.34176533319688,
    "lng": 127.3675585438914,
    "region": "대전광역시"
  },
  {
    "name": "갈마1동 갈마아파트 206동 지하1층",
    "address": "대전광역시 서구 신갈마로86번길 14 (갈마아파트)",
    "lat": 36.34176533319688,
    "lng": 127.3675585438914,
    "region": "대전광역시"
  },
  {
    "name": "갈마1동 갈마아파트 207동 지하1층",
    "address": "대전광역시 서구 신갈마로86번길 14 (갈마아파트)",
    "lat": 36.34176533319688,
    "lng": 127.3675585438914,
    "region": "대전광역시"
  },
  {
    "name": "갈마1동 갈마아파트 301동 지하1층",
    "address": "대전광역시 서구 신갈마로 102 (갈마아파트)",
    "lat": 36.342875078071,
    "lng": 127.368056127465,
    "region": "대전광역시"
  },
  {
    "name": "갈마1동 갈마아파트 302동 지하1층",
    "address": "대전광역시 서구 신갈마로 102 (갈마아파트)",
    "lat": 36.342875078071,
    "lng": 127.368056127465,
    "region": "대전광역시"
  },
  {
    "name": "갈마1동 갈마아파트 303동 지하1층",
    "address": "대전광역시 서구 신갈마로 102 (갈마아파트)",
    "lat": 36.342875078071,
    "lng": 127.368056127465,
    "region": "대전광역시"
  },
  {
    "name": "갈마1동 갈마아파트 304동 지하1층",
    "address": "대전광역시 서구 신갈마로 102 (갈마아파트)",
    "lat": 36.342875078071,
    "lng": 127.368056127465,
    "region": "대전광역시"
  },
  {
    "name": "갈마1동 갈마아파트 305동 지하1층",
    "address": "대전광역시 서구 신갈마로 102 (갈마아파트)",
    "lat": 36.342875078071,
    "lng": 127.368056127465,
    "region": "대전광역시"
  },
  {
    "name": "갈마1동 갈마아파트 306동 지하1층",
    "address": "대전광역시 서구 신갈마로 102 (갈마아파트)",
    "lat": 36.342875078071,
    "lng": 127.368056127465,
    "region": "대전광역시"
  },
  {
    "name": "갈마1동 갈마아파트 307동 지하1층",
    "address": "대전광역시 서구 신갈마로 102 (갈마아파트)",
    "lat": 36.342875078071,
    "lng": 127.368056127465,
    "region": "대전광역시"
  },
  {
    "name": "관저2동 구봉5단지 지하주차장 지하 1층",
    "address": "대전광역시 서구 관저로 51 (관저동)",
    "lat": 36.29853027182778,
    "lng": 127.32760557425247,
    "region": "대전광역시"
  },
  {
    "name": "관저2동 구봉7단지 지하주차장 지하1층",
    "address": "대전광역시 서구 관저로 48",
    "lat": 36.29806043562072,
    "lng": 127.32765770085396,
    "region": "대전광역시"
  },
  {
    "name": "관저2동 구봉8단지 지하주차장 지하1층",
    "address": "대전광역시 서구 관저로 84",
    "lat": 36.29870526001391,
    "lng": 127.33123729973065,
    "region": "대전광역시"
  },
  {
    "name": "관저2동 구봉9단지 지하주차장 지하1층",
    "address": "대전광역시 서구 관저서로 20",
    "lat": 36.29425313415715,
    "lng": 127.3307954018536,
    "region": "대전광역시"
  },
  {
    "name": "관저2동 신선마을아파트 지하주차장 지하1층",
    "address": "대전광역시 서구 관저로 83",
    "lat": 36.29908767718587,
    "lng": 127.33127533647465,
    "region": "대전광역시"
  },
  {
    "name": "관저2동 느리울11단지 지하주차장 지하1층",
    "address": "대전광역시 서구 관저동로90번길 47",
    "lat": 36.30036558521588,
    "lng": 127.3434400369528,
    "region": "대전광역시"
  },
  {
    "name": "관저2동 느리울12단지 지하주차장 지하1층",
    "address": "대전광역시 서구 관저로 184",
    "lat": 36.29893225736519,
    "lng": 127.34242219456188,
    "region": "대전광역시"
  },
  {
    "name": "관저2동 느리울13단지 지하주차장 지하1층",
    "address": "대전광역시 서구 관저동로 42 (관저동)",
    "lat": 36.29582526278779,
    "lng": 127.34065883047982,
    "region": "대전광역시"
  },
  {
    "name": "관저2동 관저리슈빌 지하주차장 지하1층",
    "address": "대전광역시 서구 관저동로90번길 15 (관저동)",
    "lat": 36.300361907566575,
    "lng": 127.34157614945866,
    "region": "대전광역시"
  },
  {
    "name": "갈마1동 갈마아파트 201동 지하1층",
    "address": "대전광역시 서구 신갈마로 102 (갈마아파트)",
    "lat": 36.342875078071,
    "lng": 127.368056127465,
    "region": "대전광역시"
  },
  {
    "name": "가장동 삼성 래미안 아파트1단지 지하주차장 2층",
    "address": "대전광역시 서구 가장로 106 (삼성래미안아파트)",
    "lat": 36.33378493973645,
    "lng": 127.38550130379102,
    "region": "대전광역시"
  },
  {
    "name": "가장동 삼성 래미안 아파트2단지 지하주차장 2층",
    "address": "대전광역시 서구 가장로 107 (삼성래미안아파트)",
    "lat": 36.33394765786217,
    "lng": 127.38582744651856,
    "region": "대전광역시"
  },
  {
    "name": "정림동 우성아파트 제2지하주차장 지하 1층",
    "address": "대전광역시 서구 정림로 55 (정림동, 우성아파트1차)",
    "lat": 36.30540714424961,
    "lng": 127.36518956967828,
    "region": "대전광역시"
  },
  {
    "name": "정림동 우성아파트 제6지하주차장 지하 1층",
    "address": "대전광역시 서구 정림로 55 (정림동, 우성아파트1차)",
    "lat": 36.30540714424961,
    "lng": 127.36518956967828,
    "region": "대전광역시"
  },
  {
    "name": "정림동 우성아파트 제10지하주차장 지하 1층",
    "address": "대전광역시 서구 정림서로 162-15 (정림동, 우성아파트2차)",
    "lat": 36.30235599738454,
    "lng": 127.36451688400196,
    "region": "대전광역시"
  },
  {
    "name": "정림동 보람아파트 제2지하주차장 지하 1층",
    "address": "대전광역시 서구 정림서로 162-18 (정림동, 강변들보람아파트)",
    "lat": 36.30217762830027,
    "lng": 127.36479492517245,
    "region": "대전광역시"
  },
  {
    "name": "정림동 늘푸른아파트 101동 지하주차장 지하 1~2층",
    "address": "대전광역시 서구 정림로 11 (늘푸른아파트)",
    "lat": 36.30147645735246,
    "lng": 127.36613717950122,
    "region": "대전광역시"
  },
  {
    "name": "정림동 금성백조아파트 지하주차장 지하 1층",
    "address": "대전광역시 서구 구봉로 419 (강변들금성백조아파트)",
    "lat": 36.29994861657654,
    "lng": 127.36581551370055,
    "region": "대전광역시"
  },
  {
    "name": "정림동 삼정하이츠아파트 지하주차장 지하 1층",
    "address": "대전광역시 서구 정림서로 114 (삼정하이츠)",
    "lat": 36.29835209696329,
    "lng": 127.3627104645128,
    "region": "대전광역시"
  },
  {
    "name": "정림동 정림 지하보도 지하 1층",
    "address": "대전광역시 서구 계백로 1277",
    "lat": 36.30802375305138,
    "lng": 127.36471857171205,
    "region": "대전광역시"
  },
  {
    "name": "변동 동건아파트 전체 동의 지하주차장 1층",
    "address": "대전광역시 서구 도마로57번길 38",
    "lat": 36.3240534454938,
    "lng": 127.37662931874068,
    "region": "대전광역시"
  },
  {
    "name": "변동 한국전력공사 전체 동의 서대전지사지하 주차장 1층",
    "address": "대전광역시 서구 변동중로 39 (변동, 한국전력공사)",
    "lat": 36.32833707893811,
    "lng": 127.37300528987576,
    "region": "대전광역시"
  },
  {
    "name": "탄방동 한국교직원 공제회관 지하1층주차장",
    "address": "대전광역시 서구 둔산중로 8",
    "lat": 36.347298401336296,
    "lng": 127.38720188877106,
    "region": "대전광역시"
  },
  {
    "name": "관저1동 원앙마을 104동 지하주차장 2층",
    "address": "대전광역시 서구 관저북로 87 (관저동)",
    "lat": 36.30962278922188,
    "lng": 127.33685072110772,
    "region": "대전광역시"
  },
  {
    "name": "월평1동 갑천역 지하1층~2층(지하철역사)",
    "address": "대전광역시 서구 갑천도시고속도로 1833 (월평동, 갑천역)",
    "lat": 36.35429235180777,
    "lng": 127.35412754391795,
    "region": "대전광역시"
  },
  {
    "name": "월평1동 월평역 지하 1층~2층(지하철역사)",
    "address": "대전광역시 서구 한밭대로 지하595, 월평역 (월평동)",
    "lat": 36.35824581558144,
    "lng": 127.36499025124382,
    "region": "대전광역시"
  },
  {
    "name": "용문동 아이누리 아파트 1단지 지하1층주차장",
    "address": "대전광역시 서구 계룡로686번길 18 (용문동리베라아이누리아파트1단지)",
    "lat": 36.33503898942173,
    "lng": 127.3956656107664,
    "region": "대전광역시"
  },
  {
    "name": "용문동 아이누리 아파트 2단지 지하1층주차장",
    "address": "대전광역시 서구 계룡로686번길 17 (용문동리베라아이누리아파트2단지)",
    "lat": 36.33496476052069,
    "lng": 127.39577200751314,
    "region": "대전광역시"
  },
  {
    "name": "갈마1동 미소지움아파트 전체동의 지하1층 주차장",
    "address": "대전광역시 서구 신갈마로 66-17 (갈마동)",
    "lat": 36.34023504835478,
    "lng": 127.36763150427444,
    "region": "대전광역시"
  },
  {
    "name": "복수동 초록마을2단지 지하주차장 1층",
    "address": "대전광역시 서구 복수동로 21-20",
    "lat": 36.30225449760926,
    "lng": 127.37996051915532,
    "region": "대전광역시"
  },
  {
    "name": "내동 맑은아침@ P01 지하1,2층주차장(102동)",
    "address": "대전광역시 서구 갈마로 262 (맑은아침아파트)",
    "lat": 36.33284319066936,
    "lng": 127.38235769017234,
    "region": "대전광역시"
  },
  {
    "name": "내동 맑은아침@ P02 지하1,2층주차장(104동)",
    "address": "대전광역시 서구 갈마로 262 (맑은아침아파트)",
    "lat": 36.33284319066936,
    "lng": 127.38235769017234,
    "region": "대전광역시"
  },
  {
    "name": "내동 맑은아침@ P03 지하1,2층주차장(106동)",
    "address": "대전광역시 서구 갈마로 262 (내동, 맑은아침아파트)",
    "lat": 36.33284319066936,
    "lng": 127.38235769017234,
    "region": "대전광역시"
  },
  {
    "name": "내동 맑은아침@ P04 지하1,2층주차장(107동)",
    "address": "대전광역시 서구 갈마로 262 (맑은아침아파트)",
    "lat": 36.33284319066936,
    "lng": 127.38235769017234,
    "region": "대전광역시"
  },
  {
    "name": "내동 맑은아침@ P05 지하1,2층주차장(109동)",
    "address": "대전광역시 서구 갈마로 262 (맑은아침아파트)",
    "lat": 36.33284319066936,
    "lng": 127.38235769017234,
    "region": "대전광역시"
  },
  {
    "name": "내동 맑은아침@ P06 지하1,2층주차장(111동)",
    "address": "대전광역시 서구 갈마로 262 (맑은아침아파트)",
    "lat": 36.33284319066936,
    "lng": 127.38235769017234,
    "region": "대전광역시"
  },
  {
    "name": "내동 맑은아침@ P07 지하1,2층주차장(115동)",
    "address": "대전광역시 서구 갈마로 262 (맑은아침아파트)",
    "lat": 36.33284319066936,
    "lng": 127.38235769017234,
    "region": "대전광역시"
  },
  {
    "name": "내동 맑은아침@ P08 지하1,2층주차장(111동)",
    "address": "대전광역시 서구 갈마로 262 (맑은아침아파트)",
    "lat": 36.33284319066936,
    "lng": 127.38235769017234,
    "region": "대전광역시"
  },
  {
    "name": "내동 맑은아침@ P09 지하1,2층주차장(120동)",
    "address": "대전광역시 서구 갈마로 262 (맑은아침아파트)",
    "lat": 36.33284319066936,
    "lng": 127.38235769017234,
    "region": "대전광역시"
  },
  {
    "name": "내동 맑은아침@ P10 지하1,2층주차장(122동)",
    "address": "대전광역시 서구 갈마로 262 (맑은아침아파트)",
    "lat": 36.33284319066936,
    "lng": 127.38235769017234,
    "region": "대전광역시"
  },
  {
    "name": "월평2동 만월 지하보도 1층",
    "address": "대전광역시 서구 갈마역로 155",
    "lat": 36.36443487767184,
    "lng": 127.37417056292745,
    "region": "대전광역시"
  },
  {
    "name": "둔산1동 시청역 대합실 지하 1층",
    "address": "대전광역시 서구 둔산중로 지하 55",
    "lat": 36.35134971494831,
    "lng": 127.38672386417234,
    "region": "대전광역시"
  },
  {
    "name": "용문동 용문역 지하1층(지하철역사)",
    "address": "대전광역시 서구 계룡로 지하644, 용문역 (용문동)",
    "lat": 36.33847999126588,
    "lng": 127.39287651659102,
    "region": "대전광역시"
  },
  {
    "name": "갈마1동 갈마역 지하1층(지하철역사)",
    "address": "대전광역시 서구 한밭대로 지하 666",
    "lat": 36.35779177899489,
    "lng": 127.37297723998992,
    "region": "대전광역시"
  },
  {
    "name": "둔산2동 정부청사역(지하철역사) 지하1층~2층",
    "address": "대전광역시 서구 한밭대로 지하 744 (둔산동, 정부청사역 )",
    "lat": 36.35768348326065,
    "lng": 127.38136617870316,
    "region": "대전광역시"
  },
  {
    "name": "탄방동 탄방역(지하철역사) 대합실 지하 1층",
    "address": "대전광역시 서구 문정로48번길 지하 19-0",
    "lat": 36.34576719937201,
    "lng": 127.38459128865937,
    "region": "대전광역시"
  },
  {
    "name": "기성동 사랑샘 실버타운 지하 1층",
    "address": "대전광역시 서구 금평6길 10",
    "lat": 36.25243575221798,
    "lng": 127.34099748846852,
    "region": "대전광역시"
  },
  {
    "name": "도안동 수목토아파트 지하주차장 1층",
    "address": "대전광역시 서구 도안동로 177",
    "lat": 36.32079888100704,
    "lng": 127.3457822909276,
    "region": "대전광역시"
  },
  {
    "name": "탄방동 한가람아파트(11~12동) 지하주차장 1층",
    "address": "대전광역시 서구 문예로 16 (탄방동)",
    "lat": 36.34808554815346,
    "lng": 127.39048336511092,
    "region": "대전광역시"
  },
  {
    "name": "탄방동 공작한양아파트(9~10동) 지하주차장 1층",
    "address": "대전광역시 서구 문정로 131 (탄방동)",
    "lat": 36.34690601504283,
    "lng": 127.39394292702168,
    "region": "대전광역시"
  },
  {
    "name": "탄방동 한우리아파트 108동 지하주차장 1층",
    "address": "대전광역시 서구 문정로90번길 60 (탄방동)",
    "lat": 36.34422978324594,
    "lng": 127.38866697990365,
    "region": "대전광역시"
  },
  {
    "name": "갈마1동 대전일보 지하1층 주차장",
    "address": "대전광역시 서구 계룡로 314 (갈마동, 대전일보사)",
    "lat": 36.35353721399941,
    "lng": 127.36397173535131,
    "region": "대전광역시"
  },
  {
    "name": "변동 동기포에버아파트 전체 동의 지하주차장 1층",
    "address": "대전광역시 서구 도마로57번길 42 (동기 포에버 아파트)",
    "lat": 36.324151078131,
    "lng": 127.37680457472338,
    "region": "대전광역시"
  },
  {
    "name": "탄방동 한가람아파트(2동,7~8동) 지하주차장 1층",
    "address": "대전광역시 서구 문예로 16 (탄방동, 한가람아파트)",
    "lat": 36.34808554815346,
    "lng": 127.39048336511092,
    "region": "대전광역시"
  },
  {
    "name": "탄방동 공작한양아파트(4~6동) 지하주차장 1층",
    "address": "대전광역시 서구 문정로 131 (탄방동, 공작한양아파트)",
    "lat": 36.34690601504283,
    "lng": 127.39394292702168,
    "region": "대전광역시"
  },
  {
    "name": "탄방동 공작한양아파트(7~8동) 지하주차장 1층",
    "address": "대전광역시 서구 문정로 131 (탄방동, 공작한양아파트)",
    "lat": 36.34690601504283,
    "lng": 127.39394292702168,
    "region": "대전광역시"
  },
  {
    "name": "탄방동 공작한양아파트 (1~2동) 지하주차장 1층",
    "address": "대전광역시 서구 문정로 131 (탄방동, 공작한양아파트)",
    "lat": 36.34690601504283,
    "lng": 127.39394292702168,
    "region": "대전광역시"
  },
  {
    "name": "탄방동 한우리아파트(104~106동) 지하주차장 1층",
    "address": "대전광역시 서구 문정로90번길 60 (탄방동, 한우리아파트)",
    "lat": 36.34422978324594,
    "lng": 127.38866697990365,
    "region": "대전광역시"
  },
  {
    "name": "탄방동 한우리아파트(101~103동) 지하주차장 1층",
    "address": "대전광역시 서구 문정로90번길 60 (탄방동, 한우리아파트)",
    "lat": 36.34422978324594,
    "lng": 127.38866697990365,
    "region": "대전광역시"
  },
  {
    "name": "복수동 초록마을1단지 지하주차장 1층",
    "address": "대전광역시 서구 복수동로 21-19",
    "lat": 36.30252457498922,
    "lng": 127.37989890879544,
    "region": "대전광역시"
  },
  {
    "name": "복수동 초록마을3-1단지 지하주차장 1층",
    "address": "대전광역시 서구 복수동로 39-26",
    "lat": 36.30061061688648,
    "lng": 127.38020481086548,
    "region": "대전광역시"
  },
  {
    "name": "복수동 초록마을3-2단지 지하주차장 1층",
    "address": "대전광역시 서구 복수동로51번길 43-0",
    "lat": 36.29952465278694,
    "lng": 127.38108912565858,
    "region": "대전광역시"
  },
  {
    "name": "복수동 초록마을5단지 지하주차장 1층",
    "address": "대전광역시 서구 유등로17번길 109-0",
    "lat": 36.29833514237247,
    "lng": 127.37499534926847,
    "region": "대전광역시"
  },
  {
    "name": "괴정동 롯데백화점 지하2층 주차장",
    "address": "대전광역시 서구 계룡로 598 (괴정동)",
    "lat": 36.3411021328016,
    "lng": 127.38941672244532,
    "region": "대전광역시"
  },
  {
    "name": "둔산2동 서구청사 지하1층 주차장",
    "address": "대전광역시 서구 둔산서로 100, 서구청 (둔산동)",
    "lat": 36.355059267720975,
    "lng": 127.38335765080872,
    "region": "대전광역시"
  },
  {
    "name": "갈마2동 둔원지하보도 (둔원초교 앞) 1층",
    "address": "대전광역시 서구 대덕대로 101 (갈마동, 둔원초등학교)",
    "lat": 36.34291414636371,
    "lng": 127.37385238611792,
    "region": "대전광역시"
  },
  {
    "name": "도안동 한라비발디 지하주차장 1층",
    "address": "대전광역시 서구 도안북로 136",
    "lat": 36.329936522268966,
    "lng": 127.34364770791998,
    "region": "대전광역시"
  },
  {
    "name": "도안동 금성백조 예미지 지하주차장 1층",
    "address": "대전광역시 서구 도안북로 125 (금성백조예미지아파트)",
    "lat": 36.330280778247904,
    "lng": 127.3425454182117,
    "region": "대전광역시"
  },
  {
    "name": "도안동 도안아이파크 지하주차장 1층",
    "address": "대전광역시 서구 도안동로 183 (도안동)",
    "lat": 36.32106256439086,
    "lng": 127.34582928132323,
    "region": "대전광역시"
  },
  {
    "name": "가수원동 모아드림아파트 지하주차장 1층",
    "address": "대전광역시 서구 가수원로 83 (가수원동, 모아드림아파트)",
    "lat": 36.30154271356732,
    "lng": 127.35006572125404,
    "region": "대전광역시"
  },
  {
    "name": "도안동 린풀하우스아파트 지하주차장 1층",
    "address": "대전광역시 서구 도안동로 77(도안동, 도안18단지린풀하우스)",
    "lat": 36.311761896501096,
    "lng": 127.3498201725562,
    "region": "대전광역시"
  },
  {
    "name": "도안동 도안리슈빌 아파트 지하주차장 1층",
    "address": "대전광역시 서구 도안동로 123 (도안동, 도안리슈빌)",
    "lat": 36.31694116843,
    "lng": 127.34772361173232,
    "region": "대전광역시"
  },
  {
    "name": "복수동 삼익목화2차아파트 P1 지하주차장 1층",
    "address": "대전광역시 서구 복수북로 42 (복수동, 삼익목화아파트)",
    "lat": 36.30825393244077,
    "lng": 127.37426832493983,
    "region": "대전광역시"
  },
  {
    "name": "복수동 삼익목화2차아파트 P2 지하주차장 1층",
    "address": "대전광역시 서구 복수북로 42 (복수동, 삼익목화아파트)",
    "lat": 36.30825393244077,
    "lng": 127.37426832493983,
    "region": "대전광역시"
  },
  {
    "name": "도마1동 도마e편한세상포레나아파트 지하주차장 1층",
    "address": "대전광역시 서구 도산로 8 (도마동, 도마 e편한세상 포레나)",
    "lat": 36.3116331385199,
    "lng": 127.384060589813,
    "region": "대전광역시"
  },
  {
    "name": "갈마1동 갤러리 휴리움 아파트 지하주차장",
    "address": "대전광역시 서구 신갈마로 186 (갈마동, 갤러리휴리움)",
    "lat": 36.3502548313909,
    "lng": 127.36837991003,
    "region": "대전광역시"
  },
  {
    "name": "탄방동 e편한세상 1단지 아파트 지하주차장 1~2층",
    "address": "대전광역시 서구 계룡로615번길 69 (탄방동, e편한세상 둔산)",
    "lat": 36.3423409363115,
    "lng": 127.393879082997,
    "region": "대전광역시"
  },
  {
    "name": "탄방동 e편한세상 2단지 아파트 지하주차장 1~2층",
    "address": "대전광역시 서구 계룡로615번길 82 (탄방동, e편한세상 둔산)",
    "lat": 36.34263769134,
    "lng": 127.394450961721,
    "region": "대전광역시"
  },
  {
    "name": "관저2동 관저더샵1차아파트 지하주차장 지하1층",
    "address": "대전광역시 서구 관저서로 19 (관저동, 관저더샵)",
    "lat": 36.2942058106345,
    "lng": 127.330213467729,
    "region": "대전광역시"
  },
  {
    "name": "관저2동 다온숲아파트 지하주차장 지하1층",
    "address": "대전광역시 서구 구봉산북로 165 (관저동, 다온숲3단지)",
    "lat": 36.2923308729863,
    "lng": 127.338880905292,
    "region": "대전광역시"
  },
  {
    "name": "관저2동 예미지아파트 지하주차장 지하1층",
    "address": "대전광역시 서구 관저중로 33 (관저동, 관저예미지 명가의 풍경)",
    "lat": 36.2949301613684,
    "lng": 127.334567506681,
    "region": "대전광역시"
  },
  {
    "name": "복수동 센트럴자이@ 지하1-2층주차장",
    "address": "대전광역시 서구 복수서로 15 (복수동, 복수센트럴자이)",
    "lat": 36.3060052857493,
    "lng": 127.372969991632,
    "region": "대전광역시"
  },
  {
    "name": "대자연마을 105~108동 지하주차장",
    "address": "대전광역시 서구 관저북로 52 (관저동, 대자연마을아파트)",
    "lat": 36.3063853538534,
    "lng": 127.337318127681,
    "region": "대전광역시"
  },
  {
    "name": "한진오피스텔 지하주차장 1층",
    "address": "대전광역시 유성구 계룡로105번길 15, 한진오피스텔 (봉명동)",
    "lat": 36.35432008484988,
    "lng": 127.34257154377192,
    "region": "대전광역시"
  },
  {
    "name": "삼성푸른아파트(지하 1층 주차장)",
    "address": "대전광역시 유성구 전민로 71 (전민동)",
    "lat": 36.399110666548125,
    "lng": 127.40022547011309,
    "region": "대전광역시"
  },
  {
    "name": "우성햇살아파트 지하1층주차장",
    "address": "대전광역시 유성구 계룡로60번길 86 (구암동, 우성햇살아파트)",
    "lat": 36.35109128838675,
    "lng": 127.33616398846392,
    "region": "대전광역시"
  },
  {
    "name": "엑스포1단지아파트 109동(지하 1층 주차장)",
    "address": "대전광역시 유성구 엑스포로 448 (전민동)",
    "lat": 36.39622374037338,
    "lng": 127.4052370635797,
    "region": "대전광역시"
  },
  {
    "name": "엑스포2단지아파트 203동(지하 1층 주차장)",
    "address": "대전광역시 유성구 엑스포로 448 (전민동)",
    "lat": 36.39622374037338,
    "lng": 127.4052370635797,
    "region": "대전광역시"
  },
  {
    "name": "엑스포3단지아파트 308동(지하 1층 주차장)",
    "address": "대전광역시 유성구 엑스포로 448 (전민동)",
    "lat": 36.39622374037338,
    "lng": 127.4052370635797,
    "region": "대전광역시"
  },
  {
    "name": "엑스포5단지아파트 502동(지하 1층 주차장)",
    "address": "대전광역시 유성구 엑스포로 448 (전민동)",
    "lat": 36.39622374037338,
    "lng": 127.4052370635797,
    "region": "대전광역시"
  },
  {
    "name": "유성구청 지하1층 대강당",
    "address": "대전광역시 유성구 대학로 211 (어은동)",
    "lat": 36.361646400357245,
    "lng": 127.35664121884524,
    "region": "대전광역시"
  },
  {
    "name": "대림두레아파트(지하1층 주차장)",
    "address": "대전광역시 유성구 가정로 65 (신성동, 대림두레아파트)",
    "lat": 36.38633139161472,
    "lng": 127.35046281634077,
    "region": "대전광역시"
  },
  {
    "name": "럭키하나아파트(지하1층 주차장)",
    "address": "대전광역시 유성구 가정로 63 (신성동, 럭키하나아파트)",
    "lat": 36.38592508537828,
    "lng": 127.3503390139518,
    "region": "대전광역시"
  },
  {
    "name": "한울아파트(지하1층 주차장)",
    "address": "대전광역시 유성구 가정로 43 (신성동)",
    "lat": 36.38510905751093,
    "lng": 127.34806332629628,
    "region": "대전광역시"
  },
  {
    "name": "나래아파트105동(지하1층주차장)",
    "address": "대전광역시 유성구 엑스포로 501 (전민동)",
    "lat": 36.40102962264832,
    "lng": 127.40468347279918,
    "region": "대전광역시"
  },
  {
    "name": "나래아파트110동(지하1층주차장)",
    "address": "대전광역시 유성구 엑스포로 501 (전민동)",
    "lat": 36.40102962264832,
    "lng": 127.40468347279918,
    "region": "대전광역시"
  },
  {
    "name": "한빛아파트 136동 지하 1층 주차장",
    "address": "대전광역시 유성구 어은로 57 (어은동, 한빛아파트)",
    "lat": 36.36331623840186,
    "lng": 127.35644658140532,
    "region": "대전광역시"
  },
  {
    "name": "한빛아파트 117동 지하 1층 주차장",
    "address": "대전광역시 유성구 어은로 57 (어은동, 한빛아파트)",
    "lat": 36.36331623840186,
    "lng": 127.35644658140532,
    "region": "대전광역시"
  },
  {
    "name": "한빛아파트 105동 지하 1층 주차장",
    "address": "대전광역시 유성구 어은로 57 (어은동, 한빛아파트)",
    "lat": 36.36331623840186,
    "lng": 127.35644658140532,
    "region": "대전광역시"
  },
  {
    "name": "한빛아파트 128동 지하 1층 주차장",
    "address": "대전광역시 유성구 어은로 57 (어은동, 한빛아파트)",
    "lat": 36.36331623840186,
    "lng": 127.35644658140532,
    "region": "대전광역시"
  },
  {
    "name": "한솔아파트 201동(지하1층주차장)",
    "address": "대전광역시 유성구 송강로 15 (송강동, 한솔아파트)",
    "lat": 36.43241940244213,
    "lng": 127.38579109739928,
    "region": "대전광역시"
  },
  {
    "name": "동아벤처타워오피스텔 지하2층주차장",
    "address": "대전광역시 유성구 온천로 59 (봉명동, 동아벤처타워)",
    "lat": 36.35545904145365,
    "lng": 127.3445027945685,
    "region": "대전광역시"
  },
  {
    "name": "한솔아파트 101동(지하1층주차장)",
    "address": "대전광역시 유성구 송강로 15 (송강동, 한솔아파트)",
    "lat": 36.43241940244213,
    "lng": 127.38579109739928,
    "region": "대전광역시"
  },
  {
    "name": "청솔아파트 101동 지하주차장 1층",
    "address": "대전광역시 유성구 송강로42번길 61 (송강동, 청솔아파트)",
    "lat": 36.43616668392455,
    "lng": 127.3836025171795,
    "region": "대전광역시"
  },
  {
    "name": "청솔아파트 205동 지하주차장 1층",
    "address": "대전광역시 유성구 송강로42번길 61, 205동 (송강동, 청솔아파트)",
    "lat": 36.43616668392455,
    "lng": 127.3836025171795,
    "region": "대전광역시"
  },
  {
    "name": "청솔아파트 308동 지하주차장 1층",
    "address": "대전광역시 유성구 송강로42번길 61, 308동 (송강동, 청솔아파트)",
    "lat": 36.43616668392455,
    "lng": 127.3836025171795,
    "region": "대전광역시"
  },
  {
    "name": "송강그린아파트 301동(지하1층주차장)",
    "address": "대전광역시 유성구 구즉로 25 (송강동, 송강그린아파트)",
    "lat": 36.43159771507384,
    "lng": 127.38357432659612,
    "region": "대전광역시"
  },
  {
    "name": "송강그린아파트 305동(지하1층주차장)",
    "address": "대전광역시 유성구 구즉로 25 (송강동, 송강그린아파트)",
    "lat": 36.43159771507384,
    "lng": 127.38357432659612,
    "region": "대전광역시"
  },
  {
    "name": "송강그린아파트 306동(지하1층주차장)",
    "address": "대전광역시 유성구 구즉로 25 (송강동, 송강그린아파트)",
    "lat": 36.43159771507384,
    "lng": 127.38357432659612,
    "region": "대전광역시"
  },
  {
    "name": "유성구지역협력센터 지하 1층 주차장",
    "address": "대전광역시 유성구 유성대로730번길 51, 유성구지역협력센터 (장대동)",
    "lat": 36.35794326615567,
    "lng": 127.33541683645306,
    "region": "대전광역시"
  },
  {
    "name": "샘물타운아파트(지하1층주차장)",
    "address": "대전광역시 유성구 원내로 52 (원내동)",
    "lat": 36.29969616519059,
    "lng": 127.32145347473045,
    "region": "대전광역시"
  },
  {
    "name": "한아름아파트(지하1층주차장)",
    "address": "대전광역시 유성구 진잠로42번길 30 (원내동)",
    "lat": 36.2956205024539,
    "lng": 127.3187079626325,
    "region": "대전광역시"
  },
  {
    "name": "한마을아파트 101동(지하1층 주차장)",
    "address": "대전광역시 유성구 구즉로 16 (송강동, 한마을아파트)",
    "lat": 36.43080322985016,
    "lng": 127.3836386703506,
    "region": "대전광역시"
  },
  {
    "name": "한마을아파트 102동(지하 1층 주차장)",
    "address": "대전광역시 유성구 구즉로 16 (송강동, 한마을아파트)",
    "lat": 36.43080322985016,
    "lng": 127.3836386703506,
    "region": "대전광역시"
  },
  {
    "name": "한마을아파트 108동(지하 1층 주차장)",
    "address": "대전광역시 유성구 구즉로 16 (송강동, 한마을아파트)",
    "lat": 36.43080322985016,
    "lng": 127.3836386703506,
    "region": "대전광역시"
  },
  {
    "name": "초롱마을아파트 지하주차장 1층",
    "address": "대전광역시 유성구 월드컵대로253번길 37 (구암동, 삼정초롱마을아파트)",
    "lat": 36.35018257268338,
    "lng": 127.32930968229064,
    "region": "대전광역시"
  },
  {
    "name": "열매마을1단지 삼부아파트(지하1층주차장)",
    "address": "대전광역시 유성구 노은서로 222 (지족동)",
    "lat": 36.37946714702155,
    "lng": 127.31605735459412,
    "region": "대전광역시"
  },
  {
    "name": "열매마을3단지 대우아파트(지하1층주차장)",
    "address": "대전광역시 유성구 노은동로 219 (지족동)",
    "lat": 36.37935929104789,
    "lng": 127.32042656157446,
    "region": "대전광역시"
  },
  {
    "name": "열매마을5단지 운암아파트(지하주차장)",
    "address": "대전광역시 유성구 은구비로 31 (지족동)",
    "lat": 36.37618269187288,
    "lng": 127.31872977095392,
    "region": "대전광역시"
  },
  {
    "name": "열매마을9단지 금성백조아파트 지하1~2층 주차장",
    "address": "대전광역시 유성구 은구비남로 56 (노은동, 열매마을 아파트 9단지)",
    "lat": 36.371999305773066,
    "lng": 127.32175751518578,
    "region": "대전광역시"
  },
  {
    "name": "열매마을11단지 리슈빌아파트 지하주차장 1~2층",
    "address": "대전광역시 유성구 왕가봉로 23 (노은동, 열매마을아파트11단지)",
    "lat": 36.36549719299688,
    "lng": 127.31519472710065,
    "region": "대전광역시"
  },
  {
    "name": "목련1단지아파트(지하1층 주차장)",
    "address": "대전광역시 유성구 월드컵대로290번길 39 (상대동, 목련아파트1단지)",
    "lat": 36.34684188773268,
    "lng": 127.33227045694132,
    "region": "대전광역시"
  },
  {
    "name": "유성온천역 대전1호선 지하역사(지하1층)",
    "address": "대전광역시 유성구 계룡로 지하 97-0 (봉명동, 유성온천역)",
    "lat": 36.35368371690089,
    "lng": 127.34113771471998,
    "region": "대전광역시"
  },
  {
    "name": "구암역 대전1호선 지하역사(지하1층)",
    "address": "대전광역시 유성구 유성대로 703 (구암동)",
    "lat": 36.35652933124202,
    "lng": 127.3310838751117,
    "region": "대전광역시"
  },
  {
    "name": "현충원역 대전1호선 지하역사 (지하1층)",
    "address": "대전광역시 유성구 현충원로 지하 455 (구암동)",
    "lat": 36.3589882349161,
    "lng": 127.32196452408624,
    "region": "대전광역시"
  },
  {
    "name": "월드컵경기장역 대전1호선(지하1층)",
    "address": "대전광역시 유성구 한밭대로 지하 155 (노은동, 월드컵경기장역)",
    "lat": 36.36717869600269,
    "lng": 127.31844178149412,
    "region": "대전광역시"
  },
  {
    "name": "노은역 대전1호선(지하1층)",
    "address": "대전광역시 유성구 노은로 지하 161 (지족동)",
    "lat": 36.373966089979184,
    "lng": 127.31766335973958,
    "region": "대전광역시"
  },
  {
    "name": "지족역 대전1호선 지하1층",
    "address": "대전광역시 유성구 노은로 273, 지족역 (지족동)",
    "lat": 36.383884048194304,
    "lng": 127.31966114924754,
    "region": "대전광역시"
  },
  {
    "name": "반석역 대전1호선(지하역사 1층)",
    "address": "대전광역시 유성구 북유성대로 지하 303 (반석동, 반석역)",
    "lat": 36.39233725994925,
    "lng": 127.31416069499716,
    "region": "대전광역시"
  },
  {
    "name": "드리움1단지아파트(지하1층주차장)",
    "address": "대전광역시 유성구 대정로28번길 50 (대정동)",
    "lat": 36.31441340267558,
    "lng": 127.32268031789616,
    "region": "대전광역시"
  },
  {
    "name": "드리움2단지아파트(지하1층주차장)",
    "address": "대전광역시 유성구 대정로28번안길 80 (대정동, 대전드리움아파트2단지)",
    "lat": 36.31327789536786,
    "lng": 127.32145040518294,
    "region": "대전광역시"
  },
  {
    "name": "제이파크아파트(지하1층주차장)",
    "address": "대전광역시 유성구 진잠로149번길 24 (교촌동)",
    "lat": 36.304742592729305,
    "lng": 127.31782169802948,
    "region": "대전광역시"
  },
  {
    "name": "한승미메이드아파트(지하1층주차장)",
    "address": "대전광역시 유성구 진잠로149번길 30 (교촌동)",
    "lat": 36.30508218720889,
    "lng": 127.31763294856692,
    "region": "대전광역시"
  },
  {
    "name": "하우스토리네오미아아파트(지하1층~2층주차장)",
    "address": "대전광역시 유성구 덕명로 63 (덕명동)",
    "lat": 36.3574195979005,
    "lng": 127.30555523655757,
    "region": "대전광역시"
  },
  {
    "name": "미성샤르망아파트 지하2층주차장",
    "address": "대전광역시 유성구 계룡로 64 (봉명동)",
    "lat": 36.354612519756586,
    "lng": 127.3379221200358,
    "region": "대전광역시"
  },
  {
    "name": "드림월드아파트 지하주차장 1층",
    "address": "대전광역시 유성구 문화원로 13 (장대동, 드림월드아파트)",
    "lat": 36.361625246328295,
    "lng": 127.33786288035704,
    "region": "대전광역시"
  },
  {
    "name": "한일유앤아이아파트 지하 1층 주차장",
    "address": "대전광역시 유성구 장대로 103 (장대동, 한일유엔아이)",
    "lat": 36.36388644215372,
    "lng": 127.33362544206886,
    "region": "대전광역시"
  },
  {
    "name": "자연아파트 2호라인 지하주차장 1층",
    "address": "대전광역시 유성구 궁동로 49 (궁동)",
    "lat": 36.36411426058815,
    "lng": 127.35022742528416,
    "region": "대전광역시"
  },
  {
    "name": "열매마을10단지 상록아파트 지하1~2층 주차장",
    "address": "대전광역시 유성구 노은동로 111 (노은동)",
    "lat": 36.370496497000005,
    "lng": 127.32320538862938,
    "region": "대전광역시"
  },
  {
    "name": "반석마을3단지 호반베르디움아파트(지하1층 주차장)",
    "address": "대전광역시 유성구 지족로 362 (지족동)",
    "lat": 36.386411058997794,
    "lng": 127.31647857741996,
    "region": "대전광역시"
  },
  {
    "name": "반석마을4단지아파트(지하1층 주차장)",
    "address": "대전광역시 유성구 반석로 46 (반석동)",
    "lat": 36.39118298452719,
    "lng": 127.30976112383256,
    "region": "대전광역시"
  },
  {
    "name": "반석마을8단지아파트(지하1층 주차장)",
    "address": "대전광역시 유성구 반석동로 82 (반석동)",
    "lat": 36.394662380559446,
    "lng": 127.3109493368986,
    "region": "대전광역시"
  },
  {
    "name": "송림마을1단지 호반아파트(지하 1~2층 주차장)",
    "address": "대전광역시 유성구 송림로 13 (하기동)",
    "lat": 36.3880641869856,
    "lng": 127.31951443915244,
    "region": "대전광역시"
  },
  {
    "name": "송림마을3단지 이노스빌아파트(지하1층주차장)",
    "address": "대전광역시 유성구 노은로 353 (하기동)",
    "lat": 36.3905711156543,
    "lng": 127.32330077906884,
    "region": "대전광역시"
  },
  {
    "name": "송림마을4단지아파트(지하1층주차장)",
    "address": "대전광역시 유성구 노은로 358 (하기동)",
    "lat": 36.39045879305039,
    "lng": 127.32437997442725,
    "region": "대전광역시"
  },
  {
    "name": "LG화학사원아파트(지하1층 주차장)",
    "address": "대전광역시 유성구 대덕대로603번길 20 (도룡동, LG화학사원아파트)",
    "lat": 36.38696150702685,
    "lng": 127.37751783170516,
    "region": "대전광역시"
  },
  {
    "name": "봉산휴먼시아2단지아파트(지하1층주차장)",
    "address": "대전광역시 유성구 와룡로136번길 75 (봉산동, 봉산휴먼시아2단지아파트)",
    "lat": 36.43809982371783,
    "lng": 127.38555743454174,
    "region": "대전광역시"
  },
  {
    "name": "하늘바람휴먼시아아파트(지하1층주차장)",
    "address": "대전광역시 유성구 와룡로136번길 15 (봉산동, 하늘바람휴먼시아)",
    "lat": 36.43812786502941,
    "lng": 127.38225481910206,
    "region": "대전광역시"
  },
  {
    "name": "대덕테크노밸리2단지 푸르지오아파트(지하1,2층 주차장)",
    "address": "대전광역시 유성구 배울1로 13 (관평동)",
    "lat": 36.41919236409227,
    "lng": 127.38190193435564,
    "region": "대전광역시"
  },
  {
    "name": "대덕테크노밸리4단지 스윗닷홈아파트 지하주차장 1층",
    "address": "대전광역시 유성구 배울1로 35 (관평동, 대덕테크노밸리4단지아파트)",
    "lat": 36.41886911718228,
    "lng": 127.38400893558158,
    "region": "대전광역시"
  },
  {
    "name": "대덕테크노밸리5단지 파밀리에아파트(지하1,2층 주차장)",
    "address": "대전광역시 유성구 배울2로 42 (관평동)",
    "lat": 36.42139839491535,
    "lng": 127.38783469422992,
    "region": "대전광역시"
  },
  {
    "name": "대덕테크노밸리6단지 네오미아아파트 지하주차장 2층",
    "address": "대전광역시 유성구 배울2로 78 (관평동)",
    "lat": 36.42020643956054,
    "lng": 127.3915078369663,
    "region": "대전광역시"
  },
  {
    "name": "대덕테크노밸리7단지 백조예미지아파트 지하주차장 2층",
    "address": "대전광역시 유성구 관평1로 12 (관평동)",
    "lat": 36.425721783234856,
    "lng": 127.38622998866248,
    "region": "대전광역시"
  },
  {
    "name": "대덕테크노밸리8단지 백조예미지아파트(지하1층 주차장)",
    "address": "대전광역시 유성구 배울2로 3 (관평동)",
    "lat": 36.42293540184308,
    "lng": 127.38429050319378,
    "region": "대전광역시"
  },
  {
    "name": "대덕테크노밸리10단지 꿈에그린아파트(지하2층 주차장)",
    "address": "대전광역시 유성구 배울2로 61 (관평동)",
    "lat": 36.4210635079188,
    "lng": 127.39023756285052,
    "region": "대전광역시"
  },
  {
    "name": "대덕테크노밸리11단지 필유아파트(지하1층 주차장)",
    "address": "대전광역시 유성구 배울2로 114 (용산동)",
    "lat": 36.41895220633558,
    "lng": 127.3952725579589,
    "region": "대전광역시"
  },
  {
    "name": "대덕테크노밸리 푸르지오하임1단지아파트(지하2층 주차장)",
    "address": "대전광역시 유성구 배울2로 134 (용산동)",
    "lat": 36.41826047070469,
    "lng": 127.39718828062573,
    "region": "대전광역시"
  },
  {
    "name": "월드컵패밀리타운아파트 지하주차장 1층",
    "address": "대전광역시 유성구 유성대로783번길 38 (장대동, 월드컵패밀리타운)",
    "lat": 36.36336615356972,
    "lng": 127.33562686483997,
    "region": "대전광역시"
  },
  {
    "name": "도안마을1단지아파트(지하1층 주차장)",
    "address": "대전광역시 유성구 도안대로 560 (봉명동, 도안마을1단지)",
    "lat": 36.35016906139913,
    "lng": 127.34070437644633,
    "region": "대전광역시"
  },
  {
    "name": "도안한라비발디아파트(지하1층주차장)",
    "address": "대전광역시 유성구 상대로 17 (상대동, 도안신도시한라비발디아파트)",
    "lat": 36.34472996252323,
    "lng": 127.33533264057166,
    "region": "대전광역시"
  },
  {
    "name": "도안휴먼시아4단지아파트(지하1층주차장)",
    "address": "대전광역시 유성구 상대로 40 (상대동, 도안휴먼시아4단지)",
    "lat": 36.34673134495471,
    "lng": 127.33583393537964,
    "region": "대전광역시"
  },
  {
    "name": "도안센트럴시티6단지아파트(지하1층 주차장)",
    "address": "대전광역시 유성구 봉명로 93 (봉명동, 도안6단지센트럴시티)",
    "lat": 36.34713680902743,
    "lng": 127.34402922617002,
    "region": "대전광역시"
  },
  {
    "name": "신안인스빌리베라아파트(지하1층 주차장)",
    "address": "대전광역시 유성구 봉명로 48 (원신흥동, 인스빌리베라)",
    "lat": 36.34293253852687,
    "lng": 127.34441538495562,
    "region": "대전광역시"
  },
  {
    "name": "도안트리풀시티9단지아파트 지하주차장 1층",
    "address": "대전광역시 유성구 상대남로 26 (상대동, 도안신도시9블록 트리풀시티아파트)",
    "lat": 36.34247906056497,
    "lng": 127.3355653922009,
    "region": "대전광역시"
  },
  {
    "name": "도안휴먼시아10단지아파트(지하1층 주차장)",
    "address": "대전광역시 유성구 원신흥로 37 (원신흥동, 도안휴먼시아10단지)",
    "lat": 36.33854803777711,
    "lng": 127.34012238166406,
    "region": "대전광역시"
  },
  {
    "name": "도안어울림하트12단지아파트(지하1층 주차장)",
    "address": "대전광역시 유성구 동서대로 725 (원신흥동, 어울림하트)",
    "lat": 36.332657277872144,
    "lng": 127.34369665618917,
    "region": "대전광역시"
  },
  {
    "name": "대전외국인학교(본관 강당 지하1층)",
    "address": "대전광역시 유성구 용산2로 77 (용산동)",
    "lat": 36.416933876456014,
    "lng": 127.39775633693344,
    "region": "대전광역시"
  },
  {
    "name": "노은꿈에그린1단지아파트(지하1층 주차장)",
    "address": "대전광역시 유성구 지족북로 33 (지족동, 한화꿈에그린1블럭)",
    "lat": 36.38864801028564,
    "lng": 127.30273700862854,
    "region": "대전광역시"
  },
  {
    "name": "노은꿈에그린2단지아파트 지하주차장 1층",
    "address": "대전광역시 유성구 지족북로 60 (지족동, 한화꿈에그린2블럭)",
    "lat": 36.38899668834443,
    "lng": 127.3050525560011,
    "region": "대전광역시"
  },
  {
    "name": "노은해랑숲마을5단지아파트(지하1층 주차장)",
    "address": "대전광역시 유성구 지족로 240 (지족동, 노은해랑숲마을5단지아파트)",
    "lat": 36.38547823980174,
    "lng": 127.30410466537228,
    "region": "대전광역시"
  },
  {
    "name": "노은해랑숲마을6단지아파트(지하1층 주차장)",
    "address": "대전광역시 유성구 지족동로 123 (지족동, 노은해랑숲마을6단지아파트)",
    "lat": 36.38518945719436,
    "lng": 127.30799597585822,
    "region": "대전광역시"
  },
  {
    "name": "노은4단지아파트(지하1층 주차장)",
    "address": "대전광역시 유성구 지족로148번길 40 (지족동, 노은4단지)",
    "lat": 36.3776893495061,
    "lng": 127.304655583484,
    "region": "대전광역시"
  },
  {
    "name": "노은3지구1단지아파트(지하1층 주차장)",
    "address": "대전광역시 유성구 지족로190번길 15 (지족동, 노은3지구1단지)",
    "lat": 36.38165764471824,
    "lng": 127.30334299513989,
    "region": "대전광역시"
  },
  {
    "name": "노은에코힐7단지아파트(지하1층 주차장)",
    "address": "대전광역시 유성구 지족로190번길 39 (지족동, LH노은에코힐)",
    "lat": 36.38171288648668,
    "lng": 127.30470854157848,
    "region": "대전광역시"
  },
  {
    "name": "노은네이처뷰3단지아파트(지하1층 주차장)",
    "address": "대전광역시 유성구 지족로148번길 22 (지족동, 엘에이치네이처뷰)",
    "lat": 36.37767607144698,
    "lng": 127.30364737775106,
    "region": "대전광역시"
  },
  {
    "name": "스마트시티2단지아파트 지하주차장 1층",
    "address": "대전광역시 유성구 엑스포로123번길 65-38 (도룡동, 스마트시티)",
    "lat": 36.37766522672817,
    "lng": 127.39149646011607,
    "region": "대전광역시"
  },
  {
    "name": "스마트시티5단지아파트(지하1층 주차장)",
    "address": "대전광역시 유성구 엑스포로123번길 65-38 (도룡동, 스마트시티)",
    "lat": 36.37766522672817,
    "lng": 127.39149646011607,
    "region": "대전광역시"
  },
  {
    "name": "스마트시티리버뷰오피스텔(지하1층 주차장)",
    "address": "대전광역시 유성구 엑스포로123번길 26-30 (도룡동, 스마트시티리버뷰오피스텔)",
    "lat": 36.37549766870566,
    "lng": 127.39520738475072,
    "region": "대전광역시"
  },
  {
    "name": "죽동금성백조예미지아파트 지하주차장 1층",
    "address": "대전광역시 유성구 죽동로 321 (죽동, 금성백조예미지)",
    "lat": 36.36898098612727,
    "lng": 127.3357917256207,
    "region": "대전광역시"
  },
  {
    "name": "죽동칸타빌아파트 지하주차장 1층",
    "address": "대전광역시 유성구 죽동로 39 (죽동, 칸타빌)",
    "lat": 36.369673157057136,
    "lng": 127.33400602362872,
    "region": "대전광역시"
  },
  {
    "name": "죽동푸르지오아파트 지하 1층 주차장",
    "address": "대전광역시 유성구 죽동로 251 (죽동, 푸르지오아파트)",
    "lat": 36.37366098282111,
    "lng": 127.3385638467014,
    "region": "대전광역시"
  },
  {
    "name": "죽동천년나무아파트 지하주차장 2층",
    "address": "대전광역시 유성구 죽동로 72 (죽동, 천년나무아파트)",
    "lat": 36.37232846093932,
    "lng": 127.3354460557469,
    "region": "대전광역시"
  },
  {
    "name": "도안호반베르디움2단지아파트 지하주차장 1~2층",
    "address": "대전광역시 유성구 도안동로 523 (봉명동, 베르디움)",
    "lat": 36.350182151073966,
    "lng": 127.34761282952284,
    "region": "대전광역시"
  },
  {
    "name": "도안트리풀시티5단지아파트(지하1층 주차장)",
    "address": "대전광역시 유성구 상대로 16 (상대동, 도안신도시5블록트리풀시티아파트)",
    "lat": 36.34467162815021,
    "lng": 127.33580048902454,
    "region": "대전광역시"
  },
  {
    "name": "도안예미지백조의호수7단지아파트(지하1층 주차장)",
    "address": "대전광역시 유성구 봉명로 94 (봉명동, 도안신도시7단지예미지백조의호수)",
    "lat": 36.34711973565384,
    "lng": 127.34445654841544,
    "region": "대전광역시"
  },
  {
    "name": "도안천년나무11단지아파트(지하1층 주차장)",
    "address": "대전광역시 유성구 봉명로 16 (원신흥동, LH도안천년나무11단지)",
    "lat": 36.340125562872366,
    "lng": 127.34478711410472,
    "region": "대전광역시"
  },
  {
    "name": "양우내안애레이크힐아파트(지하1층 주차장)",
    "address": "대전광역시 유성구 도안동로 446 (원신흥동, 양우내안애)",
    "lat": 36.344155135117184,
    "lng": 127.34747126891465,
    "region": "대전광역시"
  },
  {
    "name": "학하리슈빌 학의뜰아파트(지하1층주차장)",
    "address": "대전광역시 유성구 학하로 33 (계산동, 학하리슈빌 학의뜰아파트)",
    "lat": 36.33708001442771,
    "lng": 127.30252607270744,
    "region": "대전광역시"
  },
  {
    "name": "오투그란데 미학아파트(지하3층주차장)",
    "address": "대전광역시 유성구 학하남로 10 (계산동, 오투그란데 미학)",
    "lat": 36.342154785670026,
    "lng": 127.30313806348772,
    "region": "대전광역시"
  },
  {
    "name": "장대대우푸르지오아파트 지하주차장 1층",
    "address": "대전광역시 유성구 장대로71번길 34 (장대동, 장대푸르지오)",
    "lat": 36.36075177941674,
    "lng": 127.3335044122168,
    "region": "대전광역시"
  },
  {
    "name": "효성해링턴플레이스아파트 지하주차장 1층",
    "address": "대전광역시 유성구 문지로 300 (문지동, 효성해링턴플레이스)",
    "lat": 36.39355439648737,
    "lng": 127.40712102145967,
    "region": "대전광역시"
  },
  {
    "name": "투유1아파트 지하2층주차장",
    "address": "대전광역시 유성구 온천북로 73 (봉명동, 투유1)",
    "lat": 36.35629464851053,
    "lng": 127.3510214713556,
    "region": "대전광역시"
  },
  {
    "name": "레자미멀티홈아파트 지하2층주차장",
    "address": "대전광역시 유성구 온천북로 7 (봉명동, 레자미멀티홈)",
    "lat": 36.357331428179954,
    "lng": 127.34392725078742,
    "region": "대전광역시"
  },
  {
    "name": "영무예다음에코타운아파트(지하1층 주차장)",
    "address": "대전광역시 유성구 지족로 92 (지족동, 영무예다음에코타운)",
    "lat": 36.37399757929279,
    "lng": 127.30606840640333,
    "region": "대전광역시"
  },
  {
    "name": "송림마을5단지 e그리운아파트(지하1~2층주차장)",
    "address": "대전광역시 유성구 노은로 416 (하기동, 송림마을5단지아파트)",
    "lat": 36.39080644956693,
    "lng": 127.33002602288154,
    "region": "대전광역시"
  },
  {
    "name": "대덕테크노밸리1단지 꿈에그린아파트(지하1,2층 주차장)",
    "address": "대전광역시 유성구 배울2로 6 (관평동, 대덕테크노밸리1단지아파트)",
    "lat": 36.42264913454324,
    "lng": 127.38412936728623,
    "region": "대전광역시"
  },
  {
    "name": "대덕테크노밸리3단지 중앙하이츠빌(지하1,2층 주차장)",
    "address": "대전광역시 유성구 배울2로 24 (관평동, 대덕테크노밸리3단지아파트)",
    "lat": 36.42207542818071,
    "lng": 127.38592002834336,
    "region": "대전광역시"
  },
  {
    "name": "대덕테크노밸리9단지 꿈에그린아파트(지하2층 주차장)",
    "address": "대전광역시 유성구 배울2로 19 (관평동, 대덕테크노밸리9단지아파트)",
    "lat": 36.42239791010637,
    "lng": 127.38590764541593,
    "region": "대전광역시"
  },
  {
    "name": "대덕테크노밸리12단지 필유아파트(지하2층 주차장)",
    "address": "대전광역시 유성구 배울1로 119 (용산동, 대덕테크노밸리12단지아파트)",
    "lat": 36.41727000558368,
    "lng": 127.39303082030688,
    "region": "대전광역시"
  },
  {
    "name": "대덕테크노밸리 경남아너스빌아파트(지하2층 주차장)",
    "address": "대전광역시 유성구 용산2로 30 (용산동, 경남아너스빌1단지아파트)",
    "lat": 36.42062792421223,
    "lng": 127.39883985308389,
    "region": "대전광역시"
  },
  {
    "name": "호반써밋그랜드파크1단지아파트(지하주차장 2층)",
    "address": "대전광역시 유성구 용성로 20 (용산동, 호반써밋그랜드파크 1BL)",
    "lat": 36.4148386088072,
    "lng": 127.390662648073,
    "region": "대전광역시"
  },
  {
    "name": "호반써밋그랜드파크3단지아파트(지하주차장 2층)",
    "address": "대전광역시 유성구 용산1로 83 (용산동, 호반써밋그랜드파크 3BL)",
    "lat": 36.4154119776896,
    "lng": 127.393907801495,
    "region": "대전광역시"
  },
  {
    "name": "서한이다음2단지아파트(지하주자장 2층)",
    "address": "대전광역시 유성구 과학성장로 33 (둔곡동, 서한이다음2단지)",
    "lat": 36.4519330668077,
    "lng": 127.362418179578,
    "region": "대전광역시"
  },
  {
    "name": "서한이다음1단지아파트(지하주차장 2층)",
    "address": "대전광역시 유성구 과학성장로 77 (둔곡동, 서한이다음1단지아파트)",
    "lat": 36.4546920920243,
    "lng": 127.363651411896,
    "region": "대전광역시"
  },
  {
    "name": "유성대광로제비앙아파트(지하주차장 3층)",
    "address": "대전광역시 유성구 와룡로 206 (봉산동, 유성 대광로제비앙 리버포레 아파트)",
    "lat": 36.4432474472796,
    "lng": 127.383212304045,
    "region": "대전광역시"
  },
  {
    "name": "도룡에스케이뷰아파트(지하주차장 2층)",
    "address": "대전광역시 유성구 가정로 306-6 (도룡동, 도룡에스케이뷰)",
    "lat": 36.3852443829358,
    "lng": 127.376585546382,
    "region": "대전광역시"
  },
  {
    "name": "도룡포레미소지움아파트(지하주차장 1~2층)",
    "address": "대전광역시 유성구 대덕대로541번길 99 (가정동, 도룡포레미소지움 아파트)",
    "lat": 36.3841048068704,
    "lng": 127.374802572542,
    "region": "대전광역시"
  },
  {
    "name": "갑천1트리풀시티 힐스테이트아파트(지하주차장 2층)",
    "address": "대전광역시 유성구 도안동로 422 (원신흥동, 갑천1BL 트리풀시티 힐스테이트)",
    "lat": 36.3421422906992,
    "lng": 127.347775902614,
    "region": "대전광역시"
  },
  {
    "name": "오투그란데3차아파트(지하주차장 2층)",
    "address": "대전광역시 유성구 학하중앙로 60 (덕명동, 유성 숲 오투그란데3차)",
    "lat": 36.3456803704432,
    "lng": 127.301420070329,
    "region": "대전광역시"
  },
  {
    "name": "서한이다음1단지(지하주차장 2층)",
    "address": "대전광역시 유성구 과학성장로 77 (둔곡동, 서한이다음1단지아파트)",
    "lat": 36.4546920920243,
    "lng": 127.363651411896,
    "region": "대전광역시"
  },
  {
    "name": "법1동행정복지센터 지하실 1층",
    "address": "대전광역시 대덕구 계족로663번길 36 (법동, 법1동주민센터)",
    "lat": 36.37064501416442,
    "lng": 127.42678036017658,
    "region": "대전광역시"
  },
  {
    "name": "주공아파트 202동 지하실 1층",
    "address": "대전광역시 대덕구 계족로663번길 29 (법동, 주공아파트)",
    "lat": 36.36929562239144,
    "lng": 127.42637186970823,
    "region": "대전광역시"
  },
  {
    "name": "주공아파트 203동 지하실 1층",
    "address": "대전광역시 대덕구 계족로663번길 29 (법동, 주공아파트)",
    "lat": 36.36929562239144,
    "lng": 127.42637186970823,
    "region": "대전광역시"
  },
  {
    "name": "주공아파트 209동 지하실 1층",
    "address": "대전광역시 대덕구 계족로663번길 29 (법동, 주공아파트)",
    "lat": 36.36929562239144,
    "lng": 127.42637186970823,
    "region": "대전광역시"
  },
  {
    "name": "주공아파트 211동 지하실 1층",
    "address": "대전광역시 대덕구 계족로663번길 29 (법동, 주공아파트)",
    "lat": 36.36929562239144,
    "lng": 127.42637186970823,
    "region": "대전광역시"
  },
  {
    "name": "주공아파트 301동 지하실 1층",
    "address": "대전광역시 대덕구 계족로663번길 34 (법동, 주공아파트)",
    "lat": 36.37131201336153,
    "lng": 127.42674164621532,
    "region": "대전광역시"
  },
  {
    "name": "주공아파트 303동 지하실 1층",
    "address": "대전광역시 대덕구 계족로663번길 34 (법동, 주공아파트)",
    "lat": 36.37131201336153,
    "lng": 127.42674164621532,
    "region": "대전광역시"
  },
  {
    "name": "주공아파트 305동 지하실 1층",
    "address": "대전광역시 대덕구 계족로663번길 34 (법동, 주공아파트)",
    "lat": 36.37131201336153,
    "lng": 127.42674164621532,
    "region": "대전광역시"
  },
  {
    "name": "주공아파트 307동 지하실 1층",
    "address": "대전광역시 대덕구 계족로663번길 34 (법동, 주공아파트)",
    "lat": 36.37131201336153,
    "lng": 127.42674164621532,
    "region": "대전광역시"
  },
  {
    "name": "유원아파트 2동 지하실 1층",
    "address": "대전광역시 대덕구 계족로663번길 23 (법동, 유원아파트)",
    "lat": 36.36976507845409,
    "lng": 127.42739846591884,
    "region": "대전광역시"
  },
  {
    "name": "유원아파트 4동 지하실 1층",
    "address": "대전광역시 대덕구 계족로663번길 23 (법동, 유원아파트)",
    "lat": 36.36976507845409,
    "lng": 127.42739846591884,
    "region": "대전광역시"
  },
  {
    "name": "삼호아파트 1동 지하실 1층",
    "address": "대전광역시 대덕구 계족로663번길 32 (법동, 삼호아파트)",
    "lat": 36.37318742716296,
    "lng": 127.42620916444382,
    "region": "대전광역시"
  },
  {
    "name": "삼호아파트 3동 지하실 1층",
    "address": "대전광역시 대덕구 계족로663번길 32 (법동, 삼호아파트)",
    "lat": 36.37318742716296,
    "lng": 127.42620916444382,
    "region": "대전광역시"
  },
  {
    "name": "삼정하이츠아파트 1동 지하실 1층",
    "address": "대전광역시 대덕구 계족로663번길 30 (법동, 삼정하이츠타운)",
    "lat": 36.37294032840926,
    "lng": 127.42651315244166,
    "region": "대전광역시"
  },
  {
    "name": "삼정하이츠아파트 3동 지하실 1층",
    "address": "대전광역시 대덕구 계족로663번길 30 (법동, 삼정하이츠타운)",
    "lat": 36.37294032840926,
    "lng": 127.42651315244166,
    "region": "대전광역시"
  },
  {
    "name": "삼정하이츠아파트 14동 지하실 1층",
    "address": "대전광역시 대덕구 계족로663번길 30 (법동, 삼정하이츠타운)",
    "lat": 36.37294032840926,
    "lng": 127.42651315244166,
    "region": "대전광역시"
  },
  {
    "name": "대전철도차량정비창 종합관리동 지하1층",
    "address": "대전광역시 대덕구 벚꽃길 150 (평촌동, 대전철도차량정비창)",
    "lat": 36.42568513498969,
    "lng": 127.4270401919788,
    "region": "대전광역시"
  },
  {
    "name": "수자원공사",
    "address": "대전광역시 대덕구 신탄진로 200 (연축동, 한국수자원공사)",
    "lat": 36.397867482945486,
    "lng": 127.423531981807,
    "region": "대전광역시"
  },
  {
    "name": "임광아파트1동 지하주차장 1층",
    "address": "대전광역시 대덕구 비래동로31번길 30 (비래동, 임광하이츠)",
    "lat": 36.357258299960186,
    "lng": 127.44920390261164,
    "region": "대전광역시"
  },
  {
    "name": "영진로얄아파트 102동 지하 1층 대피소",
    "address": "대전광역시 대덕구 중리서로 31, 102동 (중리동, 영진로얄아파트)",
    "lat": 36.3616199483944,
    "lng": 127.4212014331124,
    "region": "대전광역시"
  },
  {
    "name": "영진로얄아파트 103동 지하 1층 대피소",
    "address": "대전광역시 대덕구 중리서로 31, 103동 (중리동, 영진로얄아파트)",
    "lat": 36.3616199483944,
    "lng": 127.4212014331124,
    "region": "대전광역시"
  },
  {
    "name": "영진로얄아파트 104동 지하 1층 대피소",
    "address": "대전광역시 대덕구 중리서로 30, 104동 (중리동, 영진로얄아파트)",
    "lat": 36.36126294260941,
    "lng": 127.42144251907384,
    "region": "대전광역시"
  },
  {
    "name": "영진로얄아파트 105동 지하 1층 대피소",
    "address": "대전광역시 대덕구 중리서로 30, 105동 (중리동, 영진로얄아파트)",
    "lat": 36.36126294260941,
    "lng": 127.42144251907384,
    "region": "대전광역시"
  },
  {
    "name": "영진로얄아파트 106동 지하 1층 대피소",
    "address": "대전광역시 대덕구 중리서로 36, 106동 (중리동, 영진로얄아파트)",
    "lat": 36.36186054933892,
    "lng": 127.4216607684081,
    "region": "대전광역시"
  },
  {
    "name": "영진로얄아파트 107동 지하 1층 대피소",
    "address": "대전광역시 대덕구 중리서로 36, 107동 (중리동, 영진로얄아파트)",
    "lat": 36.36186054933892,
    "lng": 127.4216607684081,
    "region": "대전광역시"
  },
  {
    "name": "삼호맨션아파트1동 지하",
    "address": "대전광역시 대덕구 비래서로 42 (비래동, 삼호아파트)",
    "lat": 36.35368306476942,
    "lng": 127.44880575908216,
    "region": "대전광역시"
  },
  {
    "name": "삼호맨션아파트2동 지하",
    "address": "대전광역시 대덕구 비래서로 42 (비래동, 삼호아파트)",
    "lat": 36.35368306476942,
    "lng": 127.44880575908216,
    "region": "대전광역시"
  },
  {
    "name": "서우아파트 101동 지하1층 주차장",
    "address": "대전광역시 대덕구 석봉로30번안길 57 (석봉동, 서우아파트)",
    "lat": 36.44565163827009,
    "lng": 127.4281541663522,
    "region": "대전광역시"
  },
  {
    "name": "금성백조아파트106동 지하주차장 1층",
    "address": "대전광역시 대덕구 비래동로31번길 50 (비래동, 금성백조아파트)",
    "lat": 36.35765305006038,
    "lng": 127.44823018676898,
    "region": "대전광역시"
  },
  {
    "name": "금성백조아파트101동 지하 1층",
    "address": "대전광역시 대덕구 우암동로 2 (비래동, 금성백조2차아파트)",
    "lat": 36.35809995328599,
    "lng": 127.4516119114878,
    "region": "대전광역시"
  },
  {
    "name": "금성백조아파트102동 지하 1층",
    "address": "대전광역시 대덕구 우암로 463 (비래동, 금성백조아파트)",
    "lat": 36.35799672929373,
    "lng": 127.45078463024409,
    "region": "대전광역시"
  },
  {
    "name": "금성백조아파트103동 지하주차장 1층",
    "address": "대전광역시 대덕구 비래동로 44 (비래동, 금성백조아파트)",
    "lat": 36.35763163531388,
    "lng": 127.45129614502454,
    "region": "대전광역시"
  },
  {
    "name": "금성백조아파트105동 지하주차장 1층",
    "address": "대전광역시 대덕구 비래동로 44 (비래동, 금성백조아파트)",
    "lat": 36.35763163531388,
    "lng": 127.45129614502454,
    "region": "대전광역시"
  },
  {
    "name": "거성아파트 나동 지하주차장 1층",
    "address": "대전광역시 대덕구 신탄진로778번길 12 (신탄진동, 거성아파트)",
    "lat": 36.44685505874665,
    "lng": 127.43027853870063,
    "region": "대전광역시"
  },
  {
    "name": "거성아파트 가동 지하주차장 1층",
    "address": "대전광역시 대덕구 신탄진로778번길 16 (신탄진동, 거성아파트)",
    "lat": 36.446654685276975,
    "lng": 127.43028166345908,
    "region": "대전광역시"
  },
  {
    "name": "홍림아파트 부설 지하주차장 1층",
    "address": "대전광역시 대덕구 신탄진로772번길 11 (신탄진동, 홍림아파트)",
    "lat": 36.44637929533424,
    "lng": 127.43029859670683,
    "region": "대전광역시"
  },
  {
    "name": "한마음 아파트 101동 지하1층 지하실",
    "address": "대전광역시 대덕구 계족로664번길 27, 101동 (법동, 한마음아파트)",
    "lat": 36.37085832505756,
    "lng": 127.43088555299512,
    "region": "대전광역시"
  },
  {
    "name": "한마음 아파트 102동 지하1층 지하실",
    "address": "대전광역시 대덕구 계족로664번길 27 (법동, 한마음아파트)",
    "lat": 36.37085832505756,
    "lng": 127.43088555299512,
    "region": "대전광역시"
  },
  {
    "name": "한마음 아파트 103동 지하1층 지하실",
    "address": "대전광역시 대덕구 계족로664번길 27 (법동, 한마음아파트)",
    "lat": 36.37085832505756,
    "lng": 127.43088555299512,
    "region": "대전광역시"
  },
  {
    "name": "한마음 아파트 104동 지하1층 지하실",
    "address": "대전광역시 대덕구 계족로664번길 27 (법동, 한마음아파트)",
    "lat": 36.37085832505756,
    "lng": 127.43088555299512,
    "region": "대전광역시"
  },
  {
    "name": "한마음 아파트 105동 지하1층 지하실",
    "address": "대전광역시 대덕구 계족로664번길 27 (법동, 한마음아파트)",
    "lat": 36.37085832505756,
    "lng": 127.43088555299512,
    "region": "대전광역시"
  },
  {
    "name": "한마음 아파트 106동 지하1층 지하실",
    "address": "대전광역시 대덕구 계족로664번길 27 (법동, 한마음아파트)",
    "lat": 36.37085832505756,
    "lng": 127.43088555299512,
    "region": "대전광역시"
  },
  {
    "name": "유락아파트 A동 지하1층실",
    "address": "대전광역시 대덕구 석봉로44번길 13 (석봉동, 유락아파트)",
    "lat": 36.44671425829005,
    "lng": 127.42709923784771,
    "region": "대전광역시"
  },
  {
    "name": "다사랑아파트101동 지하 1층",
    "address": "대전광역시 대덕구 대덕대로1470번길 55 (목상동, 다사랑아파트)",
    "lat": 36.44651799372504,
    "lng": 127.41238493734949,
    "region": "대전광역시"
  },
  {
    "name": "다사랑아파트102동 지하 1층",
    "address": "대전광역시 대덕구 대덕대로1470번길 55 (목상동, 다사랑아파트)",
    "lat": 36.44651799372504,
    "lng": 127.41238493734949,
    "region": "대전광역시"
  },
  {
    "name": "다사랑아파트103동 지하 1층",
    "address": "대전광역시 대덕구 대덕대로1470번길 55 (목상동, 다사랑아파트)",
    "lat": 36.44651799372504,
    "lng": 127.41238493734949,
    "region": "대전광역시"
  },
  {
    "name": "다사랑아파트104동 지하 1층",
    "address": "대전광역시 대덕구 대덕대로1470번길 55 (목상동, 다사랑아파트)",
    "lat": 36.44651799372504,
    "lng": 127.41238493734949,
    "region": "대전광역시"
  },
  {
    "name": "다사랑아파트105동 지하 1층",
    "address": "대전광역시 대덕구 대덕대로1470번길 55 (목상동, 다사랑아파트)",
    "lat": 36.44651799372504,
    "lng": 127.41238493734949,
    "region": "대전광역시"
  },
  {
    "name": "흥진아파트 지하주차장 1층",
    "address": "대전광역시 대덕구 신탄진남로 26 (신탄진동, 흥진아파트)",
    "lat": 36.44614969917458,
    "lng": 127.43556993071658,
    "region": "대전광역시"
  },
  {
    "name": "삼익소월 아파트 101동 지하1층 주차장",
    "address": "대전광역시 대덕구 동춘당로 160 (법동, 삼익소월아파트)",
    "lat": 36.36861670054644,
    "lng": 127.43375366332428,
    "region": "대전광역시"
  },
  {
    "name": "삼익소월 아파트 102동 지하1층 주차장",
    "address": "대전광역시 대덕구 동춘당로 160 (법동, 삼익소월아파트)",
    "lat": 36.36861670054644,
    "lng": 127.43375366332428,
    "region": "대전광역시"
  },
  {
    "name": "삼익소월 아파트 107동 지하1층 주차장",
    "address": "대전광역시 대덕구 동춘당로 160 (법동, 삼익소월아파트)",
    "lat": 36.36861670054644,
    "lng": 127.43375366332428,
    "region": "대전광역시"
  },
  {
    "name": "그린타운아파트 지하1층 주차장 A",
    "address": "대전광역시 대덕구 동춘당로 151 (법동, 그린타운아파트)",
    "lat": 36.36801739039067,
    "lng": 127.4347587688337,
    "region": "대전광역시"
  },
  {
    "name": "그린타운아파트 지하1층 주차장 B",
    "address": "대전광역시 대덕구 동춘당로 151 (법동, 그린타운아파트)",
    "lat": 36.36801739039067,
    "lng": 127.4347587688337,
    "region": "대전광역시"
  },
  {
    "name": "그린타운아파트 지하1층 주차장 C",
    "address": "대전광역시 대덕구 동춘당로 151 (법동, 그린타운아파트)",
    "lat": 36.36801739039067,
    "lng": 127.4347587688337,
    "region": "대전광역시"
  },
  {
    "name": "그린타운아파트 지하1층 주차장 D",
    "address": "대전광역시 대덕구 동춘당로 151 (법동, 그린타운아파트)",
    "lat": 36.36801739039067,
    "lng": 127.4347587688337,
    "region": "대전광역시"
  },
  {
    "name": "삼익둥지아파트 지하주차장 1층",
    "address": "대전광역시 대덕구 신상로 21 (비래동, 삼익둥지아파트)",
    "lat": 36.35557516968856,
    "lng": 127.45631903561362,
    "region": "대전광역시"
  },
  {
    "name": "라이프새여울아파트 지하주차장 1층",
    "address": "대전광역시 대덕구 대청로64번길 11 (신탄진동, 라이프새여울아파트)",
    "lat": 36.45271308241975,
    "lng": 127.43564763756876,
    "region": "대전광역시"
  },
  {
    "name": "보람아파트 102동 지하1층 주차장",
    "address": "대전광역시 대덕구 동춘당로 178 (법동, 보람아파트)",
    "lat": 36.36773541114556,
    "lng": 127.4314923858491,
    "region": "대전광역시"
  },
  {
    "name": "보람아파트 104동 지하1층 주차장",
    "address": "대전광역시 대덕구 동춘당로 178 (법동, 보람아파트)",
    "lat": 36.36773541114556,
    "lng": 127.4314923858491,
    "region": "대전광역시"
  },
  {
    "name": "보람아파트 105동 지하1층 주차장",
    "address": "대전광역시 대덕구 동춘당로 178 (법동, 보람아파트)",
    "lat": 36.36773541114556,
    "lng": 127.4314923858491,
    "region": "대전광역시"
  },
  {
    "name": "보람아파트 106동 지하1층 주차장",
    "address": "대전광역시 대덕구 동춘당로 178 (법동, 보람아파트)",
    "lat": 36.36773541114556,
    "lng": 127.4314923858491,
    "region": "대전광역시"
  },
  {
    "name": "보람아파트 107동 지하1층 주차장",
    "address": "대전광역시 대덕구 동춘당로 178 (법동, 보람아파트)",
    "lat": 36.36773541114556,
    "lng": 127.4314923858491,
    "region": "대전광역시"
  },
  {
    "name": "보람아파트 110동 지하1층 주차장",
    "address": "대전광역시 대덕구 동춘당로 178 (법동, 보람아파트)",
    "lat": 36.36773541114556,
    "lng": 127.4314923858491,
    "region": "대전광역시"
  },
  {
    "name": "보람아파트 111동 지하1층 주차장",
    "address": "대전광역시 대덕구 동춘당로 178 (법동, 보람아파트)",
    "lat": 36.36773541114556,
    "lng": 127.4314923858491,
    "region": "대전광역시"
  },
  {
    "name": "보람아파트 113동 지하1층 주차장",
    "address": "대전광역시 대덕구 동춘당로 178 (법동, 보람아파트)",
    "lat": 36.36773541114556,
    "lng": 127.4314923858491,
    "region": "대전광역시"
  },
  {
    "name": "영진로얄아파트 101동 지하 1층 대피소",
    "address": "대전광역시 대덕구 중리서로 31, 101동 (중리동, 영진로얄아파트)",
    "lat": 36.3616199483944,
    "lng": 127.4212014331124,
    "region": "대전광역시"
  },
  {
    "name": "한라아파트 지하주차장 1층",
    "address": "대전광역시 대덕구 대덕대로1448번길 80 (신일동, 한라아파트)",
    "lat": 36.4443885087074,
    "lng": 127.41030246892564,
    "region": "대전광역시"
  },
  {
    "name": "대전광역시립체육재활원 지하실 1층",
    "address": "대전광역시 대덕구 대화로 10, 대전광역시립체육재활원 (대화동)",
    "lat": 36.36787847509415,
    "lng": 127.41871664739432,
    "region": "대전광역시"
  },
  {
    "name": "대한통운화물터미널 지하실 1층",
    "address": "대전광역시 대덕구 신탄진로 1 (읍내동, 대한통운)",
    "lat": 36.38207745791292,
    "lng": 127.42553114174515,
    "region": "대전광역시"
  },
  {
    "name": "백송아파트 101동 지하실 1층",
    "address": "대전광역시 대덕구 대전로1397번길 79 (읍내동, 백송아파트)",
    "lat": 36.38024505191984,
    "lng": 127.42042006753748,
    "region": "대전광역시"
  },
  {
    "name": "백송아파트 102동 지하실 1층",
    "address": "대전광역시 대덕구 대전로1397번길 79 (읍내동, 백송아파트)",
    "lat": 36.38024505191984,
    "lng": 127.42042006753748,
    "region": "대전광역시"
  },
  {
    "name": "백송아파트 지하주차장 1층",
    "address": "대전광역시 대덕구 대전로1397번길 79 (읍내동, 백송아파트)",
    "lat": 36.38024505191984,
    "lng": 127.42042006753748,
    "region": "대전광역시"
  },
  {
    "name": "대전산업용재유통상가 지하주차장 1층",
    "address": "대전광역시 대덕구 대화로 160 (대화동, 산업용재유통상가)",
    "lat": 36.36505861655665,
    "lng": 127.4028362364156,
    "region": "대전광역시"
  },
  {
    "name": "대전보훈병원 지하주차장 1층",
    "address": "대전광역시 대덕구 대청로82번길 147 (신탄진동, 대전보훈병원)",
    "lat": 36.447232580731935,
    "lng": 127.4395779753396,
    "region": "대전광역시"
  },
  {
    "name": "선비마을아파트 2단지 지하주차장 1, 2층",
    "address": "대전광역시 대덕구 동춘당로114번길 47 (송촌동, 선비마을아파트)",
    "lat": 36.36835562473143,
    "lng": 127.43986516797852,
    "region": "대전광역시"
  },
  {
    "name": "선비마을아파트 3단지 지하주차장 1, 2층",
    "address": "대전광역시 대덕구 동춘당로114번길 60 (송촌동, 선비마을3단지아파트)",
    "lat": 36.36860406494026,
    "lng": 127.44043261843387,
    "region": "대전광역시"
  },
  {
    "name": "선비마을아파트 401동 지하주차장 1, 2층",
    "address": "대전광역시 대덕구 계족산로 135 (송촌동, 선비마을4단지아파트)",
    "lat": 36.36643350304482,
    "lng": 127.44473370396103,
    "region": "대전광역시"
  },
  {
    "name": "선비마을아파트 5단지 지하주차장 1, 2층",
    "address": "대전광역시 대덕구 계족산로 136 (송촌동, 선비마을5단지아파트)",
    "lat": 36.36617965644554,
    "lng": 127.445143422573,
    "region": "대전광역시"
  },
  {
    "name": "선비마을 아파트 101동 지하1층 지하실",
    "address": "대전광역시 대덕구 계족로690번길 21 (법동, 선비마을아파트)",
    "lat": 36.37273618621119,
    "lng": 127.42940303080287,
    "region": "대전광역시"
  },
  {
    "name": "선비마을 아파트 102동 지하1층 지하실",
    "address": "대전광역시 대덕구 계족로690번길 21 (법동, 선비마을아파트)",
    "lat": 36.37273618621119,
    "lng": 127.42940303080287,
    "region": "대전광역시"
  },
  {
    "name": "선비마을 아파트 103동 지하1층 지하실",
    "address": "대전광역시 대덕구 계족로690번길 21 (법동, 선비마을아파트)",
    "lat": 36.37273618621119,
    "lng": 127.42940303080287,
    "region": "대전광역시"
  },
  {
    "name": "선비마을 아파트 104동 지하1층 지하실",
    "address": "대전광역시 대덕구 계족로690번길 21 (법동, 선비마을아파트)",
    "lat": 36.37273618621119,
    "lng": 127.42940303080287,
    "region": "대전광역시"
  },
  {
    "name": "선비마을 아파트 105동 지하1층 지하실",
    "address": "대전광역시 대덕구 계족로690번길 21 (법동, 선비마을아파트)",
    "lat": 36.37273618621119,
    "lng": 127.42940303080287,
    "region": "대전광역시"
  },
  {
    "name": "선비마을 아파트 106동 지하1층 지하실",
    "address": "대전광역시 대덕구 계족로690번길 21 (법동, 선비마을아파트)",
    "lat": 36.37273618621119,
    "lng": 127.42940303080287,
    "region": "대전광역시"
  },
  {
    "name": "선비마을 아파트 107동 지하1층 지하실",
    "address": "대전광역시 대덕구 계족로690번길 21 (법동, 선비마을아파트)",
    "lat": 36.37273618621119,
    "lng": 127.42940303080287,
    "region": "대전광역시"
  },
  {
    "name": "선비마을 아파트 108동 지하1층 지하실",
    "address": "대전광역시 대덕구 계족로690번길 21 (법동, 선비마을아파트)",
    "lat": 36.37273618621119,
    "lng": 127.42940303080287,
    "region": "대전광역시"
  },
  {
    "name": "선비마을 아파트 109동 지하1층 지하실",
    "address": "대전광역시 대덕구 계족로690번길 21 (법동, 선비마을1단지아파트)",
    "lat": 36.37273618621119,
    "lng": 127.42940303080287,
    "region": "대전광역시"
  },
  {
    "name": "선비마을 아파트 110동 지하1층 지하실",
    "address": "대전광역시 대덕구 계족로690번길 21 (법동, 선비마을아파트)",
    "lat": 36.37273618621119,
    "lng": 127.42940303080287,
    "region": "대전광역시"
  },
  {
    "name": "선비마을 아파트 111동 지하1층 지하실",
    "address": "대전광역시 대덕구 계족로690번길 21 (법동, 선비마을아파트)",
    "lat": 36.37273618621119,
    "lng": 127.42940303080287,
    "region": "대전광역시"
  },
  {
    "name": "선비마을아파트 402동 지하주차장 1, 2층",
    "address": "대전광역시 대덕구 계족산로 135 (송촌동, 선비마을4단지아파트)",
    "lat": 36.36643350304482,
    "lng": 127.44473370396103,
    "region": "대전광역시"
  },
  {
    "name": "선비마을아파트 403동 지하주차장 1, 2층",
    "address": "대전광역시 대덕구 계족산로 135 (송촌동, 선비마을4단지아파트)",
    "lat": 36.36643350304482,
    "lng": 127.44473370396103,
    "region": "대전광역시"
  },
  {
    "name": "선비마을아파트 405동 지하주차장 1, 2층",
    "address": "대전광역시 대덕구 계족산로 135 (송촌동, 선비마을4단지아파트)",
    "lat": 36.36643350304482,
    "lng": 127.44473370396103,
    "region": "대전광역시"
  },
  {
    "name": "선비마을아파트 408동 지하주차장 1층",
    "address": "대전광역시 대덕구 계족산로 135 (송촌동, 선비마을4단지아파트)",
    "lat": 36.36643350304482,
    "lng": 127.44473370396103,
    "region": "대전광역시"
  },
  {
    "name": "선비마을아파트 409동 지하주차장 1, 2층",
    "address": "대전광역시 대덕구 계족산로 135 (송촌동, 선비마을4단지아파트)",
    "lat": 36.36643350304482,
    "lng": 127.44473370396103,
    "region": "대전광역시"
  },
  {
    "name": "선비마을아파트 410동 지하주차장 1, 2층",
    "address": "대전광역시 대덕구 계족산로 135 (송촌동, 선비마을4단지아파트)",
    "lat": 36.36643350304482,
    "lng": 127.44473370396103,
    "region": "대전광역시"
  },
  {
    "name": "선비마을아파트 411동 지하주차장 1, 2층",
    "address": "대전광역시 대덕구 계족산로 135 (송촌동, 선비마을4단지아파트)",
    "lat": 36.36643350304482,
    "lng": 127.44473370396103,
    "region": "대전광역시"
  },
  {
    "name": "미래아파트 지하주차장 1층",
    "address": "대전광역시 대덕구 우암동로18번길 30 (비래동, 미래아파트)",
    "lat": 36.358045673245854,
    "lng": 127.45311728408946,
    "region": "대전광역시"
  },
  {
    "name": "증산도교육문화회관 지하 1층 주차장",
    "address": "대전광역시 대덕구 한밭대로 1133 (중리동, 증산도교육문화회관)",
    "lat": 36.359340471007165,
    "lng": 127.42456325245364,
    "region": "대전광역시"
  },
  {
    "name": "대덕구 청소년어울림센터 지하 1층 대피소",
    "address": "대전광역시 대덕구 쌍청당로 25 (중리동, 대덕구청소년수련관)",
    "lat": 36.36429162199478,
    "lng": 127.43435927790668,
    "region": "대전광역시"
  },
  {
    "name": "읍내현대아파트 제1주차장 1층",
    "address": "대전광역시 대덕구 계족로761번길 24 (읍내동, 현대아파트)",
    "lat": 36.3792018366436,
    "lng": 127.42531318937203,
    "region": "대전광역시"
  },
  {
    "name": "읍내현대아파트 제2주차장 1층",
    "address": "대전광역시 대덕구 계족로761번길 24 (읍내동, 현대아파트)",
    "lat": 36.3792018366436,
    "lng": 127.42531318937203,
    "region": "대전광역시"
  },
  {
    "name": "읍내현대아파트 제3주차장 1층",
    "address": "대전광역시 대덕구 계족로761번길 24 (읍내동, 현대아파트)",
    "lat": 36.3792018366436,
    "lng": 127.42531318937203,
    "region": "대전광역시"
  },
  {
    "name": "읍내현대아파트 제4주차장 1층",
    "address": "대전광역시 대덕구 계족로761번길 24 (읍내동, 현대아파트)",
    "lat": 36.3792018366436,
    "lng": 127.42531318937203,
    "region": "대전광역시"
  },
  {
    "name": "와동현대아파트 101동 지하실 1층",
    "address": "대전광역시 대덕구 신탄진로218번길 62 (와동, 와동현대아파트)",
    "lat": 36.40198964082148,
    "lng": 127.42386877513049,
    "region": "대전광역시"
  },
  {
    "name": "와동현대아파트 102동 지하실 1층",
    "address": "대전광역시 대덕구 신탄진로218번길 62 (와동, 와동현대아파트)",
    "lat": 36.40198964082148,
    "lng": 127.42386877513049,
    "region": "대전광역시"
  },
  {
    "name": "와동현대아파트 103동 지하실 1층",
    "address": "대전광역시 대덕구 신탄진로218번길 62 (와동, 와동현대아파트)",
    "lat": 36.40198964082148,
    "lng": 127.42386877513049,
    "region": "대전광역시"
  },
  {
    "name": "와동현대아파트 104동 지하실 1층",
    "address": "대전광역시 대덕구 신탄진로218번길 62 (와동, 와동현대아파트)",
    "lat": 36.40198964082148,
    "lng": 127.42386877513049,
    "region": "대전광역시"
  },
  {
    "name": "와동현대아파트 105동 지하실 1층",
    "address": "대전광역시 대덕구 신탄진로218번길 62 (와동, 와동현대아파트)",
    "lat": 36.40198964082148,
    "lng": 127.42386877513049,
    "region": "대전광역시"
  },
  {
    "name": "와동현대아파트 106동 지하실 1층",
    "address": "대전광역시 대덕구 신탄진로218번길 62 (와동, 와동현대아파트)",
    "lat": 36.40198964082148,
    "lng": 127.42386877513049,
    "region": "대전광역시"
  },
  {
    "name": "와동현대아파트 107동 지하실 1층",
    "address": "대전광역시 대덕구 신탄진로218번길 62 (와동, 와동현대아파트)",
    "lat": 36.40198964082148,
    "lng": 127.42386877513049,
    "region": "대전광역시"
  },
  {
    "name": "대덕문화원 지하주차장 1층",
    "address": "대전광역시 대덕구 대전로 1348 (읍내동, 대덕구평생학습센터)",
    "lat": 36.37418041606615,
    "lng": 127.4206305987326,
    "region": "대전광역시"
  },
  {
    "name": "두레아파트 지하 1~2층 주차장",
    "address": "대전광역시 대덕구 대화1길 77 (대화동, 두레아파트)",
    "lat": 36.36378321263865,
    "lng": 127.41651946536506,
    "region": "대전광역시"
  },
  {
    "name": "덕암마을아파트 지하주차장 1층",
    "address": "대전광역시 대덕구 덕암로234번길 15 (덕암동, 덕암마을아파트)",
    "lat": 36.44103297812868,
    "lng": 127.4252617939056,
    "region": "대전광역시"
  },
  {
    "name": "상록수아파트101동 지하주차장 1층",
    "address": "대전광역시 대덕구 대덕대로1470번길 27 (목상동, 상록수아파트)",
    "lat": 36.44776195464853,
    "lng": 127.41260909257564,
    "region": "대전광역시"
  },
  {
    "name": "상록수아파트102동 지하주차장 1층",
    "address": "대전광역시 대덕구 대덕대로1470번길 27 (목상동, 상록수아파트)",
    "lat": 36.44776195464853,
    "lng": 127.41260909257564,
    "region": "대전광역시"
  },
  {
    "name": "상록수아파트103동 지하주차장 1층",
    "address": "대전광역시 대덕구 대덕대로1470번길 27 (목상동, 상록수아파트)",
    "lat": 36.44776195464853,
    "lng": 127.41260909257564,
    "region": "대전광역시"
  },
  {
    "name": "대덕구청 청년벙커 지하1층",
    "address": "대전광역시 대덕구 대전로1033번길 20-0 (오정동, 대덕구청)",
    "lat": 36.34628965138587,
    "lng": 127.41613870841594,
    "region": "대전광역시"
  },
  {
    "name": "한남아파트 지하1층주차장",
    "address": "대전광역시 대덕구 대전로1020번길 85 (오정동, 한남아파트)",
    "lat": 36.34988077640512,
    "lng": 127.4194942445557,
    "region": "대전광역시"
  },
  {
    "name": "신동아아파트 1동 지하 1층",
    "address": "대전광역시 대덕구 한밭대로1033번길 15 (오정동, 신동아아파트)",
    "lat": 36.35927073091548,
    "lng": 127.4120305938441,
    "region": "대전광역시"
  },
  {
    "name": "신동아아파트 2동 지하 1층",
    "address": "대전광역시 대덕구 한밭대로1033번길 15 (오정동, 신동아아파트)",
    "lat": 36.35927073091548,
    "lng": 127.4120305938441,
    "region": "대전광역시"
  },
  {
    "name": "신동아아파트 3동 지하 1층",
    "address": "대전광역시 대덕구 한밭대로1033번길 15 (오정동, 신동아아파트)",
    "lat": 36.35927073091548,
    "lng": 127.4120305938441,
    "region": "대전광역시"
  },
  {
    "name": "신동아아파트 5동 지하 1층",
    "address": "대전광역시 대덕구 한밭대로1033번길 15 (오정동, 신동아아파트)",
    "lat": 36.35927073091548,
    "lng": 127.4120305938441,
    "region": "대전광역시"
  },
  {
    "name": "신동아아파트 6동 지하 1층",
    "address": "대전광역시 대덕구 한밭대로1033번길 15 (오정동, 신동아아파트)",
    "lat": 36.35927073091548,
    "lng": 127.4120305938441,
    "region": "대전광역시"
  },
  {
    "name": "신동아아파트 7동 지하 1층",
    "address": "대전광역시 대덕구 한밭대로1033번길 15 (오정동, 신동아아파트)",
    "lat": 36.35927073091548,
    "lng": 127.4120305938441,
    "region": "대전광역시"
  },
  {
    "name": "신동아아파트 8동 지하 1층",
    "address": "대전광역시 대덕구 한밭대로1033번길 15 (오정동, 신동아아파트)",
    "lat": 36.35927073091548,
    "lng": 127.4120305938441,
    "region": "대전광역시"
  },
  {
    "name": "양지마을아파트 101동 지하1층주차장",
    "address": "대전광역시 대덕구 대전로1185번길 30 (오정동, 삼익양지마을아파트)",
    "lat": 36.36010583328832,
    "lng": 127.41420425893232,
    "region": "대전광역시"
  },
  {
    "name": "양지마을아파트 102동, 103동 지하1층주차장",
    "address": "대전광역시 대덕구 대전로1185번길 30 (오정동, 삼익양지마을아파트)",
    "lat": 36.36010583328832,
    "lng": 127.41420425893232,
    "region": "대전광역시"
  },
  {
    "name": "양지마을아파트 104동~107동 지하1층주차장",
    "address": "대전광역시 대덕구 대전로1185번길 30 (오정동, 삼익양지마을아파트)",
    "lat": 36.36010583328832,
    "lng": 127.41420425893232,
    "region": "대전광역시"
  },
  {
    "name": "한밭아파트 101동 지하1층 주차장",
    "address": "대전광역시 대덕구 석봉로58번안길 82 (석봉동, 한밭아파트)",
    "lat": 36.44630516457562,
    "lng": 127.42422499326184,
    "region": "대전광역시"
  },
  {
    "name": "서오아파트 101동 지하실 1층",
    "address": "대전광역시 대덕구 동춘당로23번길 13 (송촌동, 서오아파트)",
    "lat": 36.360711416110846,
    "lng": 127.4456215613804,
    "region": "대전광역시"
  },
  {
    "name": "서오아파트 102동 지하주차장 1층",
    "address": "대전광역시 대덕구 동춘당로23번길 13 (송촌동, 서오아파트)",
    "lat": 36.360711416110846,
    "lng": 127.4456215613804,
    "region": "대전광역시"
  },
  {
    "name": "서오아파트 103동 지하주차장 1층",
    "address": "대전광역시 대덕구 동춘당로23번길 13 (송촌동, 서오아파트)",
    "lat": 36.360711416110846,
    "lng": 127.4456215613804,
    "region": "대전광역시"
  },
  {
    "name": "서오아파트 104동 지하실 1층",
    "address": "대전광역시 대덕구 동춘당로23번길 37 (송촌동, 서오아파트)",
    "lat": 36.35967393043105,
    "lng": 127.44520231436088,
    "region": "대전광역시"
  },
  {
    "name": "서오아파트 105동 지하실 1층",
    "address": "대전광역시 대덕구 동춘당로23번길 37 (송촌동, 서오아파트)",
    "lat": 36.35967393043105,
    "lng": 127.44520231436088,
    "region": "대전광역시"
  },
  {
    "name": "영진상록아파트 101동 지하 1층 주차장",
    "address": "대전광역시 대덕구 계족로521번길 79 (중리동, 영진상록아파트)",
    "lat": 36.35821739028582,
    "lng": 127.42794831932557,
    "region": "대전광역시"
  },
  {
    "name": "영진상록아파트 202동 지하 1층 주차장",
    "address": "대전광역시 대덕구 계족로521번길 79, 102동 (중리동, 영진상록아파트)",
    "lat": 36.35821739028582,
    "lng": 127.42794831932557,
    "region": "대전광역시"
  },
  {
    "name": "하나로병원 지하 1층 주차장",
    "address": "대전광역시 대덕구 계족산로 1 (중리동, 하나로병원)",
    "lat": 36.36172881992542,
    "lng": 127.43183370680848,
    "region": "대전광역시"
  },
  {
    "name": "한밭캠퍼스빌 지하 1~3층 주차장",
    "address": "대전광역시 대덕구 한밭대로 1158 (중리동, 한밭캠퍼스빌)",
    "lat": 36.35868500660365,
    "lng": 127.42722518365368,
    "region": "대전광역시"
  },
  {
    "name": "금강엑슬루타워 지하1층 주차장",
    "address": "대전광역시 대덕구 대덕대로 1555 (석봉동, 금강엑슬루타워)",
    "lat": 36.44976900270662,
    "lng": 127.41929582314287,
    "region": "대전광역시"
  },
  {
    "name": "행복한마을아파트 103동 지하주차장 1층",
    "address": "대전광역시 대덕구 덕암로 200(평촌동, 행복한 마을 아파트)",
    "lat": 36.43796408927745,
    "lng": 127.42331420155077,
    "region": "대전광역시"
  },
  {
    "name": "행복한마을아파트 104동 지하주차장 1층",
    "address": "대전광역시 대덕구 덕암로 200(평촌동, 행복한 마을 아파트)",
    "lat": 36.43796408927745,
    "lng": 127.42331420155077,
    "region": "대전광역시"
  },
  {
    "name": "평화로운아파트 지하주차장 1층",
    "address": "대전광역시 대덕구 대덕대로1520번길 77 (목상동, 평화로운아파트)",
    "lat": 36.44645304475795,
    "lng": 127.41580136110228,
    "region": "대전광역시"
  },
  {
    "name": "한신휴플러스아파트 101동 A 지하주차장 1층(P1)",
    "address": "대전광역시 대덕구 비래서로10번길 21 (비래동)",
    "lat": 36.35437225250527,
    "lng": 127.4452519597585,
    "region": "대전광역시"
  },
  {
    "name": "한신휴플러스아파트 101동 B 지하주차장 1층(P2)",
    "address": "대전광역시 대덕구 비래서로10번길 21 (비래동)",
    "lat": 36.35437225250527,
    "lng": 127.4452519597585,
    "region": "대전광역시"
  },
  {
    "name": "한신휴플러스아파트 102동 지하주차장 1층(P3)",
    "address": "대전광역시 대덕구 비래서로10번길 21 (비래동, 비래한신휴플러스)",
    "lat": 36.35437225250527,
    "lng": 127.4452519597585,
    "region": "대전광역시"
  },
  {
    "name": "한신휴플러스아파트 103동 지하주차장 1층(P4)",
    "address": "대전광역시 대덕구 비래서로10번길 21 (비래동)",
    "lat": 36.35437225250527,
    "lng": 127.4452519597585,
    "region": "대전광역시"
  },
  {
    "name": "알곡교회 지하 1층 주차장",
    "address": "대전광역시 대덕구 중리로44번길 20 (중리동)",
    "lat": 36.36288830210046,
    "lng": 127.42638711080308,
    "region": "대전광역시"
  },
  {
    "name": "조은크리닉 지하 1~2층 주차장",
    "address": "대전광역시 대덕구 계족산로 2 (중리동, 조은크리닉)",
    "lat": 36.36141580148902,
    "lng": 127.43206597300951,
    "region": "대전광역시"
  }
]