[
  {
    "name": "학산타워빌딩 지하주차장 1층",
    "address": "경상북도 포항시 남구 중앙로 154 (해도동, 학산타워빌딩)",
    "lat": 36.02679111241627,
    "lng": 129.36777676319645,
    "region": "경상북도"
  },
  {
    "name": "삼주용산타운 지하주차장 1층",
    "address": "경상북도 포항시 남구 오천읍 정몽주로 164 (삼주용산타운)",
    "lat": 35.94054328904231,
    "lng": 129.39904226755175,
    "region": "경상북도"
  },
  {
    "name": "대구지방고용노동청포항지청",
    "address": "경상북도 포항시 남구 새천년대로 430 (대잠동, 고용노동부포항지청)",
    "lat": 36.014191073136566,
    "lng": 129.34491214398508,
    "region": "경상북도"
  },
  {
    "name": "천마타운1차 지하주차장 1층",
    "address": "경상북도 포항시 남구 오천읍 정몽주로 333 (천마타운1차)",
    "lat": 35.9503519513118,
    "lng": 129.40873348439098,
    "region": "경상북도"
  },
  {
    "name": "우방신세계2차 지하주차장 1층",
    "address": "경상북도 포항시 남구 오천읍 해병로 127 (우방신세계타운2차)",
    "lat": 35.98303335677858,
    "lng": 129.40720272759626,
    "region": "경상북도"
  },
  {
    "name": "우방신세계타운1차 지하주차장 1층",
    "address": "경상북도 포항시 남구 해병로 125 (인덕동, 우방신세계1차아파트)",
    "lat": 35.983257117914924,
    "lng": 129.40694906480138,
    "region": "경상북도"
  },
  {
    "name": "삼도한솔1차 지하주차장 1층",
    "address": "경상북도 포항시 남구 연일읍 연일로 142 (삼도한솔1차아파트)",
    "lat": 35.99854491174229,
    "lng": 129.34369293905283,
    "region": "경상북도"
  },
  {
    "name": "형산강변타운 지하주차장 1층",
    "address": "경상북도 포항시 남구 연일읍 연일로 130 (형산강변타운)",
    "lat": 35.99954054314306,
    "lng": 129.34373335102356,
    "region": "경상북도"
  },
  {
    "name": "삼도한솔2차 지하주차장 1층",
    "address": "경상북도 포항시 남구 연일읍 연일로 154, 삼도한솔타운2차",
    "lat": 35.99758897442621,
    "lng": 129.3435833383181,
    "region": "경상북도"
  },
  {
    "name": "대협타워 지하주차장 1층",
    "address": "경상북도 포항시 남구 연일읍 연일로199번길 24, 대협타워",
    "lat": 35.994698967689715,
    "lng": 129.34522189322286,
    "region": "경상북도"
  },
  {
    "name": "삼도한솔3차 지하주차장 1층",
    "address": "경상북도 포항시 남구 연일읍 철강로 71 (삼도한솔타운3차)",
    "lat": 35.99092263319215,
    "lng": 129.35064637115076,
    "region": "경상북도"
  },
  {
    "name": "대림한숲타운2차 지하주차장 1층",
    "address": "경상북도 포항시 남구 연일읍 유강길9번길 57 (대림한숲타운2차아파트)",
    "lat": 36.005343755871806,
    "lng": 129.3150001182802,
    "region": "경상북도"
  },
  {
    "name": "유강늘푸른마을 지하주차장 1층",
    "address": "경상북도 포항시 남구 연일읍 유강길9번길 58 (늘푸른마을아파트)",
    "lat": 36.00541809037538,
    "lng": 129.3152455975488,
    "region": "경상북도"
  },
  {
    "name": "유강우방타운 101동 지하주차장 1층",
    "address": "경상북도 포항시 남구 연일읍 유강길 32 (유강우방타운)",
    "lat": 36.006872562284535,
    "lng": 129.31958235861427,
    "region": "경상북도"
  },
  {
    "name": "유강우방타운 102동 지하주차장 1층",
    "address": "경상북도 포항시 남구 연일읍 유강길 32 (유강우방타운)",
    "lat": 36.006872562284535,
    "lng": 129.31958235861427,
    "region": "경상북도"
  },
  {
    "name": "주은리버타운 지하주차장 1층",
    "address": "경상북도 포항시 남구 오천읍 해병로 283 (주은리버타운)",
    "lat": 35.96990898215483,
    "lng": 129.4120902373694,
    "region": "경상북도"
  },
  {
    "name": "민방위대피시설(주)티씨씨 한진",
    "address": "경상북도 포항시 남구 동해안로 6045 (청림동, 포항세무서청림민원실)",
    "lat": 35.99543588915196,
    "lng": 129.4035195921979,
    "region": "경상북도"
  },
  {
    "name": "민방위대피시설(진달래2차나동)",
    "address": "경상북도 포항시 남구 정몽주로879번길 28 (청림동, 진달래아파트)",
    "lat": 35.99220906618711,
    "lng": 129.40232376420207,
    "region": "경상북도"
  },
  {
    "name": "승리아파트1동 지하주차장 1층",
    "address": "경상북도 포항시 남구 지곡로 20 (지곡동)",
    "lat": 36.00893004099987,
    "lng": 129.3284095304017,
    "region": "경상북도"
  },
  {
    "name": "승리아파트3동 지하주차장 1층",
    "address": "경상북도 포항시 남구 지곡로 20 (지곡동)",
    "lat": 36.00893004099987,
    "lng": 129.3284095304017,
    "region": "경상북도"
  },
  {
    "name": "낙원아파트 7동 지하주차장 1층",
    "address": "경상북도 포항시 남구 지곡로 102 (지곡동, 포스빌)",
    "lat": 36.01579491414087,
    "lng": 129.32507514708493,
    "region": "경상북도"
  },
  {
    "name": "낙원아파트 8동 지하주차장 1층",
    "address": "경상북도 포항시 남구 지곡로 102 (지곡동, 포스빌)",
    "lat": 36.01579491414087,
    "lng": 129.32507514708493,
    "region": "경상북도"
  },
  {
    "name": "낙원아파트 9동 지하주차장 1층",
    "address": "경상북도 포항시 남구 지곡로 102 (지곡동, 포스빌)",
    "lat": 36.01579491414087,
    "lng": 129.32507514708493,
    "region": "경상북도"
  },
  {
    "name": "그린빌라 307동 지하주차장 1층",
    "address": "경상북도 포항시 남구 지곡로 319 (지곡동, 그린빌라)",
    "lat": 36.03086642998984,
    "lng": 129.31770228575638,
    "region": "경상북도"
  },
  {
    "name": "그린빌라 316동 지하주차장 1층",
    "address": "경상북도 포항시 남구 지곡로 319 (지곡동, 그린빌라)",
    "lat": 36.03086642998984,
    "lng": 129.31770228575638,
    "region": "경상북도"
  },
  {
    "name": "그린빌라 318동 지하주차장 1층",
    "address": "경상북도 포항시 남구 지곡로 319 (지곡동, 그린빌라)",
    "lat": 36.03086642998984,
    "lng": 129.31770228575638,
    "region": "경상북도"
  },
  {
    "name": "그린빌라 320동 지하주차장 1층",
    "address": "경상북도 포항시 남구 지곡로 303 (지곡동, 그린빌라)",
    "lat": 36.03066759935324,
    "lng": 129.31800721344464,
    "region": "경상북도"
  },
  {
    "name": "그린빌라 332동 지하주차장 1층",
    "address": "경상북도 포항시 남구 지곡로 303 (지곡동, 그린빌라)",
    "lat": 36.03066759935324,
    "lng": 129.31800721344464,
    "region": "경상북도"
  },
  {
    "name": "해뜨는마을 지하주차장 지하주차장 1층",
    "address": "경상북도 포항시 남구 구룡포읍 병포길 124-6 (해뜨는마을)",
    "lat": 35.98140514572083,
    "lng": 129.54957840811238,
    "region": "경상북도"
  },
  {
    "name": "이동그린빌명품 지하주차장 1층",
    "address": "경상북도 포항시 남구 대이로 138 (대잠동)",
    "lat": 36.027519411543295,
    "lng": 129.3405199604817,
    "region": "경상북도"
  },
  {
    "name": "등정형외과의원 지하주차장 1층",
    "address": "경상북도 포항시 남구 중앙로 102 (해도동)",
    "lat": 36.02224672298586,
    "lng": 129.36893223274123,
    "region": "경상북도"
  },
  {
    "name": "태왕아너스 오션 아파트 지하주차장 1층",
    "address": "경상북도 포항시 남구 서동로 162 (송도동, 태왕아너스오션)",
    "lat": 36.03983450448323,
    "lng": 129.3755250825445,
    "region": "경상북도"
  },
  {
    "name": "SK뷰1차아파트 지하주차장 1층",
    "address": "경상북도 포항시 남구 새천년대로 306 (효자동, 웰빙타운에스케이뷰아파트)",
    "lat": 36.00660093644766,
    "lng": 129.33465013412447,
    "region": "경상북도"
  },
  {
    "name": "여의주타워 지하주차장 1층",
    "address": "경상북도 포항시 남구 구룡포읍 호미로 225 (구룡포여의주타워)",
    "lat": 35.99041836861426,
    "lng": 129.55529927723896,
    "region": "경상북도"
  },
  {
    "name": "포항시청 지하주차장 1층",
    "address": "경상북도 포항시 남구 시청로 1 (대잠동, 포항시청)",
    "lat": 36.018786689748666,
    "lng": 129.34264287131998,
    "region": "경상북도"
  },
  {
    "name": "대잠센트럴하이츠 지하주차장 1층",
    "address": "경상북도 포항시 남구 희망대로 520 (대잠동, 대잠센트럴하이츠아파트)",
    "lat": 36.02134466134431,
    "lng": 129.3385242055202,
    "region": "경상북도"
  },
  {
    "name": "한빛타운 A동 지하",
    "address": "경상북도 포항시 남구 동해안로5876번길 6 (일월동, 한빛타운)",
    "lat": 35.99302538479214,
    "lng": 129.42072376789363,
    "region": "경상북도"
  },
  {
    "name": "진달래아파트 나동 지하",
    "address": "경상북도 포항시 남구 정몽주로861번길 19 (청림동, 진달래1차아파트)",
    "lat": 35.99034649972846,
    "lng": 129.40522730027948,
    "region": "경상북도"
  },
  {
    "name": "진달래아파트 다동 지하",
    "address": "경상북도 포항시 남구 정몽주로861번길 19 (청림동, 진달래1차아파트)",
    "lat": 35.99034649972846,
    "lng": 129.40522730027948,
    "region": "경상북도"
  },
  {
    "name": "밸류플러스 지하주차장",
    "address": "경상북도 포항시 남구 중흥로 77 (상도동, 밸류플러스)",
    "lat": 36.01260670579611,
    "lng": 129.3497004156233,
    "region": "경상북도"
  },
  {
    "name": "문화예술회관 지하",
    "address": "경상북도 포항시 남구 희망대로 850 (대도동, 문화예술회관)",
    "lat": 36.01010500308301,
    "lng": 129.3660461872871,
    "region": "경상북도"
  },
  {
    "name": "KT전화국 지하주차장 1층",
    "address": "경상북도 포항시 남구 포스코대로 346 (대도동, KT포항지사)",
    "lat": 36.01731143781924,
    "lng": 129.36100330687017,
    "region": "경상북도"
  },
  {
    "name": "부영1차 지하주차장 1층",
    "address": "경상북도 포항시 남구 오천읍 남원로 83 (1차부영아파트)",
    "lat": 35.96856183203124,
    "lng": 129.4005925447591,
    "region": "경상북도"
  },
  {
    "name": "부영2차 지하주차장 1층",
    "address": "경상북도 포항시 남구 오천읍 남원로 85 (2차부영아파트)",
    "lat": 35.9685697756179,
    "lng": 129.4003279136877,
    "region": "경상북도"
  },
  {
    "name": "대림한숲1차 1P 지하주차장 1층",
    "address": "경상북도 포항시 남구 연일읍 유강길9번길 62 (대림한숲타운1차아파트)",
    "lat": 36.005795051645656,
    "lng": 129.31489858993186,
    "region": "경상북도"
  },
  {
    "name": "대림한숲1차 3P 지하주차장 1층",
    "address": "경상북도 포항시 남구 연일읍 유강길9번길 62 (대림한숲타운1차아파트)",
    "lat": 36.005795051645656,
    "lng": 129.31489858993186,
    "region": "경상북도"
  },
  {
    "name": "대림한숲1차 5P 지하주차장 1층",
    "address": "경상북도 포항시 남구 연일읍 유강길9번길 62 (대림한숲타운1차아파트)",
    "lat": 36.005795051645656,
    "lng": 129.31489858993186,
    "region": "경상북도"
  },
  {
    "name": "대림한숲1차 7P 지하주차장 1층",
    "address": "경상북도 포항시 남구 연일읍 유강길9번길 62 (대림한숲타운1차아파트)",
    "lat": 36.005795051645656,
    "lng": 129.31489858993186,
    "region": "경상북도"
  },
  {
    "name": "대림한숲1차 9P 지하주차장 1층",
    "address": "경상북도 포항시 남구 연일읍 유강길9번길 62 (대림한숲타운1차아파트)",
    "lat": 36.005795051645656,
    "lng": 129.31489858993186,
    "region": "경상북도"
  },
  {
    "name": "대림한숲 3차 지하주차장 1층",
    "address": "경상북도 포항시 남구 연일읍 유강길10번길 33-4, 대림한숲타운3단지아파트",
    "lat": 36.00604449761,
    "lng": 129.32140655122078,
    "region": "경상북도"
  },
  {
    "name": "교수아파트 지하",
    "address": "경상북도 포항시 남구 지곡로 155 (지곡동, 교수아파트)",
    "lat": 36.02065868277569,
    "lng": 129.32497368740465,
    "region": "경상북도"
  },
  {
    "name": "부영3차 지하주차장 1층",
    "address": "경상북도 포항시 남구 오천읍 남원로 86-19 (3차부영아파트)",
    "lat": 35.97134261108452,
    "lng": 129.40008877059458,
    "region": "경상북도"
  },
  {
    "name": "부영5차 지하주차장 1층",
    "address": "경상북도 포항시 남구 오천읍 중원로 71-30",
    "lat": 35.97450714747437,
    "lng": 129.39983485514853,
    "region": "경상북도"
  },
  {
    "name": "세명기독병원 지하",
    "address": "경상북도 포항시 남구 포스코대로 351 (대도동, 포항세명기독병원)",
    "lat": 36.01768356858395,
    "lng": 129.36203047128814,
    "region": "경상북도"
  },
  {
    "name": "포항코아루블루인시티아파트 지하주차장 1층",
    "address": "경상북도 포항시 남구 동해면 연오로 91 (포항코아루 블루인시티)",
    "lat": 35.980854371961,
    "lng": 129.444236834719,
    "region": "경상북도"
  },
  {
    "name": "힐스테이트 포항 지하주차장 1층",
    "address": "경상북도 포항시 남구 오천읍 중원로 16 (힐스테이트 포항)",
    "lat": 35.9762723546953,
    "lng": 129.406190881857,
    "region": "경상북도"
  },
  {
    "name": "삼성푸른아파트 지하주차장 1층",
    "address": "경상북도 포항시 북구 양학로 59 (득량동, 삼성푸른아파트)",
    "lat": 36.028219564680825,
    "lng": 129.34786900665688,
    "region": "경상북도"
  },
  {
    "name": "KEB 하나은행 지하주차장 1층",
    "address": "경상북도 포항시 북구 중앙로 236 (죽도동, 외환은행)",
    "lat": 36.03397667311416,
    "lng": 129.36583203422126,
    "region": "경상북도"
  },
  {
    "name": "대림힐타운(101동) 지하주차장 1층",
    "address": "경상북도 포항시 북구 양학로34번길 14 (학잠동, 대림힐타운)",
    "lat": 36.02779770142772,
    "lng": 129.35089373118365,
    "region": "경상북도"
  },
  {
    "name": "경성양학마을 지하주차장 1층",
    "address": "경상북도 포항시 북구 양학로 149 (득량동, 경성양학마을아파트)",
    "lat": 36.033803756850034,
    "lng": 129.34132177623442,
    "region": "경상북도"
  },
  {
    "name": "이동삼성아파트(109동) 지하주차장 1층",
    "address": "경상북도 포항시 북구 이동로 48-11 (득량동, 이동삼성아파트)",
    "lat": 36.03156136639464,
    "lng": 129.34091713911192,
    "region": "경상북도"
  },
  {
    "name": "이동삼성아파트(102동) 지하주차장 1층",
    "address": "경상북도 포항시 북구 이동로 48-11 (득량동, 이동삼성아파트)",
    "lat": 36.03156136639464,
    "lng": 129.34091713911192,
    "region": "경상북도"
  },
  {
    "name": "학잠보성아파트(105동) 지하주차장 1층",
    "address": "경상북도 포항시 북구 양학로 70-30 (학잠동, 학잠보성아파트)",
    "lat": 36.03051689711066,
    "lng": 129.34805682568063,
    "region": "경상북도"
  },
  {
    "name": "학잠동아아파트(106동) 지하주차장 1층",
    "address": "경상북도 포항시 북구 양학로 158 (학잠동, 동아아파트)",
    "lat": 36.03430907239198,
    "lng": 129.34166863957523,
    "region": "경상북도"
  },
  {
    "name": "대림힐타운(103동) 지하주차장 1층",
    "address": "경상북도 포항시 북구 양학로34번길 14 (학잠동, 대림힐타운)",
    "lat": 36.02779770142772,
    "lng": 129.35089373118365,
    "region": "경상북도"
  },
  {
    "name": "대림힐타운(105동) 지하주차장 1층",
    "address": "경상북도 포항시 북구 양학로34번길 14 (학잠동, 대림힐타운)",
    "lat": 36.02779770142772,
    "lng": 129.35089373118365,
    "region": "경상북도"
  },
  {
    "name": "대림힐타운(107동) 지하주차장 1층",
    "address": "경상북도 포항시 북구 양학로34번길 14 (학잠동, 대림힐타운)",
    "lat": 36.02779770142772,
    "lng": 129.35089373118365,
    "region": "경상북도"
  },
  {
    "name": "대림힐타운(109동) 지하주차장 1층",
    "address": "경상북도 포항시 북구 양학로34번길 27 (학잠동, 대림힐타운)",
    "lat": 36.028997218044445,
    "lng": 129.3513810558886,
    "region": "경상북도"
  },
  {
    "name": "신흥아델리움 지하주차장 1층",
    "address": "경상북도 포항시 북구 양학로 119 (득량동, 신흥아델리움아파트)",
    "lat": 36.03194549563631,
    "lng": 129.3436118472338,
    "region": "경상북도"
  },
  {
    "name": "대동우방타운 지하주차장 1층",
    "address": "경상북도 포항시 북구 중앙로419번길 21 (우현동, 대동우방타운)",
    "lat": 36.050059754621095,
    "lng": 129.3599330113036,
    "region": "경상북도"
  },
  {
    "name": "신동아베르디1차 지하주차장 1층",
    "address": "경상북도 포항시 북구 우창로 20 (우현동, 신동아베르디1차)",
    "lat": 36.05549400835696,
    "lng": 129.3598467053929,
    "region": "경상북도"
  },
  {
    "name": "신동아베르디3차 지하주차장 1층",
    "address": "경상북도 포항시 북구 우창동로 10 (우현동, 신동아파밀리에아파트)",
    "lat": 36.05441522114092,
    "lng": 129.3600476798652,
    "region": "경상북도"
  },
  {
    "name": "장성청구하이츠아파트 지하주차장 1층",
    "address": "경상북도 포항시 북구 삼흥로 100-22 (장성동, 장성청구하이츠)",
    "lat": 36.070859591834406,
    "lng": 129.37827337878977,
    "region": "경상북도"
  },
  {
    "name": "럭키장성아파트(2단지) 지하주차장 1층",
    "address": "경상북도 포항시 북구 삼흥로 50-13 (장성동, 럭키장성아파트)",
    "lat": 36.06657359254528,
    "lng": 129.37972314242705,
    "region": "경상북도"
  },
  {
    "name": "창포청구아파트(제2주차장) 지하주차장 1층",
    "address": "경상북도 포항시 북구 새천년대로1123번길 14 (장성동, 창포청구타운)",
    "lat": 36.06931680273264,
    "lng": 129.37072755503286,
    "region": "경상북도"
  },
  {
    "name": "창포청구아파트(제4주차장) 지하주차장 1층",
    "address": "경상북도 포항시 북구 새천년대로1123번길 12 (장성동, 창포청구타운)",
    "lat": 36.069327295145335,
    "lng": 129.37101925932677,
    "region": "경상북도"
  },
  {
    "name": "창포보성아파트 지하주차장 1층",
    "address": "경상북도 포항시 북구 새천년대로1123번길 28 (장성동, 창포보성아파트)",
    "lat": 36.069523733264056,
    "lng": 129.36920201810793,
    "region": "경상북도"
  },
  {
    "name": "산호그린맨션 7차 지하주차장",
    "address": "경상북도 포항시 북구 삼흥로88번길 11 (장성동, 산호그린7차아파트)",
    "lat": 36.06980656685,
    "lng": 129.380661045035,
    "region": "경상북도"
  },
  {
    "name": "장성현대아파트 제3주차장(105동앞)",
    "address": "경상북도 포항시 북구 장량로113번길 30 (장성동, 장성현대아파트)",
    "lat": 36.084479980981214,
    "lng": 129.3928176820221,
    "region": "경상북도"
  },
  {
    "name": "장성대림골든빌 제2주차장(103~104동)",
    "address": "경상북도 포항시 북구 침촌로 20 (장성동, 대림골든빌아파트)",
    "lat": 36.08106822961685,
    "lng": 129.37786650022545,
    "region": "경상북도"
  },
  {
    "name": "장성대림골든빌 제4주차장(108~109,111동)",
    "address": "경상북도 포항시 북구 침촌로 20 (장성동, 대림골든빌아파트)",
    "lat": 36.08106822961685,
    "lng": 129.37786650022545,
    "region": "경상북도"
  },
  {
    "name": "우방하이츠 지하주차장 1층",
    "address": "경상북도 포항시 북구 학전로 103 (두호동, 우방하이츠)",
    "lat": 36.061830827584174,
    "lng": 129.37557509067557,
    "region": "경상북도"
  },
  {
    "name": "우방신천지타운 지하주차장 1층",
    "address": "경상북도 포항시 북구 새천년대로1020번길 30 (두호동, 우방신천지아파트)",
    "lat": 36.05886071737769,
    "lng": 129.37329487192818,
    "region": "경상북도"
  },
  {
    "name": "산호그린7차아파트 지하주차장 1층",
    "address": "경상북도 포항시 북구 삼흥로88번길 11(장성동, 산호그린7차아파트)",
    "lat": 36.06980656685,
    "lng": 129.380661045035,
    "region": "경상북도"
  },
  {
    "name": "장성현대아파트 지하주차장 1층",
    "address": "경상북도 포항시 북구 장량로113번길 30(장성동, 장성현대아파트)",
    "lat": 36.084479980981214,
    "lng": 129.3928176820221,
    "region": "경상북도"
  },
  {
    "name": "장성대림골든빌(제2주차장) 지하주차장 1층",
    "address": "경상북도 포항시 북구 침촌로 20(장성동, 대림골든빌아파트)",
    "lat": 36.08106822961685,
    "lng": 129.37786650022545,
    "region": "경상북도"
  },
  {
    "name": "장성대림골든빌(제4주차장) 지하주차장 1층",
    "address": "경상북도 포항시 북구 침촌로 20(장성동, 대림골든빌아파트)",
    "lat": 36.08106822961685,
    "lng": 129.37786650022545,
    "region": "경상북도"
  },
  {
    "name": "서산터널 지하",
    "address": "경상북도 포항시 북구 서동로 40 (신흥동)",
    "lat": 36.04125863104879,
    "lng": 129.36213709275603,
    "region": "경상북도"
  },
  {
    "name": "롯데낙천대아파트 제1주차장(101동앞)",
    "address": "경상북도 포항시 북구 법원로40번길 38 (장성동, 롯데낙천대아파트)",
    "lat": 36.07745870450224,
    "lng": 129.38927274653727,
    "region": "경상북도"
  },
  {
    "name": "롯데낙천대 지하주차장(제3주차장:108.109동앞)",
    "address": "경상북도 포항시 북구 법원로40번길 38 (장성동, 롯데낙천대아파트)",
    "lat": 36.07745870450224,
    "lng": 129.38927274653727,
    "region": "경상북도"
  },
  {
    "name": "금호어울림아파트 지하주차장 1층",
    "address": "경상북도 포항시 북구 우창동로 157 (창포동, 금호어울림아파트)",
    "lat": 36.061993443286696,
    "lng": 129.36502727584326,
    "region": "경상북도"
  },
  {
    "name": "양덕풍림아이원주차장(제2주차장지하)",
    "address": "경상북도 포항시 북구 양덕로 60 (양덕동, 풍림아이원아파트)",
    "lat": 36.084672336578926,
    "lng": 129.4021094952809,
    "region": "경상북도"
  },
  {
    "name": "삼성생명 지하주차장 1층",
    "address": "경상북도 포항시 북구 중흥로 205 (죽도동, 삼성빌딩)",
    "lat": 36.022128404843606,
    "lng": 129.35720421141258,
    "region": "경상북도"
  },
  {
    "name": "성봉우미타운 지하주차장 1층",
    "address": "경상북도 포항시 북구 용흥로 322 (용흥동, 성봉우미타운)",
    "lat": 36.0471722163438,
    "lng": 129.35393659053676,
    "region": "경상북도"
  },
  {
    "name": "쌍용아파트 지하주차장 1층",
    "address": "경상북도 포항시 북구 용흥로 354 (용흥동, 용흥쌍용아파트)",
    "lat": 36.04578584979147,
    "lng": 129.3571575589922,
    "region": "경상북도"
  },
  {
    "name": "용흥현대타워2차아파트 지하주차장 1층",
    "address": "경상북도 포항시 북구 새마을로 26 (용흥동, 현대2차타워아파트)",
    "lat": 36.03856036517372,
    "lng": 129.3571656894493,
    "region": "경상북도"
  },
  {
    "name": "제일프리미엄 아파트 지하주차장 1층",
    "address": "경상북도 포항시 북구 용흥로292번길 11 (용흥동, 제일프리미엄타운아파트)",
    "lat": 36.04723046453343,
    "lng": 129.3514359956963,
    "region": "경상북도"
  },
  {
    "name": "장성롯데낙천대(제1주차장) 지하주차장 1층",
    "address": "경상북도 포항시 북구 법원로40번길 38(장성동, 롯데낙천대아파트)",
    "lat": 36.07745870450224,
    "lng": 129.38927274653727,
    "region": "경상북도"
  },
  {
    "name": "장성롯데낙천대(제3주차장) 지하주차장 1층",
    "address": "경상북도 포항시 북구 법원로40번길 38(장성동, 롯데낙천대아파트)",
    "lat": 36.07745870450224,
    "lng": 129.38927274653727,
    "region": "경상북도"
  },
  {
    "name": "현진에버빌2단지지하주차장(203,206,207동)",
    "address": "경상북도 포항시 북구 성실로 50 (장성동, 현진에버빌2단지아파트)",
    "lat": 36.06786439294466,
    "lng": 129.37469333948977,
    "region": "경상북도"
  },
  {
    "name": "교보생명 지하주차장 1층",
    "address": "경상북도 포항시 북구 중흥로 109 (죽도동, 교보생명빌딩)",
    "lat": 36.014787525015,
    "lng": 129.35137000208496,
    "region": "경상북도"
  },
  {
    "name": "장량휴먼시아(101-102)",
    "address": "경상북도 포항시 북구 장량중앙로 17 (양덕동, 장량휴먼시아)",
    "lat": 36.09116823884745,
    "lng": 129.3836440238269,
    "region": "경상북도"
  },
  {
    "name": "장량휴먼시아(103-104,109)",
    "address": "경상북도 포항시 북구 장량중앙로 17 (양덕동, 장량휴먼시아)",
    "lat": 36.09116823884745,
    "lng": 129.3836440238269,
    "region": "경상북도"
  },
  {
    "name": "장량휴먼시아(105-108)",
    "address": "경상북도 포항시 북구 장량중앙로 17 (양덕동, 장량휴먼시아)",
    "lat": 36.09116823884745,
    "lng": 129.3836440238269,
    "region": "경상북도"
  },
  {
    "name": "양덕삼성쉐르빌(101-108)",
    "address": "경상북도 포항시 북구 양덕로50번길 33 (양덕동, 삼성쉐르빌아파트)",
    "lat": 36.08329444552176,
    "lng": 129.40584487422018,
    "region": "경상북도"
  },
  {
    "name": "양덕2차e-편한세상(201-203)",
    "address": "경상북도 포항시 북구 천마로90번길 11 (양덕동, 2차이편한세상아파트)",
    "lat": 36.084781949097234,
    "lng": 129.39838378012266,
    "region": "경상북도"
  },
  {
    "name": "창포아이파크1차 지하주차장 1층",
    "address": "경상북도 포항시 북구 대곡로 5 (두호동, 창포아이파크1차아파트)",
    "lat": 36.06357113352463,
    "lng": 129.37351769188552,
    "region": "경상북도"
  },
  {
    "name": "청소년수련관 지하",
    "address": "경상북도 포항시 북구 삼호로 533 (환호동, 포항시청소년수련관)",
    "lat": 36.07539964675102,
    "lng": 129.39627339871774,
    "region": "경상북도"
  },
  {
    "name": "양덕풍림아이원 지하주차장 1층",
    "address": "경상북도 포항시 북구 양덕로 60(양덕동, 풍림아이원아파트)",
    "lat": 36.084672336578926,
    "lng": 129.4021094952809,
    "region": "경상북도"
  },
  {
    "name": "현진에버빌 2단지 지하주차장 1층",
    "address": "경상북도 포항시 북구 성실로 50(장성동, 현진에버빌2단지아파트)",
    "lat": 36.06786439294466,
    "lng": 129.37469333948977,
    "region": "경상북도"
  },
  {
    "name": "장량휴먼시아(101-102) 지하주차장 1층",
    "address": "경상북도 포항시 북구 장량중앙로 17(양덕동, 장량휴먼시아)",
    "lat": 36.09116823884745,
    "lng": 129.3836440238269,
    "region": "경상북도"
  },
  {
    "name": "장량휴먼시아(103-104,109) 지하주차장 1층",
    "address": "경상북도 포항시 북구 장량중앙로 17(양덕동, 장량휴먼시아)",
    "lat": 36.09116823884745,
    "lng": 129.3836440238269,
    "region": "경상북도"
  },
  {
    "name": "장량휴먼시아(105,106,107,108)지하주차장1층",
    "address": "경상북도 포항시 북구 장량중앙로 17(양덕동, 장량휴먼시아)",
    "lat": 36.09116823884745,
    "lng": 129.3836440238269,
    "region": "경상북도"
  },
  {
    "name": "양덕삼성쉐르빌(101-108) 지하주차장 1층",
    "address": "경상북도 포항시 북구 양덕로50번길 33(양덕동, 삼성쉐르빌아파트)",
    "lat": 36.08329444552176,
    "lng": 129.40584487422018,
    "region": "경상북도"
  },
  {
    "name": "양덕2차e-편한세상(201-203) 지하주차장 1층",
    "address": "경상북도 포항시 북구 천마로90번길 11(양덕동, 2차이편한세상아파트)",
    "lat": 36.084781949097234,
    "lng": 129.39838378012266,
    "region": "경상북도"
  },
  {
    "name": "동아금강맨션 지하주차장 1층",
    "address": "경상북도 포항시 북구 용두산길 74 (두호동, 동아금강아파트)",
    "lat": 36.07021856137239,
    "lng": 129.38112055775466,
    "region": "경상북도"
  },
  {
    "name": "산호녹원맨션 지하주차장 1층",
    "address": "경상북도 포항시 북구 삼흥로100번길 43 (두호동, 산호녹원맨션)",
    "lat": 36.06951766368987,
    "lng": 129.38352259028733,
    "region": "경상북도"
  },
  {
    "name": "천호타운 지하주차장 1층",
    "address": "경상북도 포항시 북구 삼흥로100번길 24 (두호동, 천호타운)",
    "lat": 36.070863337133616,
    "lng": 129.3821111555893,
    "region": "경상북도"
  },
  {
    "name": "필로스호텔 지하주차장 1층",
    "address": "경상북도 포항시 북구 죽파로 6 (용흥동)",
    "lat": 36.02945007144184,
    "lng": 129.35719538511813,
    "region": "경상북도"
  },
  {
    "name": "우방청운 지하주차장 1층",
    "address": "경상북도 포항시 북구 학전로 37, 우방청운아파트(상가동) (학산동)",
    "lat": 36.0560780130427,
    "lng": 129.374212076628,
    "region": "경상북도"
  },
  {
    "name": "우방비치 제3지하주차장 1층",
    "address": "경상북도 포항시 북구 삼호로 175 (항구동, 우방비치아파트)",
    "lat": 36.05427216131853,
    "lng": 129.37590026123124,
    "region": "경상북도"
  },
  {
    "name": "삼도미래 1차 지하주차장 1층",
    "address": "경상북도 포항시 북구 흥해읍 도음로877번길 9-0",
    "lat": 36.07972875812464,
    "lng": 129.33020300218254,
    "region": "경상북도"
  },
  {
    "name": "삼도미래 2차 지하주차장 1층",
    "address": "경상북도 포항시 북구 흥해읍 도음로 902 (학천삼도미래타운2차)",
    "lat": 36.07820005681428,
    "lng": 129.33266381651347,
    "region": "경상북도"
  },
  {
    "name": "대흥온천맨션 지하주차장 1층",
    "address": "경상북도 포항시 북구 흥해읍 신흥로861번길 8 (대흥온천맨션)",
    "lat": 36.11269377893221,
    "lng": 129.33704387455376,
    "region": "경상북도"
  },
  {
    "name": "한동맨션 지하주차장 1층",
    "address": "경상북도 포항시 북구 흥해읍 신흥로 870 (한동맨션)",
    "lat": 36.111832390678245,
    "lng": 129.33670146161575,
    "region": "경상북도"
  },
  {
    "name": "금성타워맨션 지하주차장 1층",
    "address": "경상북도 포항시 북구 흥해읍 남미질로 47 (금성타워)",
    "lat": 36.10563387609665,
    "lng": 129.34844119985414,
    "region": "경상북도"
  },
  {
    "name": "대유타운 지하주차장 1층",
    "address": "경상북도 포항시 북구 흥해읍 달전로 291 (대유타운아파트)",
    "lat": 36.06971539415642,
    "lng": 129.3354162581725,
    "region": "경상북도"
  },
  {
    "name": "롯데백화점 지하주차장 1층",
    "address": "경상북도 포항시 북구 학산로 62 (학산동, 롯데백화점)",
    "lat": 36.049771783479,
    "lng": 129.3694230921243,
    "region": "경상북도"
  },
  {
    "name": "환호해맞이그린빌2단지 지하주차장 1층",
    "address": "경상북도 포항시 북구 환호로 24 (환호동, 해맞이그린빌2단지아파트)",
    "lat": 36.070387388086495,
    "lng": 129.3929223751514,
    "region": "경상북도"
  },
  {
    "name": "환호해맞이그린빌1단지지하주차장 1층",
    "address": "경상북도 포항시 북구 삼호로 391 (환호동, 환호해맞이그린빌)",
    "lat": 36.06850999928586,
    "lng": 129.390644849421,
    "region": "경상북도"
  },
  {
    "name": "우방비치타운제 지하주차장 1층",
    "address": "경상북도 포항시 북구 삼호로 175 (항구동, 우방비치아파트)",
    "lat": 36.05427216131853,
    "lng": 129.37590026123124,
    "region": "경상북도"
  },
  {
    "name": "삼도드림파크 지하주차장 1층",
    "address": "경상북도 포항시 북구 흥해읍 달전로 365, 114동 16층 (삼도드림파크)",
    "lat": 36.07671768439198,
    "lng": 129.3394802222683,
    "region": "경상북도"
  },
  {
    "name": "삼도뷰엔빌 지하주차장 1층",
    "address": "경상북도 포항시 북구 흥해읍 도음로877번길 15, 111동 (삼도뷰엔빌)",
    "lat": 36.0798130825378,
    "lng": 129.33092102866232,
    "region": "경상북도"
  },
  {
    "name": "중앙시장지하 1층 주차장",
    "address": "경상북도 경주시 금성로 295 (성건동)",
    "lat": 35.84399254322999,
    "lng": 129.20678186218038,
    "region": "경상북도"
  },
  {
    "name": "감포읍 행정복지센터 (대피시설 지하실 1층)",
    "address": "경상북도 경주시 감포읍 감포로8길 14-8, 감포읍 행정복지센터",
    "lat": 35.80729559730414,
    "lng": 129.5012469095601,
    "region": "경상북도"
  },
  {
    "name": "삼보타운106동지하주차장",
    "address": "경상북도 경주시 용담로54번길 30-3 (황성동)",
    "lat": 35.864223703817466,
    "lng": 129.21767858825422,
    "region": "경상북도"
  },
  {
    "name": "황성동신흥1차로얄맨션지하주차장 (101동)",
    "address": "경상북도 경주시 용담로92번길 53-8 (황성동)",
    "lat": 35.86851529835571,
    "lng": 129.2140039060148,
    "region": "경상북도"
  },
  {
    "name": "KT경주수련관 (지하1층 주차장)",
    "address": "경상북도 경주시 엑스포로 30 (신평동)",
    "lat": 35.83811089626685,
    "lng": 129.2897837558835,
    "region": "경상북도"
  },
  {
    "name": "황성동신흥2차지하 1층 주차장 (102동)",
    "address": "경상북도 경주시 용담로116번길 59 (황성동)",
    "lat": 35.86913704307354,
    "lng": 129.21306555661738,
    "region": "경상북도"
  },
  {
    "name": "삼보타운107동 (지하주차장 1층)",
    "address": "경상북도 경주시 용담로54번길 30-15 (황성동)",
    "lat": 35.863502934436646,
    "lng": 129.21829009615638,
    "region": "경상북도"
  },
  {
    "name": "남호비치타워맨션( 전체 동의 지하주차장 1층)",
    "address": "경상북도 경주시 감포읍 동해안로 지하 2233 (남호비치타워맨션)",
    "lat": 35.80522850298876,
    "lng": 129.49658155027635,
    "region": "경상북도"
  },
  {
    "name": "더케이경주호텔 (지하주차장 1층)",
    "address": "경상북도 경주시 엑스포로 45 (신평동)",
    "lat": 35.83700439103648,
    "lng": 129.2909295180117,
    "region": "경상북도"
  },
  {
    "name": "한신아파트 지하 1층 주차장",
    "address": "경상북도 경주시 황성로69번길 40 (황성동)",
    "lat": 35.87038069057095,
    "lng": 129.21456666162945,
    "region": "경상북도"
  },
  {
    "name": "건천파티마요양병원 지하주차장",
    "address": "경상북도 경주시 건천읍 건천1길 8-9",
    "lat": 35.84823978696743,
    "lng": 129.1038956120079,
    "region": "경상북도"
  },
  {
    "name": "황성동청우타운401동지하주차장",
    "address": "경상북도 경주시 황성로69번길 18 (황성동)",
    "lat": 35.86918096423659,
    "lng": 129.216350798834,
    "region": "경상북도"
  },
  {
    "name": "황성동청우타운303동지하주차장",
    "address": "경상북도 경주시 황성로69번길 15 (황성동)",
    "lat": 35.86896058414153,
    "lng": 129.21652420233275,
    "region": "경상북도"
  },
  {
    "name": "황성동청우타운301동지하주차장",
    "address": "경상북도 경주시 황성로69번길 10 (황성동)",
    "lat": 35.86868628002828,
    "lng": 129.21709153446378,
    "region": "경상북도"
  },
  {
    "name": "대우1차아파트 지하 1층 주차장",
    "address": "경상북도 경주시 충효녹지길 142-9 (충효동)",
    "lat": 35.84576106142984,
    "lng": 129.17599141878324,
    "region": "경상북도"
  },
  {
    "name": "충효에덴타운 지하 1층 주차장",
    "address": "경상북도 경주시 충효5길 30 (충효동)",
    "lat": 35.84591659633175,
    "lng": 129.17920949178105,
    "region": "경상북도"
  },
  {
    "name": "충효대신그린타운 지하 1층 주차장",
    "address": "경상북도 경주시 충효녹지길 138-8 (충효동)",
    "lat": 35.845440536585,
    "lng": 129.17652850943784,
    "region": "경상북도"
  },
  {
    "name": "대우2차아파트 지하 1층 주차장",
    "address": "경상북도 경주시 충효5길 13 (충효동)",
    "lat": 35.8449210590041,
    "lng": 129.17925281964204,
    "region": "경상북도"
  },
  {
    "name": "츙효현대아파트 지하 1층 주차장",
    "address": "경상북도 경주시 충효3길 28-4 (충효동)",
    "lat": 35.843789707476326,
    "lng": 129.18676612183913,
    "region": "경상북도"
  },
  {
    "name": "동천우방타운 지하 1층 주차장",
    "address": "경상북도 경주시 백률로57번길 22 (동천동)",
    "lat": 35.85858714388057,
    "lng": 129.2258807711854,
    "region": "경상북도"
  },
  {
    "name": "경주시청 지하실 1층",
    "address": "경상북도 경주시 양정로 260 (동천동)",
    "lat": 35.855930684827285,
    "lng": 129.224384636819,
    "region": "경상북도"
  },
  {
    "name": "금성크리스탈아파트",
    "address": "경상북도 경주시 외동읍 모화남1길 15-5",
    "lat": 35.67101952161288,
    "lng": 129.3378556407976,
    "region": "경상북도"
  },
  {
    "name": "부성아파트 지하 1층 주차장",
    "address": "경상북도 경주시 외동읍 산업로 1762 (부성아파트)",
    "lat": 35.6718631714487,
    "lng": 129.33638017945526,
    "region": "경상북도"
  },
  {
    "name": "성도대자연타운 지하 1층 주차장",
    "address": "경상북도 경주시 외동읍 산업로 1768-16 (성도대자연타운)",
    "lat": 35.67242466532342,
    "lng": 129.33775919345123,
    "region": "경상북도"
  },
  {
    "name": "벽산천마타운 지하 1층 주차장",
    "address": "경상북도 경주시 외동읍 송계길 4-3",
    "lat": 35.70144655708931,
    "lng": 129.32775071397023,
    "region": "경상북도"
  },
  {
    "name": "남정로얄맨션",
    "address": "경상북도 경주시 외동읍 순금1길 11",
    "lat": 35.711344924153295,
    "lng": 129.32310923407502,
    "region": "경상북도"
  },
  {
    "name": "우주로얄맨션 지하 1층 주차장",
    "address": "경상북도 경주시 대안길35번길 12-1 (동천동)",
    "lat": 35.85329557909733,
    "lng": 129.22177881483694,
    "region": "경상북도"
  },
  {
    "name": "건천전원타운 지하 1층 주차장",
    "address": "경상북도 경주시 건천읍 작원3길 81-7 (전원타운)",
    "lat": 35.85490868933237,
    "lng": 129.09935875721405,
    "region": "경상북도"
  },
  {
    "name": "경주소방서 지하 1층",
    "address": "경상북도 경주시 알천남로 276 (황오동)",
    "lat": 35.8443112311133,
    "lng": 129.2283288451478,
    "region": "경상북도"
  },
  {
    "name": "141미니호텔 지하 1층 주차장",
    "address": "경상북도 경주시 원효로 141 (황오동)",
    "lat": 35.842084061054955,
    "lng": 129.2164156244951,
    "region": "경상북도"
  },
  {
    "name": "청구아파트 지하 1층 주차장",
    "address": "경상북도 경주시 승삼1길 9 (용강동)",
    "lat": 35.87741841220824,
    "lng": 129.22926499936963,
    "region": "경상북도"
  },
  {
    "name": "대신1차아파트 지하 1층 주차장",
    "address": "경상북도 경주시 소금강로29번길 29-0 (용강동)",
    "lat": 35.86202571788027,
    "lng": 129.22249871258057,
    "region": "경상북도"
  },
  {
    "name": "대신2차아파트 지하 1층 주차장",
    "address": "경상북도 경주시 소금강로29번길 28 (용강동)",
    "lat": 35.86206737964811,
    "lng": 129.22259853534257,
    "region": "경상북도"
  },
  {
    "name": "대신3차아파트 지하 1층 주차장",
    "address": "경상북도 경주시 토용길6번길 10 (용강동)",
    "lat": 35.86299116569826,
    "lng": 129.22347897910666,
    "region": "경상북도"
  },
  {
    "name": "삼성강변APT 지하 1층 주차장",
    "address": "경상북도 경주시 현곡면 금장5길 20-19",
    "lat": 35.86861838772331,
    "lng": 129.20433563325122,
    "region": "경상북도"
  },
  {
    "name": "신한APT 지하 1층 주차장",
    "address": "경상북도 경주시 현곡면 금장5길 34",
    "lat": 35.87013539563955,
    "lng": 129.20424953549335,
    "region": "경상북도"
  },
  {
    "name": "현곡면 행정복지센터 지하 1층",
    "address": "경상북도 경주시 현곡면 금장2길 12, 현곡면 행정복지센터",
    "lat": 35.86632771741853,
    "lng": 129.20234673589889,
    "region": "경상북도"
  },
  {
    "name": "황오동  행정복지센터 지하 1층",
    "address": "경상북도 경주시 북성로 130, 황오동 행정복지센터 (성동동)",
    "lat": 35.84703272722542,
    "lng": 129.21604563024744,
    "region": "경상북도"
  },
  {
    "name": "KT경주지점 지하 2층",
    "address": "경상북도 경주시 화랑로 125 (성동동)",
    "lat": 35.84467928012408,
    "lng": 129.2145746788616,
    "region": "경상북도"
  },
  {
    "name": "동천푸르지오아파트 지하 1층 주차장",
    "address": "경상북도 경주시 백률로 7 (동천동)",
    "lat": 35.85680978046758,
    "lng": 129.22014585181745,
    "region": "경상북도"
  },
  {
    "name": "불국동 행정복지센터 지하 1층",
    "address": "경상북도 경주시 산업로 3008, 불국동 행정복지센터 (시래동)",
    "lat": 35.77514911000741,
    "lng": 129.30056295577248,
    "region": "경상북도"
  },
  {
    "name": "황성현대5차아파트 지하 1층 주차장",
    "address": "경상북도 경주시 황성로 60 (황성동, 현대5차아파트)",
    "lat": 35.86748331551272,
    "lng": 129.21737827263692,
    "region": "경상북도"
  },
  {
    "name": "e편한세상아파트 지하 1층 주차장",
    "address": "경상북도 경주시 강변로 540 (황성동)",
    "lat": 35.87000213521193,
    "lng": 129.21058064396408,
    "region": "경상북도"
  },
  {
    "name": "경주용황스위첸 지하 1층 주차장",
    "address": "경상북도 경주시 용황로10길 42 (용강동)",
    "lat": 35.886560961027385,
    "lng": 129.2303243923265,
    "region": "경상북도"
  },
  {
    "name": "용강삼환나우빌 지하 1층 주차장",
    "address": "경상북도 경주시 다불로 49 (용강동)",
    "lat": 35.87565698992236,
    "lng": 129.23256924783306,
    "region": "경상북도"
  },
  {
    "name": "세정스위츠리버 지하 1층 주차장",
    "address": "경상북도 경주시 현곡면 안현로 43-9 (세정스위츠리버)",
    "lat": 35.87131424158364,
    "lng": 129.20254768992467,
    "region": "경상북도"
  },
  {
    "name": "새한센시빌아파트 지하 1층 주차장",
    "address": "경상북도 경주시 현곡면 안현로 68-7 (새한센시빌아파트)",
    "lat": 35.871845842476766,
    "lng": 129.2063970572825,
    "region": "경상북도"
  },
  {
    "name": "건천휴먼시아 지하 1층 주차장",
    "address": "경상북도 경주시 건천읍 대곡용명길 27",
    "lat": 35.84693912212218,
    "lng": 129.10924087192925,
    "region": "경상북도"
  },
  {
    "name": "성건동주민자치센터 지하 1층",
    "address": "경상북도 경주시 북문로 15 (성건동)",
    "lat": 35.85018229977594,
    "lng": 129.20417612907693,
    "region": "경상북도"
  },
  {
    "name": "경주외동엘에이치아파트",
    "address": "경상북도 경주시 외동읍 본동길 14",
    "lat": 35.71463563154639,
    "lng": 129.33095856306883,
    "region": "경상북도"
  },
  {
    "name": "경주코아루그랑블아파트",
    "address": "경상북도 경주시 능원길 22 (도지동)",
    "lat": 35.803567851371,
    "lng": 129.26617324501385,
    "region": "경상북도"
  },
  {
    "name": "안강우방타운 지하 1층 주차장",
    "address": "경상북도 경주시 안강읍 구부랑길 73",
    "lat": 36.00404318960223,
    "lng": 129.1971939635541,
    "region": "경상북도"
  },
  {
    "name": "안강삼도타운 지하 1층 주차장",
    "address": "경상북도 경주시 안강읍 구부랑4길 24-1",
    "lat": 36.00261671945504,
    "lng": 129.1942354971977,
    "region": "경상북도"
  },
  {
    "name": "삼정아파트 지하 1층 주차장",
    "address": "경상북도 경주시 충효1길 22-5 (충효동)",
    "lat": 35.84152290291116,
    "lng": 129.1911654060379,
    "region": "경상북도"
  },
  {
    "name": "신원아침도시 지하 1층 주차장",
    "address": "경상북도 경주시 충효1길 8 (충효동, 충효신원아침도시아파트)",
    "lat": 35.84019239603135,
    "lng": 129.1902994469125,
    "region": "경상북도"
  },
  {
    "name": "용강 현진에버빌2차 지하주차장",
    "address": "경상북도 경주시 광중길 73-6 (용강동)",
    "lat": 35.88525904487153,
    "lng": 129.2237389049079,
    "region": "경상북도"
  },
  {
    "name": "신경주 유보라 아이비파크 1.0 지하주차장",
    "address": "경상북도 경주시 건천읍 경주역세권1로 90 (신경주 유보라아이비파크 1단지)",
    "lat": 35.8059621656216,
    "lng": 129.139858425372,
    "region": "경상북도"
  },
  {
    "name": "신경주 유보라 아이비파크 2.0 지하주차장",
    "address": "경상북도 경주시 건천읍 경주역세권1로 89 (신경주 유보라 아이비파크 2단지)",
    "lat": 35.806077641905,
    "lng": 129.139509982642,
    "region": "경상북도"
  },
  {
    "name": "김천우체국 지하1층",
    "address": "경상북도 김천시 중앙시장3길 22 (모암동)",
    "lat": 36.1185873907137,
    "lng": 128.12572531770314,
    "region": "경상북도"
  },
  {
    "name": "서부성결교회 지하1층",
    "address": "경상북도 김천시 문화3길 8 (평화동)",
    "lat": 36.12715556037146,
    "lng": 128.10705827574068,
    "region": "경상북도"
  },
  {
    "name": "한일아파트 지하주차장 1층",
    "address": "경상북도 김천시 모암길 117 (모암동)",
    "lat": 36.12482939332723,
    "lng": 128.12325809024256,
    "region": "경상북도"
  },
  {
    "name": "부곡금류아파트 지하주차장 1층",
    "address": "경상북도 김천시 가메실2길 51 (부곡동, 금류아파트)",
    "lat": 36.12198648379654,
    "lng": 128.0997858872833,
    "region": "경상북도"
  },
  {
    "name": "항도빌라 지하주차장 1층",
    "address": "경상북도 김천시 충효길 88 (성내동, 항도빌라)",
    "lat": 36.12419516718004,
    "lng": 128.1197642071945,
    "region": "경상북도"
  },
  {
    "name": "김천의료원 지하1층",
    "address": "경상북도 김천시 모암길 24 (모암동, 김천의료원)",
    "lat": 36.121867052864026,
    "lng": 128.12690521683618,
    "region": "경상북도"
  },
  {
    "name": "한일상가아파트 지하주차장 1층",
    "address": "경상북도 김천시 모암사랑1길 29 (모암동, 한일상가아파트)",
    "lat": 36.12492255817137,
    "lng": 128.12789034998775,
    "region": "경상북도"
  },
  {
    "name": "한일장미아파트 지하1층",
    "address": "경상북도 김천시 평화장미3길 25 (평화동, 한일장미타운)",
    "lat": 36.127652408076976,
    "lng": 128.114678157211,
    "region": "경상북도"
  },
  {
    "name": "우방1차아파트 지하주차장 1층",
    "address": "경상북도 김천시 시청6길 43 (신음동, 김천우방타운)",
    "lat": 36.1424543686858,
    "lng": 128.114612659051,
    "region": "경상북도"
  },
  {
    "name": "삼보타운 지하주차장 1층",
    "address": "경상북도 김천시 시청6길 42 (신음동, 삼보타운)",
    "lat": 36.14246837602014,
    "lng": 128.1147778236325,
    "region": "경상북도"
  },
  {
    "name": "신음금류아파트 지하주차장 1층",
    "address": "경상북도 김천시 시청2길 30(신음동, 신음동 금류아파트)",
    "lat": 36.13752570693789,
    "lng": 128.11309327602254,
    "region": "경상북도"
  },
  {
    "name": "덕일아파트 지하주차장 1층",
    "address": "경상북도 김천시 시청6길 27 (신음동, 덕일아파트)",
    "lat": 36.14191185584772,
    "lng": 128.11437661610506,
    "region": "경상북도"
  },
  {
    "name": "부곡3주공아파트 지하1층",
    "address": "경상북도 김천시 문지왈길 68 (부곡동)",
    "lat": 36.12097427798568,
    "lng": 128.08821461844727,
    "region": "경상북도"
  },
  {
    "name": "하나로마트 지하주차장 2층",
    "address": "경상북도 김천시 자산로 147 (평화동)",
    "lat": 36.12335933125527,
    "lng": 128.11780831075055,
    "region": "경상북도"
  },
  {
    "name": "평화프라자 지하주차장 1층",
    "address": "경상북도 김천시 김천로 86 (평화동)",
    "lat": 36.12475166130557,
    "lng": 128.11176028308074,
    "region": "경상북도"
  },
  {
    "name": "건화호반맨션 지하주차장 1층",
    "address": "경상북도 김천시 연화지2길 25 (교동, 호반맨션)",
    "lat": 36.13732150461883,
    "lng": 128.09145850060534,
    "region": "경상북도"
  },
  {
    "name": "한보아파트 지하주차장 1층",
    "address": "경상북도 김천시 백옥길 5 (백옥동, 한보아파트)",
    "lat": 36.12537790199025,
    "lng": 128.0805561771493,
    "region": "경상북도"
  },
  {
    "name": "우방2차아파트 지하주차장 1층",
    "address": "경상북도 김천시 신음2길 18 (신음동)",
    "lat": 36.1368226240873,
    "lng": 128.11827017346496,
    "region": "경상북도"
  },
  {
    "name": "현대1차아파트 지하주차장 1층",
    "address": "경상북도 김천시 시청로 46 (신음동)",
    "lat": 36.1324692739286,
    "lng": 128.1181383134825,
    "region": "경상북도"
  },
  {
    "name": "농협중앙회지부 지하1층",
    "address": "경상북도 김천시 김천로 154 (남산동)",
    "lat": 36.1210793920011,
    "lng": 128.1178549395454,
    "region": "경상북도"
  },
  {
    "name": "한일부곡타운 지하주차장 1층",
    "address": "경상북도 김천시 고래실3길 45-14(부곡동, 한일부곡타운)",
    "lat": 36.12260407884877,
    "lng": 128.08343254758134,
    "region": "경상북도"
  },
  {
    "name": "제일병원 지하1층",
    "address": "경상북도 김천시 신음1길 12, 김천제일병원 (신음동)",
    "lat": 36.13534383101548,
    "lng": 128.1183518838491,
    "region": "경상북도"
  },
  {
    "name": "탑웨딩 지하1층",
    "address": "경상북도 김천시 시청로 194 (신음동)",
    "lat": 36.14521302219535,
    "lng": 128.1204795552541,
    "region": "경상북도"
  },
  {
    "name": "부곡화성타운 지하주차장 1층",
    "address": "경상북도 김천시 부곡길 162 (부곡동, 부곡화성타운)",
    "lat": 36.12559521805392,
    "lng": 128.09710882135118,
    "region": "경상북도"
  },
  {
    "name": "부곡우방타운 지하주차장 1층",
    "address": "경상북도 김천시 부곡길 206(부곡동, 부곡우방타운)",
    "lat": 36.12558044768563,
    "lng": 128.09948256619327,
    "region": "경상북도"
  },
  {
    "name": "덕곡한마음타운 지하주차장 1층",
    "address": "경상북도 김천시 한마음길 8(덕곡동, 덕곡 한마음타운)",
    "lat": 36.11647743698367,
    "lng": 128.15219747535994,
    "region": "경상북도"
  },
  {
    "name": "현대2차아파트 지하주차장 1층",
    "address": "경상북도 김천시 시청로 42(신음동, 현대아파트)",
    "lat": 36.13232904372433,
    "lng": 128.11815732726407,
    "region": "경상북도"
  },
  {
    "name": "법원김천지원 지하1층",
    "address": "경상북도 김천시 물망골길 39, 대구지방법원김천지원 (삼락동)",
    "lat": 36.14414056383387,
    "lng": 128.0959479330168,
    "region": "경상북도"
  },
  {
    "name": "동보수정아파트 지하주차장 1층",
    "address": "경상북도 김천시 양금로 196 (황금동, 동보수정맨션)",
    "lat": 36.11155487608302,
    "lng": 128.12284453523517,
    "region": "경상북도"
  },
  {
    "name": "아주아트빌 지하주차장 1층",
    "address": "경상북도 김천시 문지왈3길 14(부곡동, 아주아트빌)",
    "lat": 36.12219286944477,
    "lng": 128.0898789486646,
    "region": "경상북도"
  },
  {
    "name": "중앙보건지소 지하1층",
    "address": "경상북도 김천시 중앙공원길 21 (남산동, 중앙보건지소)",
    "lat": 36.119389699845925,
    "lng": 128.1189749273379,
    "region": "경상북도"
  },
  {
    "name": "신천지타운 지하주차장 1층",
    "address": "경상북도 김천시 평화5길 7 (평화동, 신천지타운)",
    "lat": 36.12532317828656,
    "lng": 128.1083319518579,
    "region": "경상북도"
  },
  {
    "name": "김천시립도서관 지하1층",
    "address": "경상북도 김천시 평화순환길 111 (평화동, 김천시립도서관)",
    "lat": 36.122504205961,
    "lng": 128.10939203024105,
    "region": "경상북도"
  },
  {
    "name": "김천황금성당 지하1층",
    "address": "경상북도 김천시 학사대길 64 (황금동, 황금천주교회)",
    "lat": 36.11668371437376,
    "lng": 128.12172493637965,
    "region": "경상북도"
  },
  {
    "name": "코아루1차아파트 지하주차장 1층",
    "address": "경상북도 김천시 삼락택지길 132(교동, 코아루1차아파트)",
    "lat": 36.14404970139294,
    "lng": 128.09910699310748,
    "region": "경상북도"
  },
  {
    "name": "코아루2차아파트 지하주차장 1층",
    "address": "경상북도 김천시 삼락택지길 137 (삼락동, 코아루2차아파트)",
    "lat": 36.14451192413091,
    "lng": 128.0993928310077,
    "region": "경상북도"
  },
  {
    "name": "대신휴먼시아 지하주차장 1층",
    "address": "경상북도 김천시 시청로 93(신음동, 대신휴먼시아)",
    "lat": 36.136455507867566,
    "lng": 128.11610417931027,
    "region": "경상북도"
  },
  {
    "name": "덕곡주공아파트 지하주차장 1층",
    "address": "경상북도 김천시 무실7길 38 (덕곡동, 덕곡주공아파트)",
    "lat": 36.112524427042935,
    "lng": 128.15703159940617,
    "region": "경상북도"
  },
  {
    "name": "아포덕일한마음아파트 지하주차장 1층",
    "address": "경상북도 김천시 아포읍 한지2길 64-9(아포덕일한마음아파트)",
    "lat": 36.15811695525319,
    "lng": 128.26266493687774,
    "region": "경상북도"
  },
  {
    "name": "KCC스위첸아파트 지하주차장 지하1층",
    "address": "경상북도 김천시 혁신5로 11 (율곡동, 경북혁신케이씨씨스위첸)",
    "lat": 36.12088011496231,
    "lng": 128.1798318357163,
    "region": "경상북도"
  },
  {
    "name": "영무예다음1차아파트 지하주차장 지하1층",
    "address": "경상북도 김천시 혁신8로 66 (율곡동, 김천혁신도시영무예다음1차아파트)",
    "lat": 36.127436043689606,
    "lng": 128.18831236433778,
    "region": "경상북도"
  },
  {
    "name": "남혁신 코아루푸르나임 지하주차장 1층",
    "address": "경상북도 김천시 무실7길 45(덕곡동, 코아루푸르나임)",
    "lat": 36.112113043160655,
    "lng": 128.15712012669792,
    "region": "경상북도"
  },
  {
    "name": "중구(안동소방서 지하1층)",
    "address": "경상북도 안동시 육사로 301 (운흥동)",
    "lat": 36.560942792533055,
    "lng": 128.73740753601396,
    "region": "경상북도"
  },
  {
    "name": "중구(안동시립도서관 지하1층)",
    "address": "경상북도 안동시 태사길 78 (옥정동)",
    "lat": 36.56627209178474,
    "lng": 128.73532934782372,
    "region": "경상북도"
  },
  {
    "name": "(주)KT 안동지사 지하주차장 지하1층",
    "address": "경상북도 안동시 안기천로 86, KT안동지사 (당북동)",
    "lat": 36.56494557648535,
    "lng": 128.71754294072255,
    "region": "경상북도"
  },
  {
    "name": "안동대학교 본관 지하1층",
    "address": "경상북도 안동시 경동로 1375-0 (송천동)",
    "lat": 36.53964424839182,
    "lng": 128.79434164542823,
    "region": "경상북도"
  },
  {
    "name": "안동우체국 지하1층 식당",
    "address": "경상북도 안동시 경동로 560, 안동우체국 (당북동)",
    "lat": 36.563369223822974,
    "lng": 128.7189167662763,
    "region": "경상북도"
  },
  {
    "name": "성희여자고등학교 본관 지하1층",
    "address": "경상북도 안동시 강남로 246 (정하동, 성희여자고등학교)",
    "lat": 36.5527810680662,
    "lng": 128.72814143757515,
    "region": "경상북도"
  },
  {
    "name": "중구(안동의료원 지하1층 장례식장)",
    "address": "경상북도 안동시 태사2길 55 (북문동, 안동의료원)",
    "lat": 36.56763528091199,
    "lng": 128.7320592260284,
    "region": "경상북도"
  },
  {
    "name": "중구(보건소 지하1층 주차장)",
    "address": "경상북도 안동시 서동문로 165 (북문동, 안동시보건소)",
    "lat": 36.566875906356216,
    "lng": 128.73023524063538,
    "region": "경상북도"
  },
  {
    "name": "운안동 상일아파트(101동 지하 1층)",
    "address": "경상북도 안동시 새골2길 19-4, 101동 (운안동, 상일대자연맨션)",
    "lat": 36.572295556027285,
    "lng": 128.71374064789683,
    "region": "경상북도"
  },
  {
    "name": "안동농업협동조합 지하1층 식당",
    "address": "경상북도 안동시 제비원로 141, 안동농업협동조합 (당북동)",
    "lat": 36.564838554502366,
    "lng": 128.72045330877535,
    "region": "경상북도"
  },
  {
    "name": "태화동 동안교회 지하 1층",
    "address": "경상북도 안동시 태화1길 13-10, 동안교회 (태화동)",
    "lat": 36.56423550927147,
    "lng": 128.71344189291773,
    "region": "경상북도"
  },
  {
    "name": "KBS 지하1층",
    "address": "경상북도 안동시 감나무3길 27, KBS안동방송국 (태화동)",
    "lat": 36.56978247768953,
    "lng": 128.71128235562378,
    "region": "경상북도"
  },
  {
    "name": "용상 안동병원 지하 1층 주차장",
    "address": "경상북도 안동시 전거리길 57 (용상동, 안동병원아파트)",
    "lat": 36.56005846837079,
    "lng": 128.74421205169904,
    "region": "경상북도"
  },
  {
    "name": "경북도립 안동도서관 지하1층 시청각실",
    "address": "경상북도 안동시 안기천로 48, 경북도립안동도서관 (당북동)",
    "lat": 36.56156363269403,
    "lng": 128.7168878084974,
    "region": "경상북도"
  },
  {
    "name": "태화현대아파트 지하1층",
    "address": "경상북도 안동시 광명로 227 (태화동, 현대아파트)",
    "lat": 36.5645768504693,
    "lng": 128.70768375735335,
    "region": "경상북도"
  },
  {
    "name": "안동시청본관",
    "address": "경상북도 안동시 퇴계로 115 (명륜동, 안동시청)",
    "lat": 36.567885157135954,
    "lng": 128.73021448397262,
    "region": "경상북도"
  },
  {
    "name": "상일파크맨션 102동 3.5.6라인 지하1층 창고",
    "address": "경상북도 안동시 법상길 41-9 (법상동, 상일파크맨션)",
    "lat": 36.56865665948599,
    "lng": 128.7240572252342,
    "region": "경상북도"
  },
  {
    "name": "우정프라자 지하1층 주차장",
    "address": "경상북도 안동시 경동로 844 (용상동)",
    "lat": 36.56059361251312,
    "lng": 128.74901116299165,
    "region": "경상북도"
  },
  {
    "name": "화성아파트1동 지하주차장 1층",
    "address": "경상북도 안동시 퇴계로 259-0 (안막동)",
    "lat": 36.57990771205879,
    "lng": 128.73338202477407,
    "region": "경상북도"
  },
  {
    "name": "용상 현대아파트 11동 지하1층 주차장",
    "address": "경상북도 안동시 길주길 101-12 (용상동, 현대아파트)",
    "lat": 36.55480911962835,
    "lng": 128.7624187321254,
    "region": "경상북도"
  },
  {
    "name": "송현 우성아파트 1동~6동 지하1층",
    "address": "경상북도 안동시 합전길 12, 전동 (송현동, 송현동우성아파트)",
    "lat": 36.56893459282956,
    "lng": 128.6985611889352,
    "region": "경상북도"
  },
  {
    "name": "평화동 평화현대아파트(전동 지하 1층)",
    "address": "경상북도 안동시 감나무5길 15 (평화동, 평화현대아파트)",
    "lat": 36.56699508128056,
    "lng": 128.7119407650519,
    "region": "경상북도"
  },
  {
    "name": "농협중앙회광석동지점 지하주차장 지하1층",
    "address": "경상북도 안동시 서동문로 112, 농협중앙회 광석동지점 (광석동)",
    "lat": 36.566704735988495,
    "lng": 128.7241124331497,
    "region": "경상북도"
  },
  {
    "name": "송현 영남아파트 지하주차장 1층",
    "address": "경상북도 안동시 합전3길 33-22, 전동 (송현동, 영남아파트)",
    "lat": 36.57096356827851,
    "lng": 128.6981109818948,
    "region": "경상북도"
  },
  {
    "name": "평화동 대성맨션(전동 지하 1층)",
    "address": "경상북도 안동시 단원로 71-1 (운안동, 교육청직장조합아파트)",
    "lat": 36.571867411839165,
    "lng": 128.71159011361786,
    "region": "경상북도"
  },
  {
    "name": "안동대학교 공과대학 1호관 지하1층",
    "address": "경상북도 안동시 경동로 1375-0 (송천동)",
    "lat": 36.539645458341,
    "lng": 128.794345617276,
    "region": "경상북도"
  },
  {
    "name": "중구(백암재단 지하1층 주차장)",
    "address": "경상북도 안동시 서동문로 217 (법흥동)",
    "lat": 36.56560777242005,
    "lng": 128.73587117087317,
    "region": "경상북도"
  },
  {
    "name": "태화동 우성아파트 지하1층(101동, 105동)",
    "address": "경상북도 안동시 어가골윗길 10-3 (태화동, 우성아파트)",
    "lat": 36.558832971446,
    "lng": 128.7054404057388,
    "region": "경상북도"
  },
  {
    "name": "안막동현대아파트 지하주차장 1층",
    "address": "경상북도 안동시 퇴계로 220-16 (안막동)",
    "lat": 36.57692877073613,
    "lng": 128.73407367296437,
    "region": "경상북도"
  },
  {
    "name": "강남동(안동병원 전문요양센터)본관 지하1층",
    "address": "경상북도 안동시 뒨지게길 69 (정하동, 안동병원전문요양센터)",
    "lat": 36.58742423556285,
    "lng": 128.74185065422645,
    "region": "경상북도"
  },
  {
    "name": "옥동 삼성1차 아파트(1주차장 지하1층)",
    "address": "경상북도 안동시 옥광1길 17 (옥동, 옥동삼성1차아파트)",
    "lat": 36.56275869082936,
    "lng": 128.7041814449471,
    "region": "경상북도"
  },
  {
    "name": "옥동 삼성1차 아파트(2주차장 지하1층)",
    "address": "경상북도 안동시 옥광1길 17 (옥동, 옥동삼성1차아파트)",
    "lat": 36.56275869082936,
    "lng": 128.7041814449471,
    "region": "경상북도"
  },
  {
    "name": "용상 주공5아파트503동 지하1층 주차장",
    "address": "경상북도 안동시 경동로 977-6 (용상동, 5주공아파트)",
    "lat": 36.55342726200859,
    "lng": 128.76131926160204,
    "region": "경상북도"
  },
  {
    "name": "태화동 태성아파트 지하주차장 1층",
    "address": "경상북도 안동시 말구리길 87 (태화동, 태성드림하이츠)",
    "lat": 36.567264567641374,
    "lng": 128.70714208782957,
    "region": "경상북도"
  },
  {
    "name": "경안타운 101동 방면 지하주차장 지하1층",
    "address": "경상북도 안동시 제비원로 172 (금곡동, 경안타운)",
    "lat": 36.56767983748976,
    "lng": 128.72026042974755,
    "region": "경상북도"
  },
  {
    "name": "옥동 세영아파트(지하주차장 1층)",
    "address": "경상북도 안동시 복주1길 15 (옥동, 세영아파트)",
    "lat": 36.56087848685154,
    "lng": 128.69889623153446,
    "region": "경상북도"
  },
  {
    "name": "용상 주공6아파트5동지하1층 주차장",
    "address": "경상북도 안동시 경동로 977-5 (용상동, 주공본가타운)",
    "lat": 36.553574271000514,
    "lng": 128.76100462206645,
    "region": "경상북도"
  },
  {
    "name": "풍산읍행정복지센터(지하 1층)",
    "address": "경상북도 안동시 풍산읍 풍산중앙길 99 (풍산읍사무소)",
    "lat": 36.58000651834927,
    "lng": 128.57197107645786,
    "region": "경상북도"
  },
  {
    "name": "옥동 세영두레마을(지하주차장 1층)",
    "address": "경상북도 안동시 복주2길 25 (옥동, 두레마을아파트)",
    "lat": 36.562049620901846,
    "lng": 128.69913654172123,
    "region": "경상북도"
  },
  {
    "name": "안기대원아파트 지하주차장 1층",
    "address": "경상북도 안동시 안기1길 39 (안기동, 대원타운)",
    "lat": 36.57383523041493,
    "lng": 128.71722238893332,
    "region": "경상북도"
  },
  {
    "name": "안기우성아파트(전체동의 지하1층)",
    "address": "경상북도 안동시 영남길 32 (안기동, 우성아파트)",
    "lat": 36.57263437466915,
    "lng": 128.72097184392572,
    "region": "경상북도"
  },
  {
    "name": "안기 경동아파트(전체동의 지하1층)",
    "address": "경상북도 안동시 안기1길 40-62 (안기동, 경동아파트)",
    "lat": 36.57469488783868,
    "lng": 128.71588134395836,
    "region": "경상북도"
  },
  {
    "name": "안기 동아아파트 지하주차장 1층",
    "address": "경상북도 안동시 제비원로 268-7(안기동, 동아아파트)",
    "lat": 36.57619822119443,
    "lng": 128.7194115482624,
    "region": "경상북도"
  },
  {
    "name": "송현 청구하이츠 1차 지하주차장 1층",
    "address": "경상북도 안동시 송현길 84-28, 전동 (송현동, 청구송현하이츠1차)",
    "lat": 36.57379872362343,
    "lng": 128.69057847708697,
    "region": "경상북도"
  },
  {
    "name": "송현 삼성명가아파트 지하주차장 1층",
    "address": "경상북도 안동시 송현길 154-19, 전동 (송현동, 삼성명가타운1차아파트)",
    "lat": 36.57368969788388,
    "lng": 128.69255898059163,
    "region": "경상북도"
  },
  {
    "name": "송현 청구하이츠 2차 지하주차장 1층",
    "address": "경상북도 안동시 송현길 84-8 (송현동, 송현2차청구하이츠)",
    "lat": 36.574677946393614,
    "lng": 128.69056040115208,
    "region": "경상북도"
  },
  {
    "name": "안동교육지원청 지하1층 식당",
    "address": "경상북도 안동시 경동로 554, 안동교육지원청 (당북동)",
    "lat": 36.563391744805976,
    "lng": 128.71816171531785,
    "region": "경상북도"
  },
  {
    "name": "강남동(현진에버빌1차아파트)지하주차장 1층",
    "address": "경상북도 안동시 강남5길 102 (정하동, 현진에버빌1차아파트)",
    "lat": 36.550404361082585,
    "lng": 128.73055014962895,
    "region": "경상북도"
  },
  {
    "name": "농업기술센터본관 1층",
    "address": "경상북도 안동시 경동로 1484-10 (송천동)",
    "lat": 36.538057691682965,
    "lng": 128.80535630067513,
    "region": "경상북도"
  },
  {
    "name": "안동병원재활센터 지하1층 주차장",
    "address": "경상북도 안동시 경동로 830 (용상동, 안동여성병원)",
    "lat": 36.56121331048755,
    "lng": 128.7475312584251,
    "region": "경상북도"
  },
  {
    "name": "태화동 수산궁빌딩 지하주차장 1층",
    "address": "경상북도 안동시 대안로 18 (태화동, 현성빌딩)",
    "lat": 36.5653013842102,
    "lng": 128.71463360071206,
    "region": "경상북도"
  },
  {
    "name": "중구(두리원웨딩 지하1층 주차장)",
    "address": "경상북도 안동시 육사로 267 (운흥동, 두리원예식장)",
    "lat": 36.56038783189726,
    "lng": 128.73383354112394,
    "region": "경상북도"
  },
  {
    "name": "경북교육과학연구원 지하1층",
    "address": "경상북도 안동시 강남로 152 (정하동, 경상북도교육연구원)",
    "lat": 36.55134069206436,
    "lng": 128.71799669508184,
    "region": "경상북도"
  },
  {
    "name": "경북도립노인전문요양병원(신관 지하1층)",
    "address": "경상북도 안동시 남후면 남일로 1463",
    "lat": 36.52271035845809,
    "lng": 128.6890843238475,
    "region": "경상북도"
  },
  {
    "name": "옥동 3주공아파트(1주차장 지하1층)",
    "address": "경상북도 안동시 은행나무로 106-6 (옥동, 옥동3주공아파트)",
    "lat": 36.56765386891437,
    "lng": 128.69603614002267,
    "region": "경상북도"
  },
  {
    "name": "옥동 3주공아파트(2주차장 지하1층)",
    "address": "경상북도 안동시 은행나무로 106-6 (옥동, 옥동3주공아파트)",
    "lat": 36.56765386891437,
    "lng": 128.69603614002267,
    "region": "경상북도"
  },
  {
    "name": "태화동 안동롯데캐슬아파트 지하주차장 1층",
    "address": "경상북도 안동시 경북대로 340 (태화동, 안동롯데캐슬아파트)",
    "lat": 36.56039193911752,
    "lng": 128.7039327272062,
    "region": "경상북도"
  },
  {
    "name": "송현 이안아파트 지하주차장 1,2층",
    "address": "경상북도 안동시 송현길 23, 전동 (송현동, 안동송현이안)",
    "lat": 36.57525263786168,
    "lng": 128.68705696932733,
    "region": "경상북도"
  },
  {
    "name": "화성드림파크 지하주차장 1층",
    "address": "경상북도 안동시 강남1길 108 (정하동, 화성드림파크)",
    "lat": 36.54886080669458,
    "lng": 128.73322174327657,
    "region": "경상북도"
  },
  {
    "name": "옥동 세영첼시빌 지하1층",
    "address": "경상북도 안동시 광명로 133 (옥동, 세영첼시빌아파트)",
    "lat": 36.56040984096841,
    "lng": 128.69877755116707,
    "region": "경상북도"
  },
  {
    "name": "옥동 7주공(703-705동 지하1층)",
    "address": "경상북도 안동시 옥서1길 25 (옥동, 옥동7주공아파트)",
    "lat": 36.561255502377925,
    "lng": 128.6964340851751,
    "region": "경상북도"
  },
  {
    "name": "운안동 명성한마음타운(전동 지하 1층)",
    "address": "경상북도 안동시 단원로 81-8 (운안동, 명성한마음아파트)",
    "lat": 36.57220944672149,
    "lng": 128.71256253246514,
    "region": "경상북도"
  },
  {
    "name": "안동문화예술의전당 체육시설 지하2층 배드민턴장",
    "address": "경상북도 안동시 축제장길 66, 안동문화예술의전당 (안흥동)",
    "lat": 36.55950215236288,
    "lng": 128.72454720104398,
    "region": "경상북도"
  },
  {
    "name": "운안동 대원한숲타운(전동 지하 1층)",
    "address": "경상북도 안동시 한화길 37 (운안동, 대원한숲타운)",
    "lat": 36.57288734630042,
    "lng": 128.71588005157344,
    "region": "경상북도"
  },
  {
    "name": "안기 세영아파트 지하주차장 1층",
    "address": "경상북도 안동시 제비원로 373(안기동, 안기세영아파트)",
    "lat": 36.58440321288847,
    "lng": 128.7142318848638,
    "region": "경상북도"
  },
  {
    "name": "중구(홈플러스 안동점 지하1층 주차장)",
    "address": "경상북도 안동시 경동로 656 (남문동)",
    "lat": 36.562871238566544,
    "lng": 128.72957077015548,
    "region": "경상북도"
  },
  {
    "name": "안동센트럴자이 전체 동의 지하주차장 지하1층",
    "address": "경상북도 안동시 배움길 77 (당북동, 안동센트럴자이)",
    "lat": 36.56104433694894,
    "lng": 128.71813634601625,
    "region": "경상북도"
  },
  {
    "name": "브라운스톤 태화1단지 지하주차장 1층",
    "address": "경상북도 안동시 말구리길 50 (태화동, 브라운스톤태화1단지)",
    "lat": 36.56617244851175,
    "lng": 128.70605953776797,
    "region": "경상북도"
  },
  {
    "name": "옥동 호반베르디움(전동 지하1층)",
    "address": "경상북도 안동시 옥서1길 70-0 (옥동, 안동옥동호반베르디움)",
    "lat": 36.56120223090596,
    "lng": 128.69386273178182,
    "region": "경상북도"
  },
  {
    "name": "브라운스톤 태화2단지 지하주차장 1층",
    "address": "경상북도 안동시 말구리2길 55 (태화동, 브라운스톤태화2단지)",
    "lat": 36.56684086508504,
    "lng": 128.70441350591207,
    "region": "경상북도"
  },
  {
    "name": "옥동 효성해링턴플레이스(전동 지하1층)",
    "address": "경상북도 안동시 경북대로 438 (옥동, 옥동효성해링턴플레이스)",
    "lat": 36.567835543350334,
    "lng": 128.69929050497046,
    "region": "경상북도"
  },
  {
    "name": "옥동 휴먼시아8단지(전동 지하1층)",
    "address": "경상북도 안동시 옥서1길 90 (옥동, 옥동휴먼시아8단지)",
    "lat": 36.56177877789834,
    "lng": 128.69253329625604,
    "region": "경상북도"
  },
  {
    "name": "용상세영아파트103동 지하1층 주차장",
    "address": "경상북도 안동시 중평길 39 (용상동, 안동세영리첼아파트)",
    "lat": 36.55518834949384,
    "lng": 128.75252915941675,
    "region": "경상북도"
  },
  {
    "name": "계림플러스아파트 지하주차장 1층",
    "address": "경상북도 안동시 퇴계로 233-22 (안막동, 계림플러스)",
    "lat": 36.57856179939695,
    "lng": 128.7322147568252,
    "region": "경상북도"
  },
  {
    "name": "안동상록아파트 지하주차장 1,2층",
    "address": "경상북도 안동시 풍천면 검무로 41 (안동상록아파트)",
    "lat": 36.5779280381047,
    "lng": 128.496633501895,
    "region": "경상북도"
  },
  {
    "name": "코오롱하늘채 아파트 지하주차장 1,2층",
    "address": "경상북도 안동시 풍천면 검무로 35-14 (경북도청신도시 코오롱하늘채)",
    "lat": 36.5790813640718,
    "lng": 128.496058078554,
    "region": "경상북도"
  },
  {
    "name": "코아루프라임시티1차",
    "address": "경상북도 안동시 풍천면 천년숲동로 46, 경북도청이전신도시 코아루프라임시티",
    "lat": 36.5729674977333,
    "lng": 128.507044433552,
    "region": "경상북도"
  },
  {
    "name": "고아농업협동조합",
    "address": "경상북도 구미시 고아읍 선산대로 979",
    "lat": 36.21022352759211,
    "lng": 128.32829780877572,
    "region": "경상북도"
  },
  {
    "name": "리마트구미점 지하주차장 1층",
    "address": "경상북도 구미시 구미중앙로11길 18 (원평동)",
    "lat": 36.13064343669034,
    "lng": 128.33106652374897,
    "region": "경상북도"
  },
  {
    "name": "영남상가주차장",
    "address": "경상북도 구미시 산업로2길 52-2 (원평동)",
    "lat": 36.13044241628724,
    "lng": 128.32956886803123,
    "region": "경상북도"
  },
  {
    "name": "청솔타운 지하주차장 1층",
    "address": "경상북도 구미시 고아읍 들성로11길 46-7 (청솔타운)",
    "lat": 36.16526701302814,
    "lng": 128.3473862639723,
    "region": "경상북도"
  },
  {
    "name": "옥성면행정복지센터 지하1층",
    "address": "경상북도 구미시 옥성면 주아령로 415 (옥성면사무소)",
    "lat": 36.29576710285686,
    "lng": 128.27881688930293,
    "region": "경상북도"
  },
  {
    "name": "금오골든타워 지하주차장 1층",
    "address": "경상북도 구미시 고아읍 지산25길 8 (금오골든타워)",
    "lat": 36.147953214166094,
    "lng": 128.3480958848259,
    "region": "경상북도"
  },
  {
    "name": "괴평무지개아파트 지하주차장 1층",
    "address": "경상북도 구미시 고아읍 송평구길 62 (괴평무지개아파트)",
    "lat": 36.16927662649856,
    "lng": 128.36737981460567,
    "region": "경상북도"
  },
  {
    "name": "삼우힐타운 지하주차장 1층",
    "address": "경상북도 구미시 고아읍 선산대로 610 (삼우힐타운)",
    "lat": 36.18338029358431,
    "lng": 128.35025845655494,
    "region": "경상북도"
  },
  {
    "name": "광평동 행정복지센터(지하 1층)",
    "address": "경상북도 구미시 광평길 55 (광평동)",
    "lat": 36.10462259286714,
    "lng": 128.36607073781042,
    "region": "경상북도"
  },
  {
    "name": "전원리빙필(비산) (지하1층주차장)",
    "address": "경상북도 구미시 비산로1길 4 (비산동, 비산전원리빙필)",
    "lat": 36.11981907749038,
    "lng": 128.37409084273838,
    "region": "경상북도"
  },
  {
    "name": "원호한누리타운3단지 지하주차장 1층",
    "address": "경상북도 구미시 고아읍 문장로22길 33 (원호한누리타운3단지)",
    "lat": 36.15169718954333,
    "lng": 128.33228019907386,
    "region": "경상북도"
  },
  {
    "name": "구미원호대우아파트 지하주차장 1층",
    "address": "경상북도 구미시 고아읍 문장로26길 11 (구미원호대우아파트)",
    "lat": 36.15233074943772,
    "lng": 128.33095560536376,
    "region": "경상북도"
  },
  {
    "name": "고아에덴타운 지하주차장 1층",
    "address": "경상북도 구미시 고아읍 선산대로 1220 (고아에덴타운)",
    "lat": 36.22539914654768,
    "lng": 128.31067039267668,
    "region": "경상북도"
  },
  {
    "name": "숭강빌딩",
    "address": "경상북도 구미시 구미중앙로 111 (원평동)",
    "lat": 36.12765771707962,
    "lng": 128.33463104541335,
    "region": "경상북도"
  },
  {
    "name": "두산맨션 지하주차장 1층",
    "address": "경상북도 구미시 산업로 320-12 (원평동, 두산맨션)",
    "lat": 36.12144374502835,
    "lng": 128.35402675478684,
    "region": "경상북도"
  },
  {
    "name": "삼우궁전맨션 지하주차장 1층",
    "address": "경상북도 구미시 구미중앙로27길 24 (원평동, 삼우궁전맨션)",
    "lat": 36.1260766651205,
    "lng": 128.34279550629992,
    "region": "경상북도"
  },
  {
    "name": "비산동 행정복지센터 (지하1층대피소)",
    "address": "경상북도 구미시 비산로 4, 비산동행정복지센터 (공단동)",
    "lat": 36.11937783766804,
    "lng": 128.37221095889157,
    "region": "경상북도"
  },
  {
    "name": "엘지유니참(주) (4동 지하1층)",
    "address": "경상북도 구미시 수출대로 97 (공단동)",
    "lat": 36.11107993709822,
    "lng": 128.37502874258809,
    "region": "경상북도"
  },
  {
    "name": "한국산업단지공단 대구경북지역본부(지하1층식당)",
    "address": "경상북도 구미시 수출대로 127 (공단동)",
    "lat": 36.11109607405506,
    "lng": 128.378339325821,
    "region": "경상북도"
  },
  {
    "name": "(주)피앤큐텍 2공장(지하1층 )",
    "address": "경상북도 구미시 수출대로9길 16 (공단동)",
    "lat": 36.11235099662986,
    "lng": 128.38013004530453,
    "region": "경상북도"
  },
  {
    "name": "구미세무서(지하1층)",
    "address": "경상북도 구미시 수출대로 179 (공단동, 구미세무서)",
    "lat": 36.11110034432725,
    "lng": 128.38411525217992,
    "region": "경상북도"
  },
  {
    "name": "오성전자(지하1층 식당)",
    "address": "경상북도 구미시 산호대로 335-4 (공단동, (주)오성전자)",
    "lat": 36.11372358298592,
    "lng": 128.3851925358659,
    "region": "경상북도"
  },
  {
    "name": "한국도로공사 구미지사 지하1층",
    "address": "경상북도 구미시 구미중앙로 350-28 (신평동)",
    "lat": 36.11687105650458,
    "lng": 128.3596706154748,
    "region": "경상북도"
  },
  {
    "name": "구미시청 민방위대피소 지하 1층",
    "address": "경상북도 구미시 송정대로 55, 구미시청 (송정동)",
    "lat": 36.1202777,
    "lng": 128.3447222,
    "region": "경상북도"
  },
  {
    "name": "송정지하도 지하 1층",
    "address": "경상북도 구미시 백산로 지하 84 (송정동, 송정지하도)",
    "lat": 36.12054677113852,
    "lng": 128.3424452505421,
    "region": "경상북도"
  },
  {
    "name": "문화예술회관 지하 1층",
    "address": "경상북도 구미시 송정대로 89 (송정동)",
    "lat": 36.11801679793551,
    "lng": 128.34889208365357,
    "region": "경상북도"
  },
  {
    "name": "KT구미지사 지하주차장 1층",
    "address": "경상북도 구미시 송원서로 14 (송정동)",
    "lat": 36.11900651285406,
    "lng": 128.34299728573993,
    "region": "경상북도"
  },
  {
    "name": "구미우체국 지하 1층",
    "address": "경상북도 구미시 송원서로 6 (송정동)",
    "lat": 36.1183026510568,
    "lng": 128.34292933743453,
    "region": "경상북도"
  },
  {
    "name": "우방타운1차아파트(5동)",
    "address": "경상북도 구미시 백산로 186, 5동 (송정동, 우방타운1차)",
    "lat": 36.11616492265466,
    "lng": 128.35155369266425,
    "region": "경상북도"
  },
  {
    "name": "우방타운1차아파트(6동)",
    "address": "경상북도 구미시 백산로 183, 6동 (송정동, 우방타운1차)",
    "lat": 36.11635889153957,
    "lng": 128.35169752928908,
    "region": "경상북도"
  },
  {
    "name": "우방2차아파트 지하주차장 1층",
    "address": "경상북도 구미시 박정희로 511 (송정동, 우방타운)",
    "lat": 36.12143731264788,
    "lng": 128.3481604027954,
    "region": "경상북도"
  },
  {
    "name": "구미상공회의소 지하 1층",
    "address": "경상북도 구미시 송정대로 120 (송정동, 구미상공회의소)",
    "lat": 36.1171506818293,
    "lng": 128.35160873904192,
    "region": "경상북도"
  },
  {
    "name": "우방타운1차아파트(11동)",
    "address": "경상북도 구미시 백산로 183, 11동 (송정동, 우방타운1차)",
    "lat": 36.11635889153957,
    "lng": 128.35169752928908,
    "region": "경상북도"
  },
  {
    "name": "우방타운1차아파트(12동)",
    "address": "경상북도 구미시 백산로 183, 12동 (송정동, 우방타운1차)",
    "lat": 36.11635889153957,
    "lng": 128.35169752928908,
    "region": "경상북도"
  },
  {
    "name": "혜성아파트 3동 지하 1층",
    "address": "경상북도 구미시 박정희로 525, 3동 (송정동, 혜성골드타운)",
    "lat": 36.1218637673214,
    "lng": 128.3466800592507,
    "region": "경상북도"
  },
  {
    "name": "혜성아파트 지하주차장 1층",
    "address": "경상북도 구미시 박정희로 525 (송정동, 혜성골드타운)",
    "lat": 36.1218637673214,
    "lng": 128.3466800592507,
    "region": "경상북도"
  },
  {
    "name": "한가람빌리지 가동 지하 1층",
    "address": "경상북도 구미시 백산로5길 6, 가동 (송정동, 한가람빌리지)",
    "lat": 36.12095658737816,
    "lng": 128.34399367072453,
    "region": "경상북도"
  },
  {
    "name": "한솔아파트 지하주차장 1층",
    "address": "경상북도 구미시 박정희로 545 (송정동, 한솔아파트)",
    "lat": 36.12242459388507,
    "lng": 128.34459216004032,
    "region": "경상북도"
  },
  {
    "name": "동양한신아파트 지하주차장 1층",
    "address": "경상북도 구미시 백산로 153 (송정동, 동양한신아파트)",
    "lat": 36.11869904967643,
    "lng": 128.3497554722436,
    "region": "경상북도"
  },
  {
    "name": "대원빌딩 지하주차장 1층",
    "address": "경상북도 구미시 금오시장로1길 4 (원평동, 대원빌딩)",
    "lat": 36.12555727278506,
    "lng": 128.33995415210646,
    "region": "경상북도"
  },
  {
    "name": "구미종합터미널 지하 1층",
    "address": "경상북도 구미시 송원동로 72 (원평동, 종합버스터미널)",
    "lat": 36.12266943225363,
    "lng": 128.35194596793346,
    "region": "경상북도"
  },
  {
    "name": "구미보건소(지하 1층)",
    "address": "경상북도 구미시 선산대로 111 (지산동, 구미시의료센터)",
    "lat": 36.139893393746576,
    "lng": 128.34606926439054,
    "region": "경상북도"
  },
  {
    "name": "지산새마을금고 본점(지하 1층)",
    "address": "경상북도 구미시 선산대로 163-1 (지산동)",
    "lat": 36.14463509377286,
    "lng": 128.34744325621733,
    "region": "경상북도"
  },
  {
    "name": "파크맨션(P-3 지하주차장) 1층",
    "address": "경상북도 구미시 송동로 154 (도량동, 파크맨션)",
    "lat": 36.14627462043018,
    "lng": 128.32337636304842,
    "region": "경상북도"
  },
  {
    "name": "공단지하도 지하1층",
    "address": "경상북도 구미시 1공단로 196 (공단동)",
    "lat": 36.10184901488438,
    "lng": 128.38444546917225,
    "region": "경상북도"
  },
  {
    "name": "근로자종합복지회관 지하1층",
    "address": "경상북도 구미시 산호대로 239 (공단동)",
    "lat": 36.10503945703888,
    "lng": 128.3842044878185,
    "region": "경상북도"
  },
  {
    "name": "순천향대학교 구미병원 본관 지하1층",
    "address": "경상북도 구미시 1공단로 179 (공단동, 구미순천향병원)",
    "lat": 36.10230223968313,
    "lng": 128.38273808905106,
    "region": "경상북도"
  },
  {
    "name": "한화시스템 본관동 지하1층",
    "address": "경상북도 구미시 1공단로 244 (공단동)",
    "lat": 36.10190187005787,
    "lng": 128.38975042674355,
    "region": "경상북도"
  },
  {
    "name": "코오롱인더스트리 1식당 지하1층",
    "address": "경상북도 구미시 수출대로 48 (공단동, 코오롱)",
    "lat": 36.11070673677144,
    "lng": 128.3695495815305,
    "region": "경상북도"
  },
  {
    "name": "두산맨션(지하주차장 1층)",
    "address": "경상북도 구미시 문장로 121-14 (도량동, 도량두산맨션)",
    "lat": 36.14402526454352,
    "lng": 128.3298661425724,
    "region": "경상북도"
  },
  {
    "name": "삼성SDI 구미사업장 (24동 물류동 지하1층)",
    "address": "경상북도 구미시 구미대로 58 (공단동, 삼성SDI구미사업장)",
    "lat": 36.091687535595575,
    "lng": 128.36211120940712,
    "region": "경상북도"
  },
  {
    "name": "구미소방서 지하1층",
    "address": "경상북도 구미시 수출대로 112 (공단동, 구미소방서)",
    "lat": 36.11060572087673,
    "lng": 128.3765629448968,
    "region": "경상북도"
  },
  {
    "name": "공단동행정복지센터 지하1층",
    "address": "경상북도 구미시 1공단로 198-8, 공단동 행정복지센터 (공단동)",
    "lat": 36.10141167406924,
    "lng": 128.3845594269109,
    "region": "경상북도"
  },
  {
    "name": "블루큐브케미칼코리아유한회사(사무동) 지하1층",
    "address": "경상북도 구미시 1공단로4길 96 (공단동, 블루큐브케미칼코리아(유)구미공장)",
    "lat": 36.09344816002808,
    "lng": 128.37038262046542,
    "region": "경상북도"
  },
  {
    "name": "임은대동타운 지하주차장 1층",
    "address": "경상북도 구미시 임은길 55-2, 지하1층 (임은동, 대동타운)",
    "lat": 36.08895828710734,
    "lng": 128.3686823082512,
    "region": "경상북도"
  },
  {
    "name": "오태늘푸른아파트 지하주차장 1층",
    "address": "경상북도 구미시 금오대로5길 8-7, 지하1층 (오태동, 오태늘푸른아파트)",
    "lat": 36.07224289514124,
    "lng": 128.34905392121382,
    "region": "경상북도"
  },
  {
    "name": "대원가든타운1차 지하주차장 1층",
    "address": "경상북도 구미시 금오대로22길 29-26, 대원가든타운1차 지하1층 (오태동)",
    "lat": 36.07028019791039,
    "lng": 128.35493300060068,
    "region": "경상북도"
  },
  {
    "name": "대동2차행복타운 지하주차장 1층",
    "address": "경상북도 구미시 금오대로10길 47, 지하1층 (오태동, 행복타운)",
    "lat": 36.06765149983639,
    "lng": 128.3523989236726,
    "region": "경상북도"
  },
  {
    "name": "대원가든타운2차 지하주차장 1층",
    "address": "경상북도 구미시 금오대로14길 29, 대원가든타운2차 지하1층 (오태동)",
    "lat": 36.070040427484216,
    "lng": 128.35209931279863,
    "region": "경상북도"
  },
  {
    "name": "대동타운3차 지하주차장 1층",
    "address": "경상북도 구미시 금오대로14길 12, 지하1층 (오태동, 오태3차 대동타운)",
    "lat": 36.07078627427114,
    "lng": 128.3504821128429,
    "region": "경상북도"
  },
  {
    "name": "신한그린타운 지하주차장 1층",
    "address": "경상북도 구미시 금오대로12길 43, 지하1층 (오태동, 오태신한그린타운2차 102동)",
    "lat": 36.06836525866012,
    "lng": 128.35328814052008,
    "region": "경상북도"
  },
  {
    "name": "화진금봉3차아파트 지하주차장 1층",
    "address": "경상북도 구미시 검성로 103-48 (황상동, 화진금봉타운)",
    "lat": 36.11963130266621,
    "lng": 128.43186515862192,
    "region": "경상북도"
  },
  {
    "name": "인의푸르지오아파트 지하주차장 1층",
    "address": "경상북도 구미시 인동35길 33 (인의동, 구미인의푸르지오)",
    "lat": 36.09756278346423,
    "lng": 128.43397971672957,
    "region": "경상북도"
  },
  {
    "name": "화진금봉4차아파트 지하주차장 1층",
    "address": "경상북도 구미시 검성로 103-40 (황상동, 금봉타운)",
    "lat": 36.11890628946965,
    "lng": 128.4315681622096,
    "region": "경상북도"
  },
  {
    "name": "화진금봉5차아파트 지하주차장 1층",
    "address": "경상북도 구미시 검성로 103-53 (황상동, 화진금봉타운)",
    "lat": 36.12007009159261,
    "lng": 128.43181847500776,
    "region": "경상북도"
  },
  {
    "name": "케이브이머티리얼즈(주) 기숙사 지하 1층",
    "address": "경상북도 구미시 3공단3로 242, 케이브이머티리얼즈 (진평동)",
    "lat": 36.1021031140815,
    "lng": 128.41074146120494,
    "region": "경상북도"
  },
  {
    "name": "올림픽기념국민생활관 지하1층",
    "address": "경상북도 구미시 산책길 63, 올림픽기념국민생활관 (원평동)",
    "lat": 36.123677692654894,
    "lng": 128.32928858834617,
    "region": "경상북도"
  },
  {
    "name": "경상북도교육청 구미도서관 지하1층",
    "address": "경상북도 구미시 산책길 41-0 (원평동)",
    "lat": 36.124199386312114,
    "lng": 128.3315238077427,
    "region": "경상북도"
  },
  {
    "name": "동양산업 기숙사 지하 1층",
    "address": "경상북도 구미시 옥계2공단로5길 14 (구포동)",
    "lat": 36.130898791831406,
    "lng": 128.41489465688844,
    "region": "경상북도"
  },
  {
    "name": "원평대동타운 지하주차장 1층",
    "address": "경상북도 구미시 원남로4길 5-0 (원평동, 대동타운)",
    "lat": 36.12773201299821,
    "lng": 128.3278000212551,
    "region": "경상북도"
  },
  {
    "name": "청산빌라 지하주차장 1층",
    "address": "경상북도 구미시 원남로 51 (원평동)",
    "lat": 36.1288550446852,
    "lng": 128.32673613926517,
    "region": "경상북도"
  },
  {
    "name": "대백타운 지하주차장 1층",
    "address": "경상북도 구미시 흥안로 63 (옥계동, 대백타운)",
    "lat": 36.14748194140654,
    "lng": 128.41158380160238,
    "region": "경상북도"
  },
  {
    "name": "두산그린맨션 지하주차장 1층",
    "address": "경상북도 구미시 선기로1길 21 (남통동, 그린두산맨션)",
    "lat": 36.12882272484313,
    "lng": 128.31940992365742,
    "region": "경상북도"
  },
  {
    "name": "옥계 대동 한마음타운 지하주차장 1층",
    "address": "경상북도 구미시 흥안로 75 (옥계동, 대동한마음타운)",
    "lat": 36.14776167736849,
    "lng": 128.41023079852835,
    "region": "경상북도"
  },
  {
    "name": "에덴타운 지하주차장 1층~2층",
    "address": "경상북도 구미시 흥안로 46 (옥계동, 에덴타운)",
    "lat": 36.14779803780736,
    "lng": 128.41355475258916,
    "region": "경상북도"
  },
  {
    "name": "동방주택6차 지하주차장 1층",
    "address": "경상북도 구미시 원남로2길 9 (남통동)",
    "lat": 36.130455282026425,
    "lng": 128.32120009512215,
    "region": "경상북도"
  },
  {
    "name": "옥계동화타운 지하주차장 1층",
    "address": "경상북도 구미시 흥안로 43 (옥계동, 동화타운)",
    "lat": 36.14723982463151,
    "lng": 128.41377750139165,
    "region": "경상북도"
  },
  {
    "name": "부영1차아파트 지하주차장 1층",
    "address": "경상북도 구미시 산호대로25길 53 (옥계동, 부영아파트1차)",
    "lat": 36.14111293761358,
    "lng": 128.41771223648465,
    "region": "경상북도"
  },
  {
    "name": "금오청구타운 지하주차장 1~2층",
    "address": "경상북도 구미시 원남로 12-13 (남통동, 금오청구타운)",
    "lat": 36.12935362911496,
    "lng": 128.32237148914274,
    "region": "경상북도"
  },
  {
    "name": "해피맘산부인과",
    "address": "경상북도 구미시 신시로 74 (형곡동)",
    "lat": 36.11434501548708,
    "lng": 128.3395244876271,
    "region": "경상북도"
  },
  {
    "name": "부영2차아파트 지하주차장 1층",
    "address": "경상북도 구미시 산호대로25길 39 (옥계동, 부영아파트)",
    "lat": 36.140671607960485,
    "lng": 128.41643641420137,
    "region": "경상북도"
  },
  {
    "name": "성원아파트 지하주차장 1층~3층",
    "address": "경상북도 구미시 옥계2공단로 264-11 (구포동, 성원아파트)",
    "lat": 36.12873038326647,
    "lng": 128.41721258485848,
    "region": "경상북도"
  },
  {
    "name": "형곡1동행정복지센터 지하 1층",
    "address": "경상북도 구미시 경은로 52 (형곡동)",
    "lat": 36.11390506189303,
    "lng": 128.33442506706024,
    "region": "경상북도"
  },
  {
    "name": "형곡볼링장",
    "address": "경상북도 구미시 형곡중앙로 10 (형곡동)",
    "lat": 36.11181929484,
    "lng": 128.33314147786442,
    "region": "경상북도"
  },
  {
    "name": "선산읍 행정복지센터 지하1층",
    "address": "경상북도 구미시 선산읍 선산중앙로 71-1 (선산읍사무소)",
    "lat": 36.24289512246325,
    "lng": 128.29897019244513,
    "region": "경상북도"
  },
  {
    "name": "구미차병원(장례식장) 지하 1층",
    "address": "경상북도 구미시 신시로10길 12-0 (형곡동)",
    "lat": 36.11460896982777,
    "lng": 128.34006031867227,
    "region": "경상북도"
  },
  {
    "name": "삼우형구타운 지하주차장 1층",
    "address": "경상북도 구미시 경은로 8-5 (형곡동)",
    "lat": 36.11549133454162,
    "lng": 128.3379488253114,
    "region": "경상북도"
  },
  {
    "name": "진흥빌라트",
    "address": "경상북도 구미시 형곡로5길 18 (형곡동)",
    "lat": 36.11474844390757,
    "lng": 128.33496110484853,
    "region": "경상북도"
  },
  {
    "name": "대동빌라트 지하주차장 1~2층",
    "address": "경상북도 구미시 신시로8길 7-6 (형곡동)",
    "lat": 36.11384167282414,
    "lng": 128.34004455424093,
    "region": "경상북도"
  },
  {
    "name": "신세계아파트 지하주차장 1층",
    "address": "경상북도 구미시 형곡중앙로 51-0 (형곡동)",
    "lat": 36.11157101197479,
    "lng": 128.3372640561576,
    "region": "경상북도"
  },
  {
    "name": "동부늘푸른아파트 지하주차장 1층",
    "address": "경상북도 구미시 형곡로 53 (형곡동)",
    "lat": 36.11570932884238,
    "lng": 128.33364341651577,
    "region": "경상북도"
  },
  {
    "name": "무궁화아파트 지하주차장 1층",
    "address": "경상북도 구미시 형곡로10길 39-16 (형곡동)",
    "lat": 36.11708640691991,
    "lng": 128.32755211231645,
    "region": "경상북도"
  },
  {
    "name": "형곡4주공아파트 지하 1층",
    "address": "경상북도 구미시 신시로 37 (형곡동)",
    "lat": 36.11129495260284,
    "lng": 128.33913344419005,
    "region": "경상북도"
  },
  {
    "name": "삼우맨션(902동) 지하 1층",
    "address": "경상북도 구미시 형곡로41길 16-1 (형곡동)",
    "lat": 36.110188190260544,
    "lng": 128.3408706033314,
    "region": "경상북도"
  },
  {
    "name": "협진골든맨션 지하주차장 1층",
    "address": "경상북도 구미시 신시로4길 9 (형곡동, 골든맨션)",
    "lat": 36.11031630002415,
    "lng": 128.34015110820042,
    "region": "경상북도"
  },
  {
    "name": "다원빌라(A,B,C동) 지하 1층",
    "address": "경상북도 구미시 형곡로19길 8-15 (형곡동)",
    "lat": 36.109394052258224,
    "lng": 128.33304623835835,
    "region": "경상북도"
  },
  {
    "name": "선산출장소 지하1층",
    "address": "경상북도 구미시 선산읍 선산중앙로 83-2",
    "lat": 36.24331526939911,
    "lng": 128.3002281575421,
    "region": "경상북도"
  },
  {
    "name": "대성맨션 지하 1층",
    "address": "경상북도 구미시 형곡로19길 10 (형곡동, 대성맨션)",
    "lat": 36.1104957664913,
    "lng": 128.3331547355005,
    "region": "경상북도"
  },
  {
    "name": "동산그린빌라 지하주차장 1층",
    "address": "경상북도 구미시 형곡동로6길 16-9 (형곡동, 동산그린빌라)",
    "lat": 36.10483097904516,
    "lng": 128.33774481182624,
    "region": "경상북도"
  },
  {
    "name": "미성빌라 A,B동 지하 1층",
    "address": "경상북도 구미시 형곡로28길 5-17 (형곡동)",
    "lat": 36.10644329383963,
    "lng": 128.33423548731326,
    "region": "경상북도"
  },
  {
    "name": "농업기술센터 지하1층",
    "address": "경상북도 구미시 선산읍 김선로 963 (구미시농업기술센터)",
    "lat": 36.23330716008994,
    "lng": 128.29018072465217,
    "region": "경상북도"
  },
  {
    "name": "동우아파트 지하 1층 주차장",
    "address": "경상북도 구미시 선산읍 동교3길 20-1",
    "lat": 36.24719769000028,
    "lng": 128.30123196121943,
    "region": "경상북도"
  },
  {
    "name": "세원아파트 지하 1층 주차장",
    "address": "경상북도 구미시 선산읍 선주로 15-0",
    "lat": 36.23902661008445,
    "lng": 128.29282047513553,
    "region": "경상북도"
  },
  {
    "name": "삼우궁전맨션 지하 1층",
    "address": "경상북도 구미시 해평면 강동로 1655-1 (삼우궁전맨션)",
    "lat": 36.19824867148781,
    "lng": 128.3912540350946,
    "region": "경상북도"
  },
  {
    "name": "경운대학교 2호관 학생식당 지하 2층",
    "address": "경상북도 구미시 산동읍 강동로 730, 경운대학교",
    "lat": 36.16658916154073,
    "lng": 128.46773069324425,
    "region": "경상북도"
  },
  {
    "name": "한울아파트 지하주차장 1층",
    "address": "경상북도 구미시 장천면 강동로 207-9, 한울아파트",
    "lat": 36.12722201189264,
    "lng": 128.4934001927496,
    "region": "경상북도"
  },
  {
    "name": "무지개2차 지하 1층",
    "address": "경상북도 구미시 형곡서로1길 17 (형곡동, 무지개2차APT)",
    "lat": 36.10632892004119,
    "lng": 128.33290444961168,
    "region": "경상북도"
  },
  {
    "name": "태성맨션 102동 지하 1층",
    "address": "경상북도 구미시 형곡로27길 18 (형곡동, 태성맨션)",
    "lat": 36.10909867049338,
    "lng": 128.3336150508999,
    "region": "경상북도"
  },
  {
    "name": "진주맨션2차 지하주차장 2층",
    "address": "경상북도 구미시 형곡동로2길 5-7 (형곡동, 도시주택진주맨션2차)",
    "lat": 36.10381843776404,
    "lng": 128.3365694939854,
    "region": "경상북도"
  },
  {
    "name": "대원로얄타운 지하주차장 1층",
    "address": "경상북도 구미시 형곡로39길 4 (형곡동, 대원로얄타운)",
    "lat": 36.1086643202112,
    "lng": 128.34000044421927,
    "region": "경상북도"
  },
  {
    "name": "형곡삼우타운 지하주차장 1층",
    "address": "경상북도 구미시 형곡로33길 46 (형곡동, 형곡삼우타운)",
    "lat": 36.11037340670881,
    "lng": 128.33879917379704,
    "region": "경상북도"
  },
  {
    "name": "이구로얄2차맨션 지하주차장 1층",
    "address": "경상북도 구미시 형곡동로 81 (형곡동, 이구로얄2차아파트)",
    "lat": 36.109368324679416,
    "lng": 128.3359287722989,
    "region": "경상북도"
  },
  {
    "name": "정우공원맨션 14차 지하주차장 1층",
    "address": "경상북도 구미시 형곡로32길 17 (형곡동)",
    "lat": 36.10554726609968,
    "lng": 128.3376999824819,
    "region": "경상북도"
  },
  {
    "name": "두산맨션 지하주차장 1층",
    "address": "경상북도 구미시 형곡동로4길 5-3 (형곡동)",
    "lat": 36.10454327467136,
    "lng": 128.33658193821125,
    "region": "경상북도"
  },
  {
    "name": "강변보성타운(301,302,303동 지하1층주차장)",
    "address": "경상북도 구미시 산호대로 423 (비산동, 강변보성타운)",
    "lat": 36.12169441833466,
    "lng": 128.3854213166994,
    "region": "경상북도"
  },
  {
    "name": "벽산아파트(지하1층 주차장)",
    "address": "경상북도 구미시 비산로5길 19 (비산동, 벽산아파트)",
    "lat": 36.12128969814971,
    "lng": 128.37991675121563,
    "region": "경상북도"
  },
  {
    "name": "신평2동행정복지센터 지하1층",
    "address": "경상북도 구미시 신비로7길 9, 신평2동 행정복지센터 (신평동)",
    "lat": 36.12310231863289,
    "lng": 128.36586586765148,
    "region": "경상북도"
  },
  {
    "name": "우석아파트",
    "address": "경상북도 구미시 신비로 36 (공단동, 우석아파트)",
    "lat": 36.12198798757092,
    "lng": 128.36651215928578,
    "region": "경상북도"
  },
  {
    "name": "대동타운1차 지하주차장 1층",
    "address": "경상북도 구미시 금오대로20길 33, 지하1층 (오태동, 대동타운1차)",
    "lat": 36.07021366220562,
    "lng": 128.3537711228186,
    "region": "경상북도"
  },
  {
    "name": "청구하이츠아파트 지하주차장 1~2층",
    "address": "경상북도 구미시 인동19길 36-11 (인의동, 구미청구하이츠)",
    "lat": 36.09970162710272,
    "lng": 128.43063830306411,
    "region": "경상북도"
  },
  {
    "name": "전원리빙필 지하주차장 1층",
    "address": "경상북도 구미시 형곡동로 103-0 (형곡동)",
    "lat": 36.11162722378921,
    "lng": 128.33594624987427,
    "region": "경상북도"
  },
  {
    "name": "도량뜨란채(504동 지하주차장 1층)",
    "address": "경상북도 구미시 도봉로 67, 504동 (도량동, 구미도량뜨란채5단지)",
    "lat": 36.140131828413736,
    "lng": 128.31820946380603,
    "region": "경상북도"
  },
  {
    "name": "구미도량휴먼시아아파트(403동 지하주차장 1층)",
    "address": "경상북도 구미시 도봉로 62, 403동 (도량동)",
    "lat": 36.14057006570633,
    "lng": 128.3176723658193,
    "region": "경상북도"
  },
  {
    "name": "엘지이노텍 구미4공장 지하1,2층 주차장",
    "address": "경상북도 구미시 산호대로 77, 엘지이노텍 구미4공장 (공단동)",
    "lat": 36.09044608238002,
    "lng": 128.38510781338428,
    "region": "경상북도"
  },
  {
    "name": "인의대동다숲아파트 지하주차장 1~5층",
    "address": "경상북도 구미시 인동17길 36 (인의동, 인의대동다숲아파트)",
    "lat": 36.10146564850138,
    "lng": 128.42901466874238,
    "region": "경상북도"
  },
  {
    "name": "서한이다음1차아파트 지하주차장 1층",
    "address": "경상북도 구미시 여헌로 15 (인의동, 인동서한이다음)",
    "lat": 36.10348660297785,
    "lng": 128.42394167999487,
    "region": "경상북도"
  },
  {
    "name": "봉곡현대아파트 106동 앞 지하주차장 1층",
    "address": "경상북도 구미시 봉곡남로 148-0 (봉곡동)",
    "lat": 36.15149950854362,
    "lng": 128.31787404425728,
    "region": "경상북도"
  },
  {
    "name": "봉곡뜨란채104동앞 지하주차장 1층",
    "address": "경상북도 구미시 도봉로5길 13 (봉곡동, 구미봉곡뜨란채)",
    "lat": 36.14254630456623,
    "lng": 128.31606395905115,
    "region": "경상북도"
  },
  {
    "name": "엘지이노텍(주)구미2공장 본관동(A동) 지하1층",
    "address": "경상북도 구미시 옥계2공단로 221 (구포동, 엘지이노텍(주)구미2공장)",
    "lat": 36.127151604058255,
    "lng": 128.4132103647983,
    "region": "경상북도"
  },
  {
    "name": "삼우빌라914",
    "address": "경상북도 구미시 신시로17길 17 (형곡동)",
    "lat": 36.11743611897586,
    "lng": 128.33726857811254,
    "region": "경상북도"
  },
  {
    "name": "반석드림파크 9차 지하주차장 1층",
    "address": "경상북도 구미시 경은로 100 (형곡동)",
    "lat": 36.11453521572047,
    "lng": 128.3375407104803,
    "region": "경상북도"
  },
  {
    "name": "시립중앙도서관 지하 1층",
    "address": "경상북도 구미시 경은로 85-0 (형곡동)",
    "lat": 36.1136104910464,
    "lng": 128.33649545555963,
    "region": "경상북도"
  },
  {
    "name": "현진에버빌 지하 3주차장 지하1층",
    "address": "경상북도 구미시 도봉로 10 (봉곡동, 현진에버빌)",
    "lat": 36.140107821774535,
    "lng": 128.3136702426349,
    "region": "경상북도"
  },
  {
    "name": "푸르지오캐슬A단지 104동 지하주차장 1~2층",
    "address": "경상북도 구미시 박정희로 599-0 (송정동, 푸르지오캐슬A단지)",
    "lat": 36.12434940605596,
    "lng": 128.33915536758226,
    "region": "경상북도"
  },
  {
    "name": "진평주공 101동앞 지하1층주차장",
    "address": "경상북도 구미시 인동26길 65 (진평동, 구미진평주공미래타운)",
    "lat": 36.092024128830175,
    "lng": 128.42391316802667,
    "region": "경상북도"
  },
  {
    "name": "진평주공 106동앞 지하1층주차장",
    "address": "경상북도 구미시 인동26길 65 (진평동, 구미진평주공미래타운)",
    "lat": 36.092024128830175,
    "lng": 128.42391316802667,
    "region": "경상북도"
  },
  {
    "name": "진평주공 108동앞 지하1층주차장",
    "address": "경상북도 구미시 인동26길 65 (진평동, 구미진평주공미래타운)",
    "lat": 36.092024128830175,
    "lng": 128.42391316802667,
    "region": "경상북도"
  },
  {
    "name": "인의주공 202동옆 지하1층주차장",
    "address": "경상북도 구미시 인동16길 47-4 (진평동, 구미인의주공아파트)",
    "lat": 36.09723523457993,
    "lng": 128.42118393337302,
    "region": "경상북도"
  },
  {
    "name": "인의주공 206동옆 지하1층주차장",
    "address": "경상북도 구미시 인동16길 47-4 (진평동, 구미인의주공아파트)",
    "lat": 36.09723523457993,
    "lng": 128.42118393337302,
    "region": "경상북도"
  },
  {
    "name": "구미옥계 e편한세상 (103동)",
    "address": "경상북도 구미시 산호대로39길 25 (옥계동, 구미옥계 e-편한세상)",
    "lat": 36.14071700977139,
    "lng": 128.43713860759655,
    "region": "경상북도"
  },
  {
    "name": "구미옥계 e편한세상 지하주차장 1층",
    "address": "경상북도 구미시 산호대로39길 25 (옥계동, 구미옥계 e-편한세상)",
    "lat": 36.14071700977139,
    "lng": 128.43713860759655,
    "region": "경상북도"
  },
  {
    "name": "구미옥계우미린 지하주차장 1층",
    "address": "경상북도 구미시 해마루공원로 111 (옥계동, 구미옥계우미린)",
    "lat": 36.14300204832959,
    "lng": 128.4275401357411,
    "region": "경상북도"
  },
  {
    "name": "삼구트리니엔 지하주차장 1층~2층",
    "address": "경상북도 구미시 옥계북로 33 (옥계동, 삼구트리니엔)",
    "lat": 36.13844526812341,
    "lng": 128.42135448288548,
    "region": "경상북도"
  },
  {
    "name": "구미옥계현진에버빌엠파이어 지하주차장 1층~2층",
    "address": "경상북도 구미시 옥계북로 69 (옥계동, 현진에버빌엠파이어아파트)",
    "lat": 36.13835170458219,
    "lng": 128.4252842711865,
    "region": "경상북도"
  },
  {
    "name": "삼구트리니엔(104동)",
    "address": "경상북도 구미시 옥계북로 33, 104동 (옥계동, 삼구트리니엔)",
    "lat": 36.13844526812341,
    "lng": 128.42135448288548,
    "region": "경상북도"
  },
  {
    "name": "양포동주민센터 지하1층",
    "address": "경상북도 구미시 산호대로35길 6 (옥계동, 양포동주민센터)",
    "lat": 36.13694856756286,
    "lng": 128.42561586216624,
    "region": "경상북도"
  },
  {
    "name": "옥계 더힐 아파트 지하주차장 1층~2층",
    "address": "경상북도 구미시 옥계북로 43-48 (옥계동, 옥계 더힐 아파트)",
    "lat": 36.1419101503959,
    "lng": 128.42414049437252,
    "region": "경상북도"
  },
  {
    "name": "구미옥계휴먼시아 2단지 지하주차장 1층~3층",
    "address": "경상북도 구미시 옥계북로 43-52 (옥계동, 구미옥계휴먼시아 2단지)",
    "lat": 36.14237252671888,
    "lng": 128.42416156733782,
    "region": "경상북도"
  },
  {
    "name": "우림필유아파트(지하1층주차장)",
    "address": "경상북도 구미시 수출대로3길 130 (공단동)",
    "lat": 36.12256832722581,
    "lng": 128.37188391016,
    "region": "경상북도"
  },
  {
    "name": "우방신세계아파트2단지 지하주차장1~4층",
    "address": "경상북도 구미시 상사서로 17 (상모동, 우방신세계타운2단지)",
    "lat": 36.08418265365058,
    "lng": 128.35640545735964,
    "region": "경상북도"
  },
  {
    "name": "상모두산맨션아파트지하주차장1~2층",
    "address": "경상북도 구미시 상모로 6 (상모동, 상모두산맨션)",
    "lat": 36.088442672232986,
    "lng": 128.35085748834018,
    "region": "경상북도"
  },
  {
    "name": "보성황실1차아파트 지하주차장 1~4층",
    "address": "경상북도 구미시 상사서로 128 (사곡동, 보성1차황실타운)",
    "lat": 36.0940041535233,
    "lng": 128.35568069739188,
    "region": "경상북도"
  },
  {
    "name": "보성황실2차아파트 지하주차장1~4층",
    "address": "경상북도 구미시 상사동로28길 11 (사곡동, 보성2차황실타운)",
    "lat": 36.10112817776972,
    "lng": 128.3603818421257,
    "region": "경상북도"
  },
  {
    "name": "화성파크프레지던트1단지아파트 지하주차장1~4층",
    "address": "경상북도 구미시 상모로10길 40 (상모동, 화성파크프레지던트1단지)",
    "lat": 36.08657352936788,
    "lng": 128.35703074738288,
    "region": "경상북도"
  },
  {
    "name": "세양청마루아파트 지하주차장 1~4층",
    "address": "경상북도 구미시 박정희로 90-14 (상모동, 세양청마루아파트)",
    "lat": 36.08722340732661,
    "lng": 128.35167195710477,
    "region": "경상북도"
  },
  {
    "name": "상모한신휴플러스 지하주차장 1~4층",
    "address": "경상북도 구미시 박정희로 76 (상모동, 상모한신휴플러스)",
    "lat": 36.08637840184136,
    "lng": 128.35209955903744,
    "region": "경상북도"
  },
  {
    "name": "푸르지오캐슬B단지 지하주차장1층",
    "address": "경상북도 구미시 산책길 7 (송정동, 푸르지오캐슬B단지아파트)",
    "lat": 36.12462596649497,
    "lng": 128.33529747387402,
    "region": "경상북도"
  },
  {
    "name": "남통e편한세상 지하주차장(후문) 1~2층",
    "address": "경상북도 구미시 선기로 77 (남통동, 남통e편한세상)",
    "lat": 36.12970706434749,
    "lng": 128.3158845761304,
    "region": "경상북도"
  },
  {
    "name": "구미임은삼도뷰엔빌아파트 지하주차장 1층~2층",
    "address": "경상북도 구미시 왕산로 28-12 (임은동, 구미 임은 삼도뷰엔빌W)",
    "lat": 36.085640886771614,
    "lng": 128.3637966437394,
    "region": "경상북도"
  },
  {
    "name": "임은코오롱하늘채 지하주차장 1층~2층",
    "address": "경상북도 구미시 왕산로 28-13 (임은동, 임은 코오롱하늘채)",
    "lat": 36.08552825053643,
    "lng": 128.36417784996377,
    "region": "경상북도"
  },
  {
    "name": "임은태왕아너스파크 지하주차장 1층",
    "address": "경상북도 구미시 왕산로 70-9, 임은태왕아너스파크 지하1층 (임은동)",
    "lat": 36.08605753150837,
    "lng": 128.36862729326344,
    "region": "경상북도"
  },
  {
    "name": "이편한세상 구미교리 지하 1층 주차장",
    "address": "경상북도 구미시 선산읍 선산향교길 16 (e편한세상구미교리)",
    "lat": 36.25111629184644,
    "lng": 128.30457778786317,
    "region": "경상북도"
  },
  {
    "name": "도산휴먼시아 지하주차장 1층",
    "address": "경상북도 구미시 문장로12길 45 (도량동, 도산휴먼시아)",
    "lat": 36.142433197474745,
    "lng": 128.33606576497743,
    "region": "경상북도"
  },
  {
    "name": "S타워 지하주차장 1층",
    "address": "경상북도 구미시 구미중앙로 149, S타워 (원평동)",
    "lat": 36.1260767361244,
    "lng": 128.338442043861,
    "region": "경상북도"
  },
  {
    "name": "대웅솔랜드101동 지하주차장 1층",
    "address": "경상북도 구미시 화신로 166-6 (송정동, 대웅솔랜드)",
    "lat": 36.11696551671063,
    "lng": 128.35424773584964,
    "region": "경상북도"
  },
  {
    "name": "대웅솔랜드 103동 지하주차장 1층",
    "address": "경상북도 구미시 화신로 166-8, 103동 (송정동, 대웅솔랜드)",
    "lat": 36.117096266153766,
    "lng": 128.3548035428538,
    "region": "경상북도"
  },
  {
    "name": "도량롯데캐슬골드파크 지하주차장 2층",
    "address": "경상북도 구미시 문장로 111 (도량동, 도량 롯데캐슬 골드파크)",
    "lat": 36.14332503183273,
    "lng": 128.33137387430773,
    "region": "경상북도"
  },
  {
    "name": "구미중흥S클래스에코시티 지하주차장 1층~2층",
    "address": "경상북도 구미시 산동읍 신당인덕1로 135(중흥에스-클래스에코시티)",
    "lat": 36.16241480068859,
    "lng": 128.44117763566783,
    "region": "경상북도"
  },
  {
    "name": "우미린풀하우스 지하주차장 1층",
    "address": "경상북도 구미시 산동읍 신당인덕3로 1(우미린풀하우스)",
    "lat": 36.16139592064033,
    "lng": 128.43626672026025,
    "region": "경상북도"
  },
  {
    "name": "쌍용예가더파크 지하주차장 1층~2층",
    "address": "경상북도 구미시 산동읍 신당4로 56(쌍용예가 더파크)",
    "lat": 36.160594372429685,
    "lng": 128.42840362618406,
    "region": "경상북도"
  },
  {
    "name": "우미린센트럴파크 지하주차장 1층~2층",
    "address": "경상북도 구미시 산동읍 신당3로 16 (우미린센트럴파크)",
    "lat": 36.15793860277235,
    "lng": 128.43331309359658,
    "region": "경상북도"
  },
  {
    "name": "구미확장단지 골드클래스 지하주차장 1층~2층",
    "address": "경상북도 구미시 산동읍 신당3로 43(구미확장단지골드클래스)",
    "lat": 36.15765720153901,
    "lng": 128.4302356562782,
    "region": "경상북도"
  },
  {
    "name": "구미확장단지 골드디움 지하주차장 1층~2층",
    "address": "경상북도 구미시 산동읍 신당3로 15(구미확장단지골드디움)",
    "lat": 36.157596273443765,
    "lng": 128.43324924456314,
    "region": "경상북도"
  },
  {
    "name": "구미호반베르디움 엘리트시티 지하주차장 1층~2층",
    "address": "경상북도 구미시 산동읍 해마루공원로 115(구미호반베르디움엘리트시티)",
    "lat": 36.14357297920857,
    "lng": 128.4274822666864,
    "region": "경상북도"
  },
  {
    "name": "광평푸르지오 1차아파트 지하주차장(지하 1 ~ 2층)",
    "address": "경상북도 구미시 구미대로 186-20(광평동, 구미광평 푸르지오1차)",
    "lat": 36.103338447942654,
    "lng": 128.3649812912353,
    "region": "경상북도"
  },
  {
    "name": "시민운동장 지하주차장(지하 1층)",
    "address": "경상북도 구미시 박정희로 375-20, 시민운동장 (광평동)",
    "lat": 36.11168240462258,
    "lng": 128.354229399011,
    "region": "경상북도"
  },
  {
    "name": "강변뉴타운 효성해링턴플레이스(지하1층주차장)",
    "address": "경상북도 구미시 신비로 100(공단동, 강변효성해링턴)",
    "lat": 36.12058790270875,
    "lng": 128.3729585791449,
    "region": "경상북도"
  },
  {
    "name": "힐스테이트송정아파트 1단지 지하주차장 1~2층",
    "address": "경상북도 구미시 백산로5길 9(송정동, 힐스테이트 송정 1단지)",
    "lat": 36.121425139129926,
    "lng": 128.34411378721984,
    "region": "경상북도"
  },
  {
    "name": "힐스테이트송정아파트 2단지 지하주차장 1~2층",
    "address": "경상북도 구미시 백산로5길 20(송정동, 힐스테이트 송정 2단지)",
    "lat": 36.12116359207168,
    "lng": 128.3452568607796,
    "region": "경상북도"
  },
  {
    "name": "e편한세상구미파크밸리 전 동 지하주차장 1~2층",
    "address": "경상북도 구미시 신비로7길 10(공단동, e편한세상구미파크밸리)",
    "lat": 36.12307394680216,
    "lng": 128.366078378684,
    "region": "경상북도"
  },
  {
    "name": "광신프로그레스 구미 1단지 지하 1~2층",
    "address": "경상북도 구미시 칠성로2길 12 (원평동, 광신 프로그레스 구미)",
    "lat": 36.121985323863,
    "lng": 128.358807730479,
    "region": "경상북도"
  },
  {
    "name": "광신프로그레스 구미 2단지 지하 1~2층",
    "address": "경상북도 구미시 칠성로2길 11 (원평동, 광신 프로그레스 구미)",
    "lat": 36.1222077321021,
    "lng": 128.358790400349,
    "region": "경상북도"
  },
  {
    "name": "영남네오빌시티2단지 지하주차장 1층",
    "address": "경상북도 구미시 봉곡로23길 6-20 (봉곡동, 영남네오빌시티2단지)",
    "lat": 36.155778666117,
    "lng": 128.310209035808,
    "region": "경상북도"
  },
  {
    "name": "봉곡e편한세상아파트 지하주차장 1~2층",
    "address": "경상북도 구미시 봉곡로24길 33-11 (봉곡동, 봉곡e편한세상)",
    "lat": 36.1554654676561,
    "lng": 128.314465994308,
    "region": "경상북도"
  },
  {
    "name": "봉곡아이파크2차 지하주차장 1층",
    "address": "경상북도 구미시 봉곡남로20길 15 (봉곡동, 봉곡2차아이파크)",
    "lat": 36.1491871555159,
    "lng": 128.315711204664,
    "region": "경상북도"
  },
  {
    "name": "구미봉곡코아루아파트 지하주차장 1~2층",
    "address": "경상북도 구미시 봉곡북로7길 25 (봉곡동, 구미 봉곡 코아루)",
    "lat": 36.1570270249979,
    "lng": 128.306049800359,
    "region": "경상북도"
  },
  {
    "name": "KT영주지사 지하주차장 1층",
    "address": "경상북도 영주시 구성로 269, 한국통신 (휴천동)",
    "lat": 36.817312591960615,
    "lng": 128.62758298378068,
    "region": "경상북도"
  },
  {
    "name": "경북전문대 학생군사교육단 지하1층",
    "address": "경상북도 영주시 대학로 77, 경북전문대학교 (휴천동)",
    "lat": 36.80765604025134,
    "lng": 128.61625480204202,
    "region": "경상북도"
  },
  {
    "name": "한국철도공사 경북본부",
    "address": "경상북도 영주시 시청로2번길 30 (휴천동, 코레일 경북본부)",
    "lat": 36.80672970664563,
    "lng": 128.62615121320488,
    "region": "경상북도"
  },
  {
    "name": "영주시청 구내식당 지하1층",
    "address": "경상북도 영주시 시청로 1, 영주시청 (휴천동)",
    "lat": 36.80630954086691,
    "lng": 128.6241301232068,
    "region": "경상북도"
  },
  {
    "name": "한국폴리텍VI대학 영주캠퍼스 본관 지하1층",
    "address": "경상북도 영주시 가흥로 2, 한국폴리텍대학 영주캠퍼스 (문정동)",
    "lat": 36.8020069652441,
    "lng": 128.6019032776529,
    "region": "경상북도"
  },
  {
    "name": "영주여자중학교 기계실 지하1층",
    "address": "경상북도 영주시 신재로 14 (가흥동)",
    "lat": 36.83132688377965,
    "lng": 128.61131117353676,
    "region": "경상북도"
  },
  {
    "name": "시민회관 지하1층",
    "address": "경상북도 영주시 선비로 213 (영주동)",
    "lat": 36.82318401538074,
    "lng": 128.6177993045213,
    "region": "경상북도"
  },
  {
    "name": "풍기읍 주민자치센터 지하1층",
    "address": "경상북도 영주시 풍기읍 동성로 18, 풍기문화의집",
    "lat": 36.86892085678209,
    "lng": 128.5342182969571,
    "region": "경상북도"
  },
  {
    "name": "신영주교회 지하교육관1층",
    "address": "경상북도 영주시 원당로 30 (가흥동)",
    "lat": 36.8177803836248,
    "lng": 128.6193501592072,
    "region": "경상북도"
  },
  {
    "name": "대구은행 지하주차장 1층",
    "address": "경상북도 영주시 번영로 149, 대구은행 (하망동)",
    "lat": 36.824515748775966,
    "lng": 128.62522753094606,
    "region": "경상북도"
  },
  {
    "name": "코오롱2차아파트 보일러실 1층",
    "address": "경상북도 영주시 영주로 303, 코오롱2차아파트 (하망동)",
    "lat": 36.82501285325244,
    "lng": 128.63309137795147,
    "region": "경상북도"
  },
  {
    "name": "코오롱2차아파트 지상1층 주차장",
    "address": "경상북도 영주시 영주로 303, 코오롱2차아파트 (하망동)",
    "lat": 36.82501285325244,
    "lng": 128.63309137795147,
    "region": "경상북도"
  },
  {
    "name": "영주시청 대피소 주차장 지하1층",
    "address": "경상북도 영주시 시청로 1, 영주시청 (휴천동)",
    "lat": 36.80630954086691,
    "lng": 128.6241301232068,
    "region": "경상북도"
  },
  {
    "name": "가흥동 현대아파트 지하대피소 1층",
    "address": "경상북도 영주시 신재로12번길 67 (가흥동, 현대아파트)",
    "lat": 36.83412357165464,
    "lng": 128.61133223123312,
    "region": "경상북도"
  },
  {
    "name": "농협풍기지점 사무소 지하1층",
    "address": "경상북도 영주시 풍기읍 풍기로 65, 농협풍기지점",
    "lat": 36.87066753525286,
    "lng": 128.52575042958532,
    "region": "경상북도"
  },
  {
    "name": "가흥주공임대아파트 지하대피소 1층",
    "address": "경상북도 영주시 대학로 130 (가흥동, 가흥주공임대아파트)",
    "lat": 36.80909070337604,
    "lng": 128.6113770089419,
    "region": "경상북도"
  },
  {
    "name": "동양대학교 신재1관 지하1층",
    "address": "경상북도 영주시 풍기읍 동양대로 145",
    "lat": 36.88171150178834,
    "lng": 128.53383800867869,
    "region": "경상북도"
  },
  {
    "name": "현대2차강변아파트 101동 지하주차장 1층",
    "address": "경상북도 영주시 대동로 98 (가흥동, 현대2차강변아파트)",
    "lat": 36.81457118857061,
    "lng": 128.6135370105482,
    "region": "경상북도"
  },
  {
    "name": "벨리나웨딩홀 지하식당 1층",
    "address": "경상북도 영주시 선비로 104, 벨리나웨딩홀 (휴천동)",
    "lat": 36.81421088670074,
    "lng": 128.62296099612163,
    "region": "경상북도"
  },
  {
    "name": "영남동산아파트 1동 지하추자장 1층",
    "address": "경상북도 영주시 원당로223번길 57, 1동 (하망동, 영남동산아파트)",
    "lat": 36.831705642889695,
    "lng": 128.6334993310041,
    "region": "경상북도"
  },
  {
    "name": "현대2차 아파트 203동 지하주차장 1층",
    "address": "경상북도 영주시 지천로50번길 38 (휴천동, 휴천2차현대아파트)",
    "lat": 36.80524613218383,
    "lng": 128.62168148794356,
    "region": "경상북도"
  },
  {
    "name": "풍기호텔 지하1층",
    "address": "경상북도 영주시 풍기읍 풍기로 53, 풍기호텔",
    "lat": 36.869758849279805,
    "lng": 128.52486843254968,
    "region": "경상북도"
  },
  {
    "name": "동진타워아파트 지하주차장 1~2층",
    "address": "경상북도 영주시 선비로 223 (영주동, 동진타워아파트)",
    "lat": 36.82398765744571,
    "lng": 128.61724479962248,
    "region": "경상북도"
  },
  {
    "name": "현대동산아파트 지하주차장 1층",
    "address": "경상북도 영주시 남간로 38-10 (휴천동, 현대동산아파트)",
    "lat": 36.81831013480208,
    "lng": 128.63203060238263,
    "region": "경상북도"
  },
  {
    "name": "남서울예식장 지하식당 1층",
    "address": "경상북도 영주시 광복로32번길 16, 남서울예식장 (영주동)",
    "lat": 36.82715248444416,
    "lng": 128.6215827318577,
    "region": "경상북도"
  },
  {
    "name": "영주제일교회 지하1층",
    "address": "경상북도 영주시 광복로 37 (영주동)",
    "lat": 36.82793501654072,
    "lng": 128.62255748738187,
    "region": "경상북도"
  },
  {
    "name": "영주기독병원 지하1층",
    "address": "경상북도 영주시 구성로 380, 영주기독병원 (영주동)",
    "lat": 36.8250823668828,
    "lng": 128.6210033239935,
    "region": "경상북도"
  },
  {
    "name": "남산현대아파트 지하주차장 1~2층",
    "address": "경상북도 영주시 구성로142번길 20 (휴천동, 남산현대아파트)",
    "lat": 36.80584622173886,
    "lng": 128.63007747070563,
    "region": "경상북도"
  },
  {
    "name": "농협중앙회 지하주차장 1층",
    "address": "경상북도 영주시 중앙로 100, 농협중앙회영주시지부 (하망동)",
    "lat": 36.8240359698968,
    "lng": 128.62553853000742,
    "region": "경상북도"
  },
  {
    "name": "동양대학교 현암관 지하1층",
    "address": "경상북도 영주시 풍기읍 동양대로 145",
    "lat": 36.88171150178834,
    "lng": 128.53383800867869,
    "region": "경상북도"
  },
  {
    "name": "풍기우정교육센터 지하교육원 1층",
    "address": "경상북도 영주시 풍기읍 죽령로 1396, 풍기온천수련원우체국",
    "lat": 36.88721425248762,
    "lng": 128.47828815731532,
    "region": "경상북도"
  },
  {
    "name": "경일미래타운아파트 지하주차장 1층",
    "address": "경상북도 영주시 웃무리로13번길 15 (상망동, 경일미래타운)",
    "lat": 36.8271192470703,
    "lng": 128.63868696764033,
    "region": "경상북도"
  },
  {
    "name": "코아루아파트 지하주차장 1층",
    "address": "경상북도 영주시 원당로225번길 67 (상망동, 코아루아파트)",
    "lat": 36.83249505926866,
    "lng": 128.63641047404082,
    "region": "경상북도"
  },
  {
    "name": "스카이타운 아파트 지하주차장 1층",
    "address": "경상북도 영주시 번영로 128 (하망동, 스카이타운)",
    "lat": 36.82332354128975,
    "lng": 128.6271771944866,
    "region": "경상북도"
  },
  {
    "name": "화성라온빌아파트 지하주차장 1층",
    "address": "경상북도 영주시 남간로71번길 46 (휴천동, 화성라온빌)",
    "lat": 36.82027497279775,
    "lng": 128.63552141738387,
    "region": "경상북도"
  },
  {
    "name": "세영첼시빌 아파트 지하주차장 1층",
    "address": "경상북도 영주시 남간로71번길 10 (휴천동, 세영첼시빌)",
    "lat": 36.81884464278383,
    "lng": 128.63582979131786,
    "region": "경상북도"
  },
  {
    "name": "농협파머스마켓 지하주차장 1층",
    "address": "경상북도 영주시 구성로 25, 파머스마켓 (조암동)",
    "lat": 36.7960331128515,
    "lng": 128.63164708260777,
    "region": "경상북도"
  },
  {
    "name": "경상북도영주교육지원청 지하공공업무시설 1층",
    "address": "경상북도 영주시 가흥로 165 (가흥동)",
    "lat": 36.8123353499425,
    "lng": 128.61322060392058,
    "region": "경상북도"
  },
  {
    "name": "영주우체국 지하주차장 1~2층",
    "address": "경상북도 영주시 중앙로 49, 영주우체국 (영주동)",
    "lat": 36.82101139698355,
    "lng": 128.62178569228936,
    "region": "경상북도"
  },
  {
    "name": "가흥동 3주공아파트 주민복지관 지하1층",
    "address": "경상북도 영주시 가흥로 343 (가흥동, 영주가흥3단지)",
    "lat": 36.82770328501553,
    "lng": 128.6111869039023,
    "region": "경상북도"
  },
  {
    "name": "상망동 행정복지센터 지하주차장 1층",
    "address": "경상북도 영주시 광복로 87, 상망동 행정복지센터 (하망동)",
    "lat": 36.828061290450805,
    "lng": 128.628263826034,
    "region": "경상북도"
  },
  {
    "name": "세영리첼아파트 지하주차장 1~2층",
    "address": "경상북도 영주시 대동로 2 (가흥동, 세영리첼아파트)",
    "lat": 36.81503232268731,
    "lng": 128.60260259023102,
    "region": "경상북도"
  },
  {
    "name": "영주가흥사랑으로부영아파트 지하주차장 1~2층",
    "address": "경상북도 영주시 대동로 7 (가흥동, 영주가흥사랑으로부영아파트)",
    "lat": 36.81533844175587,
    "lng": 128.60309260651738,
    "region": "경상북도"
  },
  {
    "name": "영주가흥코아루노블아파트 지하주차장 1층",
    "address": "경상북도 영주시 대학로261번길 27 (가흥동, 영주가흥코아루노블아파트)",
    "lat": 36.81870630181906,
    "lng": 128.60124419995822,
    "region": "경상북도"
  },
  {
    "name": "로컬푸드직매장 지하주차장 1층",
    "address": "경상북도 영주시 대학로284번길 5 (가흥동)",
    "lat": 36.82081993391358,
    "lng": 128.60566409638724,
    "region": "경상북도"
  },
  {
    "name": "영주가흥더리브스위트엠아파트 지하주차장",
    "address": "경상북도 영주시 대학로 324 (가흥동, 영주가흥더리브스위트엠)",
    "lat": 36.8242455308668,
    "lng": 128.606320330172,
    "region": "경상북도"
  },
  {
    "name": "영주시노인복지관 지하1층",
    "address": "경상북도 영주시 원당로52번길 19, 영주시노인복지관 (휴천동)",
    "lat": 36.8185450910451,
    "lng": 128.621855137784,
    "region": "경상북도"
  },
  {
    "name": "영남대학 영천병원 지하 장례식장",
    "address": "경상북도 영천시 오수1길 10 (오수동, 영천영대병원)",
    "lat": 35.95739772822932,
    "lng": 128.91296475786885,
    "region": "경상북도"
  },
  {
    "name": "영천교육청 지하1층",
    "address": "경상북도 영천시 장수로 18-2 (화룡동, 영천교육지원청)",
    "lat": 35.963995141760854,
    "lng": 128.9219538951201,
    "region": "경상북도"
  },
  {
    "name": "교동새마을금고 지하1층",
    "address": "경상북도 영천시 최무선로 214 (성내동, 새마을금고)",
    "lat": 35.96311943977129,
    "lng": 128.92439882885162,
    "region": "경상북도"
  },
  {
    "name": "영천시 다문화가족지원센터(드림스타트)",
    "address": "경상북도 영천시 운동장로 41 (교촌동)",
    "lat": 35.96644675627404,
    "lng": 128.92360541100504,
    "region": "경상북도"
  },
  {
    "name": "효성볼링장 지하1층",
    "address": "경상북도 영천시 호국로 27 (야사동)",
    "lat": 35.97222446943457,
    "lng": 128.94119992393297,
    "region": "경상북도"
  },
  {
    "name": "영동새마을금고 지하1층",
    "address": "경상북도 영천시 호국로 36(야사동)",
    "lat": 35.97231673876097,
    "lng": 128.94198516353126,
    "region": "경상북도"
  },
  {
    "name": "망정주공1단지 지하1층",
    "address": "경상북도 영천시 동부로 40 (망정동)",
    "lat": 35.97372416757694,
    "lng": 128.94855132342073,
    "region": "경상북도"
  },
  {
    "name": "망정주공2단지 지하1층",
    "address": "경상북도 영천시 동부로 40 (망정동)",
    "lat": 35.97372416757694,
    "lng": 128.94855132342073,
    "region": "경상북도"
  },
  {
    "name": "청구1차아파트 지하1층",
    "address": "경상북도 영천시 모란1길 18 (야사동)",
    "lat": 35.976133900815924,
    "lng": 128.93978292918283,
    "region": "경상북도"
  },
  {
    "name": "청구2차아파트 지하1층",
    "address": "경상북도 영천시 모란1길 18 (야사동)",
    "lat": 35.976133900815924,
    "lng": 128.93978292918283,
    "region": "경상북도"
  },
  {
    "name": "창신아파트 지하1층",
    "address": "경상북도 영천시 창신1길 21 (망정동, 창신타운)",
    "lat": 35.98759995175894,
    "lng": 128.9545099272453,
    "region": "경상북도"
  },
  {
    "name": "영천우방타운 지하1~3층",
    "address": "경상북도 영천시 동부로 15 (야사동)",
    "lat": 35.97160733352299,
    "lng": 128.9491210275505,
    "region": "경상북도"
  },
  {
    "name": "영천시청 지하1층",
    "address": "경상북도 영천시 시청로 16 (문외동)",
    "lat": 35.97209334532877,
    "lng": 128.93840721913477,
    "region": "경상북도"
  },
  {
    "name": "영천시보건소 지하시설",
    "address": "경상북도 영천시 옛군청1길 31 (문내동)",
    "lat": 35.96813471025389,
    "lng": 128.93257382175403,
    "region": "경상북도"
  },
  {
    "name": "영천축협 지하 1층",
    "address": "경상북도 영천시 호국로 17 (문외동, 영천축협)",
    "lat": 35.97176322387946,
    "lng": 128.94023121102103,
    "region": "경상북도"
  },
  {
    "name": "영진궁전빌라 지하기계실",
    "address": "경상북도 영천시 시청동길 8 (문외동, 영진궁전빌라)",
    "lat": 35.972342684298376,
    "lng": 128.94015357670276,
    "region": "경상북도"
  },
  {
    "name": "무궁화타운 109동 지하기계실",
    "address": "경상북도 영천시 충효로 97 (문외동)",
    "lat": 35.974481547435325,
    "lng": 128.9396501437884,
    "region": "경상북도"
  },
  {
    "name": "삼산무지개타운 지하주차장 1층",
    "address": "경상북도 영천시 청산길 29 (문외동, 무지개타운)",
    "lat": 35.97387179304637,
    "lng": 128.93580821841414,
    "region": "경상북도"
  },
  {
    "name": "대명빌딩 지하주차장",
    "address": "경상북도 영천시 호국로 9 (문외동, 대명빌딩)",
    "lat": 35.971404882267926,
    "lng": 128.93948901104704,
    "region": "경상북도"
  },
  {
    "name": "농협중앙회영천시지회 지하1층",
    "address": "경상북도 영천시 완산로 48 (완산동, 농협은행영천시지부)",
    "lat": 35.96435032209723,
    "lng": 128.93918446289908,
    "region": "경상북도"
  },
  {
    "name": "스타컨벤션웨딩 지하1층",
    "address": "경상북도 영천시 구읍1길 9 (완산동)",
    "lat": 35.961110989866654,
    "lng": 128.9335518043222,
    "region": "경상북도"
  },
  {
    "name": "삼구빌딩",
    "address": "경상북도 영천시 역전로 8 (완산동, 삼구빌딩)",
    "lat": 35.96284756443616,
    "lng": 128.93457123055117,
    "region": "경상북도"
  },
  {
    "name": "대구은행영천지점 지하주차장 1층",
    "address": "경상북도 영천시 시장로 45 (완산동)",
    "lat": 35.96350097451567,
    "lng": 128.93510245261606,
    "region": "경상북도"
  },
  {
    "name": "수덕빌딩 지하1층",
    "address": "경상북도 영천시 완산로 68 (완산동)",
    "lat": 35.96626962718573,
    "lng": 128.9391017163615,
    "region": "경상북도"
  },
  {
    "name": "한국전력공사영천지점 지하1층",
    "address": "경상북도 영천시 천문로 199 (금노동)",
    "lat": 35.956444961031536,
    "lng": 128.93128826280312,
    "region": "경상북도"
  },
  {
    "name": "윤성모닝타운 지하주차장 1~2층",
    "address": "경상북도 영천시 금호읍 원제2길 16-8",
    "lat": 35.942832875756004,
    "lng": 128.89942750546408,
    "region": "경상북도"
  },
  {
    "name": "금호우방타운 지하주차장 1층",
    "address": "경상북도 영천시 금호읍 덕성길 20 (금호우방타운)",
    "lat": 35.9323079261569,
    "lng": 128.869222139711,
    "region": "경상북도"
  },
  {
    "name": "망정주공4단지 지하1~2층",
    "address": "경상북도 영천시 동부로 14 (망정동)",
    "lat": 35.971618020303254,
    "lng": 128.9494424542195,
    "region": "경상북도"
  },
  {
    "name": "영동새마을금고 지하 1층",
    "address": "경상북도 영천시 호국로 36 (야사동)",
    "lat": 35.9722244464113,
    "lng": 128.941998999874,
    "region": "경상북도"
  },
  {
    "name": "농업기술센터 와인체험관 지하시설",
    "address": "경상북도 영천시 천문로 622-13 (오미동)",
    "lat": 35.99065498704925,
    "lng": 128.92489911574552,
    "region": "경상북도"
  },
  {
    "name": "청소년수련관 지하1층",
    "address": "경상북도 영천시 운동장로 92 (교촌동)",
    "lat": 35.97041809211141,
    "lng": 128.92234467071498,
    "region": "경상북도"
  },
  {
    "name": "망정휴먼시아5단지 지하1층",
    "address": "경상북도 영천시 망정로 80 (망정동, 영천망정휴먼시아5단지)",
    "lat": 35.9833112391894,
    "lng": 128.9524710015315,
    "region": "경상북도"
  },
  {
    "name": "태성맨션 지하1층",
    "address": "경상북도 영천시 금호읍 금호로 88 (태성맨션)",
    "lat": 35.93086417467238,
    "lng": 128.87143556925773,
    "region": "경상북도"
  },
  {
    "name": "청솔 아파트 지하1층",
    "address": "경상북도 영천시 창신1길 22 (망정동, 청솔아파트)",
    "lat": 35.9879482157674,
    "lng": 128.95466860238798,
    "region": "경상북도"
  },
  {
    "name": "보성스타팰리스 지하1층",
    "address": "경상북도 영천시 망정1길 138-0 (망정동, 보성스타팰리스)",
    "lat": 35.97949995044987,
    "lng": 128.95161008262332,
    "region": "경상북도"
  },
  {
    "name": "대동다숲 아파트 지하주차장 1층",
    "address": "경상북도 영천시 중앙동1길 102-10 (문외동, 대동다숲아파트)",
    "lat": 35.97569480386972,
    "lng": 128.9316296590208,
    "region": "경상북도"
  },
  {
    "name": "중앙동 주민센터",
    "address": "경상북도 영천시 천문로 402-4 (문내동, 중앙동주민센터)",
    "lat": 35.973331170176856,
    "lng": 128.92970899100163,
    "region": "경상북도"
  },
  {
    "name": "완산청구하이츠 아파트 지하주차장 1층",
    "address": "경상북도 영천시 강남길 31 (완산동, 완산청구하이츠)",
    "lat": 35.96517527175338,
    "lng": 128.9367240001921,
    "region": "경상북도"
  },
  {
    "name": "가와인아파트 지하주차장 1층",
    "address": "경상북도 영천시 봉동1길 51 (봉동, 봉동선원가와인아파트)",
    "lat": 35.93351898696452,
    "lng": 128.94262891646366,
    "region": "경상북도"
  },
  {
    "name": "한신더휴퍼스트아파트 지하1층",
    "address": "경상북도 영천시 망정1길 171(야사동, 한신THE휴영천퍼스트)",
    "lat": 35.98162368352348,
    "lng": 128.95135432568546,
    "region": "경상북도"
  },
  {
    "name": "문외LH센트럴타운 지하주차장 1~2층",
    "address": "경상북도 영천시 충효로 39(문외동, 엘에이치영천센트럴타운)",
    "lat": 35.97178373309319,
    "lng": 128.93402462287693,
    "region": "경상북도"
  },
  {
    "name": "e편한세상 센텀스타시티 1블럭 지하1층",
    "address": "경상북도 영천시 완산9길 15 (완산동, e편한세상 센텀스타시티 영천 1블럭)",
    "lat": 35.962617131922705,
    "lng": 128.94396075246027,
    "region": "경상북도"
  },
  {
    "name": "e편한세상 센텀스타시티 2블럭 지하1층",
    "address": "경상북도 영천시 완산9길 16 (완산동, e편한세상 센텀스타시티 영천 2블럭)",
    "lat": 35.962638466810205,
    "lng": 128.9442877229649,
    "region": "경상북도"
  },
  {
    "name": "완산 미소지움 1차 지하1~2층",
    "address": "경상북도 영천시 완산5길 25 (완산동, 완산미소지움)",
    "lat": 35.96686277186858,
    "lng": 128.94275763078895,
    "region": "경상북도"
  },
  {
    "name": "완산 미소지움 2차 지하1~2층",
    "address": "경상북도 영천시 완산5길 111 (완산동, 영천완산미소지움2차)",
    "lat": 35.96684090461139,
    "lng": 128.94747270017828,
    "region": "경상북도"
  },
  {
    "name": "아이존빌스타아파트 지하1~2층",
    "address": "경상북도 영천시 창신1길 35 (망정동, 아이존빌스타아파트)",
    "lat": 35.98926261204573,
    "lng": 128.9542018706086,
    "region": "경상북도"
  },
  {
    "name": "영천인터불고코아루 지하1층",
    "address": "경상북도 영천시 창신1길 42 (망정동, 인터불고코아루아파트)",
    "lat": 35.98976025668791,
    "lng": 128.95440972246902,
    "region": "경상북도"
  },
  {
    "name": "신우연립주택 지하 기계설비실",
    "address": "경상북도 영천시 상록4길 5 (문외동, 신우타운)",
    "lat": 35.97303676209572,
    "lng": 128.93986596674537,
    "region": "경상북도"
  },
  {
    "name": "완산동행정복지센터 지하 1층",
    "address": "경상북도 영천시 시장로 151, 완산동행정복지센터 (완산동)",
    "lat": 35.9641476106122,
    "lng": 128.946855384909,
    "region": "경상북도"
  },
  {
    "name": "고은스퀘어 지하주차장",
    "address": "경상북도 영천시 시장로 106 (완산동)",
    "lat": 35.9633900365623,
    "lng": 128.9418312666,
    "region": "경상북도"
  },
  {
    "name": "완산골드타워 지하주차장",
    "address": "경상북도 영천시 시장로 120 (완산동)",
    "lat": 35.9634704708315,
    "lng": 128.943748227335,
    "region": "경상북도"
  },
  {
    "name": "성모병원 지하 1층",
    "address": "경상북도 상주시 냉림서성길 7-0 (냉림동)",
    "lat": 36.41988050348719,
    "lng": 128.1595755930652,
    "region": "경상북도"
  },
  {
    "name": "KT 상주지사 지하 1층",
    "address": "경상북도 상주시 상산로 389 (냉림동, KT)",
    "lat": 36.42567175324426,
    "lng": 128.1589319444674,
    "region": "경상북도"
  },
  {
    "name": "상주시 의회청사 지하 1층",
    "address": "경상북도 상주시 중앙로 111 (무양동, 상주시 의회청사)",
    "lat": 36.41599655379664,
    "lng": 128.15039231282717,
    "region": "경상북도"
  },
  {
    "name": "상주적십자병원 지하 1층",
    "address": "경상북도 상주시 상서문로 53(남성동)",
    "lat": 36.41460821310431,
    "lng": 128.15595262623785,
    "region": "경상북도"
  },
  {
    "name": "중앙시장 지하 1층",
    "address": "경상북도 상주시 상산로 260 (남성동)",
    "lat": 36.414050539968414,
    "lng": 128.15962525744123,
    "region": "경상북도"
  },
  {
    "name": "상주시청(시 청사) 지하 1층",
    "address": "경상북도 상주시 상산로 223 (남성동, 상주시청)",
    "lat": 36.41079887612268,
    "lng": 128.1595712332144,
    "region": "경상북도"
  },
  {
    "name": "무지개타운 지하주차장 1층",
    "address": "경상북도 상주시 상서문2길 114-11 (남성동, 무지개타운)",
    "lat": 36.4124102309984,
    "lng": 128.15804718979845,
    "region": "경상북도"
  },
  {
    "name": "상주소방서 지하 1층",
    "address": "경상북도 상주시 상산로 322 (서성동, 상주소방서)",
    "lat": 36.419632585877096,
    "lng": 128.1592744125878,
    "region": "경상북도"
  },
  {
    "name": "상주경찰서 지하 1층",
    "address": "경상북도 상주시 중앙로 230 (성하동, 상주경찰서)",
    "lat": 36.41579845101233,
    "lng": 128.16375954356116,
    "region": "경상북도"
  },
  {
    "name": "사벌국면행정복지센터 지하 1층",
    "address": "경상북도 상주시 사벌면 덕담1길 39",
    "lat": 36.466190870646805,
    "lng": 128.20883446515282,
    "region": "경상북도"
  },
  {
    "name": "현대아파트 지하주차장 1층",
    "address": "경상북도 상주시 상산로 174 (신봉동, 현대아파트)",
    "lat": 36.40641530278852,
    "lng": 128.16066481325046,
    "region": "경상북도"
  },
  {
    "name": "국민은행 상주지점 지하주차장 1층",
    "address": "경상북도 상주시 상산로 269 (남성동)",
    "lat": 36.41488653366228,
    "lng": 128.15918189641712,
    "region": "경상북도"
  },
  {
    "name": "명지1차아파트 지하주차장 1층",
    "address": "경상북도 상주시 경상대로 2930-10(낙양동, 낙양동명지아파트)",
    "lat": 36.40807001354081,
    "lng": 128.15165725582293,
    "region": "경상북도"
  },
  {
    "name": "진주맨션2차 지하주차장 1층",
    "address": "경상북도 상주시 냉림안길 52 (냉림동, 2차 진주맨션)",
    "lat": 36.424173362104206,
    "lng": 128.1619412437105,
    "region": "경상북도"
  },
  {
    "name": "우방아파트 지하주차장 1층",
    "address": "경상북도 상주시 복룡3길 7 (복룡동, 상주1차우방타운)",
    "lat": 36.41693873400321,
    "lng": 128.1727095240729,
    "region": "경상북도"
  },
  {
    "name": "경희삼백1차아파트 지하주차장 1층",
    "address": "경상북도 상주시 성동1길 74 (성동동, 경희삼백아파트)",
    "lat": 36.41440185924149,
    "lng": 128.1687195737869,
    "region": "경상북도"
  },
  {
    "name": "경희삼백2차아파트 지하주차장 1층",
    "address": "경상북도 상주시 낙양3길 29 (낙양동, 경희삼백아파트)",
    "lat": 36.41030547294515,
    "lng": 128.1502551337014,
    "region": "경상북도"
  },
  {
    "name": "명지2차아파트 지하주차장 1층",
    "address": "경상북도 상주시 경상대로 2930-9 (낙양동, 낙양동 명지아파트2차)",
    "lat": 36.408249910789486,
    "lng": 128.15159820638604,
    "region": "경상북도"
  },
  {
    "name": "상주시공영유료주차장 지하1층",
    "address": "경상북도 상주시 상산로 256-5 (남성동)",
    "lat": 36.41360999263742,
    "lng": 128.15982765465654,
    "region": "경상북도"
  },
  {
    "name": "부민강변타운 지하주차장 1층",
    "address": "경상북도 상주시 복룡냉림길 37 (냉림동, 부민강변타운)",
    "lat": 36.42018028095322,
    "lng": 128.1648239885789,
    "region": "경상북도"
  },
  {
    "name": "청구타운아파트 지하주차장 1층",
    "address": "경상북도 상주시 경상대로 2811 (신봉동, 상주청구타운)",
    "lat": 36.39804488006683,
    "lng": 128.14968172918617,
    "region": "경상북도"
  },
  {
    "name": "명지3차아파트 지하주차장 1층",
    "address": "경상북도 상주시 경상대로 2749-10 (신봉동, 명지3차아파트)",
    "lat": 36.39299282853062,
    "lng": 128.15175420059194,
    "region": "경상북도"
  },
  {
    "name": "동아아파트 상가 지하 1층",
    "address": "경상북도 상주시 상산로 145 (신봉동, 동아아파트)",
    "lat": 36.40398685259137,
    "lng": 128.16031929111978,
    "region": "경상북도"
  },
  {
    "name": "경북대학교 상주캠퍼스 1호관 지하 1층",
    "address": "경상북도 상주시 경상대로 2559 (가장동, 경북대학교상주캠퍼스)",
    "lat": 36.377590165409465,
    "lng": 128.14726129891554,
    "region": "경상북도"
  },
  {
    "name": "경북대학교 상주캠퍼스 2호관 지하 1층",
    "address": "경상북도 상주시 경상대로 2559 (가장동, 경북대학교상주캠퍼스)",
    "lat": 36.377590165409465,
    "lng": 128.14726129891554,
    "region": "경상북도"
  },
  {
    "name": "경북대학교 상주캠퍼스 3호관 지하 1층",
    "address": "경상북도 상주시 경상대로 2559 (가장동, 경북대학교상주캠퍼스)",
    "lat": 36.377590165409465,
    "lng": 128.14726129891554,
    "region": "경상북도"
  },
  {
    "name": "경북대학교 상주캠퍼스 4호관 지하 1층",
    "address": "경상북도 상주시 경상대로 2559 (가장동, 경북대학교상주캠퍼스)",
    "lat": 36.377590165409465,
    "lng": 128.14726129891554,
    "region": "경상북도"
  },
  {
    "name": "경북대학교 상주캠퍼스 5호관 지하 1층",
    "address": "경상북도 상주시 경상대로 2559 (가장동, 경북대학교상주캠퍼스)",
    "lat": 36.377590165409465,
    "lng": 128.14726129891554,
    "region": "경상북도"
  },
  {
    "name": "경북대학교 상주캠퍼스 8호관 지하 1층",
    "address": "경상북도 상주시 경상대로 2559 (가장동, 경북대학교상주캠퍼스)",
    "lat": 36.377590165409465,
    "lng": 128.14726129891554,
    "region": "경상북도"
  },
  {
    "name": "경북대학교 상주캠퍼스 도서관 지하 1층",
    "address": "경상북도 상주시 경상대로 2559 (가장동, 경북대학교상주캠퍼스)",
    "lat": 36.377590165409465,
    "lng": 128.14726129891554,
    "region": "경상북도"
  },
  {
    "name": "경북대학교 상주캠퍼스 학생회관 지하 1층",
    "address": "경상북도 상주시 경상대로 2559 (가장동, 경북대학교상주캠퍼스)",
    "lat": 36.377590165409465,
    "lng": 128.14726129891554,
    "region": "경상북도"
  },
  {
    "name": "경북대학교 상주캠퍼스 생활관 지하 1층",
    "address": "경상북도 상주시 경상대로 2559 (가장동, 경북대학교상주캠퍼스)",
    "lat": 36.377590165409465,
    "lng": 128.14726129891554,
    "region": "경상북도"
  },
  {
    "name": "대림아크로빌아파트 지하주차장 1층",
    "address": "경상북도 상주시 상서문로 5 (낙양동, 대림아크로빌)",
    "lat": 36.41028324633076,
    "lng": 128.15623499964542,
    "region": "경상북도"
  },
  {
    "name": "상주고등학교 지하1층",
    "address": "경상북도 상주시 상산로 117 (신봉동, 상주고등학교)",
    "lat": 36.401513474628736,
    "lng": 128.15965066057225,
    "region": "경상북도"
  },
  {
    "name": "지엘리더스파크골드 1단지아파트 지하주차장 1층",
    "address": "경상북도 상주시 영남제일로 1651 (냉림동, 지엘리더스파크골드)",
    "lat": 36.4267494716647,
    "lng": 128.16039028760775,
    "region": "경상북도"
  },
  {
    "name": "지엘리더스파크골드 2단지아파트 지하주차장 1층",
    "address": "경상북도 상주시 영남제일로 1649 (냉림동, 지엘리더스파크골드)",
    "lat": 36.4266565754999,
    "lng": 128.1607030638585,
    "region": "경상북도"
  },
  {
    "name": "상주무양엘에이치7단지아파트 지하주차장 1층",
    "address": "경상북도 상주시 동수4길 55 (무양동, 상주무양엘에이치7단지)",
    "lat": 36.423159613692704,
    "lng": 128.15473007364622,
    "region": "경상북도"
  },
  {
    "name": "상주무양엘에이치천년나무아파트 지하주차장  1층",
    "address": "경상북도 상주시 동수4길 33 (무양동, 상주무양엘에이치천년나무)",
    "lat": 36.423196268171885,
    "lng": 128.153086471559,
    "region": "경상북도"
  },
  {
    "name": "지엘리베라움아파트 지하주차장 1층",
    "address": "경상북도 상주시 봉양1길 126 (무양동, 지엘리베라움아파트)",
    "lat": 36.42541605150208,
    "lng": 128.15632183072827,
    "region": "경상북도"
  },
  {
    "name": "함창장로교회 지하 1층",
    "address": "경상북도 상주시 함창읍 함창시장2길 37-15, 함창장로교회",
    "lat": 36.568381515950655,
    "lng": 128.17941818548687,
    "region": "경상북도"
  },
  {
    "name": "중동면 행정복지센터 지하 1층",
    "address": "경상북도 상주시 중동면 공산로 9, 중동면행정복지센터",
    "lat": 36.42604845666473,
    "lng": 128.27113016983617,
    "region": "경상북도"
  },
  {
    "name": "외남면 행정복지센터 지하 1층",
    "address": "경상북도 상주시 외남면 석단로 932, 외남면사무소",
    "lat": 36.35733457140422,
    "lng": 128.08903795420355,
    "region": "경상북도"
  },
  {
    "name": "화북면 행정복지센터 지하 1층",
    "address": "경상북도 상주시 화북면 문장로 1739, 화북면사무소",
    "lat": 36.56339799635666,
    "lng": 127.9176049077678,
    "region": "경상북도"
  },
  {
    "name": "이안면 행정복지센터 지하 1층",
    "address": "경상북도 상주시 이안면 양범안룡길 46, 이안면사무소",
    "lat": 36.57912159728387,
    "lng": 128.14559256701227,
    "region": "경상북도"
  },
  {
    "name": "화남면 행정복지센터 지하 1층",
    "address": "경상북도 상주시 화남면 평온동관로 3, 화남면사무소",
    "lat": 36.44813684637314,
    "lng": 127.9057945490374,
    "region": "경상북도"
  },
  {
    "name": "함창LH천년나무 1단지 아파트 지하주차장 1층",
    "address": "경상북도 상주시 함창읍 구향4길 15 (상주함창LH2단지)",
    "lat": 36.5713962658763,
    "lng": 128.182931629647,
    "region": "경상북도"
  },
  {
    "name": "상주무양태왕아너스 아파트 지하주차장 1층",
    "address": "경상북도 상주시 동수4길 42-7 (무양동)",
    "lat": 36.4224583594225,
    "lng": 128.153398690849,
    "region": "경상북도"
  },
  {
    "name": "문경시 노인복지관 지하주차장 1층",
    "address": "경상북도 문경시 점촌5길 20 (점촌동)",
    "lat": 36.59739731263327,
    "lng": 128.19831756435326,
    "region": "경상북도"
  },
  {
    "name": "시청 1청사 지하1층",
    "address": "경상북도 문경시 당교로 225 (모전동)",
    "lat": 36.58594755667647,
    "lng": 128.18766590003554,
    "region": "경상북도"
  },
  {
    "name": "남도맨션 지하주차장 1층",
    "address": "경상북도 문경시 모전로 94 (모전동, 남도맨션)",
    "lat": 36.589670184747554,
    "lng": 128.19012674719414,
    "region": "경상북도"
  },
  {
    "name": "현대아파트 지하주차장 1층",
    "address": "경상북도 문경시 시청3길 10 (모전동, 현대아파트)",
    "lat": 36.58801077388165,
    "lng": 128.1888641669748,
    "region": "경상북도"
  },
  {
    "name": "대동아파트 지하주차장 1층",
    "address": "경상북도 문경시 매봉4길 15 (모전동, 대동타운)",
    "lat": 36.58706546761879,
    "lng": 128.18373404029558,
    "region": "경상북도"
  },
  {
    "name": "중앙시장상가 지하주차장 1층",
    "address": "경상북도 문경시 중앙로 87 (점촌동)",
    "lat": 36.59331442453484,
    "lng": 128.19752010960053,
    "region": "경상북도"
  },
  {
    "name": "에이스아파트 지하주차장 1층",
    "address": "경상북도 문경시 돈달산길 13 (점촌동)",
    "lat": 36.59889709876516,
    "lng": 128.19262380530407,
    "region": "경상북도"
  },
  {
    "name": "푸른숲아파트 지하주차장 1층",
    "address": "경상북도 문경시 돈달로 199 (흥덕동)",
    "lat": 36.60638976303187,
    "lng": 128.20405848347076,
    "region": "경상북도"
  },
  {
    "name": "상무아파트 지하주차장 1층",
    "address": "경상북도 문경시 호서로 177 (흥덕동)",
    "lat": 36.60933109664353,
    "lng": 128.20398703751343,
    "region": "경상북도"
  },
  {
    "name": "브리티시골드 지하주차장 1층",
    "address": "경상북도 문경시 당교로 231 (모전동, 브리티시골드)",
    "lat": 36.58595704098097,
    "lng": 128.1882546761508,
    "region": "경상북도"
  },
  {
    "name": "신원아침도시아파트 지하주차장 1층",
    "address": "경상북도 문경시 여중1길 30 (모전동)",
    "lat": 36.59777760111646,
    "lng": 128.18892171023074,
    "region": "경상북도"
  },
  {
    "name": "석탄박물관 갱도체험장 지하 1층",
    "address": "경상북도 문경시 가은읍 왕능길 112 (문경석탄박물관)",
    "lat": 36.65295375736809,
    "lng": 128.0616323530235,
    "region": "경상북도"
  },
  {
    "name": "신평마을아파트 지하 1층",
    "address": "경상북도 문경시 공평로 58-9 (공평동, 신평마을아파트)",
    "lat": 36.60433322631833,
    "lng": 128.18447850457625,
    "region": "경상북도"
  },
  {
    "name": "문경그랜드리조트 지하1층",
    "address": "경상북도 문경시 문경읍 새재로 913-14, 문경그랜드리조트",
    "lat": 36.75989774062808,
    "lng": 128.07506257667467,
    "region": "경상북도"
  },
  {
    "name": "시립문경요양병원 지하1층",
    "address": "경상북도 문경시 문경읍 여우목로 31 (기능성온천장)",
    "lat": 36.73132618855483,
    "lng": 128.11141425792894,
    "region": "경상북도"
  },
  {
    "name": "문경코아루아파트 지하주차장 1층",
    "address": "경상북도 문경시 당교6길 25 (모전동, 문경코아루아파트)",
    "lat": 36.58223081608983,
    "lng": 128.18321819560185,
    "region": "경상북도"
  },
  {
    "name": "문점점촌코아루아파트 지하주차장 1층",
    "address": "경상북도 문경시 상신로 115 (모전동, 문경점촌 코아루 아파트)",
    "lat": 36.5998188083934,
    "lng": 128.18777008769155,
    "region": "경상북도"
  },
  {
    "name": "경산시청(본관 지하1층)",
    "address": "경상북도 경산시 남매로 159, 경산시청, 경산시의회 지하1층 (중방동)",
    "lat": 35.824800089349715,
    "lng": 128.74229425017862,
    "region": "경상북도"
  },
  {
    "name": "우방맨션1차(101동 102동 사이 지하주차장 1층)",
    "address": "경상북도 경산시 대학로16길 6, 지하1층 (정평동, 경산1차우방맨션)",
    "lat": 35.83344831729021,
    "lng": 128.7305426782949,
    "region": "경상북도"
  },
  {
    "name": "귀빈타운(104, 105동 앞 지하주차장 1층)",
    "address": "경상북도 경산시 대학로12길 24, 지하1층 (정평동, 귀빈타운)",
    "lat": 35.831774912785654,
    "lng": 128.72922081137122,
    "region": "경상북도"
  },
  {
    "name": "청구아파트(지하주차장 1층)",
    "address": "경상북도 경산시 하양읍 하양로33길 6, 지하1층 (하양1차청구타운)",
    "lat": 35.91774885660097,
    "lng": 128.82417406395723,
    "region": "경상북도"
  },
  {
    "name": "경남신성아파트(110동 1-2호라인앞지하주차장 1층)",
    "address": "경상북도 경산시 성암로21길 69, 지하1층 (중산동, 경남,신성아파트)",
    "lat": 35.83065570073244,
    "lng": 128.72565642298702,
    "region": "경상북도"
  },
  {
    "name": "현대타운(109동, 110동 사이 지하1층주차장)",
    "address": "경상북도 경산시 대학로9길 8, 지하1층 (정평동, 정평현대타운)",
    "lat": 35.83512615879348,
    "lng": 128.7276183172003,
    "region": "경상북도"
  },
  {
    "name": "삼주봉황4차아파트(501,6동 지하1층주차장)",
    "address": "경상북도 경산시 진량읍 봉황길 72, 지하1층 (경산4차삼주봉황타운)",
    "lat": 35.88349314335038,
    "lng": 128.82571624658956,
    "region": "경상북도"
  },
  {
    "name": "우방3차아파트(지하주차장 1층)",
    "address": "경상북도 경산시 하양읍 문화로 3, 지하1층 (하양3차우방타운)",
    "lat": 35.90981866245607,
    "lng": 128.813629377778,
    "region": "경상북도"
  },
  {
    "name": "삼주1차봉황타운(101,2,3동 지하1층 주차장)",
    "address": "경상북도 경산시 진량읍 봉황길 31, 지하1층 (경산1차 삼주봉황타운)",
    "lat": 35.884560837118826,
    "lng": 128.82156184223965,
    "region": "경상북도"
  },
  {
    "name": "창신황제타운(102,4,6,7동 지하1층주차장)",
    "address": "경상북도 경산시 진량읍 황제1길 86-31, 지하1층 (창신황제타운)",
    "lat": 35.85767771006748,
    "lng": 128.8181358113845,
    "region": "경상북도"
  },
  {
    "name": "부적주공아파트(106동,107동 지하1층 주차장)",
    "address": "경상북도 경산시 압량읍 조산로 26(부적주공아파트)",
    "lat": 35.845717123510525,
    "lng": 128.76088862936732,
    "region": "경상북도"
  },
  {
    "name": "윤성3차아파트(101동,102동 지하1층 주차장)",
    "address": "경상북도 경산시 압량읍 연지길 152(경산 윤성3차아파트)",
    "lat": 35.865364993187505,
    "lng": 128.7888205234903,
    "region": "경상북도"
  },
  {
    "name": "한서신혼하이츠(아파트정문 앞 지하주차장 1층)",
    "address": "경상북도 경산시 대학로13길 26, 지하1층 (정평동, 경산 한서 고층아파트)",
    "lat": 35.83627288348589,
    "lng": 128.72941836551524,
    "region": "경상북도"
  },
  {
    "name": "청구2차아파트(지하주차장 1층)",
    "address": "경상북도 경산시 하양읍 하양로 202-8, 지하1층 (하양2차청구타운)",
    "lat": 35.91684031508263,
    "lng": 128.82786071288837,
    "region": "경상북도"
  },
  {
    "name": "하양롯데아파트(지하주차장 1층,2층)",
    "address": "경상북도 경산시 하양읍 대학로298길 20-9, 지하1~2층 (경산하양롯데아파트)",
    "lat": 35.91137163689424,
    "lng": 128.82582839787727,
    "region": "경상북도"
  },
  {
    "name": "선화청구타운(지하주차장 1층)",
    "address": "경상북도 경산시 진량읍 영청길 22, 지하1층 (경산선화청구타운)",
    "lat": 35.87454585442578,
    "lng": 128.8005999399177,
    "region": "경상북도"
  },
  {
    "name": "우방힐타운(지하주차장 1층,2층)",
    "address": "경상북도 경산시 진량읍 공단로 527, 지하1층 (경산 우방힐타운)",
    "lat": 35.87901775878382,
    "lng": 128.81747005683596,
    "region": "경상북도"
  },
  {
    "name": "옥산청구타운(103,105동 지하주차장 1층)",
    "address": "경상북도 경산시 성암로8길 24 (옥산동)",
    "lat": 35.82076935944327,
    "lng": 128.72293800419976,
    "region": "경상북도"
  },
  {
    "name": "조아아울렛",
    "address": "경상북도 경산시 강변동로 278 (대평동)",
    "lat": 35.8345769855467,
    "lng": 128.733397054683,
    "region": "경상북도"
  },
  {
    "name": "웰리치성암(지하주차장 1층)",
    "address": "경상북도 경산시 삼성현로 203 (옥곡동, 웰리치성암)",
    "lat": 35.81591723486923,
    "lng": 128.7250117508326,
    "region": "경상북도"
  },
  {
    "name": "옥산2지구공영주차장(지하주차장 1층)",
    "address": "경상북도 경산시 강변서로51길 49 (옥산동)",
    "lat": 35.82943058677791,
    "lng": 128.72630710641488,
    "region": "경상북도"
  },
  {
    "name": "2차롯데낙천대아파트(지하주차장 1층,2층)",
    "address": "경상북도 경산시 하양읍 대학로295길 26, 지하 1~2층 (경산 하양2차 롯데낙천대)",
    "lat": 35.90940723175251,
    "lng": 128.8208055730219,
    "region": "경상북도"
  },
  {
    "name": "동신타운(지하주차장 1층)",
    "address": "경상북도 경산시 하양읍 무학로 6, 지하1층 (하양동신아파트)",
    "lat": 35.9167566888283,
    "lng": 128.81521228678295,
    "region": "경상북도"
  },
  {
    "name": "보국웰리치(지하주차장 1층,2층)",
    "address": "경상북도 경산시 진량읍 해든길 11, 지하1층 (보국웰리치경산)",
    "lat": 35.873631656310266,
    "lng": 128.81792167944892,
    "region": "경상북도"
  },
  {
    "name": "진량휴먼시아(지하주차장 1층)",
    "address": "경상북도 경산시 진량읍 금호강변로 830-3, 지하1층 (진량 휴먼시아)",
    "lat": 35.90610648958016,
    "lng": 128.82172546616044,
    "region": "경상북도"
  },
  {
    "name": "삼주봉황3차아파트(지하주차장 1층)",
    "address": "경상북도 경산시 진량읍 봉황길 21, 지하1층 (경산3차삼주봉황타운)",
    "lat": 35.88473492942243,
    "lng": 128.82042076059903,
    "region": "경상북도"
  },
  {
    "name": "우림필유(지하주차장 1층)",
    "address": "경상북도 경산시 진량읍 봉황길 53, 지하1층 (우림필유)",
    "lat": 35.884281441413684,
    "lng": 128.8239492640332,
    "region": "경상북도"
  },
  {
    "name": "예다인아파트(지하주차장 1층)",
    "address": "경상북도 경산시 와촌면 금송로 325, 지하1층 (예다인아파트)",
    "lat": 35.938592990746294,
    "lng": 128.83319863605053,
    "region": "경상북도"
  },
  {
    "name": "한라빌라트(101동 지하1층 주차장)",
    "address": "경상북도 경산시 압량읍 화랑로63길 3, 101동 지하1층 (한라빌라트)",
    "lat": 35.84068036534275,
    "lng": 128.76142573426927,
    "region": "경상북도"
  },
  {
    "name": "성암산신동아파밀리에(110동대 지하주차장 1층)",
    "address": "경상북도 경산시 장산로4길 10 (옥곡동)",
    "lat": 35.814320668515364,
    "lng": 128.72770317745267,
    "region": "경상북도"
  },
  {
    "name": "경산우방유쉘(지하주차장 1층)",
    "address": "경상북도 경산시 강변서로 111 (옥곡동)",
    "lat": 35.81808637380597,
    "lng": 128.7323701556874,
    "region": "경상북도"
  },
  {
    "name": "부영우리마을(205,207동 지하주차장 1층)",
    "address": "경상북도 경산시 경산로 26 (옥곡동)",
    "lat": 35.81208908628405,
    "lng": 128.73481460371767,
    "region": "경상북도"
  },
  {
    "name": "영남대학교중앙도서관(지하1층)",
    "address": "경상북도 경산시 대학로 280, 영남대학교 지하1층 (대동)",
    "lat": 35.83597945643898,
    "lng": 128.75295531546902,
    "region": "경상북도"
  },
  {
    "name": "조아아울렛(지하1층)",
    "address": "경상북도 경산시 강변동로 278, 지하1층 (대평동)",
    "lat": 35.83443735058102,
    "lng": 128.7332263162755,
    "region": "경상북도"
  },
  {
    "name": "태왕드림하이츠 아파트 (지하주차장 1층, 2층)",
    "address": "경상북도 경산시 삼풍로 13-7 (삼풍동, 태왕드림하이츠)",
    "lat": 35.822269013430414,
    "lng": 128.75391859013413,
    "region": "경상북도"
  },
  {
    "name": "부영초록마을(106동 지하1층 주차장)",
    "address": "경상북도 경산시 백천동로 5, 지하1층 (백천동, 부영 초록마을)",
    "lat": 35.80804519593929,
    "lng": 128.73732986596733,
    "region": "경상북도"
  },
  {
    "name": "신나리아파트(101,102동 지하1층 주차장)",
    "address": "경상북도 경산시 경청로222길 8, 지하1층 (백천동, 경산 백천신나리아파트)",
    "lat": 35.80376203093052,
    "lng": 128.74023953915798,
    "region": "경상북도"
  },
  {
    "name": "상방주공아파트(105,107동 지하1층 주차장)",
    "address": "경상북도 경산시 남매로6길 7, 지하1층 (상방동, 주공아파트)",
    "lat": 35.8132659467455,
    "lng": 128.7418409302707,
    "region": "경상북도"
  },
  {
    "name": "삼북주공아파트(106동,107동 지하1층 주차장)",
    "address": "경상북도 경산시 장산로 152, 지하1층 (삼북동, 경산삼북주공아파트)",
    "lat": 35.81838907813709,
    "lng": 128.74169999757976,
    "region": "경상북도"
  },
  {
    "name": "e편한세상2단지(지하주차장 1층)",
    "address": "경상북도 경산시 대학로28길 31, 지하1층 (중방동, 중방 e-편한세상 2단지)",
    "lat": 35.83100584601735,
    "lng": 128.73772862633507,
    "region": "경상북도"
  },
  {
    "name": "임당역(지하 1층, 2층, 3층)",
    "address": "경상북도 경산시 대학로 지하170, 임당역 지하1층 (중방동)",
    "lat": 35.834043015012774,
    "lng": 128.74138276892262,
    "region": "경상북도"
  },
  {
    "name": "영남대역 지하 1층",
    "address": "경상북도 경산시 대학로 지하270, 영남대역 (대동)",
    "lat": 35.8358301639397,
    "lng": 128.752144622855,
    "region": "경상북도"
  },
  {
    "name": "남산면 행정복지센터(지하1층)",
    "address": "경상북도 경산시 남산면 하남로 323, 남산면 행정복지센터, 남산보건지소",
    "lat": 35.79298642734549,
    "lng": 128.83721302231334,
    "region": "경상북도"
  },
  {
    "name": "부영6차사랑으로 아파트 (지하주차장 1층)",
    "address": "경상북도 경산시 백자로10길 11, 지하1층 (사동, 경산사동사랑으로부영6차)",
    "lat": 35.81017758453042,
    "lng": 128.75487449516797,
    "region": "경상북도"
  },
  {
    "name": "영남대역(지하1층)",
    "address": "경상북도 경산시 대학로 지하270, 영남대역 지하1층 (대동)",
    "lat": 35.83584731665754,
    "lng": 128.7521368837916,
    "region": "경상북도"
  },
  {
    "name": "크레용시티(지하주차장 1층,2층,3층,4층)",
    "address": "경상북도 경산시 하양읍 하양로 69, 크레용빌딩 지하1~4층",
    "lat": 35.9114416739599,
    "lng": 128.81623421479375,
    "region": "경상북도"
  },
  {
    "name": "신대팰리스(104,5,6,7,8동 지하1층 주차장)",
    "address": "경상북도 경산시 압량읍 압독2로 45(신대 팰리스)",
    "lat": 35.8407309223587,
    "lng": 128.76756812406614,
    "region": "경상북도"
  },
  {
    "name": "펜타힐즈더샵1차(지하주차장 1층)",
    "address": "경상북도 경산시 펜타힐즈2로 60, 지하1층 (중산동, 펜타힐즈 더샵 1차)",
    "lat": 35.828649920558526,
    "lng": 128.72035707232646,
    "region": "경상북도"
  },
  {
    "name": "영남대학교 중앙도서관 지하1층",
    "address": "경상북도 경산시 대학로 280, 영남대학교 (대동)",
    "lat": 35.8361172885867,
    "lng": 128.753106872134,
    "region": "경상북도"
  },
  {
    "name": "우성아파트(전동지하) 지하 1층",
    "address": "경상북도 의성군 의성읍 의성사곡로 10 (우성아파트)",
    "lat": 36.35046034475367,
    "lng": 128.71011011960454,
    "region": "경상북도"
  },
  {
    "name": "상리휴먼시아(전동지하) 지하 1층",
    "address": "경상북도 의성군 의성읍 동서1길 114",
    "lat": 36.35002449142735,
    "lng": 128.70691891611347,
    "region": "경상북도"
  },
  {
    "name": "대경아파트(전동지하) 지하 1층",
    "address": "경상북도 의성군 안계면 안계길 80 (대경아파트)",
    "lat": 36.381684796003306,
    "lng": 128.44321104840708,
    "region": "경상북도"
  },
  {
    "name": "미진이지비아(전동지하) 지하 1층",
    "address": "경상북도 의성군 의성읍 홍술로 192",
    "lat": 36.35763114731874,
    "lng": 128.69977303488918,
    "region": "경상북도"
  },
  {
    "name": "청송군청(지하1층)",
    "address": "경상북도 청송군 청송읍 군청로 51 (청송군청)",
    "lat": 36.43535885975813,
    "lng": 129.05730079975066,
    "region": "경상북도"
  },
  {
    "name": "청송군보건의료원(지하1층)",
    "address": "경상북도 청송군 청송읍 의료원길 19",
    "lat": 36.43061032723618,
    "lng": 129.05313324183524,
    "region": "경상북도"
  },
  {
    "name": "주왕산온천관광호텔(지하1층)",
    "address": "경상북도 청송군 청송읍 중앙로 315 (주왕산관광호텔)",
    "lat": 36.43613149379701,
    "lng": 129.06262795565712,
    "region": "경상북도"
  },
  {
    "name": "청송군종합문화복지타운(지하1층)",
    "address": "경상북도 청송군 청송읍 금월로 244-30",
    "lat": 36.42679216541925,
    "lng": 129.05703245774893,
    "region": "경상북도"
  },
  {
    "name": "진보문화체육센터(지하1층)",
    "address": "경상북도 청송군 진보면 진보로 187 (진보문화체육센터)",
    "lat": 36.52981425595024,
    "lng": 129.0519103974503,
    "region": "경상북도"
  },
  {
    "name": "영양군청 지하1층",
    "address": "경상북도 영양군 영양읍 군청길 37, 영양군청",
    "lat": 36.66609025659987,
    "lng": 129.1128486882002,
    "region": "경상북도"
  },
  {
    "name": "문화체육센타 지하1층",
    "address": "경상북도 영양군 영양읍 군민회관길 50, 영양군문화체육센타",
    "lat": 36.66011356605478,
    "lng": 129.11741036497216,
    "region": "경상북도"
  },
  {
    "name": "영양읍행정복지센터 지하1층",
    "address": "경상북도 영양군 영양읍 군청길 53, 영양읍행정복지센터",
    "lat": 36.66695058637363,
    "lng": 129.1143560742638,
    "region": "경상북도"
  },
  {
    "name": "영양객주 지하1층",
    "address": "경상북도 영양군 영양읍 시장3길 11, 외씨버선길 영양객주",
    "lat": 36.6641540255024,
    "lng": 129.11550240628037,
    "region": "경상북도"
  },
  {
    "name": "영양교육지원청 지하1층",
    "address": "경상북도 영양군 영양읍 영양창수로 83, 영양군교육청",
    "lat": 36.66248310444252,
    "lng": 129.12263317384878,
    "region": "경상북도"
  },
  {
    "name": "청소년수련관 지하1층",
    "address": "경상북도 영양군 영양읍 동서대로 92, 청소년수련관",
    "lat": 36.66151554293413,
    "lng": 129.11899873683825,
    "region": "경상북도"
  },
  {
    "name": "영양문화원 지하1층",
    "address": "경상북도 영양군 영양읍 군민회관길 7, 영양문화원",
    "lat": 36.66363611402873,
    "lng": 129.1175127953517,
    "region": "경상북도"
  },
  {
    "name": "입암면종합복지회관",
    "address": "경상북도 영양군 입암면 조기리길 18, 입암면종합복지회관",
    "lat": 36.59411669781208,
    "lng": 129.09031053482926,
    "region": "경상북도"
  },
  {
    "name": "두들마을역사체험관 지하1층",
    "address": "경상북도 영양군 석보면 두들마을길 28",
    "lat": 36.561053541341806,
    "lng": 129.12382978017956,
    "region": "경상북도"
  },
  {
    "name": "영덕군청(본청 지하 1층)",
    "address": "경상북도 영덕군 영덕읍 군청길 116 (영덕군청)",
    "lat": 36.41461924606235,
    "lng": 129.3662638779043,
    "region": "경상북도"
  },
  {
    "name": "영덕경찰서(본청 지하 1층)",
    "address": "경상북도 영덕군 영덕읍 남산1길 14 (영덕경찰서)",
    "lat": 36.40049355186984,
    "lng": 129.37056984338977,
    "region": "경상북도"
  },
  {
    "name": "영덕교육지원청(본청 지하 1층)",
    "address": "경상북도 영덕군 영덕읍 읍사무소1길 32-15 (영덕교육지원청)",
    "lat": 36.40890058355067,
    "lng": 129.37393787609585,
    "region": "경상북도"
  },
  {
    "name": "영덕세무서(지하 1충)",
    "address": "경상북도 영덕군 영덕읍 영덕로 35-11 (영덕세무서)",
    "lat": 36.398733528535786,
    "lng": 129.36982829194548,
    "region": "경상북도"
  },
  {
    "name": "마이다스빌(지하주차장 1층)",
    "address": "경상북도 영덕군 영덕읍 영덕로 163 (마이다스빌)",
    "lat": 36.40933204642273,
    "lng": 129.37487012623896,
    "region": "경상북도"
  },
  {
    "name": "혜광신세계타운(지하주차장 1층)",
    "address": "경상북도 영덕군 영덕읍 중앙길 20 (혜광신세계타운)",
    "lat": 36.41171511162543,
    "lng": 129.3765787712777,
    "region": "경상북도"
  },
  {
    "name": "태양맨숀(지하주차장 1층)",
    "address": "경상북도 영덕군 영덕읍 강영로 504 (태양맨숀)",
    "lat": 36.4040331407589,
    "lng": 129.37596827955724,
    "region": "경상북도"
  },
  {
    "name": "대구지방검찰청영덕지청(본청 지하 1층)",
    "address": "경상북도 영덕군 영덕읍 경동로 8335 (대구지방검찰청영덕지청)",
    "lat": 36.42062216066884,
    "lng": 129.3656610624761,
    "region": "경상북도"
  },
  {
    "name": "대구지방법원영덕지원(본청 지하1층 )",
    "address": "경상북도 영덕군 영덕읍 경동로 8337 (대구지방법원영덕지원)",
    "lat": 36.42012841524499,
    "lng": 129.36605492521318,
    "region": "경상북도"
  },
  {
    "name": "맘애듬아파트(지하주차장 1층)",
    "address": "경상북도 영덕군 영덕읍 덕곡천길 34 (한동맘애듬아파트)",
    "lat": 36.40884045933431,
    "lng": 129.37119110720093,
    "region": "경상북도"
  },
  {
    "name": "우진센트럴하임아파트(지하주차장 1층)",
    "address": "경상북도 영덕군 영덕읍 읍사무소1길 42-21 (영덕우진센트럴하임)",
    "lat": 36.4093286535239,
    "lng": 129.37425822384975,
    "region": "경상북도"
  },
  {
    "name": "강구중학교 지하 1층",
    "address": "경상북도 영덕군 강구면 신강구1길 45-5 (강구중학교)",
    "lat": 36.35355260792115,
    "lng": 129.37993515839108,
    "region": "경상북도"
  },
  {
    "name": "예주문화예술회관 지하1층",
    "address": "경상북도 영덕군 영해면 318만세길 36 (예주문화예술회관)",
    "lat": 36.52983729945321,
    "lng": 129.4052426169258,
    "region": "경상북도"
  },
  {
    "name": "영덕야성초등학교 지하 1층",
    "address": "경상북도 영덕군 영덕읍 덕곡길 96-0",
    "lat": 36.41213226245336,
    "lng": 129.3690887509004,
    "region": "경상북도"
  },
  {
    "name": "재향군인회관 지하 1층 체력단련실",
    "address": "경상북도 청도군 청도읍 고수동5길 21 (청도향군회관)",
    "lat": 35.642140464149044,
    "lng": 128.74814340658529,
    "region": "경상북도"
  },
  {
    "name": "일송빌딩 지하주차장 1층",
    "address": "경상북도 청도군 청도읍 냉정길 1",
    "lat": 35.64763135209875,
    "lng": 128.7379471993258,
    "region": "경상북도"
  },
  {
    "name": "성조아파트 101동 지하주차장 1층",
    "address": "경상북도 청도군 청도읍 고수뒷길 74-16 (성조타운)",
    "lat": 35.640922429878124,
    "lng": 128.7425805973757,
    "region": "경상북도"
  },
  {
    "name": "화양읍사무소 지하 1층 창고",
    "address": "경상북도 청도군 화양읍 도주관로 159 (화양읍사무소)",
    "lat": 35.64927439552386,
    "lng": 128.70633012910056,
    "region": "경상북도"
  },
  {
    "name": "청도군청 지하 1층",
    "address": "경상북도 청도군 화양읍 청화로 70 (청도군청)",
    "lat": 35.64786496101285,
    "lng": 128.73499970599562,
    "region": "경상북도"
  },
  {
    "name": "청도군 보건소 \"수영장\" 지하 1층",
    "address": "경상북도 청도군 화양읍 청화로 79-15 (사회복지법인에덴원)",
    "lat": 35.648655205960154,
    "lng": 128.73777080318652,
    "region": "경상북도"
  },
  {
    "name": "청도대남병원 장례식장 지하 1층",
    "address": "경상북도 청도군 화양읍 청화로 79-7",
    "lat": 35.64849472511963,
    "lng": 128.73686461560766,
    "region": "경상북도"
  },
  {
    "name": "성조아파트 102동 지하주차장 1층",
    "address": "경상북도 청도군 청도읍 고수산복길 86 (성조타운)",
    "lat": 35.64115006440978,
    "lng": 128.74169704804123,
    "region": "경상북도"
  },
  {
    "name": "청도군 온누리복지관 지하 1층",
    "address": "경상북도 청도군 청도읍 한내길 68 (청도군노인복지회관)",
    "lat": 35.65126195346464,
    "lng": 128.74277850574177,
    "region": "경상북도"
  },
  {
    "name": "하나병원 지하시설 1층",
    "address": "경상북도 청도군 청도읍 청도신기길 78-10",
    "lat": 35.64935893850764,
    "lng": 128.7455295361254,
    "region": "경상북도"
  },
  {
    "name": "청도군민회관",
    "address": "경상북도 청도군 화양읍 청화로 47 (청도군민회관)",
    "lat": 35.648658302700944,
    "lng": 128.73273711867785,
    "region": "경상북도"
  },
  {
    "name": "화양우체국 지하 1층",
    "address": "경상북도 청도군 화양읍 도주관로 151 (화양우체국)",
    "lat": 35.648837867284726,
    "lng": 128.70568931113988,
    "region": "경상북도"
  },
  {
    "name": "명동의류 지하주차장 1층",
    "address": "경상북도 청도군 청도읍 중앙로 7",
    "lat": 35.642960429522354,
    "lng": 128.7453115538427,
    "region": "경상북도"
  },
  {
    "name": "모계중고 다목적 강당(공감홀) 지하 1층",
    "address": "경상북도 청도군 화양읍 청화로 67 (모계고등학교,모계중학교)",
    "lat": 35.648196110952185,
    "lng": 128.73495520867084,
    "region": "경상북도"
  },
  {
    "name": "청도코아루블루핀아파트 지하주차장 1층",
    "address": "경상북도 청도군 화양읍 청화로 26-1 (청도 코아루 블루핀)",
    "lat": 35.64821984169896,
    "lng": 128.72959760721747,
    "region": "경상북도"
  },
  {
    "name": "군청지하대피시설 지하1층",
    "address": "경상북도 고령군 대가야읍 왕릉로 55, 고령군청",
    "lat": 35.72576375645971,
    "lng": 128.26345016708643,
    "region": "경상북도"
  },
  {
    "name": "문화누리관 지하1층",
    "address": "경상북도 고령군 대가야읍 왕릉로 30, 대가야문화누리",
    "lat": 35.72364567490846,
    "lng": 128.26239758340498,
    "region": "경상북도"
  },
  {
    "name": "고령교육지원청 지하1층",
    "address": "경상북도 고령군 대가야읍 가야금길 34 (경상북도고령교육지원청)",
    "lat": 35.741432210255255,
    "lng": 128.27092721172724,
    "region": "경상북도"
  },
  {
    "name": "성주군청 지하 1층",
    "address": "경상북도 성주군 성주읍 성주로 3200 (성주군청)",
    "lat": 35.91924646239115,
    "lng": 128.2831344777497,
    "region": "경상북도"
  },
  {
    "name": "성주교육청 지하 1층",
    "address": "경상북도 성주군 성주읍 주산로 71-4 (경상북도성주교육청)",
    "lat": 35.92771612519928,
    "lng": 128.29460084209217,
    "region": "경상북도"
  },
  {
    "name": "성주우체국 지하주차장 1층",
    "address": "경상북도 성주군 성주읍 성주로 3210 (성주우체국)",
    "lat": 35.91858101176607,
    "lng": 128.28491619999917,
    "region": "경상북도"
  },
  {
    "name": "청일가야아파트 지하주차장 1층",
    "address": "경상북도 성주군 성주읍 성주읍1길 20 (청일가야아파트)",
    "lat": 35.919401858757915,
    "lng": 128.29018711290706,
    "region": "경상북도"
  },
  {
    "name": "청구신호타운 지하주차장 1층",
    "address": "경상북도 성주군 성주읍 경산2길 19-8 (청구신호아파트)",
    "lat": 35.914736080419885,
    "lng": 128.2818333205138,
    "region": "경상북도"
  },
  {
    "name": "성주우방타운 지하주차장 1층",
    "address": "경상북도 성주군 성주읍 성주순환로 14 (성주우방타운)",
    "lat": 35.9189395662386,
    "lng": 128.277942464654,
    "region": "경상북도"
  },
  {
    "name": "신성강변타운 지하주차장 1층",
    "address": "경상북도 성주군 성주읍 성밖숲길 43 (신성강변타운)",
    "lat": 35.914826271348446,
    "lng": 128.2814043674467,
    "region": "경상북도"
  },
  {
    "name": "성주문화예술회관 대강당 지하 1층",
    "address": "경상북도 성주군 성주읍 성산9길 45 (성주문화예술회관)",
    "lat": 35.91815094316024,
    "lng": 128.30116269246383,
    "region": "경상북도"
  },
  {
    "name": "성주창의문화센터 지하주차장 1층",
    "address": "경상북도 성주군 성주읍 경산길 15, 성주창의문화센터",
    "lat": 35.9173692584524,
    "lng": 128.285091986582,
    "region": "경상북도"
  },
  {
    "name": "전원대동타운 지하주차장",
    "address": "경상북도 칠곡군 북삼읍 외율1길 9 (전원대동타운)",
    "lat": 36.05106903782234,
    "lng": 128.3441437736731,
    "region": "경상북도"
  },
  {
    "name": "금오현대아파트 지하주차장",
    "address": "경상북도 칠곡군 북삼읍 안산2길 37-9 (금오현대아파트)",
    "lat": 36.06687912552219,
    "lng": 128.33572705211787,
    "region": "경상북도"
  },
  {
    "name": "인평창신아파트 지하주차장",
    "address": "경상북도 칠곡군 북삼읍 금오대로6길 9-6 (인평창신아파트)",
    "lat": 36.06885097539128,
    "lng": 128.34819594365322,
    "region": "경상북도"
  },
  {
    "name": "동부늘푸른타운 지하주차장",
    "address": "경상북도 칠곡군 북삼읍 북삼로8길 19 (동부늘푸른타운)",
    "lat": 36.07191237057412,
    "lng": 128.33601891914608,
    "region": "경상북도"
  },
  {
    "name": "숭오대동타운 지하주차장",
    "address": "경상북도 칠곡군 북삼읍 인강5길 59 (대동아파트)",
    "lat": 36.06772170671596,
    "lng": 128.3398960199898,
    "region": "경상북도"
  },
  {
    "name": "숭오화진금봉타운1차 지하주차장",
    "address": "경상북도 칠곡군 북삼읍 안산2길 6-4 (숭오화진금봉타운(1차))",
    "lat": 36.06397208117285,
    "lng": 128.33425516445226,
    "region": "경상북도"
  },
  {
    "name": "왜관삼성아파트 지하주차장",
    "address": "경상북도 칠곡군 왜관읍 구상길 180 (삼성아파트)",
    "lat": 35.98274273312794,
    "lng": 128.39546149926034,
    "region": "경상북도"
  },
  {
    "name": "왜관한빛타운 지하주차장",
    "address": "경상북도 칠곡군 왜관읍 석전로 77 (왜관한빛타운)",
    "lat": 36.00037430820405,
    "lng": 128.40585002350304,
    "region": "경상북도"
  },
  {
    "name": "3공단부영아파트 지하주차장",
    "address": "경상북도 칠곡군 석적읍 북중리3길 70 (3공단부영아파트)",
    "lat": 36.08022389176289,
    "lng": 128.41289476776436,
    "region": "경상북도"
  },
  {
    "name": "우방신천지아파트 지하주차장",
    "address": "경상북도 칠곡군 석적읍 석적로 955-19 (우방신천지아파트)",
    "lat": 36.07493430705378,
    "lng": 128.3917251908243,
    "region": "경상북도"
  },
  {
    "name": "이원리버빌 지하주차장",
    "address": "경상북도 칠곡군 왜관읍 2번도로길 105 (이원리버빌아파트)",
    "lat": 35.99699872608936,
    "lng": 128.39728083561351,
    "region": "경상북도"
  },
  {
    "name": "왜관휴먼시아4단지 지하주차장",
    "address": "경상북도 칠곡군 왜관읍 관문로1길 24 (왜관휴먼시아4단지)",
    "lat": 35.99028377707682,
    "lng": 128.41678335015695,
    "region": "경상북도"
  },
  {
    "name": "대동다숲아파트 지하주차장",
    "address": "경상북도 칠곡군 왜관읍 평장3길 50 (대동다숲아파트)",
    "lat": 35.984323213082554,
    "lng": 128.40604243995477,
    "region": "경상북도"
  },
  {
    "name": "북삼휴먼시아 지하주차장",
    "address": "경상북도 칠곡군 북삼읍 북삼로 200 (북삼 휴먼시아)",
    "lat": 36.06398424882471,
    "lng": 128.3328741529665,
    "region": "경상북도"
  },
  {
    "name": "숭오화성파크 지하주차장",
    "address": "경상북도 칠곡군 북삼읍 북삼로 193-5 (숭오화성파크)",
    "lat": 36.06504528519317,
    "lng": 128.33358382484752,
    "region": "경상북도"
  },
  {
    "name": "칠곡남율효성해링턴플레이스 1단지 지하주차장",
    "address": "경상북도 칠곡군 석적읍 남율로9길 33 (칠곡남율효성해링턴플레이스1단지)",
    "lat": 36.06811364032524,
    "lng": 128.4024972064946,
    "region": "경상북도"
  },
  {
    "name": "중리금호어울림 지하주차장",
    "address": "경상북도 칠곡군 석적읍 서중리5길 66-6 (중리금호어울림)",
    "lat": 36.07542298069682,
    "lng": 128.40552244299136,
    "region": "경상북도"
  },
  {
    "name": "약목오성타워맨션 지하주차장",
    "address": "경상북도 칠곡군 약목면 복성13길 24 (약목오성타워맨션)",
    "lat": 36.03798103636272,
    "lng": 128.359310442273,
    "region": "경상북도"
  },
  {
    "name": "세아아파트101동 지하주차장(지하1층)",
    "address": "경상북도 예천군 예천읍 양궁로 83(예천세아아파트)",
    "lat": 36.6455922988832,
    "lng": 128.463271309754,
    "region": "경상북도"
  },
  {
    "name": "세아아파트102동 지하주차장(지하1층)",
    "address": "경상북도 예천군 예천읍 양궁로 83(예천세아아파트)",
    "lat": 36.6455922988832,
    "lng": 128.463271309754,
    "region": "경상북도"
  },
  {
    "name": "장미마을아파트 101동 지하주차장(지하1층)",
    "address": "경상북도 예천군 예천읍 대심1길 19(장미마을아파트)",
    "lat": 36.64904106024067,
    "lng": 128.4414443668393,
    "region": "경상북도"
  },
  {
    "name": "장미마을아파트 103동 지하주차장(지하1층)",
    "address": "경상북도 예천군 예천읍 대심1길 19(장미마을아파트)",
    "lat": 36.64904106024067,
    "lng": 128.4414443668393,
    "region": "경상북도"
  },
  {
    "name": "보건소 지하공간(지하1층)",
    "address": "경상북도 예천군 예천읍 군청길 33, 예천군보건소",
    "lat": 36.65725254946275,
    "lng": 128.4530800205922,
    "region": "경상북도"
  },
  {
    "name": "예천우체국 지하공간(지하1층)",
    "address": "경상북도 예천군 예천읍 군청길 27, 예천우체국",
    "lat": 36.65702905750255,
    "lng": 128.45247489761417,
    "region": "경상북도"
  },
  {
    "name": "삼우목련아파트 지하주차장(지하1층)",
    "address": "경상북도 예천군 예천읍 대심3길 35-19(삼우목련아파트)",
    "lat": 36.651479746212175,
    "lng": 128.4423061234669,
    "region": "경상북도"
  },
  {
    "name": "세종타운 지하주차장(지하1층)",
    "address": "경상북도 예천군 예천읍 효자로 40(세종타운)",
    "lat": 36.65471616162819,
    "lng": 128.4487206868745,
    "region": "경상북도"
  },
  {
    "name": "두영서부빌라트 지하주차장(지하1층)",
    "address": "경상북도 예천군 예천읍 효자로 31(두영서부빌라트)",
    "lat": 36.654320169719625,
    "lng": 128.44808914569975,
    "region": "경상북도"
  },
  {
    "name": "무궁화아파트 지하주차장(지하1층)",
    "address": "경상북도 예천군 예천읍 군청길 44(무궁화아파트)",
    "lat": 36.65773216570883,
    "lng": 128.45419058126464,
    "region": "경상북도"
  },
  {
    "name": "대심주공아파트 101동 지하주차장(지하1층)",
    "address": "경상북도 예천군 예천읍 봉덕로 52(주공아파트)",
    "lat": 36.652486105333175,
    "lng": 128.44141196349358,
    "region": "경상북도"
  },
  {
    "name": "대심주공아파트 103동 지하공간",
    "address": "경상북도 예천군 예천읍 봉덕로 52(주공아파트)",
    "lat": 36.652486105333175,
    "lng": 128.44141196349358,
    "region": "경상북도"
  },
  {
    "name": "예천읍행정복지센터 지하공간(지하1층)",
    "address": "경상북도 예천군 예천읍 군청앞길 2, 예천읍 행정복지센터",
    "lat": 36.65690744779216,
    "lng": 128.45300695321882,
    "region": "경상북도"
  },
  {
    "name": "조일리버빌 지하주차장(지하1층)",
    "address": "경상북도 예천군 예천읍 한천길 21(조일리버빌)",
    "lat": 36.65580308603016,
    "lng": 128.4583276575374,
    "region": "경상북도"
  },
  {
    "name": "경북도청아이파크 1지하주차장(106~109동/지하1층)",
    "address": "경상북도 예천군 호명읍 새움3로 7(경북도청아이파크)",
    "lat": 36.57603560333976,
    "lng": 128.48771177720448,
    "region": "경상북도"
  },
  {
    "name": "경북도청아이파크 2지하주차장(101~105동/지하1층)",
    "address": "경상북도 예천군 호명읍 새움3로 7(경북도청아이파크)",
    "lat": 36.57603560333976,
    "lng": 128.48771177720448,
    "region": "경상북도"
  },
  {
    "name": "우방아이유쉘1차 지하주차장(101~108동/지하1층)",
    "address": "경상북도 예천군 호명읍 검무로 17(우방아이유쉘1차)",
    "lat": 36.57738645864087,
    "lng": 128.49410971026597,
    "region": "경상북도"
  },
  {
    "name": "우방아이유쉘2차 지하주차장(201~206동/지하1층)",
    "address": "경상북도 예천군 호명읍 행복로 230(우방아이유쉘2차)",
    "lat": 36.57749726487407,
    "lng": 128.48835735849474,
    "region": "경상북도"
  },
  {
    "name": "우방아이유쉘센텀 지하주차장(301~311동/지하1층)",
    "address": "경상북도 예천군 호명읍 검무로 27(경북도청신도시우방아이유쉘센텀)",
    "lat": 36.57797416927619,
    "lng": 128.4949183297379,
    "region": "경상북도"
  },
  {
    "name": "우방아이유쉘센트럴 지하주차장(501~510동/지하1층)",
    "address": "경상북도 예천군 호명읍 행복로 229(경북도청신도시우방아이유쉘센트럴)",
    "lat": 36.57774608182962,
    "lng": 128.4885905595847,
    "region": "경상북도"
  },
  {
    "name": "호반 2차 지하주차장(201~222동/지하1층)",
    "address": "경상북도 예천군 호명읍 양지로 14(경북도청신도시 호반베르디움2차)",
    "lat": 36.57654515205603,
    "lng": 128.48085605299548,
    "region": "경상북도"
  },
  {
    "name": "트레젠웰가 오피스텔 지하주차장(지하1층)",
    "address": "경상북도 예천군 호명읍 행복4길 25, 트레젠웰가",
    "lat": 36.57606291566517,
    "lng": 128.4713764850518,
    "region": "경상북도"
  },
  {
    "name": "에비뉴시티 오피스텔 지하주차장(지하1층)",
    "address": "경상북도 예천군 호명읍 양지9길 18, 에비뉴시티",
    "lat": 36.57626539001423,
    "lng": 128.47638920003612,
    "region": "경상북도"
  },
  {
    "name": "경북도청아이파크 2지하주차장(101~105동/지하1층)",
    "address": "경상북도 예천군 호명읍 새움3로 7 (경북도청아이파크)",
    "lat": 36.5760356035183,
    "lng": 128.487711777207,
    "region": "경상북도"
  },
  {
    "name": "이테크코아루 지하주차장(101~104동/지하1층)",
    "address": "경상북도 예천군 예천읍 양궁로 60-20 (예천이테크코아루)",
    "lat": 36.6471384508756,
    "lng": 128.460184343595,
    "region": "경상북도"
  },
  {
    "name": "예천군청 지하주차장(지하1층)",
    "address": "경상북도 예천군 예천읍 충효로 111, 예천군청",
    "lat": 36.6461505122321,
    "lng": 128.437659439128,
    "region": "경상북도"
  },
  {
    "name": "동일스위트더파크 지하주차장(지하1·2층)",
    "address": "경상북도 예천군 호명읍 행복로 177 (동일스위트 더 파크)",
    "lat": 36.5784447490992,
    "lng": 128.483494716083,
    "region": "경상북도"
  },
  {
    "name": "봉화새마을금고 지하주차장 1층",
    "address": "경상북도 봉화군 봉화읍 봉화로 1146",
    "lat": 36.890730136286216,
    "lng": 128.73536086893523,
    "region": "경상북도"
  },
  {
    "name": "군민회관 지하 1층",
    "address": "경상북도 봉화군 봉화읍 내성로4길 6-44, 봉화군민회관",
    "lat": 36.88826544784726,
    "lng": 128.74269630259943,
    "region": "경상북도"
  },
  {
    "name": "봉화군청 지하주차장 1층",
    "address": "경상북도 봉화군 봉화읍 봉화로 1111, 봉화군청",
    "lat": 36.89262742670776,
    "lng": 128.7314074924036,
    "region": "경상북도"
  },
  {
    "name": "톱텍시티파크 지하주차장 1층",
    "address": "경상북도 봉화군 봉화읍 교촌1길 2(톱텍시티파크)",
    "lat": 36.88511859353561,
    "lng": 128.73346456313786,
    "region": "경상북도"
  },
  {
    "name": "울진교육지원청 지하 1층",
    "address": "경상북도 울진군 울진읍 월변7길 17, 경상북도울진교육청",
    "lat": 36.9860961728822,
    "lng": 129.39886748673027,
    "region": "경상북도"
  },
  {
    "name": "울진우체국 지하 1층",
    "address": "경상북도 울진군 울진읍 연호로 19, 울진우체국",
    "lat": 36.99370009102803,
    "lng": 129.40332742340533,
    "region": "경상북도"
  },
  {
    "name": "울진소방서 지하 1층",
    "address": "경상북도 울진군 울진읍 울진북로 508, 울진소방서",
    "lat": 36.993557869592046,
    "lng": 129.39455095332426,
    "region": "경상북도"
  },
  {
    "name": "KT울진지사 지하주차장 1층",
    "address": "경상북도 울진군 울진읍 읍내8길 25, KT울진지점",
    "lat": 36.99481787784347,
    "lng": 129.40281611483115,
    "region": "경상북도"
  },
  {
    "name": "한국전력공사울진지사 지하 1층",
    "address": "경상북도 울진군 울진읍 울진북로 447, 한국전력공사울진지점",
    "lat": 36.988519252795655,
    "lng": 129.39545496231116,
    "region": "경상북도"
  },
  {
    "name": "농협중앙회울진군지부",
    "address": "경상북도 울진군 울진읍 울진중앙로 130, 농협중앙회울진군지부",
    "lat": 36.99308865241204,
    "lng": 129.40128553465192,
    "region": "경상북도"
  },
  {
    "name": "현대아파트 지하주차장 1층",
    "address": "경상북도 울진군 울진읍 월변9길 26(현대아파트)",
    "lat": 36.9836380287415,
    "lng": 129.39827220533948,
    "region": "경상북도"
  },
  {
    "name": "울진교육지원청 지하1층",
    "address": "경상북도 울진군 울진읍 월변7길 17, 경상북도울진교육지원청",
    "lat": 36.9860961730058,
    "lng": 129.398867486865,
    "region": "경상북도"
  },
  {
    "name": "명지렉스빌 지하주차장 1층",
    "address": "경상북도 울진군 울진읍 읍내로 70 (국민은행울진지점)",
    "lat": 36.99349712768672,
    "lng": 129.40457068396069,
    "region": "경상북도"
  },
  {
    "name": "한울원자력본부직원사택 3상록관 지하주차장 1층",
    "address": "경상북도 울진군 북면 울진북로 2149(울진원자력본부 직원사택)",
    "lat": 37.107425808524624,
    "lng": 129.37169335227074,
    "region": "경상북도"
  },
  {
    "name": "한울원자력본부직원사택 2단지 지하주차장 1층",
    "address": "경상북도 울진군 북면 울진북로 2149(울진원자력본부 직원사택)",
    "lat": 37.107425808524624,
    "lng": 129.37169335227074,
    "region": "경상북도"
  },
  {
    "name": "한울원자력본부직원사택 4단지 지하주차장 1층",
    "address": "경상북도 울진군 북면 울진북로 2149(울진원자력본부 직원사택)",
    "lat": 37.107425808524624,
    "lng": 129.37169335227074,
    "region": "경상북도"
  },
  {
    "name": "금광베네스타아파트 지하주차장 1층",
    "address": "경상북도 울진군 울진읍 울진북로 602 (금광베네스타)",
    "lat": 37.0003736015316,
    "lng": 129.399647483042,
    "region": "경상북도"
  },
  {
    "name": "삼성생명빌딩 지하주차장 1층",
    "address": "경상북도 울진군 울진읍 울진중앙로 144, 삼성생명",
    "lat": 36.9944550578507,
    "lng": 129.401389806704,
    "region": "경상북도"
  },
  {
    "name": "석호마을아파트 지하주차장 1층",
    "address": "경상북도 울진군 북면 울진북로 2234 (석호마을아파트)",
    "lat": 37.1142349770465,
    "lng": 129.373538415317,
    "region": "경상북도"
  },
  {
    "name": "윤준비치아트빌 지하주차장 1층",
    "address": "경상북도 울진군 죽변면 죽변북로 87 (윤준비치아트빌)",
    "lat": 37.0642995576298,
    "lng": 129.415777692422,
    "region": "경상북도"
  },
  {
    "name": "울릉군청(지하1층)",
    "address": "경상북도 울릉군 울릉읍 도동2길 66, 울릉군청",
    "lat": 37.48429344175938,
    "lng": 130.90559653292314,
    "region": "경상북도"
  },
  {
    "name": "한마음회관(지하1층)",
    "address": "경상북도 울릉군 울릉읍 울릉순환로 286 (한마음회관)",
    "lat": 37.490354885734746,
    "lng": 130.9047431725112,
    "region": "경상북도"
  },
  {
    "name": "울릉군의회(지하1층)",
    "address": "경상북도 울릉군 울릉읍 도동길 143 (울릉군의회)",
    "lat": 37.4841771983837,
    "lng": 130.9038423711592,
    "region": "경상북도"
  },
  {
    "name": "도동공영주차장(지하1층)",
    "address": "경상북도 울릉군 울릉읍 도동2길 23 (울릉군주차빌딩)",
    "lat": 37.483243284800565,
    "lng": 130.9075552823748,
    "region": "경상북도"
  },
  {
    "name": "울릉군보건의료원(지하1층)",
    "address": "경상북도 울릉군 울릉읍 울릉순환로 396-18 (보건의료원)",
    "lat": 37.485865037820126,
    "lng": 130.89966965115352,
    "region": "경상북도"
  },
  {
    "name": "농업기술센터(지하1층)",
    "address": "경상북도 울릉군 울릉읍 간령길 83-18 (울릉군농업기술센타)",
    "lat": 37.46002703485855,
    "lng": 130.87383794867432,
    "region": "경상북도"
  },
  {
    "name": "KT울릉지점(지하1층)",
    "address": "경상북도 울릉군 울릉읍 도동길 193 (KT울릉지점)",
    "lat": 37.48519951377676,
    "lng": 130.90177340869644,
    "region": "경상북도"
  },
  {
    "name": "울릉군 휴먼시아 아파트(지하1층)",
    "address": "경상북도 울릉군 울릉읍 봉래길 176 (저동휴먼시아)",
    "lat": 37.49689918077067,
    "lng": 130.90141554936488,
    "region": "경상북도"
  }
]