[
  {
    "name": "솔개초등학교 운동장",
    "address": "경기도 용인시 수지구 상현동 841",
    "lat": "37.30559521821703",
    "lng": "127.08190433283885",
    "region": "경기도"
  },
  {
    "name": "신서중앙공원",
    "address": "대구광역시 동구 신서동 1185",
    "lat": "35.87985340290693",
    "lng": "128.73077630996747",
    "region": "대구광역시"
  },
  {
    "name": "신용빛고을근린공원",
    "address": "광주광역시 북구 신용동 680",
    "lat": "35.20863483274003",
    "lng": "126.86123211771539",
    "region": "광주광역시"
  },
  {
    "name": "용신초등학교 운동장",
    "address": "경기도 남양주시 진건읍 신월리 87",
    "lat": "37.660732481211035",
    "lng": "127.1730673313141",
    "region": "경기도"
  },
  {
    "name": "연곡초등학교",
    "address": "강원특별자치도 강릉시 연��면 동덕리 959",
    "lat": "37.8568130246344",
    "lng": "128.829235701456",
    "region": "강원특별자치도"
  },
  {
    "name": "내서초등학교",
    "address": "대구광역시 서구 내당동 11-33",
    "lat": "35.864128371659056",
    "lng": "128.5666088177947",
    "region": "대구광역시"
  },
  {
    "name": "이현초등학교",
    "address": "대구광역시 서구 평리동 1500",
    "lat": "35.87319555942155",
    "lng": "128.55048169204582",
    "region": "대구광역시"
  },
  {
    "name": "북비산초등학교",
    "address": "대구광역시 서구 비산동 786-1",
    "lat": "35.8816794557637",
    "lng": "128.5641015119632",
    "region": "대구광역시"
  },
  {
    "name": "문산초등학교 운동장",
    "address": "경상남도 진주시 문산읍 소문리 225",
    "lat": "35.17123761582622",
    "lng": "128.1622831445487",
    "region": "경상남도"
  },
  {
    "name": "내동초등학교 운동장",
    "address": "경상남도 진주시 내동면 독산리 568-4",
    "lat": "35.164543519434204",
    "lng": "128.06807384323642",
    "region": "경상남도"
  },
  {
    "name": "부산대신중학교 운동장",
    "address": "부산광역시 서구 서대신동3가 92",
    "lat": "35.117724248910065",
    "lng": "129.0138848031519",
    "region": "부산광역시"
  },
  {
    "name": "예하초등학교 운동장",
    "address": "경상남도 진주시 정촌면 예하리 1294",
    "lat": "35.12460340848527",
    "lng": "128.0990812182395",
    "region": "경상남도"
  },
  {
    "name": "반성초등학교 운동장",
    "address": "경상남도 진주시 일반성면 개암리 805-3",
    "lat": "35.16932806743093",
    "lng": "128.28575931381775",
    "region": "경상남도"
  },
  {
    "name": "이반성초등학교 운동장",
    "address": "경상남도 진주시 이반성면 하곡리 977",
    "lat": "35.17309760301491",
    "lng": "128.32909431876385",
    "region": "경상남도"
  },
  {
    "name": "김포제일고등학교 운동장",
    "address": "경기도 김포시 운양동 1300-1",
    "lat": "37.6533",
    "lng": "126.6777",
    "region": "경기도"
  },
  {
    "name": "걸포중앙공원",
    "address": "경기도 김포시 걸포동 1553",
    "lat": "37.6374547879838",
    "lng": "126.70636832714075",
    "region": "경기도"
  },
  {
    "name": "연암중학교 운동장",
    "address": "울산광역시 북구 연암동 1128",
    "lat": "35.58514048898448",
    "lng": "129.36033904553386",
    "region": "울산광역시"
  },
  {
    "name": "연암초등학교 운동장",
    "address": "울산광역시 북구 연암동 354",
    "lat": "35.58591290608635",
    "lng": "129.3691764004489",
    "region": "울산광역시"
  },
  {
    "name": "옥천초등학교",
    "address": "강원특별자치도 강릉시 옥천동 37-1",
    "lat": "37.75607118157746",
    "lng": "128.90323698520743",
    "region": "강원특별자치도"
  },
  {
    "name": "3호 어린이공원",
    "address": "강원특별자치도 강릉시 포남동 1071",
    "lat": "37.77407518052733",
    "lng": "128.91126483678903",
    "region": "강원특별자치도"
  },
  {
    "name": "13호 어린이공원",
    "address": "강원특별자치도 강릉시 내곡동 620",
    "lat": "37.7400764324272",
    "lng": "128.87800647438",
    "region": "강원특별자치도"
  },
  {
    "name": "경포대초등학교",
    "address": "강원특별자치도 강릉시 안현동 106-6",
    "lat": "37.8049247704795",
    "lng": "128.900538780774",
    "region": "강원특별자치도"
  },
  {
    "name": "해운초등학교운동장",
    "address": "경상남도 창원시 마산합포구 월영동 605-1",
    "lat": "35.17666008417409",
    "lng": "128.55783776690288",
    "region": "경상남도"
  },
  {
    "name": "운동초등학교 운동장",
    "address": "충청북도 청주시 상당구 용암동 2948",
    "lat": "36.606498741724565",
    "lng": "127.51342319852296",
    "region": "충청북도"
  },
  {
    "name": "교동초등학교 운동장",
    "address": "충청북도 청주시 상당구 용암동 2084",
    "lat": "36.610376267542705",
    "lng": "127.51079654239243",
    "region": "충청북도"
  },
  {
    "name": "무지개공원",
    "address": "충청북도 청주시 상당구 용암동 1986",
    "lat": "36.6071215860195",
    "lng": "127.50699277430776",
    "region": "충청북도"
  },
  {
    "name": "동주초등학교 운동장",
    "address": "충청북도 청주시 상당구 금천동 323",
    "lat": "36.62997059437674",
    "lng": "127.51022537434991",
    "region": "충청북도"
  },
  {
    "name": "금천중학교 운동장",
    "address": "충청북도 청주시 상당구 금천동 326",
    "lat": "36.631673498444925",
    "lng": "127.51143842857108",
    "region": "충청북도"
  },
  {
    "name": "호미골 공원",
    "address": "충청북도 청주시 상당구 용정동 476",
    "lat": "36.63166868587266",
    "lng": "127.51486643987319",
    "region": "충청북도"
  },
  {
    "name": "소안고등학교 운동장",
    "address": "전라남도 완도군 소안면 비자리 1247",
    "lat": "34.1746098548701",
    "lng": "126.65121138095851",
    "region": "전라남도"
  },
  {
    "name": "금당초등학교",
    "address": "전라남도 완도군 금당면 육산리 260",
    "lat": "34.440702317789714",
    "lng": "127.06146721833112",
    "region": "전라남도"
  },
  {
    "name": "하늘빛초등학교 운동장",
    "address": "경기도 김포시 운양동 1293-2",
    "lat": "37.65369397337293",
    "lng": "126.69018122597107",
    "region": "경기도"
  },
  {
    "name": "지산공원",
    "address": "대구광역시 수성구 지산동 1274",
    "lat": "35.82125441913961",
    "lng": "128.63806457533468",
    "region": "대구광역시"
  },
  {
    "name": "재궁공원",
    "address": "경기도 군포시 금정동 850-2",
    "lat": "37.358969533223146",
    "lng": "126.93954348564145",
    "region": "경기도"
  },
  {
    "name": "북성초등학교 운동장",
    "address": "경상남도 창원시 마산회원구 석전동 203-7",
    "lat": "35.231569821626614",
    "lng": "128.5705905859795",
    "region": "경상남도"
  },
  {
    "name": "양덕중학교 운동장",
    "address": "경상남도 창원시 마산회원구 합성동 17-5",
    "lat": "35.24233026946353",
    "lng": "128.59535474322635",
    "region": "경상남도"
  },
  {
    "name": "밀성공원",
    "address": "경상남도 밀양시 교동 1116",
    "lat": "35.5046999457693",
    "lng": "128.74615300671098",
    "region": "경상남도"
  },
  {
    "name": "세종고등학교 운동장",
    "address": "경상남도 밀양시 가곡동 566-1",
    "lat": "35.47412670558604",
    "lng": "128.76399650059847",
    "region": "경상남도"
  },
  {
    "name": "송양중학교",
    "address": "경기도 의정부시 낙양동 762",
    "lat": "37.751367",
    "lng": "127.104869",
    "region": "경기도"
  },
  {
    "name": "백봉초등학교 운동장",
    "address": "경기도 남양주시 평내동 607",
    "lat": "37.643729081811124",
    "lng": "127.24139390761536",
    "region": "경기도"
  },
  {
    "name": "평내고등학교 운동장",
    "address": "경기도 남양주시 평내동 568",
    "lat": "37.641872402242385",
    "lng": "127.23382592696784",
    "region": "경기도"
  },
  {
    "name": "선돌마당공원",
    "address": "대구광역시 달서구 월암동 1163",
    "lat": "35.82255002404392",
    "lng": "128.51567746050856",
    "region": "대구광역시"
  },
  {
    "name": "용마초등학교운동장",
    "address": "경상남도 창원시 마산합포구 산호동 237",
    "lat": "35.21548940771082",
    "lng": "128.58452751296113",
    "region": "경상남도"
  },
  {
    "name": "면목중학교운동장",
    "address": "서울특별시 중랑구 면목동 490",
    "lat": "37.58288790984894",
    "lng": "127.09575399756135",
    "region": "서울특별시"
  },
  {
    "name": "산평초등학교 운동장",
    "address": "경기도 안성시 서운면 산평리 160-2",
    "lat": "36.920096099623805",
    "lng": "127.26115006492165",
    "region": "경기도"
  },
  {
    "name": "안법고등학교 운동장",
    "address": "경기도 안성시 구포동 176",
    "lat": "37.01243109776531",
    "lng": "127.27396130561826",
    "region": "경기도"
  },
  {
    "name": "한송초중학교  운동장",
    "address": "충청북도 제천시 한수면 송계리 753",
    "lat": "36.88269327582435",
    "lng": "128.08003048596433",
    "region": "충청북도"
  },
  {
    "name": "입석초등학교  운동장",
    "address": "충청북도 제천시 송학면 입석리 609-2",
    "lat": "37.19960239957492",
    "lng": "128.2934873648729",
    "region": "충청북도"
  },
  {
    "name": "제천고등학교  운동장",
    "address": "충청북도 제천시 청전동 162",
    "lat": "37.14296889194094",
    "lng": "128.2169855728486",
    "region": "충청북도"
  },
  {
    "name": "한계초등학교",
    "address": "강원특별자치도 인제군 북면 한계리 1044",
    "lat": "38.14075708815005",
    "lng": "128.25715548034503",
    "region": "강원특별자치도"
  },
  {
    "name": "하남초등학교",
    "address": "강원특별자치도 인제군 상남면 하남리 1230",
    "lat": "37.91098530109782",
    "lng": "128.28541469680425",
    "region": "강원특별자치도"
  },
  {
    "name": "문산동중학교 운동장",
    "address": "경기도 파주시 문산읍 문산리 95-9",
    "lat": "37.85987586349058",
    "lng": "126.78197379863771",
    "region": "경기도"
  },
  {
    "name": "사봉초등학교 운동장",
    "address": "경상남도 진주시 사봉면 사곡리 993-1",
    "lat": "35.1887330906582",
    "lng": "128.26955330011455",
    "region": "경상남도"
  },
  {
    "name": "지수초등학교 운동장",
    "address": "경상남도 진주시 지수면 압사리 1065-1",
    "lat": "35.233075865880636",
    "lng": "128.25279277078616",
    "region": "경상남도"
  },
  {
    "name": "금호초등학교 운동장",
    "address": "경상남도 진주시 금산면 장사리 961",
    "lat": "35.2187493569388",
    "lng": "128.14343469673634",
    "region": "경상남도"
  },
  {
    "name": "금산초등학교 운동장",
    "address": "경상남도 진주시 금산면 중천리 251",
    "lat": "35.215252117952204",
    "lng": "128.14418225510934",
    "region": "경상남도"
  },
  {
    "name": "집현초등학교 운동장",
    "address": "경상남도 진주시 집현면 지내리 125",
    "lat": "35.241528531166004",
    "lng": "128.09261698521877",
    "region": "경상남도"
  },
  {
    "name": "미천초등학교 운동장",
    "address": "경상남도 진주시 미천면 안간리 797-5",
    "lat": "35.31876263231462",
    "lng": "128.08818876743462",
    "region": "경상남도"
  },
  {
    "name": "경상남도 교육연수원(나눔관) 운동장",
    "address": "경상남도 진주시 대평면 대평리 509",
    "lat": "35.23475397231321",
    "lng": "127.95972723206737",
    "region": "경상남도"
  },
  {
    "name": "동도초등학교",
    "address": "대구광역시 수성구 범어동 784-2",
    "lat": "35.856558492508576",
    "lng": "128.624114692266",
    "region": "대구광역시"
  },
  {
    "name": "장내초등학교 운동장",
    "address": "경기도 남양주시 평내동 563",
    "lat": "37.640969676384394",
    "lng": "127.23504955566992",
    "region": "경기도"
  },
  {
    "name": "독산근린공원",
    "address": "서울특별시 금천구 독산동 1086",
    "lat": "37.4631",
    "lng": "126.8847",
    "region": "서울특별시"
  },
  {
    "name": "해태공원",
    "address": "서울특별시 금천구 시흥동 871-24",
    "lat": "37.4578",
    "lng": "126.9018",
    "region": "서울특별시"
  },
  {
    "name": "진달래공원",
    "address": "서울특별시 금천구 시흥동 970-3",
    "lat": "37.4348",
    "lng": "126.9049",
    "region": "서울특별시"
  },
  {
    "name": "비둘기공원",
    "address": "서울특별시 금천구 시흥동 947-4",
    "lat": "37.4415",
    "lng": "126.9062",
    "region": "서울특별시"
  },
  {
    "name": "꾸러기공원",
    "address": "서울특별시 금천구 시흥동 943-16",
    "lat": "37.4432",
    "lng": "126.9059",
    "region": "서울특별시"
  },
  {
    "name": "범어초등학교",
    "address": "대구광역시 수성구 범어동 154",
    "lat": "35.86072283718551",
    "lng": "128.63294273614912",
    "region": "대구광역시"
  },
  {
    "name": "동천초등학교",
    "address": "대구광역시 수성구 범어동 9",
    "lat": "35.86531155103141",
    "lng": "128.62521708011656",
    "region": "대구광역시"
  },
  {
    "name": "경동초등학교",
    "address": "대구광역시 수성구 범어동 89",
    "lat": "35.85265698347569",
    "lng": "128.6393362284801",
    "region": "대구광역시"
  },
  {
    "name": "중앙초등학교",
    "address": "대구광역시 수성구 만촌동 1425",
    "lat": "35.8697297394891",
    "lng": "128.64077210426362",
    "region": "대구광역시"
  },
  {
    "name": "봉선초등학교 운동장",
    "address": "광주광역시 남구 봉선동 310-12",
    "lat": "35.131210824102766",
    "lng": "126.91136419773103",
    "region": "광주광역시"
  },
  {
    "name": "동문고등학교",
    "address": "대구광역시 수성구 만촌동 82-4",
    "lat": "35.8767",
    "lng": "128.6512",
    "region": "대구광역시"
  },
  {
    "name": "인천신광초등학교 운동장",
    "address": "인천광역시 중구 신흥동3가 7-8",
    "lat": "37.46405438864046",
    "lng": "126.63502877206",
    "region": "인천광역시"
  },
  {
    "name": "봉선중학교 운동장",
    "address": "광주광역시 남구 봉선동 258-16",
    "lat": "35.12972793153124",
    "lng": "126.91239953041077",
    "region": "광주광역시"
  },
  {
    "name": "신흥중학교 운동장",
    "address": "인천광역시 중구 신흥동3가 7-338",
    "lat": "37.45396672270329",
    "lng": "126.63020373007878",
    "region": "인천광역시"
  },
  {
    "name": "인천신흥초등학교 운동장",
    "address": "인천광역시 중구 답동 6",
    "lat": "37.47041324578795",
    "lng": "126.62921600845826",
    "region": "인천광역시"
  },
  {
    "name": "동아여자중학교 운동장",
    "address": "광주광역시 남구 봉선동 11",
    "lat": "35.125709069164856",
    "lng": "126.92134737968445",
    "region": "광주광역시"
  },
  {
    "name": "대륜중학교",
    "address": "대구광역시 수성구 만촌동 산241",
    "lat": "35.8527",
    "lng": "128.6545",
    "region": "대구광역시"
  },
  {
    "name": "일죽중고등학교 운동장",
    "address": "경기도 안성시 일죽면 송천리 243-1",
    "lat": "37.09158213757815",
    "lng": "127.47336408756404",
    "region": "경기도"
  },
  {
    "name": "각리초등학교 운동장",
    "address": "충청북도 청주시 청원구 오창읍 각리 646-2",
    "lat": "36.706407487663014",
    "lng": "127.4241873941267",
    "region": "충청북도"
  },
  {
    "name": "경신중.고등학교",
    "address": "대구광역시 수성구 범어동 100-5",
    "lat": "35.8549",
    "lng": "128.6374",
    "region": "대구광역시"
  },
  {
    "name": "진안공공공지",
    "address": "경기도 화성시 진안동 933",
    "lat": "37.217979",
    "lng": "127.031677",
    "region": "경기도"
  },
  {
    "name": "호암근린공원",
    "address": "부산광역시 수영구 광안동 743-5",
    "lat": "35.158280364424364",
    "lng": "129.11153576150755",
    "region": "부산광역시"
  },
  {
    "name": "늘푸른어린이공원",
    "address": "부산광역시 수영구 남천동 152",
    "lat": "35.14175487288391",
    "lng": "129.11348018797133",
    "region": "부산광역시"
  },
  {
    "name": "과정공원",
    "address": "부산광역시 수영구 망미동 417-1",
    "lat": "35.174670973606965",
    "lng": "129.1085367037595",
    "region": "부산광역시"
  },
  {
    "name": "광성중학교 운동장",
    "address": "인천광역시 중구 도원동 12-73",
    "lat": "37.46730225126044",
    "lng": "126.63996335973476",
    "region": "인천광역시"
  },
  {
    "name": "소선여자중학교",
    "address": "대구광역시 수성구 만촌동 862-17",
    "lat": "35.852436684565674",
    "lng": "128.64977180957825",
    "region": "대구광역시"
  },
  {
    "name": "인천반도체고등학교",
    "address": "인천광역시 중구 율목동 1-27",
    "lat": "37.47111533322871",
    "lng": "126.63585788572898",
    "region": "인천광역시"
  },
  {
    "name": "오성중.고등학교",
    "address": "대구광역시 수성구 만촌동 1070",
    "lat": "35.85434833731592",
    "lng": "128.64532291900136",
    "region": "대구광역시"
  },
  {
    "name": "광주월산초등학교 운동장",
    "address": "광주광역시 남구 월산동 261",
    "lat": "35.14774017657226",
    "lng": "126.89800143241885",
    "region": "광주광역시"
  },
  {
    "name": "광주농성초등학교 운동장",
    "address": "광주광역시 남구 월산동 914-1",
    "lat": "35.14878411533048",
    "lng": "126.89059317111966",
    "region": "광주광역시"
  },
  {
    "name": "자유공원",
    "address": "인천광역시 중구 송학동1가 11-1",
    "lat": "37.47501950652933",
    "lng": "126.62186784916702",
    "region": "인천광역시"
  },
  {
    "name": "삼목초등학교 운동장",
    "address": "인천광역시 중구 운서동 2708-2",
    "lat": "37.498676701903534",
    "lng": "126.48608073002087",
    "region": "인천광역시"
  },
  {
    "name": "동중학교",
    "address": "대구광역시 수성구 수성동2가 119-4",
    "lat": "35.85778745708932",
    "lng": "128.6162191629958",
    "region": "대구광역시"
  },
  {
    "name": "광주서광중학교 운동장",
    "address": "광주광역시 남구 백운동 614-1",
    "lat": "35.13592547565584",
    "lng": "126.90494505465",
    "region": "광주광역시"
  },
  {
    "name": "인천공항중학교 운동장",
    "address": "인천광역시 중구 운서동 2747-8",
    "lat": "37.49748665498452",
    "lng": "126.48427254628893",
    "region": "인천광역시"
  },
  {
    "name": "중앙중.고등학교",
    "address": "대구광역시 수성구 수성동4가 1145-1",
    "lat": "35.86723665951679",
    "lng": "128.6165571212771",
    "region": "대구광역시"
  },
  {
    "name": "인천공항초등학교 운동장",
    "address": "인천광역시 중구 운서동 2788-1",
    "lat": "37.491895425757",
    "lng": "126.4857177114148",
    "region": "인천광역시"
  },
  {
    "name": "주월중학교 운동장",
    "address": "광주광역시 남구 주월동 1112",
    "lat": "35.127902795911616",
    "lng": "126.90358579158782",
    "region": "광주광역시"
  },
  {
    "name": "황금초등학교",
    "address": "대구광역시 수성구 황금동 820",
    "lat": "35.84314878759134",
    "lng": "128.61832201491808",
    "region": "대구광역시"
  },
  {
    "name": "운서초등학교 운동장",
    "address": "인천광역시 중구 운서동 2895-13",
    "lat": "37.48355769806492",
    "lng": "126.51194736160429",
    "region": "인천광역시"
  },
  {
    "name": "황금중학교",
    "address": "대구광역시 수성구 황금동 821",
    "lat": "35.84313139346128",
    "lng": "128.61955225478624",
    "region": "대구광역시"
  },
  {
    "name": "광주봉주초등학교 운동장",
    "address": "광주광역시 남구 주월동 57-1",
    "lat": "35.13619893611095",
    "lng": "126.890469789505",
    "region": "광주광역시"
  },
  {
    "name": "운남초등학교 운동장",
    "address": "인천광역시 중구 운남동 1569",
    "lat": "37.49003205006247",
    "lng": "126.5302483223952",
    "region": "인천광역시"
  },
  {
    "name": "미금중학교 운동장",
    "address": "경기도 남양주시 다산동 3526",
    "lat": "37.6151",
    "lng": "127.1589",
    "region": "경기도"
  },
  {
    "name": "별내중학교 운동장",
    "address": "경기도 남양주시 별내면 청학리 421",
    "lat": "37.71079983418185",
    "lng": "127.11263690790376",
    "region": "경기도"
  },
  {
    "name": "화광중학교 운동장",
    "address": "경기도 남양주시 화도읍 월산리 99",
    "lat": "37.65370763853715",
    "lng": "127.33497082615985",
    "region": "경기도"
  },
  {
    "name": "신천초등학교(운동장)",
    "address": "대구광역시 동구 신천동 185-1",
    "lat": "35.87136939598286",
    "lng": "128.62068929902117",
    "region": "대구광역시"
  },
  {
    "name": "반지어울림 운동장",
    "address": "경상남도 창원시 성산구 반지동 99",
    "lat": "35.241053",
    "lng": "128.658808",
    "region": "경상남도"
  },
  {
    "name": "반송중학교 ",
    "address": "경상남도 창원시 성산구 반림동 19",
    "lat": "35.235577",
    "lng": "128.675438",
    "region": "경상남도"
  },
  {
    "name": "대구과학고등학교",
    "address": "대구광역시 수성구 황금동 613",
    "lat": "35.8452",
    "lng": "128.6259",
    "region": "대구광역시"
  },
  {
    "name": "광주효덕초등학교 운동장",
    "address": "광주광역시 남구 진월동 505-4",
    "lat": "35.11268589084023",
    "lng": "126.89744353294373",
    "region": "광주광역시"
  },
  {
    "name": "광��진월초등학교 운동장",
    "address": "광주광역시 남구 진월동 357",
    "lat": "35.120882662330665",
    "lng": "126.89420878887178",
    "region": "광주광역시"
  },
  {
    "name": "광주대촌중앙초등학교 운동장",
    "address": "광주광역시 남구 지석동 223",
    "lat": "35.08233135165165",
    "lng": "126.83308124542235",
    "region": "광주광역시"
  },
  {
    "name": "광주무학초등학교 운동장",
    "address": "광주광역시 남구 월성동 306",
    "lat": "35.06632439548337",
    "lng": "126.80498778820035",
    "region": "광주광역시"
  },
  {
    "name": "광주무진중학교 운동장",
    "address": "광주광역시 남구 월산동 226",
    "lat": "35.14528379725662",
    "lng": "126.89977169036867",
    "region": "광주광역시"
  },
  {
    "name": "두암제2근린공원",
    "address": "광주광역시 동구 산수동 687",
    "lat": "35.1614245669336",
    "lng": "126.93794068110171",
    "region": "광주광역시"
  },
  {
    "name": "삼육초등학교",
    "address": "대구광역시 수성구 중동 410-1",
    "lat": "35.839765566150334",
    "lng": "128.6104515195168",
    "region": "대구광역시"
  },
  {
    "name": "신천둔치공원",
    "address": "대구광역시 남구 봉덕동 1617-1",
    "lat": "35.84032560191086",
    "lng": "128.60647228176867",
    "region": "대구광역시"
  },
  {
    "name": "전안초등학교 운동장",
    "address": "경상남도 창원시 마산회원구 내서읍 신감리 1373",
    "lat": "35.21778613897759",
    "lng": "128.5024684984153",
    "region": "경상남도"
  },
  {
    "name": "죽화초등학교 운동장",
    "address": "경기도 안성시 일죽면 화곡리 730",
    "lat": "37.107515555952595",
    "lng": "127.45833555755205",
    "region": "경기도"
  },
  {
    "name": "봉삼공영주차장",
    "address": "대구광역시 남구 봉덕동 687-8",
    "lat": "35.8427058692706",
    "lng": "128.59710848984273",
    "region": "대구광역시"
  },
  {
    "name": "미산초등학교 운동장",
    "address": "광주광역시 광산구 월계동 756-8",
    "lat": "35.21954331393878",
    "lng": "126.83349430561064",
    "region": "광주광역시"
  },
  {
    "name": "하남초등학교 운동장",
    "address": "광주광역시 광산구 하남동 543",
    "lat": "35.17923666762144",
    "lng": "126.7990547418594",
    "region": "광주광역시"
  },
  {
    "name": "서감초등학교 운동장",
    "address": "부산광역시 사상구 감전동 122-1",
    "lat": "35.15743358446672",
    "lng": "128.98205644348332",
    "region": "부산광역시"
  },
  {
    "name": "은빛초등학교 운동장",
    "address": "광주광역시 광산구 수완동 1494",
    "lat": "35.187547303431735",
    "lng": "126.82830423116683",
    "region": "광주광역시"
  },
  {
    "name": "학장중학교 운동장",
    "address": "부산광역시 사상구 학장동 574-116",
    "lat": "35.13790077700448",
    "lng": "128.98256096241",
    "region": "부산광역시"
  },
  {
    "name": "벌리어린이공원",
    "address": "서울특별시 강북구 번동 240",
    "lat": "37.62757602",
    "lng": "127.04442888",
    "region": "서울특별시"
  },
  {
    "name": "삼산초등학교운동장",
    "address": "울산광역시 남구 삼산동 173",
    "lat": "35.54435526959635",
    "lng": "129.34944819541343",
    "region": "울산광역시"
  },
  {
    "name": "한마음공원",
    "address": "부산광역시 연제구 거제동 1482-1",
    "lat": "35.19367807578362",
    "lng": "129.07263098593327",
    "region": "부산광역시"
  },
  {
    "name": "대현중학교운동장",
    "address": "울산광역시 남구 달동 1330-2",
    "lat": "35.54233217000608",
    "lng": "129.33357105210894",
    "region": "울산광역시"
  },
  {
    "name": "장복초등학교운동장",
    "address": "경상남도 창원시 진해구 석동 674",
    "lat": "35.15761780641498",
    "lng": "128.69515865900908",
    "region": "경상남도"
  },
  {
    "name": "웅천초등학교운동장",
    "address": "경상남도 창원시 진해구 남문동 1291",
    "lat": "35.10379036585182",
    "lng": "128.7559912946831",
    "region": "경상남도"
  },
  {
    "name": "웅동중학교운동장",
    "address": "경상남도 창원시 진해구 두동 1166-4",
    "lat": "35.1124741451389",
    "lng": "128.7960680702742",
    "region": "경상남도"
  },
  {
    "name": "광명서초등학교 운동장",
    "address": "경기도 광명시 광명동 219",
    "lat": "37.47809338621156",
    "lng": "126.84698830266488",
    "region": "경기도"
  },
  {
    "name": "명문고등학교 운동장",
    "address": "경기도 광명시 광명동 379-1",
    "lat": "37.46996605207103",
    "lng": "126.84993812615396",
    "region": "경기도"
  },
  {
    "name": "광문중학교 운동장",
    "address": "경기도 광명시 ��명동 735-1",
    "lat": "37.46657383378608",
    "lng": "126.85277702250755",
    "region": "경기도"
  },
  {
    "name": "운산고등학교 운동장",
    "address": "경기도 광명시 소하동 1285",
    "lat": "37.45354991882507",
    "lng": "126.88362290138654",
    "region": "경기도"
  },
  {
    "name": "그루터기어린이공원",
    "address": "경기도 광명시 소하동 1319",
    "lat": "37.448728048502765",
    "lng": "126.88840796218848",
    "region": "경기도"
  },
  {
    "name": "광휘고등학교 운동장",
    "address": "경기도 광명시 소하동 1390",
    "lat": "37.428785461528186",
    "lng": "126.88193881311166",
    "region": "경기도"
  },
  {
    "name": "오리어린이공원",
    "address": "경기도 광명시 소하동 946",
    "lat": "37.43411127120447",
    "lng": "126.87615185567549",
    "region": "경기도"
  },
  {
    "name": "송월어린이공원",
    "address": "서울특별시 강북구 미아동 89-6",
    "lat": "37.61610134",
    "lng": "127.03213448",
    "region": "서울특별시"
  },
  {
    "name": "예봉초등학교 운동장",
    "address": "경기도 남양주시 와부읍 덕소리 252",
    "lat": "37.592131362552614",
    "lng": "127.22140580502045",
    "region": "경기도"
  },
  {
    "name": "창원중앙중학교",
    "address": "경상남도 창원시 성산구 반지동 91",
    "lat": "35.240577",
    "lng": "128.658093",
    "region": "경상남도"
  },
  {
    "name": "우이초등학교 운동장",
    "address": "서울특별시 강북구 수유동 409-6",
    "lat": "37.63835886695713",
    "lng": "127.01435767740206",
    "region": "서울특별시"
  },
  {
    "name": "동양대학교 주차장",
    "address": "경상북도 영주시 풍기읍 산법리 574",
    "lat": "36.88292435100897",
    "lng": "128.53175887417757",
    "region": "경상북도"
  },
  {
    "name": "한국폴리텍익산캠퍼스 운동장",
    "address": "전북특별자치도 익산시 어양동 16",
    "lat": "35.95251648808167",
    "lng": "126.99126332554339",
    "region": "전북특별자치도"
  },
  {
    "name": "풍기초등학교 운동장",
    "address": "경상북도 영주시 풍기읍 성내리 22-1",
    "lat": "36.87142425416388",
    "lng": "128.52459244697678",
    "region": "경상북도"
  },
  {
    "name": "동망봉 어린이 공원",
    "address": "서울특별시 성북구 보문동3가 229-1",
    "lat": "37.583681597444844",
    "lng": "127.01699326292112",
    "region": "서울특별시"
  },
  {
    "name": "부평여자중학교 운동장",
    "address": "인천광역시 부평구 부개동 120-21",
    "lat": "37.494813680883034",
    "lng": "126.73886421613356",
    "region": "인천광역시"
  },
  {
    "name": "신도바다역",
    "address": "인천광역시 옹진군 북도면 신도리 523-61",
    "lat": "37.51507033923771",
    "lng": "126.43906474113442",
    "region": "인천광역시"
  },
  {
    "name": "물량장(장봉)",
    "address": "인천광역시 옹진군 북도면 장봉리 20-26",
    "lat": "37.53146738395489",
    "lng": "126.38462394475913",
    "region": "인천광역시"
  },
  {
    "name": "십정초등학교 운동장",
    "address": "인천광역시 부평구 십정동 298-1",
    "lat": "37.47436571096047",
    "lng": "126.69763569508791",
    "region": "인천광역시"
  },
  {
    "name": "신트리공원",
    "address": "인천광역시 부평구 부평동 880",
    "lat": "37.50649182539315",
    "lng": "126.72423748256092",
    "region": "인천광역시"
  },
  {
    "name": "속리초등학교 운동장 ",
    "address": "충청북도 보은군 장안면 장안리 243-2",
    "lat": "36.470891",
    "lng": "127.789339",
    "region": "충청북도"
  },
  {
    "name": "관기초등학교 운동장 ",
    "address": "충청북도 보은군 마로면 관기리 297",
    "lat": "36.43595115233851",
    "lng": "127.82155301627495",
    "region": "충청북도"
  },
  {
    "name": "중산인조잔디축구장",
    "address": "경기도 고양시 일산���구 중산동 1565",
    "lat": "37.69182698305576",
    "lng": "126.7786591756675",
    "region": "경기도"
  },
  {
    "name": "송도초등학교 운동장",
    "address": "부산광역시 서구 암남동 313",
    "lat": "35.07831211029459",
    "lng": "129.01565182030984",
    "region": "부산광역시"
  },
  {
    "name": "강남중학교운동장",
    "address": "울산광역시 남구 삼산동 1535-1",
    "lat": "35.545572142471904",
    "lng": "129.34113472103743",
    "region": "울산광역시"
  },
  {
    "name": "서울인수초등학교운동장",
    "address": "서울특별시 강북구 수유동 551-19",
    "lat": "37.64267873967303",
    "lng": "127.01023682455865",
    "region": "서울특별시"
  },
  {
    "name": "삼양초등학교 운동장",
    "address": "서울특별시 강북구 미아동 791-1932",
    "lat": "37.62342933509479",
    "lng": "127.0167868659798",
    "region": "서울특별시"
  },
  {
    "name": "안남초등학교",
    "address": "경상남도 창원시 성산구 대방동 368",
    "lat": "35.209554",
    "lng": "128.710161",
    "region": "경상남도"
  },
  {
    "name": "창원축구센터",
    "address": "경상남도 창원시 성산구 사파정동 305",
    "lat": "35.22250652767667",
    "lng": "128.70635345578233",
    "region": "경상남도"
  },
  {
    "name": "남산녹지공원",
    "address": "경상남도 창원시 성산구 가음동 28",
    "lat": "35.202274",
    "lng": "128.699887",
    "region": "경상남도"
  },
  {
    "name": "삼정자초등학교",
    "address": "경상남도 창원시 성산구 성주동 103",
    "lat": "35.20063229262454",
    "lng": "128.70946079492606",
    "region": "경상남도"
  },
  {
    "name": "대강초등학교 운동장",
    "address": "충청북도 단양군 대강면 장림리 91",
    "lat": "36.92209374915948",
    "lng": "128.35890616837358",
    "region": "충청북도"
  },
  {
    "name": "울산공업고등학교운동장",
    "address": "울산광역시 남구 신정동 167-8",
    "lat": "35.54101817960673",
    "lng": "129.3173162813924",
    "region": "울산광역시"
  },
  {
    "name": "의풍1리 분교 운동장",
    "address": "충청북도 단양군 영춘면 의풍리 760",
    "lat": "37.06601398922473",
    "lng": "128.61215671003464",
    "region": "충청북도"
  },
  {
    "name": "상1리 회관앞 공터",
    "address": "충청북도 단양군 적성면 상리 297-3",
    "lat": "36.97235",
    "lng": "128.28438847453054",
    "region": "충청북도"
  },
  {
    "name": "애곡리 주차장",
    "address": "충청북도 단양군 적성면 애곡리 526",
    "lat": "36.967872800591294",
    "lng": "128.31490327440397",
    "region": "충청북도"
  },
  {
    "name": "매포읍사무소",
    "address": "충청북도 단양군 매포읍 평동리 277-2",
    "lat": "37.03230088385421",
    "lng": "128.30341617800298",
    "region": "충청북도"
  },
  {
    "name": "지행초등학교 운동장",
    "address": "경기도 동두천시 지행동 322-10",
    "lat": "37.89138695849257",
    "lng": "127.06153571605682",
    "region": "경기도"
  },
  {
    "name": "동래중학교 운동장",
    "address": "부산광역시 동래구 명륜동 652-24",
    "lat": "35.20875989503711",
    "lng": "129.08017897997505",
    "region": "부산광역시"
  },
  {
    "name": "장연면사무소 다목적광장",
    "address": "충청북도 괴산군 장연면 오가리 351-1",
    "lat": "36.824206625429156",
    "lng": "127.95518882927178",
    "region": "충청북도"
  },
  {
    "name": "사직중학교 운동장",
    "address": "부산광역시 동래구 사직동 598-1",
    "lat": "35.19941532119353",
    "lng": "129.0521788457224",
    "region": "부산광역시"
  },
  {
    "name": "내수중학교 운동장",
    "address": "충청북도 청주시 청원구 내수읍 마산리 1",
    "lat": "36.7231828348982",
    "lng": "127.53784014861424",
    "region": "충청북도"
  },
  {
    "name": "성명공원",
    "address": "대구광역시 남구 대명동 3038-1",
    "lat": "35.847733725587325",
    "lng": "128.57131399356834",
    "region": "대구광역시"
  },
  {
    "name": "수성초등학교 운동장",
    "address": "충청북도 청주시 청원구 내수읍 내수리 263-1",
    "lat": "36.718494447551286",
    "lng": "127.52683992806286",
    "region": "충청북도"
  },
  {
    "name": "중앙공원",
    "address": "대구광역시 남구 대명동 1046",
    "lat": "35.83780717451316",
    "lng": "128.56782138347648",
    "region": "대구광역시"
  },
  {
    "name": "관문공원",
    "address": "대구광역시 남구 대명동 1180-1",
    "lat": "35.83636118074179",
    "lng": "128.56095761060737",
    "region": "대구광역시"
  },
  {
    "name": "앵두마을공원",
    "address": "대구광역시 남구 대명동 1224-8",
    "lat": "35.84411255360196",
    "lng": "128.5721940333288",
    "region": "대구광역시"
  },
  {
    "name": "명덕공원",
    "address": "대구광역시 남구 대명동 152",
    "lat": "35.84306572155668",
    "lng": "128.58793304442628",
    "region": "대구광역시"
  },
  {
    "name": "백합공원 ",
    "address": "대구광역시 남구 대명동 1540",
    "lat": "35.83283572212544",
    "lng": "128.56389710789915",
    "region": "대구광역시"
  },
  {
    "name": "대명공원",
    "address": "대구광역시 남구 대명동 1827",
    "lat": "35.85517443534223",
    "lng": "128.58664780855202",
    "region": "대구광역시"
  },
  {
    "name": "영선공원",
    "address": "대구광역시 남구 대명동 2003-1",
    "lat": "35.85390667915113",
    "lng": "128.59189928301993",
    "region": "대구광역시"
  },
  {
    "name": "명동공원",
    "address": "대구광역시 남구 대명동 2254",
    "lat": "35.85306681633811",
    "lng": "128.57765172533917",
    "region": "대구광역시"
  },
  {
    "name": "신일초등학교 운동장",
    "address": "경기도 시흥시 신천동 885-1",
    "lat": "37.4324954716552",
    "lng": "126.79140280744917",
    "region": "경기도"
  },
  {
    "name": "장승초등학교 운동장",
    "address": "경기도 남양주시 진접읍 장현리 49-10",
    "lat": "37.730053607518826",
    "lng": "127.19551275887703",
    "region": "경기도"
  },
  {
    "name": "송라중학교 운동장",
    "address": "경기도 남양주시 화도읍 마석우리 592",
    "lat": "37.65422308258239",
    "lng": "127.30283697898693",
    "region": "경기도"
  },
  {
    "name": "호평고등학교 운동장",
    "address": "경기도 남양주시 호평동 677",
    "lat": "37.656734104492834",
    "lng": "127.252836227417",
    "region": "경기도"
  },
  {
    "name": "동화고등학교 운동장",
    "address": "경기도 남양주시 다산동 4106",
    "lat": "37.60702622280125",
    "lng": "127.16276837188921",
    "region": "경기도"
  },
  {
    "name": "대명2공원",
    "address": "대구광역시 남구 대명동 328",
    "lat": "35.84489914771495",
    "lng": "128.5835776534387",
    "region": "대구광역시"
  },
  {
    "name": "대덕공원",
    "address": "대구광역시 남구 대명동 444-1",
    "lat": "35.83849002595834",
    "lng": "128.5817935216027",
    "region": "대구광역시"
  },
  {
    "name": "안지랑공원 ",
    "address": "대구광역시 남구 대명동 895",
    "lat": "35.83821896599798",
    "lng": "128.57419346695275",
    "region": "대구광역시"
  },
  {
    "name": "약산초등학교",
    "address": "전라남도 완도군 약산면 장용리 931",
    "lat": "34.39368184406733",
    "lng": "126.89701706171037",
    "region": "전라남도"
  },
  {
    "name": "목련공원",
    "address": "대구광역시 남구 봉덕동 1005-4",
    "lat": "35.84362798668775",
    "lng": "128.59137774234628",
    "region": "대구광역시"
  },
  {
    "name": "봉덕공원",
    "address": "대구광역시 남구 봉덕동 592-9",
    "lat": "35.84603052420457",
    "lng": "128.5933135369288",
    "region": "대구광역시"
  },
  {
    "name": "남구 구민체육광장",
    "address": "대구광역시 남구 봉덕동 1272-1",
    "lat": "35.83244837241255",
    "lng": "128.60010452549133",
    "region": "대구광역시"
  },
  {
    "name": "동신초등학교(운동장) ",
    "address": "대구광역시 동구 신암동 487",
    "lat": "35.877741103048606",
    "lng": "128.61532256696765",
    "region": "대구광역시"
  },
  {
    "name": "효신초등학교(운동장) ",
    "address": "대구광역시 동구 신천동 490",
    "lat": "35.872507984052476",
    "lng": "128.63228795191864",
    "region": "대구광역시"
  },
  {
    "name": "지묘초등학교(운동장) ",
    "address": "대구광역시 동구 지묘동 546",
    "lat": "35.942829061948636",
    "lng": "128.63827313130884",
    "region": "대구광역시"
  },
  {
    "name": "불로초등학교(운동장) ",
    "address": "대구광역시 동구 불로동 1017",
    "lat": "35.89719351097459",
    "lng": "128.6327031185684",
    "region": "대구광역시"
  },
  {
    "name": "입석초등학교(운동장) ",
    "address": "대구광역시 동구 입석동 943-12",
    "lat": "35.890552089809724",
    "lng": "128.64351344149225",
    "region": "대구광역시"
  },
  {
    "name": "회원초등학교 운동장",
    "address": "경상남도 창원시 마산회원구 회원동 393-1",
    "lat": "35.219444448049956",
    "lng": "128.56674290985842",
    "region": "경상남도"
  },
  {
    "name": "밀양중학교 운동장",
    "address": "경상남도 밀양시 삼문동 115-1",
    "lat": "35.48330909813466",
    "lng": "128.755503301746",
    "region": "경상남도"
  },
  {
    "name": "마산용마고등학교운동장",
    "address": "경상남도 창원시 마산합포구 산호동 438-1",
    "lat": "35.21181710959115",
    "lng": "128.58211522123062",
    "region": "경상남도"
  },
  {
    "name": "내혜홀초등학교 운동장",
    "address": "경기도 안성시 아양동 292-1",
    "lat": "37.006098837372456",
    "lng": "127.26539470746101",
    "region": "경기도"
  },
  {
    "name": "화암중학교 운동장",
    "address": "울산광역시 동구 방어동 1109",
    "lat": "35.48846382470458",
    "lng": "129.41269437099908",
    "region": "울산광역시"
  },
  {
    "name": "후포고등학교 운동장",
    "address": "경상북도 울진군 후포면 후포리 1015",
    "lat": "36.68009231425582",
    "lng": "129.44621052200577",
    "region": "경상북도"
  },
  {
    "name": "삼랑진초등학교 운동장",
    "address": "경상남도 밀양시 삼랑진읍 송지리 162-2",
    "lat": "35.40094245327697",
    "lng": "128.84129485770546",
    "region": "경상남도"
  },
  {
    "name": "기성중학교 운동장",
    "address": "경상북도 울진군 기성면 기성리 256",
    "lat": "36.79943481908015",
    "lng": "129.45799409774096",
    "region": "경상북도"
  },
  {
    "name": "숭진초등학교 운동장",
    "address": "경상남도 밀양시 삼랑진읍 숭진리 600",
    "lat": "35.452920850087985",
    "lng": "128.80096299234677",
    "region": "경상남도"
  },
  {
    "name": "금명여자고등학교운동장",
    "address": "부산광역시 북구 화명동 307",
    "lat": "35.244589097407875",
    "lng": "129.02441949297628",
    "region": "부산광역시"
  },
  {
    "name": "만덕고등학교운동장",
    "address": "부산광역시 북구 만덕동 948",
    "lat": "35.20183585882727",
    "lng": "129.0340483895918",
    "region": "부산광역시"
  },
  {
    "name": "백양중학교운동장",
    "address": "부산광역시 북구 만덕동 878",
    "lat": "35.20758868986914",
    "lng": "129.0412243691012",
    "region": "부산광역시"
  },
  {
    "name": "상학초등학교운동장",
    "address": "부산광역시 북구 만덕동 570",
    "lat": "35.21890746976442",
    "lng": "129.03979331850437",
    "region": "부산광역시"
  },
  {
    "name": "양천초등학교운동장",
    "address": "부산광역시 북구 덕천동 132-59",
    "lat": "35.20966014280263",
    "lng": "129.01864395319384",
    "region": "부산광역시"
  },
  {
    "name": "금천어린이공원",
    "address": "부산광역시 금정구 금사동 25-5",
    "lat": "35.22386003166446",
    "lng": "129.11472951099043",
    "region": "부산광역시"
  },
  {
    "name": "경의초등학교",
    "address": "경기도 의정부시 의정부동 366",
    "lat": "37.73384265046702",
    "lng": "127.050984388278",
    "region": "경기도"
  },
  {
    "name": "회룡중학교",
    "address": "경기도 의정부시 호원동 274-25",
    "lat": "37.71497911339563",
    "lng": "127.04378485679625",
    "region": "경기도"
  },
  {
    "name": "구서여자중학교 운동장",
    "address": "부산광역시 금정구 구서동 704",
    "lat": "35.24871354794307",
    "lng": "129.08621334556761",
    "region": "부산광역시"
  },
  {
    "name": "덕과초등학교운동장",
    "address": "전북특별자치도 남원시 덕과면 고정리 505-2",
    "lat": "35.51369964031494",
    "lng": "127.35369535771619",
    "region": "전북특별자치도"
  },
  {
    "name": "인월중고등학교운동장",
    "address": "전북특별자치도 남원시 인월면 서무리 678-2",
    "lat": "35.46446018670185",
    "lng": "127.60217417518483",
    "region": "전북특별자치도"
  },
  {
    "name": "조리2어린이공원",
    "address": "부산광역시 금정구 두구동 1210-1",
    "lat": "35.30326458148488",
    "lng": "129.11257601692614",
    "region": "부산광역시"
  },
  {
    "name": "의정부청룡초등학교",
    "address": "경기도 의정부시 신곡동 702-1",
    "lat": "37.732808013904766",
    "lng": "127.05534729683104",
    "region": "경기도"
  },
  {
    "name": "의정부초등학교",
    "address": "경기도 의정부시 신곡동 420-3",
    "lat": "37.73439084932335",
    "lng": "127.06021725606972",
    "region": "경기도"
  },
  {
    "name": "종합운동장",
    "address": "경기도 의정부시 녹양동 174-1",
    "lat": "37.7579224602779",
    "lng": "127.02978104352951",
    "region": "경기도"
  },
  {
    "name": "화잠초등학교운동장",
    "address": "부산광역시 북구 화명동 732-1",
    "lat": "35.23587417883106",
    "lng": "129.0173620868983",
    "region": "부산광역시"
  },
  {
    "name": "군포초등학교 운동장",
    "address": "경기도 군포시 당동 795-4",
    "lat": "37.347971173975026",
    "lng": "126.94268710664245",
    "region": "경기도"
  },
  {
    "name": "해뜰어린이공원",
    "address": "경기도 김포시 양촌읍 양곡리 1546",
    "lat": "37.657112757950706",
    "lng": "126.62490662222875",
    "region": "경기도"
  },
  {
    "name": "동성초등학교운동장",
    "address": "부산광역시 부산진구 전포동 358-56",
    "lat": "35.15269622975685",
    "lng": "129.06901988582666",
    "region": "부산광역시"
  },
  {
    "name": "중산중학교 운동장",
    "address": "경기도 고양시 일산동구 중산동 1575-2",
    "lat": "37.69113500936945",
    "lng": "126.78377384283235",
    "region": "경기도"
  },
  {
    "name": "성지초등학교운동장",
    "address": "부산광역시 부산진구 범전동 229-9",
    "lat": "35.16419161994871",
    "lng": "129.05683368444588",
    "region": "부산광역시"
  },
  {
    "name": "동의고등학교운동장",
    "address": "부산광역시 부산진구 전포동 12-59",
    "lat": "35.164327568429464",
    "lng": "129.07104134559785",
    "region": "부산광역시"
  },
  {
    "name": "효문운동장",
    "address": "울산광역시 북구 연암동 261-44",
    "lat": "35.5874251",
    "lng": "129.373099",
    "region": "울산광역시"
  },
  {
    "name": "상방공원",
    "address": "울산광역시 북구 연암동 378",
    "lat": "35.584392738128976",
    "lng": "129.3678096961584",
    "region": "울산광역시"
  },
  {
    "name": "수성초등학교 운동장",
    "address": "부산광역시 동구 수정동 488-3",
    "lat": "35.134594040914315",
    "lng": "129.0430650210645",
    "region": "부산광역시"
  },
  {
    "name": "양곡초등학교 운동장",
    "address": "경상남도 창원시 성산구 신촌동 36-3",
    "lat": "35.20193755662212",
    "lng": "128.62680878442376",
    "region": "경상남도"
  },
  {
    "name": "시민체육광장 운동장",
    "address": "경기도 군포시 금정동 871",
    "lat": "37.35416641471212",
    "lng": "126.93652350815204",
    "region": "경기도"
  },
  {
    "name": "공도초등학교 운동장",
    "address": "경기도 안성시 공도읍 용두리 187-1",
    "lat": "36.99935668810192",
    "lng": "127.16756343841556",
    "region": "경기도"
  },
  {
    "name": "토현초등학교 운동장 ",
    "address": "부산광역시 연제구 연산동 2219-1",
    "lat": "35.181656945759286",
    "lng": "129.1119986772555",
    "region": "부산광역시"
  },
  {
    "name": "다운고등학교운동장",
    "address": "울산광역시 중구 다운동 641",
    "lat": "35.56632927857643",
    "lng": "129.26992797169927",
    "region": "울산광역시"
  },
  {
    "name": "학산초등학교 운동장",
    "address": "충청북도 영동군 학산면 서산리 738-1",
    "lat": "36.09318287795021",
    "lng": "127.68936392942186",
    "region": "충청북도"
  },
  {
    "name": "문백면사무소",
    "address": "충청북도 진천군 문백면 옥성리 312-1",
    "lat": "36.784365942786025",
    "lng": "127.43735575989905",
    "region": "충청북도"
  },
  {
    "name": "색달체육공원",
    "address": "제주특별자치도 서귀포시 색달동 1611-1",
    "lat": "33.26507526600682",
    "lng": "126.41434885010027",
    "region": "제주특별자치도"
  },
  {
    "name": "애곡1리 마을회관 공터",
    "address": "충청북도 보은군 회인면 애곡리 98",
    "lat": "36.48968",
    "lng": "127.615405",
    "region": "충청북도"
  },
  {
    "name": "광주매곡초등학교 운동장",
    "address": "광주광역시 북구 매곡동 206-1",
    "lat": "35.19411586404644",
    "lng": "126.89421794303922",
    "region": "광주광역시"
  },
  {
    "name": "반월공원(갈산5공원)",
    "address": "인천광역시 부평구 갈산동 369-1",
    "lat": "37.51001750083079",
    "lng": "126.72972331215999",
    "region": "인천광역시"
  },
  {
    "name": "쉼터공원(갈산6공원)",
    "address": "인천광역시 부평구 갈산동 380",
    "lat": "37.50800364300685",
    "lng": "126.72360516008344",
    "region": "인천광역시"
  },
  {
    "name": "산곡중학교 운동장",
    "address": "인천광역시 부평구 산곡동 180-356",
    "lat": "37.503734",
    "lng": "126.698803",
    "region": "인천광역시"
  },
  {
    "name": "마당공원(갈산7공원)",
    "address": "인천광역시 부평구 갈산동 389",
    "lat": "37.50822118216806",
    "lng": "126.7271097485127",
    "region": "인천광역시"
  },
  {
    "name": "광주문정초등학교 운동장",
    "address": "광주광역시 북구 문흥동 962-1",
    "lat": "35.18878582450056",
    "lng": "126.92133128643036",
    "region": "광주광역시"
  },
  {
    "name": "소담공원",
    "address": "충청북도 진천군 덕산읍 두촌리 3014",
    "lat": "36.896877009192394",
    "lng": "127.53377616405487",
    "region": "충청북도"
  },
  {
    "name": "신창초등학교 운동장",
    "address": "제주특별자치도 제주시 한경면 신창리 422",
    "lat": "33.34898420299742",
    "lng": "126.18415486694873",
    "region": "제주특별자치도"
  },
  {
    "name": "청천초등학교 운동장",
    "address": "충청북도 괴산군 청천면 청천리 77-1",
    "lat": "36.661295425346786",
    "lng": "127.73754063981738",
    "region": "충청북도"
  },
  {
    "name": "광주삼각초등학교 운동장",
    "address": "광주광역시 북구 삼각동 793-1",
    "lat": "35.19997330793325",
    "lng": "126.9006621837616",
    "region": "광주광역시"
  },
  {
    "name": "양곡고등학교 운동장",
    "address": "경기도 김포시 양촌읍 양곡리 286-1",
    "lat": "37.658533532181636",
    "lng": "126.62499634885573",
    "region": "경기도"
  },
  {
    "name": "원당초등학교 운동장",
    "address": "경기도 고양시 덕양구 주교동 313-8",
    "lat": "37.66211436051147",
    "lng": "126.8351629105954",
    "region": "경기도"
  },
  {
    "name": "십정체육공원",
    "address": "인천광역시 부평구 십정동 100-1",
    "lat": "37.48028919135161",
    "lng": "126.69207131031558",
    "region": "인천광역시"
  },
  {
    "name": "송면초등학교 운동장",
    "address": "충청북도 괴산군 청천면 송면리 119",
    "lat": "36.6742220410761",
    "lng": "127.86261539078363",
    "region": "충청북도"
  },
  {
    "name": "수완초등학교  운동장",
    "address": "광주광역시 광산구 수완동 929",
    "lat": "35.19747905343326",
    "lng": "126.8241441249847",
    "region": "광주광역시"
  },
  {
    "name": "은빛공원",
    "address": "광주광역시 광산구 수완동 1493",
    "lat": "35.18792653401194",
    "lng": "126.82606458663938",
    "region": "광주광역시"
  },
  {
    "name": "강남초등학교운동장",
    "address": "울산광역시 남구 달동 633-9",
    "lat": "35.537643467819294",
    "lng": "129.31865707568417",
    "region": "울산광역시"
  },
  {
    "name": "명호초등학교 운동장",
    "address": "부산광역시 강서구 명지동 3232-6",
    "lat": "35.085107883317825",
    "lng": "128.89979302882801",
    "region": "부산광역시"
  },
  {
    "name": "주례중학교 운동장",
    "address": "부산광역시 사상구 주례동 55-33",
    "lat": "35.14785366009086",
    "lng": "129.0140045380905",
    "region": "부산광역시"
  },
  {
    "name": "연신초등학교 운동장",
    "address": "부산광역시 연제구 연산동 302-1",
    "lat": "35.19211768127864",
    "lng": "129.0938293933885",
    "region": "부산광역시"
  },
  {
    "name": "고양화수초등학교 운동장",
    "address": "경기도 고양시 덕양구 화정동 860",
    "lat": "37.64509894632615",
    "lng": "126.83269567129845",
    "region": "경기도"
  },
  {
    "name": "화정중학교 운동장",
    "address": "경기도 고양시 덕양구 화정동 941",
    "lat": "37.634614822581405",
    "lng": "126.82632628476934",
    "region": "경기도"
  },
  {
    "name": "백영고등학교 운동장",
    "address": "경기도 안양시 동안구 평촌동 932",
    "lat": "37.38612521326134",
    "lng": "126.96497945894075",
    "region": "경기도"
  },
  {
    "name": "신기초등학교 운동장",
    "address": "경기도 안양시 동안구 호계동 1056-5",
    "lat": "37.38124813058493",
    "lng": "126.95718588781696",
    "region": "경기도"
  },
  {
    "name": "하안북초등학교 운동장",
    "address": "경기도 광명시 하안동 684-1",
    "lat": "37.46442216047158",
    "lng": "126.86939350682066",
    "region": "경기도"
  },
  {
    "name": "안현초등학교 운동장",
    "address": "경기도 광명시 하안동 864-1",
    "lat": "37.470665320422206",
    "lng": "126.8676241590387",
    "region": "경기도"
  },
  {
    "name": "서면초등학교 운동장",
    "address": "경기도 광명시 소하동 904",
    "lat": "37.43856734003552",
    "lng": "126.88034380968655",
    "region": "경기도"
  },
  {
    "name": "이산초등학교 운동장",
    "address": "경상북도 영주시 이산면 석포리 1036",
    "lat": "36.829929587953465",
    "lng": "128.68202042774203",
    "region": "경상북도"
  },
  {
    "name": "종곡초등학교 운동장 ",
    "address": "충청북도 보은군 보은읍 강신리 54",
    "lat": "36.50206241535917",
    "lng": "127.74997664556462",
    "region": "충청북도"
  },
  {
    "name": "주엽초등학교 운동장",
    "address": "경기도 고양시 일산서구 주엽동 100",
    "lat": "37.66716944867149",
    "lng": "126.76177934416361",
    "region": "경기도"
  },
  {
    "name": "장연초등학교 운동장",
    "address": "충청북도 괴산군 장연면 오가리 349",
    "lat": "36.82479631931297",
    "lng": "127.95500148060485",
    "region": "충청북도"
  },
  {
    "name": "연풍초등학교 운동장",
    "address": "충청북도 괴산군 연풍면 삼풍리 162",
    "lat": "36.762529141602606",
    "lng": "127.99696315763593",
    "region": "충청북도"
  },
  {
    "name": "장갑2리 마을회관 공터",
    "address": "충청북도 보은군 산외면 장갑리 623-1",
    "lat": "36.572752",
    "lng": "127.767161",
    "region": "충청북도"
  },
  {
    "name": "청천중학교 운동장",
    "address": "충청북도 괴산군 청천면 선평리 155",
    "lat": "36.65713228348085",
    "lng": "127.73589484809429",
    "region": "충청북도"
  },
  {
    "name": "송면중학교 운동장",
    "address": "충청북도 괴산군 청천면 이평리 191",
    "lat": "36.65957535048119",
    "lng": "127.87440174162727",
    "region": "충청북도"
  },
  {
    "name": "광주연제초등학교 운동장",
    "address": "광주광역시 북구 양산동 688",
    "lat": "35.19594038021131",
    "lng": "126.87412977218625",
    "region": "광주광역시"
  },
  {
    "name": "용천초등학교 운동장",
    "address": "경기도 용인시 처인구 이동읍 천리 242-2",
    "lat": "37.191709459449896",
    "lng": "127.20797550960965",
    "region": "경기도"
  },
  {
    "name": "부이공원",
    "address": "인천광역시 부평구 부개동 514",
    "lat": "37.49036471447417",
    "lng": "126.73963542823071",
    "region": "인천광역시"
  },
  {
    "name": "광주태봉초등학교 운동장",
    "address": "광주광역시 북구 용봉동 721",
    "lat": "35.175860434622116",
    "lng": "126.89258873462678",
    "region": "광주광역시"
  },
  {
    "name": "월곡중학교 운동장",
    "address": "광주광역시 광산구 월곡동 589",
    "lat": "35.16624836461232",
    "lng": "126.81319534778594",
    "region": "광주광역시"
  },
  {
    "name": "감전초등학교 운동장",
    "address": "부산광역시 사상구 감전동 119-6",
    "lat": "35.155787817481475",
    "lng": "128.98827949400078",
    "region": "부산광역시"
  },
  {
    "name": "광주무등초등학교 운동장",
    "address": "광주광역시 북구 우산동 615",
    "lat": "35.178333429415524",
    "lng": "126.92273676395419",
    "region": "광주광역시"
  },
  {
    "name": "청안농협 광장",
    "address": "충청북도 괴산군 청안면 읍내리 215-32",
    "lat": "36.771221824900785",
    "lng": "127.6392646700278",
    "region": "충청북도"
  },
  {
    "name": "하남공원",
    "address": "광주광역시 광산구 하남동 499-3",
    "lat": "35.19203246977363",
    "lng": "126.79374831565836",
    "region": "광주광역시"
  },
  {
    "name": "운남공원",
    "address": "광주광역시 광산구 운남동 799-1",
    "lat": "35.1704315247397",
    "lng": "126.81616305713865",
    "region": "광주광역시"
  },
  {
    "name": "무양공원",
    "address": "광주광역시 광산구 월계동 848-1",
    "lat": "35.21051388262015",
    "lng": "126.8406910475495",
    "region": "광주광역시"
  },
  {
    "name": "부경고등학교 운동장",
    "address": "부산광역시 서구 서대신동3가 521",
    "lat": "35.114421018855346",
    "lng": "129.01325340691972",
    "region": "부산광역시"
  },
  {
    "name": "옥현초등학교운동장",
    "address": "울산광역시 남구 무거동 1218",
    "lat": "35.55029865092083",
    "lng": "129.27815393314762",
    "region": "울산광역시"
  },
  {
    "name": "용연초등학교운동장",
    "address": "울산광역시 남구 야음동 789-11",
    "lat": "35.52513627081865",
    "lng": "129.325150246846",
    "region": "울산광역시"
  },
  {
    "name": "천마초등학교 운동장",
    "address": "부산광역시 서구 암남동 81-11",
    "lat": "35.08138094400468",
    "lng": "129.01836007833492",
    "region": "부산광역시"
  },
  {
    "name": "성라초등학교 운동장",
    "address": "경기도 고양시 덕양구 성사동 732",
    "lat": "37.65244823398326",
    "lng": "126.83368030763367",
    "region": "경기도"
  },
  {
    "name": "동양초등학교운동장",
    "address": "부산광역시 부산진구 부암동 719",
    "lat": "35.17645125215304",
    "lng": "129.03076788142982",
    "region": "부산광역시"
  },
  {
    "name": "주원초등학교운동장",
    "address": "부산광역시 부산진구 개금동 565-14",
    "lat": "35.14689037734366",
    "lng": "129.0206180054002",
    "region": "부산광역시"
  },
  {
    "name": "초읍중학교운동장",
    "address": "부산광역시 부산진구 초읍동 510-1",
    "lat": "35.1805382166375",
    "lng": "129.05628334889437",
    "region": "부산광역시"
  },
  {
    "name": "광명남초등학교 운동장",
    "address": "경기도 광명시 광명동 295-58",
    "lat": "37.475471135319914",
    "lng": "126.85391664505003",
    "region": "경기도"
  },
  {
    "name": "충현초등학교 운동장",
    "address": "경기도 광명시 소하동 1375",
    "lat": "37.43303892394722",
    "lng": "126.88626535149778",
    "region": "경기도"
  },
  {
    "name": "과일나라어린이공원",
    "address": "경기도 광명시 소하동 1385-3",
    "lat": "37.43176141068479",
    "lng": "126.87717339825439",
    "region": "경기도"
  },
  {
    "name": "개운어린이공원",
    "address": "경기도 광명시 소하동 935",
    "lat": "37.43693539569563",
    "lng": "126.87753386018345",
    "region": "경기도"
  },
  {
    "name": "야음중학교운동장",
    "address": "울산광역시 남구 야음동 789-11",
    "lat": "35.52599359845792",
    "lng": "129.32521215583714",
    "region": "울산광역시"
  },
  {
    "name": "별방초중학교 운동장",
    "address": "충청북도 단양군 영춘면 별방리 540",
    "lat": "37.09640178702058",
    "lng": "128.41600366982823",
    "region": "충청북도"
  },
  {
    "name": "풍기북부초등학교 운동장",
    "address": "경상북도 영주시 풍기읍 교촌리 104-1",
    "lat": "36.87923560411904",
    "lng": "128.52571301299602",
    "region": "경상북도"
  },
  {
    "name": "영춘중학교 운동장",
    "address": "충청북도 단양군 영춘면 상리 496-1",
    "lat": "37.083064858714806",
    "lng": "128.48389388513246",
    "region": "충청북도"
  },
  {
    "name": "단양중학교 운동장",
    "address": "충청북도 단양군 단양읍 도전리 222",
    "lat": "36.97987085613099",
    "lng": "128.36670694388098",
    "region": "충청북도"
  },
  {
    "name": "평은초등학교 운동장",
    "address": "경상북도 영주시 평은면 평은리 1480-2",
    "lat": "36.76192052988296",
    "lng": "128.69492858648135",
    "region": "경상북도"
  },
  {
    "name": "학성고등학교운동장",
    "address": "울산광역시 남구 신정동 1674",
    "lat": "35.530593645366324",
    "lng": "129.30063228301333",
    "region": "울산광역시"
  },
  {
    "name": "장수초등학교 운동장",
    "address": "경상북도 영주시 장수면 반구리 981",
    "lat": "36.776064042566404",
    "lng": "128.57672477719657",
    "region": "경상북도"
  },
  {
    "name": "별곡리공원(여성회관 앞)",
    "address": "충청북도 단양군 단양읍 별곡리 639",
    "lat": "36.98753663842647",
    "lng": "128.36988514767123",
    "region": "충청북도"
  },
  {
    "name": "송정중학교 운동장",
    "address": "광주광역시 광산구 송정동 785",
    "lat": "35.14087528774569",
    "lng": "126.79604530334473",
    "region": "광주광역시"
  },
  {
    "name": "문원초등학교",
    "address": "경기도 과천시 별양동 16",
    "lat": "37.42371336173617",
    "lng": "126.99459725401141",
    "region": "경기도"
  },
  {
    "name": "중방리마을회관",
    "address": "충청북도 단양군 단성면 중방리 105-19",
    "lat": "36.93112706813092",
    "lng": "128.31892416456444",
    "region": "충청북도"
  },
  {
    "name": "대촌공원",
    "address": "인천광역시 부평구 부개동 502-16",
    "lat": "37.49697014413219",
    "lng": "126.74050666756041",
    "region": "인천광역시"
  },
  {
    "name": "현산초등학교 운동장",
    "address": "경기도 고양시 일산서구 탄현동 1586",
    "lat": "37.69235014885617",
    "lng": "126.77117938309596",
    "region": "경기도"
  },
  {
    "name": "대화초등학교 운동장",
    "address": "경기도 고양시 일산서구 대화동 1643",
    "lat": "37.67129730334283",
    "lng": "126.73242969616436",
    "region": "경기도"
  },
  {
    "name": "백석인조잔디축구장",
    "address": "경기도 고양시 일산동구 백석동 1233",
    "lat": "37.645409738670814",
    "lng": "126.79475143237696",
    "region": "경기도"
  },
  {
    "name": "고촌초등학교 운동장",
    "address": "경기도 김포시 고촌읍 신곡리 1101",
    "lat": "37.60572294468666",
    "lng": "126.77377877710163",
    "region": "경기도"
  },
  {
    "name": "거성초등학교 운동장",
    "address": "강원특별자치도 고성군 거진읍 거진리 180",
    "lat": "38.45221938218686",
    "lng": "128.45757507202129",
    "region": "강원특별자치도"
  },
  {
    "name": "공현진초등학교 운동장",
    "address": "강원특별자치도 고성군 죽왕면 공현진리 334",
    "lat": "38.35371762050836",
    "lng": "128.50758054864556",
    "region": "강원특별자치도"
  },
  {
    "name": "풍무 제1어린이공원",
    "address": "경기도 김포시 풍무동 765",
    "lat": "37.60361747856578",
    "lng": "126.72632364259283",
    "region": "경기도"
  },
  {
    "name": "새별공원",
    "address": "충청북도 단양군 가곡면 사평리 505-3",
    "lat": "37.02381484285222",
    "lng": "128.38326430419102",
    "region": "충청북도"
  },
  {
    "name": "울산대공원",
    "address": "울산광역시 남구 옥동 146-1",
    "lat": "35.5314684473392",
    "lng": "129.29329056082278",
    "region": "울산광역시"
  },
  {
    "name": "관문체육공원",
    "address": "경기도 과천시 관문동 3",
    "lat": "37.44180295844646",
    "lng": "126.99649405446777",
    "region": "경기도"
  },
  {
    "name": "소요초등학교 운동장",
    "address": "경기도 동두천시 상봉암동 237-2",
    "lat": "37.94832236095408",
    "lng": "127.05419548055923",
    "region": "경기도"
  },
  {
    "name": "광덕초등학교 운동장",
    "address": "경기도 안성시 대덕면 내리 697",
    "lat": "37.00081678768407",
    "lng": "127.22149405542196",
    "region": "경기도"
  },
  {
    "name": "주암체육공원",
    "address": "경기도 과천시 주암동 53",
    "lat": "37.46107817541971",
    "lng": "127.03190301447522",
    "region": "경기도"
  },
  {
    "name": "의왕초등학교 운동장",
    "address": "경기도 의왕시 오전동 27-5",
    "lat": "37.36315160340388",
    "lng": "126.96822114116397",
    "region": "경기도"
  },
  {
    "name": "논골어린이공원",
    "address": "서울특별시 강북구 번동 417-15",
    "lat": "37.63838247365702",
    "lng": "127.02804600000513",
    "region": "서울특별시"
  },
  {
    "name": "박물관공원",
    "address": "인천광역시 부평구 삼산동 481",
    "lat": "37.513262",
    "lng": "126.739824",
    "region": "인천광역시"
  },
  {
    "name": "뫼골문화공원",
    "address": "인천광역시 부평구 산곡동 58-3",
    "lat": "37.51387729439742",
    "lng": "126.70099140737565",
    "region": "인천광역시"
  },
  {
    "name": "광주서일초등학교 운동장",
    "address": "광주광역시 북구 일곡동 817-1",
    "lat": "35.211672048824575",
    "lng": "126.89844131469725",
    "region": "광주광역시"
  },
  {
    "name": "광주일동초등학교 운동장",
    "address": "광주광역시 북구 일곡동 890-1",
    "lat": "35.205680435169114",
    "lng": "126.8935650587082",
    "region": "광주광역시"
  },
  {
    "name": "일신어린이공원(일신1호공원)",
    "address": "인천광역시 부평구 일신동 411",
    "lat": "37.48267092852089",
    "lng": "126.74231452408556",
    "region": "인천광역시"
  },
  {
    "name": "소수초등학교 운동장",
    "address": "충청북도 괴산군 소수면 수리 554",
    "lat": "36.85419547871711",
    "lng": "127.74529307510443",
    "region": "충청북도"
  },
  {
    "name": "금정고등학교 운동장",
    "address": "부산광역시 동래구 명장동 432",
    "lat": "35.206886172298596",
    "lng": "129.10724929874496",
    "region": "부산광역시"
  },
  {
    "name": "대명여자고등학교 운동장",
    "address": "부산광역시 동래구 명장동 533",
    "lat": "35.211528046764826",
    "lng": "129.09645995872572",
    "region": "부산광역시"
  },
  {
    "name": "노화초등학교",
    "address": "전라남도 완도군 노화읍 도청리 324",
    "lat": "34.195442187491516",
    "lng": "126.57006573067841",
    "region": "전라남도"
  },
  {
    "name": "신지초등학교",
    "address": "전라남도 완도군 신지면 대곡리 850",
    "lat": "34.33722610409729",
    "lng": "126.83016978283202",
    "region": "전라남도"
  },
  {
    "name": "동백중학교운동장",
    "address": "부산광역시 해운대구 중동 750-10",
    "lat": "35.165415148094425",
    "lng": "129.1739469766638",
    "region": "부산광역시"
  },
  {
    "name": "안양고등학교 운동장",
    "address": "경기도 안양시 만안구 박달동 144-3",
    "lat": "37.40079761088034",
    "lng": "126.90149539709974",
    "region": "경기도"
  },
  {
    "name": "대림대학교 운동장",
    "address": "경기도 안양시 동안구 비산동 526-7",
    "lat": "37.40287063418246",
    "lng": "126.93097919225694",
    "region": "경기도"
  },
  {
    "name": "거진중학교 운동장",
    "address": "강원특별자치도 고성군 거진읍 봉평리 31-1",
    "lat": "38.446750378929",
    "lng": "128.44848300786694",
    "region": "강원특별자치도"
  },
  {
    "name": "사랑공원",
    "address": "부산광역시 북구 금곡동 1107",
    "lat": "35.25425367093644",
    "lng": "129.0141490101827",
    "region": "부산광역시"
  },
  {
    "name": "통진초등학교 운동장",
    "address": "경기도 김포시 통진읍 서암리 1108",
    "lat": "37.693445420559975",
    "lng": "126.59437671197739",
    "region": "경기도"
  },
  {
    "name": "마송중앙초등학교 운동장",
    "address": "경기도 김포시 통진읍 마송리 499",
    "lat": "37.689060310040595",
    "lng": "126.59416723299472",
    "region": "경기도"
  },
  {
    "name": "신양중학교 운동장",
    "address": "경기도 김포시 양촌읍 양곡리 1251",
    "lat": "37.658703923515375",
    "lng": "126.63608871619263",
    "region": "경기도"
  },
  {
    "name": "학운2 산업단지공원",
    "address": "경기도 김포시 양촌읍 학운리 3316",
    "lat": "37.60505707289881",
    "lng": "126.59370138209695",
    "region": "경기도"
  },
  {
    "name": "부안초등학교 운동장",
    "address": "경기도 안양시 동안구 관양동 1586-2",
    "lat": "37.39803258203462",
    "lng": "126.95447316141035",
    "region": "경기도"
  },
  {
    "name": "정발고등학교 운동장",
    "address": "경기도 고양시 일산동구 마두동 894",
    "lat": "37.66353123285816",
    "lng": "126.78589398884648",
    "region": "경기도"
  },
  {
    "name": "안양남초등학교 운동장",
    "address": "경기도 안양시 동안구 호계동 1215",
    "lat": "37.37969823576524",
    "lng": "126.96923604206303",
    "region": "경기도"
  },
  {
    "name": "가산초등학교운동장",
    "address": "부산광역시 부산진구 가야동 464-99",
    "lat": "35.14626781025576",
    "lng": "129.035631889674",
    "region": "부산광역시"
  },
  {
    "name": "양동여자중학교운동장",
    "address": "부산광역시 부산진구 양정동 25-1",
    "lat": "35.170315063412076",
    "lng": "129.0806509623603",
    "region": "부산광역시"
  },
  {
    "name": "연지어린이공원",
    "address": "부산광역시 부산진구 연지동 48",
    "lat": "35.17301913979271",
    "lng": "129.0557187115906",
    "region": "부산광역시"
  },
  {
    "name": "대가초등학교 운동장",
    "address": "충청북도 단양군 적성면 대가리 191",
    "lat": "37.03319380094475",
    "lng": "128.26279797889265",
    "region": "충청북도"
  },
  {
    "name": "소금정공원",
    "address": "충청북도 단양군 단양읍 상진리 1017",
    "lat": "36.9754852795296",
    "lng": "128.3640901013125",
    "region": "충청북도"
  },
  {
    "name": "대강면사무소 주차장",
    "address": "충청북도 단양군 대강면 장림리 149-1",
    "lat": "36.92226366053866",
    "lng": "128.35201652313225",
    "region": "충청북도"
  },
  {
    "name": "만종리 마을회관 앞 공터",
    "address": "충청북도 단양군 영춘면 만종리 59-5",
    "lat": "37.09779937687318",
    "lng": "128.40135711830894",
    "region": "충청북도"
  },
  {
    "name": "신매공원",
    "address": "대구광역시 수성구 신매동 590",
    "lat": "35.832923157423785",
    "lng": "128.70916015033924",
    "region": "대구광역시"
  },
  {
    "name": "수성근린공원",
    "address": "대구광역시 수성구 수성동4가 1090-15",
    "lat": "35.860643615780845",
    "lng": "128.61486946104998",
    "region": "대구광역시"
  },
  {
    "name": "개산초등학교 운동장",
    "address": "경기도 안성시 금광면 개산리 168-3",
    "lat": "36.984516675078666",
    "lng": "127.30156911239779",
    "region": "경기도"
  },
  {
    "name": "금광초등학교 운동장",
    "address": "경기도 안성시 금광면 금광리 107-1",
    "lat": "37.000237335646226",
    "lng": "127.32439665047663",
    "region": "경기도"
  },
  {
    "name": "천마공원",
    "address": "서울특별시 송파구 마천동 산2",
    "lat": "37.50018905145087",
    "lng": "127.1602410078049",
    "region": "서울특별시"
  },
  {
    "name": "부곡체육공원",
    "address": "경기도 의왕시 월암동 421",
    "lat": "37.314212493513764",
    "lng": "126.95923399706668",
    "region": "경기도"
  },
  {
    "name": "모락중학교 운동장",
    "address": "경기도 의왕시 오전동 11-4",
    "lat": "37.367974196517764",
    "lng": "126.96721637674635",
    "region": "경기도"
  },
  {
    "name": "수송중학교운동장",
    "address": "서울특별시 강북구 번동 456-1",
    "lat": "37.636268118381025",
    "lng": "127.03332076716488",
    "region": "서울특별시"
  },
  {
    "name": "유현초등학교 운동장",
    "address": "강원특별자치도 횡성군 서원면 유현리 362-1",
    "lat": "37.52632207384446",
    "lng": "127.87529283631171",
    "region": "강원특별자치도"
  },
  {
    "name": "군외초등학교",
    "address": "전라남도 완도군 군외면 신학리 666",
    "lat": "34.379109380510315",
    "lng": "126.64659974674075",
    "region": "전라남도"
  },
  {
    "name": "김포신풍초등학교 운동장",
    "address": "경기도 김포시 풍무동 19-5",
    "lat": "37.61347015198815",
    "lng": "126.72608877996377",
    "region": "경기도"
  },
  {
    "name": "철쭉공원",
    "address": "경기도 군포시 산본동 1153",
    "lat": "37.353070612571884",
    "lng": "126.9258199706574",
    "region": "경기도"
  },
  {
    "name": "한일여자고등학교 운동장",
    "address": "경상남도 창원시 마산회원구 양덕동 888-9",
    "lat": "35.22937696088648",
    "lng": "128.5791008722608",
    "region": "경상남도"
  },
  {
    "name": "해강고등학교운동장",
    "address": "부산광역시 해운대구 우동 1417-1",
    "lat": "35.163946035015506",
    "lng": "129.13631021976886",
    "region": "부산광역시"
  },
  {
    "name": "창호초등학교운동장",
    "address": "강원특별자치도 동해시 묵호진동 85-7",
    "lat": "37.55834926819728",
    "lng": "129.10846748647333",
    "region": "강원특별자치도"
  },
  {
    "name": "북평제2공원",
    "address": "강원특별자치도 동해시 구호동 239",
    "lat": "37.47233345658353",
    "lng": "129.14101749658366",
    "region": "강원특별자치도"
  },
  {
    "name": "묵호초등학교운동장",
    "address": "강원특별자치도 동해시 발한동 318",
    "lat": "37.55227971607965",
    "lng": "129.10309374332599",
    "region": "강원특별자치도"
  },
  {
    "name": "광희고등학교운동장",
    "address": "강원특별자치도 동해시 동회동 446",
    "lat": "37.489710368834224",
    "lng": "129.1040700674074",
    "region": "강원특별자치도"
  },
  {
    "name": "원삼초등학교 운동장",
    "address": "경기도 용인시 처인구 원삼면 독성리 295-1",
    "lat": "37.163506892111194",
    "lng": "127.31534128964532",
    "region": "경기도"
  },
  {
    "name": "마산서중학교운동장",
    "address": "경상남도 창원시 마산합포구 월영동 534-20",
    "lat": "35.17812930980292",
    "lng": "128.55716304605585",
    "region": "경상남도"
  },
  {
    "name": "성호초등학교운동장",
    "address": "경상남도 창원시 마산합포구 성호동 57-3",
    "lat": "35.208598603476815",
    "lng": "128.57149569193635",
    "region": "경상남도"
  },
  {
    "name": "용인중학교 운동장",
    "address": "경기도 용인시 처인구 김량장동 203-3",
    "lat": "37.23857218743445",
    "lng": "127.2013602140405",
    "region": "경기도"
  },
  {
    "name": "산호초등학교운동장",
    "address": "경상남도 창원시 마산합포구 산호동 53-1",
    "lat": "35.21940702087408",
    "lng": "128.5792595893612",
    "region": "경상남도"
  },
  {
    "name": "노화중학교",
    "address": "전라남도 ���도군 노화읍 이포리 345",
    "lat": "34.18357915297576",
    "lng": "126.5732754828744",
    "region": "전라남도"
  },
  {
    "name": "명진공원",
    "address": "부산광역시 북구 화명동 2260",
    "lat": "35.23863739117632",
    "lng": "129.00953626846993",
    "region": "부산광역시"
  },
  {
    "name": "해안초등학교(운동장)",
    "address": "대구광역시 동구 부동 643-1",
    "lat": "35.895886372667924",
    "lng": "128.68285439634118",
    "region": "대구광역시"
  },
  {
    "name": "서암초등학교 운동장",
    "address": "경기도 김포시 통진읍 서암리 407",
    "lat": "37.70041",
    "lng": "126.6047",
    "region": "경기도"
  },
  {
    "name": "소안항일기념관",
    "address": "전라남도 완도군 소안면 가학리 259",
    "lat": "34.1670823",
    "lng": "126.6519992",
    "region": "전라남도"
  },
  {
    "name": "금일중학교 생일분교",
    "address": "전라남도 완도군 생일면 유서리 626",
    "lat": "34.334970331717955",
    "lng": "126.99050360335102",
    "region": "전라남도"
  },
  {
    "name": "양정생활체육공원",
    "address": "울산광역시 북구 양정동 503-1",
    "lat": "35.5489066",
    "lng": "129.3861303",
    "region": "울산광역시"
  },
  {
    "name": "덕산읍사무소",
    "address": "충청북도 진천군 덕산면 용몽리 637",
    "lat": "36.91372375896363",
    "lng": "127.50936012576695",
    "region": "충청북도"
  },
  {
    "name": "백곡면사무소",
    "address": "충청북도 진천군 백곡면 석현리 293",
    "lat": "36.88386974744105",
    "lng": "127.37683792700727",
    "region": "충청북도"
  },
  {
    "name": "신척산단 어린이공원",
    "address": "충청북도 진천군 덕산읍 신척리 960",
    "lat": "36.917382686247805",
    "lng": "127.49219119548798",
    "region": "충청북도"
  },
  {
    "name": "구암초등학교 운동장",
    "address": "경상남도 창원시 마산회원구 구암동 260",
    "lat": "35.25789216060472",
    "lng": "128.5946083433951",
    "region": "경상남도"
  },
  {
    "name": "하북초등학교운동장",
    "address": "경상남도 창원시 마산합포구 진북면 지산리 79-1",
    "lat": "35.11595204229392",
    "lng": "128.46995644907344",
    "region": "경상남도"
  },
  {
    "name": "진전초등학교운동장",
    "address": "경상남도 창원시 마산합포구 진전면 곡안리 77-1",
    "lat": "35.109934486385015",
    "lng": "128.41511729828628",
    "region": "경상남도"
  },
  {
    "name": "가포초등학교운동장",
    "address": "경상남도 창원시 마산합포구 가포동 741",
    "lat": "35.15922715202801",
    "lng": "128.57546836137792",
    "region": "경상남도"
  },
  {
    "name": "교방초등학교운동장",
    "address": "경상남도 창원시 마산합포구 교방동 376-8",
    "lat": "35.21363320760591",
    "lng": "128.56525910282159",
    "region": "경상남도"
  },
  {
    "name": "고림초등학교 운동장",
    "address": "경기도 용인시 처인구 고림동 340-2",
    "lat": "37.24722344102078",
    "lng": "127.2273298466992",
    "region": "경기도"
  },
  {
    "name": "신갈초등학교 운동장",
    "address": "경기도 용인시 기흥구 신갈동 56",
    "lat": "37.27344072779874",
    "lng": "127.10662432979677",
    "region": "경기도"
  },
  {
    "name": "마북초등학교 운동장",
    "address": "경기도 용인시 기흥구 마북동 550-13",
    "lat": "37.30247257324649",
    "lng": "127.11019978948963",
    "region": "경기도"
  },
  {
    "name": "초당중학교 운동장",
    "address": "경기도 용인시 기흥구 중동 1048",
    "lat": "37.265378204413906",
    "lng": "127.15698394896519",
    "region": "경기도"
  },
  {
    "name": "백현고등학교 운동장",
    "address": "경기도 용인시 기흥구 동백동 664",
    "lat": "37.27914617905812",
    "lng": "127.1625509759907",
    "region": "경기도"
  },
  {
    "name": "초당고등학교 운동장",
    "address": "경기도 용인시 기흥구 중동 1040",
    "lat": "37.258560909122416",
    "lng": "127.16330609034294",
    "region": "경기도"
  },
  {
    "name": "어정중학교 운동장",
    "address": "경기도 용인시 기흥구 중동 1103",
    "lat": "37.28053211564707",
    "lng": "127.14526841302767",
    "region": "경기도"
  },
  {
    "name": "풍덕초등학교 운동장",
    "address": "경기도 용인시 수지구 풍덕천동 664-1",
    "lat": "37.329889314396326",
    "lng": "127.09551576661964",
    "region": "경기도"
  },
  {
    "name": "정평중학교 운동장",
    "address": "경기도 용인시 수지구 풍덕천동 1117",
    "lat": "37.31784216873297",
    "lng": "127.08802334462473",
    "region": "경기도"
  },
  {
    "name": "용인대일초등학교 운동장",
    "address": "경기도 용인시 수지구 죽전동 1247",
    "lat": "37.32769753449222",
    "lng": "127.11865953759981",
    "region": "경기도"
  },
  {
    "name": "다목적운동장",
    "address": "충청북도 괴산군 괴산읍 서부리 661",
    "lat": "36.81444840307066",
    "lng": "127.78486091201502",
    "region": "충청북도"
  },
  {
    "name": "서원초등학교 운동장",
    "address": "경기도 용인시 수지구 상현동 826",
    "lat": "37.303510703117745",
    "lng": "127.07855623724068",
    "region": "경기도"
  },
  {
    "name": "성복고등학교 운동장",
    "address": "경기도 용인시 수지구 성복동 782",
    "lat": "37.323018906369256",
    "lng": "127.06115673761008",
    "region": "경기도"
  },
  {
    "name": "삼덕초등학교 운동장",
    "address": "대구광역시 중구 삼덕동3가 316",
    "lat": "35.8636",
    "lng": "128.6078",
    "region": "대구광역시"
  },
  {
    "name": "경북여자고등학교 운동장",
    "address": "대구광역시 중구 남산동 714-2",
    "lat": "35.85846639108029",
    "lng": "128.59288527551195",
    "region": "대구광역시"
  },
  {
    "name": "종로초등학교 운동장",
    "address": "대구광역시 중구 서문로1가 1-5",
    "lat": "35.872050590715254",
    "lng": "128.5899769022425",
    "region": "대구광역시"
  },
  {
    "name": "화봉공원",
    "address": "울산광역시 북구 화봉동 445-1",
    "lat": "35.5886961",
    "lng": "129.3645169",
    "region": "울산광역시"
  },
  {
    "name": "명덕초등학교 운동장",
    "address": "대구광역시 중구 남산동 2113",
    "lat": "35.85795829058778",
    "lng": "128.58950142688286",
    "region": "대구광역시"
  },
  {
    "name": "진장중학교 운동장",
    "address": "울산광역시 북구 진장동 695-4",
    "lat": "35.5632233",
    "lng": "129.3583851",
    "region": "울산광역시"
  },
  {
    "name": "범물공원",
    "address": "대구광역시 수성구 범물동 1328-2",
    "lat": "35.81857211281149",
    "lng": "128.6432910586316",
    "region": "대구광역시"
  },
  {
    "name": "합성초등학교 운동장",
    "address": "경상남도 창원시 마산회원구 합성동 76-5",
    "lat": "35.242441941818214",
    "lng": "128.58195340372458",
    "region": "경상남도"
  },
  {
    "name": "경북대학교 부설초등학교 운동장",
    "address": "대구광역시 중구 봉산동 162",
    "lat": "35.86384375724845",
    "lng": "128.5981449483774",
    "region": "대구광역시"
  },
  {
    "name": "경북공업고등학교 운동장",
    "address": "대구광역시 중구 남산동 2380-5",
    "lat": "35.858028767151616",
    "lng": "128.58381884598597",
    "region": "대구광역시"
  },
  {
    "name": "국채보상기념공원",
    "address": "대구광역시 중구 동인동2가 78",
    "lat": "35.86886901629768",
    "lng": "128.60264182090782",
    "region": "대구광역시"
  },
  {
    "name": "중랑초등학교운동장",
    "address": "서울특별시 중랑구 면목동 192-1",
    "lat": "37.5892919921458",
    "lng": "127.07574605941772",
    "region": "서울특별시"
  },
  {
    "name": "울릉고등학교 운동장",
    "address": "경상북도 울릉군 울릉읍 도동리 350",
    "lat": "37.493194204398485",
    "lng": "130.9080997110371",
    "region": "경상북도"
  },
  {
    "name": "신내근린공원",
    "address": "서울특별시 중랑구 신내동 652",
    "lat": "37.61374698683661",
    "lng": "127.08918929100038",
    "region": "서울특별시"
  },
  {
    "name": "면목초등학교운동장",
    "address": "서울특별시 중랑구 면목동 221",
    "lat": "37.59104709905833",
    "lng": "127.08756325075352",
    "region": "서울특별시"
  },
  {
    "name": "중화중학교운동장",
    "address": "서울특별시 중랑구 면목동 83",
    "lat": "37.58423153177719",
    "lng": "127.09517738182284",
    "region": "서울특별시"
  },
  {
    "name": "동원초등학교운동장",
    "address": "서울특별시 중랑구 망우동 216",
    "lat": "37.604952753736654",
    "lng": "127.10484539599005",
    "region": "서울특별시"
  },
  {
    "name": "망우초등학교운동장",
    "address": "서울특별시 중랑구 망우동 153-1",
    "lat": "37.59822450990971",
    "lng": "127.10335843689496",
    "region": "서울특별시"
  },
  {
    "name": "서운중학교 운동장",
    "address": "경기도 안성시 서운면 인리 67",
    "lat": "36.94426261050707",
    "lng": "127.26340507234521",
    "region": "경기도"
  },
  {
    "name": "봉양중학교  운동장",
    "address": "충청북도 제천시 봉양읍 장평리 864-1",
    "lat": "37.1292555742911",
    "lng": "128.12434281303916",
    "region": "충청북도"
  },
  {
    "name": "서운초등학교 운동장",
    "address": "경기도 안성시 서운면 동촌리 146-2",
    "lat": "36.9462731003367",
    "lng": "127.2552454274808",
    "region": "경기도"
  },
  {
    "name": "가온고등학교 운동장",
    "address": "경기도 안성시 발화동 215-7",
    "lat": "36.98891772273261",
    "lng": "127.27597332810984",
    "region": "경기도"
  },
  {
    "name": "안성초등학교 운동장",
    "address": "경기도 안성시 구포동 170",
    "lat": "37.011929134339226",
    "lng": "127.27208445882475",
    "region": "경기도"
  },
  {
    "name": "청풍초중학교  운동장",
    "address": "충청북도 제천시 청풍면 물태리 144-3",
    "lat": "36.99608336673362",
    "lng": "128.16464552466687",
    "region": "충청북도"
  },
  {
    "name": "백운중학교  운동장",
    "address": "충청북도 제천시 백운면 평동리 570",
    "lat": "37.1425368876251",
    "lng": "128.01694939381946",
    "region": "충청북도"
  },
  {
    "name": "죽산중학교 운동장",
    "address": "경기도 안성시 죽산면 죽산리 318",
    "lat": "37.0814368493852",
    "lng": "127.42463595246987",
    "region": "경기도"
  },
  {
    "name": "석성초등학교 운동장",
    "address": "충청북도 청주시 청원구 북이면 내둔리 344",
    "lat": "36.74848427755441",
    "lng": "127.51374087453421",
    "region": "충청북도"
  },
  {
    "name": "북이면사무소 주차장",
    "address": "충청북도 청주시 청원구 북이면 신대리 4-8",
    "lat": "36.73919298440515",
    "lng": "127.54190751450784",
    "region": "충청북도"
  },
  {
    "name": "행동공원",
    "address": "전라남도 순천시 행동 65-7",
    "lat": "34.95520120480578",
    "lng": "127.48266234108961",
    "region": "전라남도"
  },
  {
    "name": "신대21공원",
    "address": "전라남도 순천시 해룡면 신대리 2090",
    "lat": "34.93119586260601",
    "lng": "127.55172254474131",
    "region": "전라남도"
  },
  {
    "name": "황룡중학교",
    "address": "전라남도 장성군 황룡면 장산리 402",
    "lat": "35.29706675714485",
    "lng": "126.75880783760866",
    "region": "전라남도"
  },
  {
    "name": "진성초등학교",
    "address": "경상북도 경산시 진량읍 황제리 194",
    "lat": "35.853602291057726",
    "lng": "128.81513601190957",
    "region": "경상북도"
  },
  {
    "name": "삼성현중학교",
    "address": "경상북도 경산시 백천동 591-2",
    "lat": "35.80097472030773",
    "lng": "128.7397626609186",
    "region": "경상북도"
  },
  {
    "name": "경산과학고등학교",
    "address": "경상북도 경산시 갑제동 440-6",
    "lat": "35.821247458188786",
    "lng": "128.76837281410988",
    "region": "경상북도"
  },
  {
    "name": "김제용동초등학교 ",
    "address": "전북특별자치도 김제시 용지면 장신리 280",
    "lat": "35.85419022656075",
    "lng": "127.0026334583985",
    "region": "전북특별자치도"
  },
  {
    "name": "김제공덕초등학교",
    "address": "전북특별자치도 김제시 공덕면 동계리 702-2",
    "lat": "35.89418301564129",
    "lng": "126.9115820623361",
    "region": "전북특별자치도"
  },
  {
    "name": "김제중앙초등학교",
    "address": "전북특별자치도 김제시 요촌동 214-1",
    "lat": "35.80193145325687",
    "lng": "126.88957787559852",
    "region": "전북특별자치도"
  },
  {
    "name": "녹전초등학교 운동장",
    "address": "경상북도 안동시 녹전면 신평리 659-3",
    "lat": "36.74077882902248",
    "lng": "128.774093763993",
    "region": "경상북도"
  },
  {
    "name": "경일고등학교 운동장",
    "address": "경상북도 안동시 신안동 51",
    "lat": "36.5754",
    "lng": "128.7372",
    "region": "경상북도"
  },
  {
    "name": "길주중학교 운동장",
    "address": "경상북도 안동시 용상동 1000-1",
    "lat": "36.55614749682667",
    "lng": "128.7580039776651",
    "region": "경상북도"
  },
  {
    "name": "용상2공원",
    "address": "경상북도 안동시 용상동 1561-6",
    "lat": "36.55841058833529",
    "lng": "128.74294896646902",
    "region": "경상북도"
  },
  {
    "name": "이원초등학교 운동장",
    "address": "충청북도 옥천군 이원면 강청리 14-7",
    "lat": "36.24640221151524",
    "lng": "127.62279716552219",
    "region": "충청북도"
  },
  {
    "name": "경주민속공예촌 주차장",
    "address": "경상북도 경주시 하동 201-14",
    "lat": "35.804421518403316",
    "lng": "129.31121579247304",
    "region": "경상북도"
  },
  {
    "name": "중앙고등학교 운동장",
    "address": "경상북도 안동시 태화동 603-1",
    "lat": "36.56050475598451",
    "lng": "128.7092894170341",
    "region": "경상북도"
  },
  {
    "name": "태화공원",
    "address": "경상북도 안동시 태화동 238-1",
    "lat": "36.559498353652316",
    "lng": "128.71178253257162",
    "region": "경상북도"
  },
  {
    "name": "춘양 체육공원",
    "address": "경상북도 봉화군 춘양면 의양리 166",
    "lat": "36.93666420768493",
    "lng": "128.9191679176952",
    "region": "경상북도"
  },
  {
    "name": "강남1공원",
    "address": "경상북도 안동시 정하동 254-2",
    "lat": "36.5512603385873",
    "lng": "128.73340600846493",
    "region": "경상북도"
  },
  {
    "name": "웅부공원",
    "address": "경상북도 안동시 동부동 65-2",
    "lat": "36.566152099963084",
    "lng": "128.7332315502535",
    "region": "경상북도"
  },
  {
    "name": "도화초등학교",
    "address": "전라남도 고흥군 도화면 당오리 518",
    "lat": "34.5105048493295",
    "lng": "127.31819839268209",
    "region": "전라남도"
  },
  {
    "name": "산격중학교 운동장",
    "address": "대구광역시 북구 산격동 500-136",
    "lat": "35.902338835997526",
    "lng": "128.60907558038676",
    "region": "대구광역시"
  },
  {
    "name": "북대구초등학교 운동장",
    "address": "대구광역시 북구 산격동 283",
    "lat": "35.903791237810964",
    "lng": "128.60991308581282",
    "region": "대구광역시"
  },
  {
    "name": "경진초등학교 운동장",
    "address": "대구광역시 북구 복현동 447",
    "lat": "35.891722559364524",
    "lng": "128.61808446804005",
    "region": "대구광역시"
  },
  {
    "name": "태전초등학교 운동장",
    "address": "대구광역시 북구 태전동 957",
    "lat": "35.929806678008966",
    "lng": "128.54595887723676",
    "region": "대구광역시"
  },
  {
    "name": "강북고등학교 운동장",
    "address": "대구광역시 북구 태전동 324",
    "lat": "35.929478926675465",
    "lng": "128.5410017581472",
    "region": "대구광역시"
  },
  {
    "name": "대구과학대학 운동장",
    "address": "대구광역시 북구 태전동 산9-1",
    "lat": "35.92974123078804",
    "lng": "128.54253847795894",
    "region": "대구광역시"
  },
  {
    "name": "신암초등학교 운동장",
    "address": "대구광역시 북구 대현동 1-2",
    "lat": "35.8834361605668",
    "lng": "128.61255061423986",
    "region": "대구광역시"
  },
  {
    "name": "대산초등학교 운동장",
    "address": "대구광역시 북구 산격동 789-4",
    "lat": "35.89663949297073",
    "lng": "128.59388721655986",
    "region": "대구광역시"
  },
  {
    "name": "칠곡초등학교 운동장",
    "address": "대구광역시 북구 읍내동 794",
    "lat": "35.9450629185499",
    "lng": "128.5515243827938",
    "region": "대구광역시"
  },
  {
    "name": "칠곡중학교 운동장",
    "address": "대구광역시 북구 읍내동 538",
    "lat": "35.94785987758706",
    "lng": "128.55116432478573",
    "region": "대구광역시"
  },
  {
    "name": "교동초등학교 운동장",
    "address": "대구광역시 북구 읍내동 1305",
    "lat": "35.944599414159256",
    "lng": "128.54946275404782",
    "region": "대구광역시"
  },
  {
    "name": "영진전문대학 운동장",
    "address": "대구광역시 북구 복현동 218",
    "lat": "35.89595390511687",
    "lng": "128.622042332892",
    "region": "대구광역시"
  },
  {
    "name": "영진고등학교 운동장",
    "address": "대구광역시 북구 복현동 332-1",
    "lat": "35.89410588935577",
    "lng": "128.62238126253231",
    "region": "대구광역시"
  },
  {
    "name": "대구북중학교 운동장",
    "address": "대구광역시 북구 복현동 219-1",
    "lat": "35.897569553446075",
    "lng": "128.62051738507867",
    "region": "대구광역시"
  },
  {
    "name": "복현초등학교 운동장",
    "address": "대구광역시 북구 복현동 225",
    "lat": "35.89779977428838",
    "lng": "128.6216577956368",
    "region": "대구광역시"
  },
  {
    "name": "성화중학교 운동장",
    "address": "대구광역시 북구 복현동 540-1",
    "lat": "35.903164148035096",
    "lng": "128.61925415968403",
    "region": "대구광역시"
  },
  {
    "name": "성화여자고등학교 운동장",
    "address": "대구광역시 북구 복현동 540-1",
    "lat": "35.90236027672407",
    "lng": "128.6192395294977",
    "region": "대구광역시"
  },
  {
    "name": "문성초등학교 운동장",
    "address": "대구광역시 북구 복현동 33",
    "lat": "35.90516443842355",
    "lng": "128.6201842275627",
    "region": "대구광역시"
  },
  {
    "name": "경상고등학교 운동장",
    "address": "대구광역시 북구 복현동 105",
    "lat": "35.90177660721637",
    "lng": "128.6225839900288",
    "region": "대구광역시"
  },
  {
    "name": "경상여자고등학교 운동장",
    "address": "대구광역시 북구 침산동 810-1",
    "lat": "35.89924638934062",
    "lng": "128.58775799380373",
    "region": "대구광역시"
  },
  {
    "name": "구암초등학교 운동장",
    "address": "대구광역시 북구 구암동 694-1",
    "lat": "35.92798303327831",
    "lng": "128.55798028640967",
    "region": "대구광역시"
  },
  {
    "name": "강북초등학교 운동장",
    "address": "대구광역시 북구 구암동 785-1",
    "lat": "35.94054163207153",
    "lng": "128.5666570496846",
    "region": "대구광역시"
  },
  {
    "name": "구암중학교 운동장",
    "address": "대구광역시 북구 구암동 694-2",
    "lat": "35.92733010240426",
    "lng": "128.55713000472494",
    "region": "대구광역시"
  },
  {
    "name": "강북중학교 운동장",
    "address": "대구광역시 북구 구암동 787-1",
    "lat": "35.938714591216545",
    "lng": "128.56493366261245",
    "region": "대구광역시"
  },
  {
    "name": "운암중학교 운동장",
    "address": "대구광역시 북구 구암동 801",
    "lat": "35.932539178725776",
    "lng": "128.56515405333923",
    "region": "대구광역시"
  },
  {
    "name": "구암고등학교 운동장",
    "address": "대구광역시 북구 구암동 672",
    "lat": "35.92576095024056",
    "lng": "128.55317894002397",
    "region": "대구광역시"
  },
  {
    "name": "함지고등학교 운동장",
    "address": "대구광역시 북구 구암동 488-3",
    "lat": "35.92810169944845",
    "lng": "128.56051812762843",
    "region": "대구광역시"
  },
  {
    "name": "학남초등학교 운동장",
    "address": "대구광역시 북구 국우동 1079-1",
    "lat": "35.94591658122483",
    "lng": "128.56633402441656",
    "region": "대구광역시"
  },
  {
    "name": "학정초등학교 운동장",
    "address": "대구광역시 북구 학정동 985",
    "lat": "35.94820408481832",
    "lng": "128.56909192840422",
    "region": "대구광역시"
  },
  {
    "name": "학남중학교 운동장",
    "address": "대구광역시 북구 국우동 1085",
    "lat": "35.94535473165713",
    "lng": "128.57038549267824",
    "region": "대구광역시"
  },
  {
    "name": "대구체육중고등학교 운동장",
    "address": "대구광역시 북구 동호동 463-2",
    "lat": "35.95811942869762",
    "lng": "128.55816499646315",
    "region": "대구광역시"
  },
  {
    "name": "대구일중학교 운동장",
    "address": "대구광역시 북구 침산동 400-4",
    "lat": "35.88614671421434",
    "lng": "128.5849868732026",
    "region": "대구광역시"
  },
  {
    "name": "달산초등학교 운동장",
    "address": "대구광역시 북구 침산동 402",
    "lat": "35.887782226095375",
    "lng": "128.5854080055223",
    "region": "대구광역시"
  },
  {
    "name": "산격초등학교 운동장",
    "address": "대구광역시 북구 산격동 1409",
    "lat": "35.894238481184885",
    "lng": "128.6071662837206",
    "region": "대구광역시"
  },
  {
    "name": "새싹어린이공원",
    "address": "대구광역시 달서구 상인동 1534",
    "lat": "35.81647719008698",
    "lng": "128.5474353767546",
    "region": "대구광역시"
  },
  {
    "name": "송림어린이공원",
    "address": "대구광역시 달서구 상인동 1543",
    "lat": "35.81601902686838",
    "lng": "128.54911202219776",
    "region": "대구광역시"
  },
  {
    "name": "달배어린이공원",
    "address": "대구광역시 달서구 상인동 1404",
    "lat": "35.816822668251106",
    "lng": "128.53726126134973",
    "region": "대구광역시"
  },
  {
    "name": "민들레어린이공원",
    "address": "대구광역시 달서구 상인동 1429-1",
    "lat": "35.81494484950941",
    "lng": "128.53667326441087",
    "region": "대구광역시"
  },
  {
    "name": "해바라기공원",
    "address": "대구광역시 달서구 상인동 1442",
    "lat": "35.81494991356331",
    "lng": "128.5332871224408",
    "region": "대구광역시"
  },
  {
    "name": "감성테마공원",
    "address": "대구광역시 달서구 상인동 1461",
    "lat": "35.81064563580608",
    "lng": "128.5355667697723",
    "region": "대구광역시"
  },
  {
    "name": "월배공원",
    "address": "대구광역시 달서구 상인동 1421-22",
    "lat": "35.81260629489081",
    "lng": "128.53756401900054",
    "region": "대구광역시"
  },
  {
    "name": "매화공원",
    "address": "대구광역시 달서구 상인동 1109-10",
    "lat": "35.810992033395095",
    "lng": "128.5442964890465",
    "region": "대구광역시"
  },
  {
    "name": "유림공원",
    "address": "대구광역시 달서구 상인동 1549",
    "lat": "35.81426378650123",
    "lng": "128.54911215529424",
    "region": "대구광역시"
  },
  {
    "name": "서광공원",
    "address": "대구광역시 달서구 상인동 1557-1",
    "lat": "35.812225385709425",
    "lng": "128.54639112267012",
    "region": "대구광역시"
  },
  {
    "name": "월촌공원",
    "address": "대구광역시 달서구 상인동 1559",
    "lat": "35.812789010188744",
    "lng": "128.54925313374605",
    "region": "대구광역시"
  },
  {
    "name": "비둘기어린이공원",
    "address": "대구광역시 달서구 상인동 1563-1",
    "lat": "35.81017695453627",
    "lng": "128.55259022167684",
    "region": "대구광역시"
  },
  {
    "name": "당산어린이공원",
    "address": "대구광역시 달서구 상인동 1569",
    "lat": "35.810502774223316",
    "lng": "128.5482137070259",
    "region": "대구광역시"
  },
  {
    "name": "채정공원",
    "address": "대구광역시 달서구 상인동 1581",
    "lat": "35.80949434746746",
    "lng": "128.55012651792916",
    "region": "대구광역시"
  },
  {
    "name": "은행어린이공원",
    "address": "대구광역시 달서구 상인동 1589",
    "lat": "35.8069552755174",
    "lng": "128.55148956772462",
    "region": "대구광역시"
  },
  {
    "name": "장미공원",
    "address": "대구광역시 달서구 상인동 1592-3",
    "lat": "35.80785265518982",
    "lng": "128.5549293826456",
    "region": "대구광역시"
  },
  {
    "name": "송경공공공지",
    "address": "대구광역시 달서구 송현동 794-2",
    "lat": "35.82544078946952",
    "lng": "128.54888782508823",
    "region": "대구광역시"
  },
  {
    "name": "대남전원공원",
    "address": "대구광역시 달서구 송현동 1955-1",
    "lat": "35.82296042998388",
    "lng": "128.55026229841667",
    "region": "대구광역시"
  },
  {
    "name": "치영어린이공원",
    "address": "대구광역시 달서구 송현동 1966-5",
    "lat": "35.824452262537726",
    "lng": "128.55277946642576",
    "region": "대구광역시"
  },
  {
    "name": "송지어린이공원",
    "address": "대구광역시 달서구 송현동 1977",
    "lat": "35.82627627521177",
    "lng": "128.55569764437874",
    "region": "대구광역시"
  },
  {
    "name": "솔밭공원",
    "address": "대구광역시 달서구 송현동 1982-1",
    "lat": "35.82921684910909",
    "lng": "128.55356462213857",
    "region": "대구광역시"
  },
  {
    "name": "장관어린이공원",
    "address": "대구광역시 달서구 송현동 1993-2",
    "lat": "35.82896047624612",
    "lng": "128.5569766930534",
    "region": "대구광역시"
  },
  {
    "name": "토끼와거북이공원",
    "address": "대구광역시 달서구 송현동 147",
    "lat": "35.832992049029656",
    "lng": "128.55207000719145",
    "region": "대구광역시"
  },
  {
    "name": "구암어린이공원",
    "address": "대구광역시 달서구 송현동 1918-2",
    "lat": "35.826660645432156",
    "lng": "128.54661985885394",
    "region": "대구광역시"
  },
  {
    "name": "한실들어린이공원",
    "address": "대구광역시 달서구 도원동 1429-3",
    "lat": "35.80825400744837",
    "lng": "128.5336699968248",
    "region": "대구광역시"
  },
  {
    "name": "사계절어린이공원",
    "address": "대구광역시 달서구 도원동 1438-2",
    "lat": "35.8082033631344",
    "lng": "128.53835811977922",
    "region": "대구광역시"
  },
  {
    "name": "가람어린이공원",
    "address": "대구광역시 달서구 도원동 1439-3",
    "lat": "35.80760886993178",
    "lng": "128.54126807109978",
    "region": "대구광역시"
  },
  {
    "name": "아람어린이공원",
    "address": "대구광역시 달서구 도원동 1440-2",
    "lat": "35.80591786623268",
    "lng": "128.52992726534652",
    "region": "대구광역시"
  },
  {
    "name": "별모람어린이공원",
    "address": "대구광역시 달서구 도원동 1441-2",
    "lat": "35.804825408453645",
    "lng": "128.53261572537238",
    "region": "대구광역시"
  },
  {
    "name": "별메어린이공원",
    "address": "대구광역시 달서구 도원동 1442-4",
    "lat": "35.805632763551266",
    "lng": "128.53405797825573",
    "region": "대구광역시"
  },
  {
    "name": "강산어린이공원",
    "address": "대구광역시 달서구 도원동 1443-1",
    "lat": "35.80512582673932",
    "lng": "128.53801215654968",
    "region": "대구광역시"
  },
  {
    "name": "미리샘어린이공원",
    "address": "대구광역시 달서구 도원동 1444-3",
    "lat": "35.805089140319176",
    "lng": "128.5417577838297",
    "region": "대구광역시"
  },
  {
    "name": "도원어린이공원",
    "address": "대구광역시 달서구 도원동 1451",
    "lat": "35.80686349335344",
    "lng": "128.54570233439796",
    "region": "대구광역시"
  },
  {
    "name": "산새어린이공원",
    "address": "대구광역시 달서구 도원동 1457-1",
    "lat": "35.804068322616466",
    "lng": "128.53222198908068",
    "region": "대구광역시"
  },
  {
    "name": "둥지어린이공원",
    "address": "대구광역시 달서구 도원동 1461",
    "lat": "35.80260948539553",
    "lng": "128.53650109958883",
    "region": "대구광역시"
  },
  {
    "name": "월광수변공원",
    "address": "대구광역시 달서구 도원동 898-1",
    "lat": "35.799271679574815",
    "lng": "128.54823052883162",
    "region": "대구광역시"
  },
  {
    "name": "애화어린이공원",
    "address": "대구광역시 달서구 본동 616-3",
    "lat": "35.83387637765626",
    "lng": "128.53434537581148",
    "region": "대구광역시"
  },
  {
    "name": "한마음어린이공원",
    "address": "대구광역시 달서구 본동 616-3",
    "lat": "35.83388657070478",
    "lng": "128.53456036313588",
    "region": "대구광역시"
  },
  {
    "name": "피터팬공원",
    "address": "대구광역시 달서구 본동 790",
    "lat": "35.83586857820249",
    "lng": "128.53967449363859",
    "region": "대구광역시"
  },
  {
    "name": "성당중학교 운동장",
    "address": "대구광역시 달서구 본리동 166-16",
    "lat": "35.84024020977602",
    "lng": "128.5479634977457",
    "region": "대구광역시"
  },
  {
    "name": "경화여자고등학교 운동장",
    "address": "대구광역시 달서구 성당동 670-29",
    "lat": "35.84790012923861",
    "lng": "128.54768872261064",
    "region": "대구광역시"
  },
  {
    "name": "남부초등학교 운동장",
    "address": "대구광역시 달서구 성당동 660",
    "lat": "35.84497578802509",
    "lng": "128.54998535074142",
    "region": "대구광역시"
  },
  {
    "name": "해올고등학교 운동장",
    "address": "대구광역시 달서구 성당동 434-1",
    "lat": "35.841318766744095",
    "lng": "128.5536179572279",
    "region": "대구광역시"
  },
  {
    "name": "성남초등학교 운동장",
    "address": "대구광역시 달서구 두류동 812-1",
    "lat": "35.853136634655485",
    "lng": "128.57237167968304",
    "region": "대구광역시"
  },
  {
    "name": "내당초등학교 운동장",
    "address": "대구광역시 달서구 두류동 1202-1",
    "lat": "35.860460857618676",
    "lng": "128.5725764695465",
    "region": "대구광역시"
  },
  {
    "name": "구남중학교 운동장",
    "address": "대구광역시 달서구 두류동 1207-1",
    "lat": "35.85837721451128",
    "lng": "128.57298756579405",
    "region": "대구광역시"
  },
  {
    "name": "신흥초등학교 운동장",
    "address": "대구광역시 달서구 두류동 472-1",
    "lat": "35.85597273973265",
    "lng": "128.55722192967264",
    "region": "대구광역시"
  },
  {
    "name": "덕인초등학교 운동장",
    "address": "대구광역시 달서구 본리동 407-1",
    "lat": "35.8387180342019",
    "lng": "128.53492531413636",
    "region": "대구광역시"
  },
  {
    "name": "새본리중학교 운동장",
    "address": "대구광역시 달서구 본리동 330-1",
    "lat": "35.83941208778872",
    "lng": "128.54106903215668",
    "region": "대구광역시"
  },
  {
    "name": "제일여자상업고등학교",
    "address": "대구광역시 달서구 본리동 156-1",
    "lat": "35.840236219265115",
    "lng": "128.5467039303044",
    "region": "대구광역시"
  },
  {
    "name": "성당초등학교 운동장",
    "address": "대구광역시 달서구 본리동 166-1",
    "lat": "35.84018776336168",
    "lng": "128.547257062711",
    "region": "대구광역시"
  },
  {
    "name": "본리초등학교 운동장",
    "address": "대구광역시 달서구 감삼동 338",
    "lat": "35.844253624209784",
    "lng": "128.53862131418106",
    "region": "대구광역시"
  },
  {
    "name": "감삼초등학교 운동장",
    "address": "대구광역시 달서구 감삼동 196-1",
    "lat": "35.84894122502073",
    "lng": "128.54522201044142",
    "region": "대구광역시"
  },
  {
    "name": "죽전초등학교 운동장",
    "address": "대구광역시 달서구 죽전동 174-1",
    "lat": "35.857622986098676",
    "lng": "128.539859639298",
    "region": "대구광역시"
  },
  {
    "name": "죽전동 행정복지센터",
    "address": "대구광역시 달서구 죽전동 176",
    "lat": "35.85757034661886",
    "lng": "128.53895067214174",
    "region": "대구광역시"
  },
  {
    "name": "장기초등학교 운동장",
    "address": "대구광역시 달서구 장기동 813-3",
    "lat": "35.844393821296045",
    "lng": "128.52904387683955",
    "region": "대구광역시"
  },
  {
    "name": "장동초등학교 운동장",
    "address": "대구광역시 달서구 장기동 533-4",
    "lat": "35.844742",
    "lng": "128.531952",
    "region": "대구광역시"
  },
  {
    "name": "대구전자공업고등학교 운동장",
    "address": "대구광역시 달서구 장기동 464-10",
    "lat": "35.848012",
    "lng": "128.529962",
    "region": "대구광역시"
  },
  {
    "name": "용전초등학교 운동장",
    "address": "대구광역시 달서구 용산동 913",
    "lat": "35.86115367049804",
    "lng": "128.53118241323128",
    "region": "대구광역시"
  },
  {
    "name": "용산초등학교 운동장",
    "address": "대구광역시 달서구 용산동 880",
    "lat": "35.85547036815242",
    "lng": "128.53218190509918",
    "region": "대구광역시"
  },
  {
    "name": "장성초등학교 운동장",
    "address": "대구광역시 달서구 장기동 48",
    "lat": "35.850857569665216",
    "lng": "128.52318109517554",
    "region": "대구광역시"
  },
  {
    "name": "장산초등학교 운동장",
    "address": "대구광역시 달서구 용산동 957",
    "lat": "35.85482249386116",
    "lng": "128.52648474624303",
    "region": "대구광역시"
  },
  {
    "name": "성서중학교 운동장",
    "address": "대구광역시 달서구 용산동 948",
    "lat": "35.855791702772656",
    "lng": "128.5265681561961",
    "region": "대구광역시"
  },
  {
    "name": "용산중학교 운동장",
    "address": "대구광역시 달서구 용산동 888",
    "lat": "35.854262443916745",
    "lng": "128.53231153137133",
    "region": "대구광역시"
  },
  {
    "name": "성서고등학교 운동장",
    "address": "대구광역시 달서구 용산동 501-1",
    "lat": "35.859832",
    "lng": "128.516135",
    "region": "대구광역시"
  },
  {
    "name": "성산초등학교 운동장",
    "address": "대구광역시 달서구 용산동 419-4",
    "lat": "35.85786188493075",
    "lng": "128.51875299506156",
    "region": "대구광역시"
  },
  {
    "name": "성산중학교 운동장",
    "address": "대구광역시 달서구 용산동 416-4",
    "lat": "35.85673003559525",
    "lng": "128.51867426882168",
    "region": "대구광역시"
  },
  {
    "name": "송일초등학교 운동장",
    "address": "대구광역시 달서구 월성동 500-3",
    "lat": "35.823889302114054",
    "lng": "128.53319037703423",
    "region": "대구광역시"
  },
  {
    "name": "월암초등학교 운동장",
    "address": "대구광역시 달서구 월성동 755",
    "lat": "35.82830855142249",
    "lng": "128.52199931405625",
    "region": "대구광역시"
  },
  {
    "name": "월암중학교 운동장",
    "address": "대구광역시 달서구 월성동 774-1",
    "lat": "35.82688973618357",
    "lng": "128.52406714907107",
    "region": "대구광역시"
  },
  {
    "name": "조암초등학교 운동장",
    "address": "대구광역시 달서구 월성동 572",
    "lat": "35.82383189166902",
    "lng": "128.52869456552054",
    "region": "대구광역시"
  },
  {
    "name": "조암중학교 운동장",
    "address": "대구광역시 달서구 월성동 1150-1",
    "lat": "35.8229573084181",
    "lng": "128.52448973607892",
    "region": "대구광역시"
  },
  {
    "name": "신월초등학교 운동장",
    "address": "대구광역시 달서구 월성동 1351",
    "lat": "35.82028912343398",
    "lng": "128.52291399765133",
    "region": "대구광역시"
  },
  {
    "name": "월서중학교 운동장",
    "address": "대구광역시 달서구 월성동 1317",
    "lat": "35.8194887192889",
    "lng": "128.52675884569135",
    "region": "대구광역시"
  },
  {
    "name": "한샘초등학교 운동장",
    "address": "대구광역시 달서구 대천동 467",
    "lat": "35.81669429362128",
    "lng": "128.51919757499246",
    "region": "대구광역시"
  },
  {
    "name": "학산초등학교 운동장",
    "address": "대구광역시 달서구 월성동 82-1",
    "lat": "35.83075987621031",
    "lng": "128.526421496457",
    "region": "대구광역시"
  },
  {
    "name": "월성초등학교 운동장",
    "address": "대구광역시 달서구 월성동 280",
    "lat": "35.83064551461704",
    "lng": "128.5319539634535",
    "region": "대구광역시"
  },
  {
    "name": "감천초등학교 운동장",
    "address": "대구광역시 달서구 월성동 269",
    "lat": "35.83490834753221",
    "lng": "128.5331588132864",
    "region": "대구광역시"
  },
  {
    "name": "대건고등학교 운동장",
    "address": "대구광역시 달서구 월성동 247",
    "lat": "35.83308017389549",
    "lng": "128.52910603105892",
    "region": "대구광역시"
  },
  {
    "name": "학산중학교 운동장",
    "address": "대구광역시 달서구 월성동 82",
    "lat": "35.83173497503206",
    "lng": "128.52555589531772",
    "region": "대구광역시"
  },
  {
    "name": "월배초등학교 운동장",
    "address": "대구광역시 달서구 진천동 57-1",
    "lat": "35.81667716824407",
    "lng": "128.52839679902118",
    "region": "대구광역시"
  },
  {
    "name": "진천초등학교 운동장",
    "address": "대구광역시 달서구 진천동 687-5",
    "lat": "35.8113178438774",
    "lng": "128.51949439570973",
    "region": "대구광역시"
  },
  {
    "name": "진월초등학교 운동장",
    "address": "대구광역시 달서구 진천동 253-9",
    "lat": "35.810732106943526",
    "lng": "128.52835077834982",
    "region": "대구광역시"
  },
  {
    "name": "대진초등학교 운동장",
    "address": "대구광역시 달서구 대곡동 1025",
    "lat": "35.80667272194512",
    "lng": "128.52176502554644",
    "region": "대구광역시"
  },
  {
    "name": "유천초등학교 운동장",
    "address": "대구광역시 달서구 유천동 327-1",
    "lat": "35.81200018629821",
    "lng": "128.51262949587047",
    "region": "대구광역시"
  },
  {
    "name": "용천초등학교 운동장",
    "address": "대구광역시 달서구 유천동 620",
    "lat": "35.81935098978624",
    "lng": "128.51298549809772",
    "region": "대구광역시"
  },
  {
    "name": "한솔초등학교 운동장",
    "address": "대구광역시 달서구 유천동 609",
    "lat": "35.816379232989725",
    "lng": "128.51570838808996",
    "region": "대구광역시"
  },
  {
    "name": "월배중학교 운동장",
    "address": "대구광역시 달서구 진천동 811",
    "lat": "35.81359810857439",
    "lng": "128.53209851735681",
    "region": "대구광역시"
  },
  {
    "name": "대진중학교 운동장",
    "address": "대구광역시 달서구 대곡동 1036-1",
    "lat": "35.80547926201456",
    "lng": "128.51971928073542",
    "region": "대구광역시"
  },
  {
    "name": "대진고등학교 운동장",
    "address": "대구광역시 달서구 대곡동 1036",
    "lat": "35.805405215056254",
    "lng": "128.51837999503084",
    "region": "대구광역시"
  },
  {
    "name": "월서초등학교 운동장",
    "address": "대구광역시 달서구 상인동 123-1",
    "lat": "35.82138153203848",
    "lng": "128.53228273989754",
    "region": "대구광역시"
  },
  {
    "name": "영남고등학교 운동장",
    "address": "대구광역시 달서구 상인동 70",
    "lat": "35.82067798583578",
    "lng": "128.5383033688612",
    "region": "대구광역시"
  },
  {
    "name": "월촌초등학교 운동장",
    "address": "대구광역시 달서구 상인동 1519",
    "lat": "35.815882916982886",
    "lng": "128.54360169407707",
    "region": "대구광역시"
  },
  {
    "name": "대서초등학교 운동장",
    "address": "대구광역시 달서구 상인동 860-1",
    "lat": "35.82014855449812",
    "lng": "128.55027440156456",
    "region": "대구광역시"
  },
  {
    "name": "상원고등학교 운동장",
    "address": "대구광역시 달서구 상인동 1",
    "lat": "35.82210822983208",
    "lng": "128.53894851847664",
    "region": "대구광역시"
  },
  {
    "name": "상인초등학교 운동장",
    "address": "대구광역시 달서구 상인동 481",
    "lat": "35.81338421724987",
    "lng": "128.54221535507597",
    "region": "대구광역시"
  },
  {
    "name": "상원초등학교 운동장",
    "address": "대구광역시 달서구 상인동 1588",
    "lat": "35.806480559754036",
    "lng": "128.55088534943505",
    "region": "대구광역시"
  },
  {
    "name": "월곡초등학교 운동장",
    "address": "대구광역시 달서구 상인동 1560",
    "lat": "35.81193692291338",
    "lng": "128.54948915488194",
    "region": "대구광역시"
  },
  {
    "name": "상인중학교 운동장",
    "address": "대구광역시 달서구 상인동 1561",
    "lat": "35.81108344180754",
    "lng": "128.55054804263722",
    "region": "대구광역시"
  },
  {
    "name": "상인고등학교 운동장",
    "address": "대구광역시 달서구 상인동 1562",
    "lat": "35.810368108739326",
    "lng": "128.55195551061678",
    "region": "대구광역시"
  },
  {
    "name": "대남초등학교 운동장",
    "address": "대구광역시 달서구 송현동 1961",
    "lat": "35.823970455114676",
    "lng": "128.5516509554662",
    "region": "대구광역시"
  },
  {
    "name": "송���초등학교 운동장",
    "address": "대구광역시 달서구 송현동 1908",
    "lat": "35.82843075343138",
    "lng": "128.5449225404755",
    "region": "대구광역시"
  },
  {
    "name": "노전초등학교 운동장",
    "address": "대구광역시 달서구 도원동 1428-3",
    "lat": "35.80789118481677",
    "lng": "128.53117009873185",
    "region": "대구광역시"
  },
  {
    "name": "대곡중학교 운동장",
    "address": "대구광역시 달서구 도원동 1441",
    "lat": "35.8063270646191",
    "lng": "128.5326416983335",
    "region": "대구광역시"
  },
  {
    "name": "대구교대부설초등학교 운동장",
    "address": "대구광역시 달서구 도원동 1441-1",
    "lat": "35.80553613904451",
    "lng": "128.53274334617203",
    "region": "대구광역시"
  },
  {
    "name": "대곡초등학교 운동장",
    "address": "대구광역시 달서구 도원동 1458",
    "lat": "35.80325900919782",
    "lng": "128.53565523663787",
    "region": "대구광역시"
  },
  {
    "name": "대곡고등학교 운동장",
    "address": "대구광역시 달서구 도원동 1459",
    "lat": "35.80339278763444",
    "lng": "128.53734046895258",
    "region": "대구광역시"
  },
  {
    "name": "도원초등학교 운동장",
    "address": "대구광역시 달서구 도원동 1455",
    "lat": "35.80481561427788",
    "lng": "128.5422360002931",
    "region": "대구광역시"
  },
  {
    "name": "도원중학교 운동장",
    "address": "대구광역시 달서구 도원동 1452",
    "lat": "35.806293203176224",
    "lng": "128.54487686626635",
    "region": "대구광역시"
  },
  {
    "name": "도원고등학교 운동장",
    "address": "대구광역시 달서구 도원동 1453",
    "lat": "35.805617585612715",
    "lng": "128.54545705071016",
    "region": "대구광역시"
  },
  {
    "name": "대구공업대학 운동장",
    "address": "대구광역시 달서구 본동 831",
    "lat": "35.83457148670298",
    "lng": "128.54315473147958",
    "region": "대구광역시"
  },
  {
    "name": "남송초등학교 운동장",
    "address": "대구광역시 달서구 본동 275-1",
    "lat": "35.8345519489151",
    "lng": "128.5453751828638",
    "region": "대구광역시"
  },
  {
    "name": "대구광역시 종합복지회관 주차장",
    "address": "대구광역시 달서구 성당동 72-10",
    "lat": "35.85022946954285",
    "lng": "128.5705053804781",
    "region": "대구광역시"
  },
  {
    "name": "두류1·2동 제1공영주차장",
    "address": "대구광역시 달서구 두류동 1252-4",
    "lat": "35.85572940098921",
    "lng": "128.5696357019618",
    "region": "대구광역시"
  },
  {
    "name": "두류쉼터 주차장",
    "address": "대구광역시 달서구 두류동 832-5",
    "lat": "35.85670346111284",
    "lng": "128.57242283396755",
    "region": "대구광역시"
  },
  {
    "name": "진천동행정복지센터 주차장",
    "address": "대구광역시 달서구 진천동 626-31",
    "lat": "35.811990683117116",
    "lng": "128.52267032732195",
    "region": "대구광역시"
  },
  {
    "name": "송현2동공영주차장",
    "address": "대구광역시 달서구 송현동 496-1",
    "lat": "35.832218118928765",
    "lng": "128.547580907994",
    "region": "대구광역시"
  },
  {
    "name": "성당천체공원",
    "address": "대구광역시 달서구 성당동 497",
    "lat": "35.84180115725372",
    "lng": "128.5518245383884",
    "region": "대구광역시"
  },
  {
    "name": "성당소공원",
    "address": "대구광역시 달서구 성당동 599-5",
    "lat": "35.841355343734016",
    "lng": "128.5453544905643",
    "region": "대구광역시"
  },
  {
    "name": "성당1동놀이터",
    "address": "대구광역시 달서구 성당동 84-4",
    "lat": "35.85142126065431",
    "lng": "128.5695148148701",
    "region": "대구광역시"
  },
  {
    "name": "능금어린이공원",
    "address": "대구광역시 달서구 두류동 1213",
    "lat": "35.859569512699416",
    "lng": "128.5709560048011",
    "region": "대구광역시"
  },
  {
    "name": "두류1동 놀이터",
    "address": "대구광역시 달서구 두류동 804-256",
    "lat": "35.85759564254231",
    "lng": "128.57112642338384",
    "region": "대구광역시"
  },
  {
    "name": "상록어린이공원",
    "address": "대구광역시 달서구 두류동 140-2",
    "lat": "35.85701727697971",
    "lng": "128.55992490454432",
    "region": "대구광역시"
  },
  {
    "name": "희망어린이공원",
    "address": "대구광역시 달서구 두류동 496-11",
    "lat": "35.85474436152865",
    "lng": "128.55193379817376",
    "region": "대구광역시"
  },
  {
    "name": "본리어린이공원",
    "address": "대구광역시 달서구 본리동 88-4",
    "lat": "35.840210942280095",
    "lng": "128.54112159876124",
    "region": "대구광역시"
  },
  {
    "name": "무지개공원",
    "address": "대구광역시 달서구 본리동 1205",
    "lat": "35.84075675413458",
    "lng": "128.52886633128455",
    "region": "대구광역시"
  },
  {
    "name": "구마공원",
    "address": "대구광역시 달서구 본리동 1212-1",
    "lat": "35.83882818588987",
    "lng": "128.52923211016574",
    "region": "대구광역시"
  },
  {
    "name": "감삼삼각지어린이공원",
    "address": "대구광역시 달서구 감삼동 123",
    "lat": "35.84983915538454",
    "lng": "128.54560226327038",
    "region": "대구광역시"
  },
  {
    "name": "감삼어린이공원",
    "address": "대구광역시 달서구 감삼동 165-2",
    "lat": "35.84873321953036",
    "lng": "128.53982582217103",
    "region": "대구광역시"
  },
  {
    "name": "곤충공원",
    "address": "대구광역시 달서구 감삼동 295-8",
    "lat": "35.84528138706619",
    "lng": "128.54277950710642",
    "region": "대구광역시"
  },
  {
    "name": "대림어린이공원",
    "address": "대구광역시 달서구 죽전동 253-1",
    "lat": "35.85223321012975",
    "lng": "128.53903909270153",
    "region": "대구광역시"
  },
  {
    "name": "거인나라어린이공원",
    "address": "대구광역시 달서구 죽전동 261-2",
    "lat": "35.85261716013346",
    "lng": "128.53490740526647",
    "region": "대구광역시"
  },
  {
    "name": "춘추어린이공원",
    "address": "대구광역시 달서구 죽전동 376-4",
    "lat": "35.85489766746603",
    "lng": "128.53594547815632",
    "region": "대구광역시"
  },
  {
    "name": "초록어린이공원",
    "address": "대구광역시 달서구 장기동 813-2",
    "lat": "35.84476180200357",
    "lng": "128.5285276034653",
    "region": "대구광역시"
  },
  {
    "name": "파랑새공원",
    "address": "대구광역시 달서구 장기동 814-2",
    "lat": "35.84639044539318",
    "lng": "128.52741010920312",
    "region": "대구광역시"
  },
  {
    "name": "길우공원",
    "address": "대구광역시 달서구 장기동 825-5",
    "lat": "35.842325479579436",
    "lng": "128.52823692386337",
    "region": "대구광역시"
  },
  {
    "name": "용산미로공원",
    "address": "대구광역시 달서구 용산동 873",
    "lat": "35.85638609206826",
    "lng": "128.53296536298302",
    "region": "대구광역시"
  },
  {
    "name": "선원공원",
    "address": "대구광역시 달서구 용산동 505-2",
    "lat": "35.861110842249325",
    "lng": "128.5177203394726",
    "region": "대구광역시"
  },
  {
    "name": "목련어린이공원",
    "address": "대구광역시 달서구 이곡동 1240",
    "lat": "35.855697334025955",
    "lng": "128.50804175776676",
    "region": "대구광역시"
  },
  {
    "name": "이곡생수공원",
    "address": "대구광역시 달서구 이곡동 1301-2",
    "lat": "35.85432522558442",
    "lng": "128.51466680501358",
    "region": "대구광역시"
  },
  {
    "name": "공룡어린이공원",
    "address": "대구광역시 달서구 용산동 892-2",
    "lat": "35.85375045768602",
    "lng": "128.53373141548337",
    "region": "대구광역시"
  },
  {
    "name": "용산어린이공원",
    "address": "대구광역시 달서구 용산동 911-1",
    "lat": "35.86047452524977",
    "lng": "128.52887358095546",
    "region": "대구광역시"
  },
  {
    "name": "용전공원",
    "address": "대구광역시 달서구 용산동 918-1",
    "lat": "35.860051491534186",
    "lng": "128.52887597321234",
    "region": "대구광역시"
  },
  {
    "name": "큰못공원",
    "address": "대구광역시 달서구 용산동 922-1",
    "lat": "35.85980886980821",
    "lng": "128.52621244489853",
    "region": "대구광역시"
  },
  {
    "name": "장산공원",
    "address": "대구광역시 달서구 용산동 940-7",
    "lat": "35.856352997082126",
    "lng": "128.52495529888793",
    "region": "대구광역시"
  },
  {
    "name": "샘골어린이공원",
    "address": "대구광역시 달서구 용산동 952",
    "lat": "35.85515910316415",
    "lng": "128.53146647513017",
    "region": "대구광역시"
  },
  {
    "name": "보람공원",
    "address": "대구광역시 달서구 용산동 410-1",
    "lat": "35.851978575867086",
    "lng": "128.5181395764115",
    "region": "대구광역시"
  },
  {
    "name": "성지공원",
    "address": "대구광역시 달서구 용산동 412-2",
    "lat": "35.85331697109431",
    "lng": "128.51776589930319",
    "region": "대구광역시"
  },
  {
    "name": "용주공원",
    "address": "대구광역시 달서구 용산동 414-3",
    "lat": "35.85398875236955",
    "lng": "128.518179114859",
    "region": "대구광역시"
  },
  {
    "name": "성산어린이공원",
    "address": "대구광역시 달서구 용산동 416-2",
    "lat": "35.85669631542505",
    "lng": "128.51783476774096",
    "region": "대구광역시"
  },
  {
    "name": "한마음어린이공원",
    "address": "대구광역시 달서구 용산동 419-2",
    "lat": "35.85737284232685",
    "lng": "128.51784835693604",
    "region": "대구광역시"
  },
  {
    "name": "용하공원",
    "address": "대구광역시 달서구 용산동 423",
    "lat": "35.85398685882332",
    "lng": "128.52169327199036",
    "region": "대구광역시"
  },
  {
    "name": "새동네공원",
    "address": "대구광역시 달서구 용산동 459-1",
    "lat": "35.857048660803045",
    "lng": "128.52229748847842",
    "region": "대구광역시"
  },
  {
    "name": "병풍바위공원",
    "address": "대구광역시 달서구 용산동 517",
    "lat": "35.861463719214576",
    "lng": "128.52103451921556",
    "region": "대구광역시"
  },
  {
    "name": "용산본공원",
    "address": "대구광역시 달서구 용산동 564-1",
    "lat": "35.86044612850097",
    "lng": "128.52364508584876",
    "region": "대구광역시"
  },
  {
    "name": "서촌공원",
    "address": "대구광역시 달서구 용산동 582",
    "lat": "35.859223399137555",
    "lng": "128.52256731616416",
    "region": "대구광역시"
  },
  {
    "name": "이곡정자공원",
    "address": "대구광역시 달서구 이곡동 1304-6",
    "lat": "35.85612361127101",
    "lng": "128.51467225542896",
    "region": "대구광역시"
  },
  {
    "name": "미소어린이공원",
    "address": "대구광역시 달서구 이곡동 1306-3",
    "lat": "35.85747542096646",
    "lng": "128.51022219510241",
    "region": "대구광역시"
  },
  {
    "name": "이곡장미공원",
    "address": "대구광역시 달서구 이곡동 1306-6",
    "lat": "35.85793191064648",
    "lng": "128.51470849179918",
    "region": "대구광역시"
  },
  {
    "name": "불미골공원",
    "address": "대구광역시 달서구 이곡동 1327",
    "lat": "35.861111970337205",
    "lng": "128.5093604058292",
    "region": "대구광역시"
  },
  {
    "name": "팔달초등학교 운동장",
    "address": "대구광역시 북구 팔달동 73-4",
    "lat": "35.897936141026264",
    "lng": "128.54481998973137",
    "region": "대구광역시"
  },
  {
    "name": "관문초등학교 운동장",
    "address": "대구광역시 북구 매천동 743",
    "lat": "35.90834988518445",
    "lng": "128.54600150429707",
    "region": "대구광역시"
  },
  {
    "name": "팔달중학교 운동장",
    "address": "대구광역시 북구 팔달동 74-3",
    "lat": "35.8987320818412",
    "lng": "128.54474507158415",
    "region": "대구광역시"
  },
  {
    "name": "서변초등학교 운동장",
    "address": "대구광역시 북구 서변동 1749",
    "lat": "35.92032862994276",
    "lng": "128.5949966177476",
    "region": "대구광역시"
  },
  {
    "name": "서변중학교 운동장",
    "address": "대구광역시 북구 서변동 1730",
    "lat": "35.92594532550594",
    "lng": "128.59566108975307",
    "region": "대구광역시"
  },
  {
    "name": "동변초등학교 운동장",
    "address": "대구광역시 북구 동변동 694",
    "lat": "35.91882732991132",
    "lng": "128.60440687080253",
    "region": "대구광역시"
  },
  {
    "name": "조야초등학교 운동장",
    "address": "대구광역시 북구 조야동 102-1",
    "lat": "35.90928761320839",
    "lng": "128.57754933011591",
    "region": "대구광역시"
  },
  {
    "name": "관음공원운동장",
    "address": "대구광역시 북구 관음동 1372",
    "lat": "35.93582346086653",
    "lng": "128.5453813091606",
    "region": "대구광역시"
  },
  {
    "name": "침산공원 야외공연장",
    "address": "대구광역시 북구 침산동 1332-2",
    "lat": "35.8955196645745",
    "lng": "128.5845614327778",
    "region": "대구광역시"
  },
  {
    "name": "침산중학교 운동장",
    "address": "대구광역시 북구 침산동 354-1",
    "lat": "35.889222052385385",
    "lng": "128.5890858654369",
    "region": "대구광역시"
  },
  {
    "name": "침산초등학교 운동장",
    "address": "대구광역시 북구 침산동 465",
    "lat": "35.89095702389305",
    "lng": "128.58595020401918",
    "region": "대구광역시"
  },
  {
    "name": "매천공원",
    "address": "대구광역시 북구 매천동 671",
    "lat": "35.909311751596285",
    "lng": "128.54495183972958",
    "region": "대구광역시"
  },
  {
    "name": "새터공원",
    "address": "대구광역시 북구 금호동 879",
    "lat": "35.89529651776471",
    "lng": "128.523278579825",
    "region": "대구광역시"
  },
  {
    "name": "내곡근린공원",
    "address": "대구광역시 북구 사수동 788",
    "lat": "35.903099648533164",
    "lng": "128.51331476970853",
    "region": "대구광역시"
  },
  {
    "name": "금호(근린)공원",
    "address": "대구광역시 북구 금호동 815",
    "lat": "35.89579649875213",
    "lng": "128.52033852836277",
    "region": "대구광역시"
  },
  {
    "name": "남원교룡초등학교",
    "address": "전북특별자치도 남원시 향교동 740-2",
    "lat": "35.4166297133315",
    "lng": "127.37901806831363",
    "region": "전북특별자치도"
  },
  {
    "name": "대화초등학교 운동장",
    "address": "강원특별자치도 평창군 대화면 대화리 971-3",
    "lat": "37.49715410354018",
    "lng": "128.45717229970873",
    "region": "강원특별자치도"
  },
  {
    "name": "동부중학교 운동장",
    "address": "경기도 하남시 덕풍동 450-1",
    "lat": "37.53554286863367",
    "lng": "127.20288009769114",
    "region": "경기도"
  },
  {
    "name": "모계중고등학교 운동장",
    "address": "경상북도 청도군 화양읍 범곡리 117",
    "lat": "35.64908098091313",
    "lng": "128.73526324440323",
    "region": "경상북도"
  },
  {
    "name": "경북드론고등학교 운동장 ",
    "address": "경상북도 청도군 풍각면 송서리 553-6",
    "lat": "35.64097615374514",
    "lng": "128.62068659966047",
    "region": "경상북도"
  },
  {
    "name": "광주중앙고 운동장",
    "address": "경기도 광주시 역동 145-2",
    "lat": "37.40207374648741",
    "lng": "127.25738525390629",
    "region": "경기도"
  },
  {
    "name": "삼리어린이공원",
    "address": "경기도 광주시 곤지암읍 삼리 131-1",
    "lat": "37.35642214016671",
    "lng": "127.32672914117661",
    "region": "경기도"
  },
  {
    "name": "용강어린이공원",
    "address": "대구광역시 달서구 이곡동 1342-1",
    "lat": "35.861816663804596",
    "lng": "128.5139319094965",
    "region": "대구광역시"
  },
  {
    "name": "꿈터어린이공원",
    "address": "대구광역시 달서구 이곡동 1349-7",
    "lat": "35.85982360428886",
    "lng": "128.5132682626314",
    "region": "대구광역시"
  },
  {
    "name": "이곡어린이공원",
    "address": "대구광역시 달서구 이곡동 1304-2",
    "lat": "35.856766277729385",
    "lng": "128.51261840356582",
    "region": "대구광역시"
  },
  {
    "name": "선원공원",
    "address": "대구광역시 달서구 이곡동 1343-3",
    "lat": "35.862061241522305",
    "lng": "128.5154153075364",
    "region": "대구광역시"
  },
  {
    "name": "칠성초등학교 운동장",
    "address": "대구광역시 북구 침산동 211",
    "lat": "35.88617907219916",
    "lng": "128.5939568328669",
    "region": "대구광역시"
  },
  {
    "name": "매천중학교 운동장",
    "address": "대구광역시 북구 태전동 1128",
    "lat": "35.91051696054316",
    "lng": "128.5474600626343",
    "region": "대구광역시"
  },
  {
    "name": "매천고등학교 운동장",
    "address": "대구광역시 북구 태전동 1127",
    "lat": "35.911521880294934",
    "lng": "128.54745908387216",
    "region": "대구광역시"
  },
  {
    "name": "태암초등학교 운동장",
    "address": "대구광역시 북구 태전동 1076-8",
    "lat": "35.923088483195585",
    "lng": "128.55034632284395",
    "region": "대구광역시"
  },
  {
    "name": "경명여고 운동장",
    "address": "대구광역시 북구 칠성동2가 411",
    "lat": "35.88010915794997",
    "lng": "128.5989824111334",
    "region": "대구광역시"
  },
  {
    "name": "칠성고등학교 운동장",
    "address": "대구광역시 북구 칠성동2가 168-13",
    "lat": "35.88065149510357",
    "lng": "128.59113230192858",
    "region": "대구광역시"
  },
  {
    "name": "관음초등학교 운동장",
    "address": "대구광역시 북구 관음동 1340-1",
    "lat": "35.94009390920125",
    "lng": "128.54650191982836",
    "region": "대구광역시"
  },
  {
    "name": "관음중학교 운동장",
    "address": "대구광역시 북구 관음동 1340",
    "lat": "35.94088094918828",
    "lng": "128.54655047528948",
    "region": "대구광역시"
  },
  {
    "name": "북구구민운동장",
    "address": "대구광역시 북구 국우동 1104",
    "lat": "35.944949911699624",
    "lng": "128.57399697058088",
    "region": "대구광역시"
  },
  {
    "name": "함지초등학교 운동장",
    "address": "대구광역시 북구 동천동 949",
    "lat": "35.934582696871594",
    "lng": "128.55794779713224",
    "region": "대구광역시"
  },
  {
    "name": "북부초등학교 운동장",
    "address": "대구광역시 북구 동천동 880",
    "lat": "35.93323657664926",
    "lng": "128.55910516188843",
    "region": "대구광역시"
  },
  {
    "name": "사수초등학교 운동장",
    "address": "대구광역시 북구 사수동 814",
    "lat": "35.900739137173595",
    "lng": "128.51580247143596",
    "region": "대구광역시"
  },
  {
    "name": "대중초등학교 운동장",
    "address": "경상남도 김해시 대동면 주동리 400-2",
    "lat": "35.23646066748925",
    "lng": "128.94938859412136",
    "region": "경상남도"
  },
  {
    "name": "금동초등학교 운동장",
    "address": "경상남도 김해시 상동면 대감리 656-2",
    "lat": "35.30902022679117",
    "lng": "128.93002190334383",
    "region": "경상남도"
  },
  {
    "name": "삼문초등학교 운동장",
    "address": "경상남도 김해시 삼문동 60-1",
    "lat": "35.19798354358289",
    "lng": "128.8030751550504",
    "region": "경상남도"
  },
  {
    "name": "울진남부초등학교 운동장",
    "address": "경상북도 울진군 울진읍 읍내리 289",
    "lat": "36.986801713308104",
    "lng": "129.39919874142865",
    "region": "경상북도"
  },
  {
    "name": "울진초등학교 운동장",
    "address": "경상북도 울진군 울진읍 읍내리 479",
    "lat": "36.99516555636699",
    "lng": "129.40042814309734",
    "region": "경상북도"
  },
  {
    "name": "부구초등학교 운동장",
    "address": "경상북도 울진군 북면 부구리 278",
    "lat": "37.10273259239565",
    "lng": "129.3716865783443",
    "region": "경상북도"
  },
  {
    "name": "금곡초등학교운동장",
    "address": "부산광역시 북구 금곡동 99-1",
    "lat": "35.26146932720148",
    "lng": "129.01718939327253",
    "region": "부산광역시"
  },
  {
    "name": "덕성초등학교운동장",
    "address": "부산광역시 북구 덕천동 335-1",
    "lat": "35.212876773864444",
    "lng": "129.00809591994351",
    "region": "부산광역시"
  },
  {
    "name": "덕��초등학교운동장",
    "address": "부산광역시 북구 만덕동 774-20",
    "lat": "35.209462810369004",
    "lng": "129.02289634339306",
    "region": "부산광역시"
  },
  {
    "name": "부산백양고등학교운동장",
    "address": "부산광역시 북구 구포동 888",
    "lat": "35.19699360701093",
    "lng": "128.99866541777354",
    "region": "부산광역시"
  },
  {
    "name": "와석초등학교운동장",
    "address": "부산광역시 북구 화명동 755",
    "lat": "35.23133244500976",
    "lng": "129.01761125194176",
    "region": "부산광역시"
  },
  {
    "name": "금성초등학교 운동장",
    "address": "부산광역시 금정구 금성동 609",
    "lat": "35.25068123182339",
    "lng": "129.05797898769526",
    "region": "부산광역시"
  },
  {
    "name": "산본초등학교 운동장",
    "address": "경기도 군포시 산본동 209",
    "lat": "37.368525334262465",
    "lng": "126.93433534739009",
    "region": "경기도"
  },
  {
    "name": "석포초등학교 운동장",
    "address": "부산광역시 남구 대연동 969-17",
    "lat": "35.12630576868669",
    "lng": "129.09182310104717",
    "region": "부산광역시"
  },
  {
    "name": "석보중학교 운동장",
    "address": "경상북도 영양군 석보면 원리리 142-1",
    "lat": "36.55212844810789",
    "lng": "129.13587554408696",
    "region": "경상북도"
  },
  {
    "name": "성산초등학교 운동장",
    "address": "경상북도 고령군 성산면 어곡리 278-4",
    "lat": "35.74863689224674",
    "lng": "128.36075752973562",
    "region": "경상북도"
  },
  {
    "name": "청룡초등학교 운동장",
    "address": "부산광역시 금정구 청룡동 46",
    "lat": "35.27268426844285",
    "lng": "129.09188918387542",
    "region": "부산광역시"
  },
  {
    "name": "용소초등학교 운동장",
    "address": "부산광역시 남구 대연동 1859",
    "lat": "35.1426080139906",
    "lng": "129.09922599792418",
    "region": "부산광역시"
  },
  {
    "name": "용당초등학교 운동장",
    "address": "부산광역시 남구 용당동 360-1",
    "lat": "35.116968000046896",
    "lng": "129.0944831605261",
    "region": "부산광역시"
  },
  {
    "name": "남원왕치초등학교운동장",
    "address": "전북특별자치도 남원시 용정동 111",
    "lat": "35.43376746991033",
    "lng": "127.38251030445097",
    "region": "전북특별자치도"
  },
  {
    "name": "도통초등학교운동장",
    "address": "전북특별자치도 남원시 도통동 613",
    "lat": "35.41332577677612",
    "lng": "127.39452109726055",
    "region": "전북특별자치도"
  },
  {
    "name": "각남초등학교 운동장 ",
    "address": "경상북도 청도군 각남면 예리리 498",
    "lat": "35.6427935785116",
    "lng": "128.65718990564375",
    "region": "경상북도"
  },
  {
    "name": "이서중학교 운동장",
    "address": "경상북도 청도군 이서면 서원리 321-3",
    "lat": "35.66202528392529",
    "lng": "128.67066800594364",
    "region": "경상북도"
  },
  {
    "name": "광주광명초등학교 운동장",
    "address": "경기도 광주시 신현동 365",
    "lat": "37.359389526620035",
    "lng": "127.16071307659149",
    "region": "경기도"
  },
  {
    "name": "양벌초등학교 운동장",
    "address": "경기도 광주시 양벌동 290-21",
    "lat": "37.37925231619993",
    "lng": "127.25708216428754",
    "region": "경기도"
  },
  {
    "name": "곤지암초등학교 운동장",
    "address": "경기도 광주시 곤지암읍 곤지암리 453-2",
    "lat": "37.34946929529885",
    "lng": "127.3379493365177",
    "region": "경기도"
  },
  {
    "name": "도척초등학교 운동장",
    "address": "경기도 광주시 도척면 노곡리 223",
    "lat": "37.303262112841885",
    "lng": "127.33171360378006",
    "region": "경기도"
  },
  {
    "name": "광주중학교 운동장",
    "address": "경기도 광주시 경안동 45",
    "lat": "37.40911790278031",
    "lng": "127.25400160995349",
    "region": "경기도"
  },
  {
    "name": "광주고등학교 운동장",
    "address": "경기도 광주시 송정동 35",
    "lat": "37.417978511674406",
    "lng": "127.26476357916802",
    "region": "경기도"
  },
  {
    "name": "경안중학교 운동장",
    "address": "경기도 광주시 장지동 61-20",
    "lat": "37.39497880127059",
    "lng": "127.24774538766172",
    "region": "경기도"
  },
  {
    "name": "초월1소공원(초월물류)",
    "address": "경기도 광주시 초월읍 지월리 889",
    "lat": "37.416286857341746",
    "lng": "127.30802026067491",
    "region": "경기도"
  },
  {
    "name": "정선종합경기장",
    "address": "강원특별자치도 정선군 정선읍 애산리 768",
    "lat": "37.37750243621874",
    "lng": "128.67593050003086",
    "region": "강원특별자치도"
  },
  {
    "name": "김해활천초등학교 운동장",
    "address": "경상남도 김해시 지내동 297-5",
    "lat": "35.231899405737444",
    "lng": "128.91873866714016",
    "region": "경상남도"
  },
  {
    "name": "김해삼성초등학교 운동장",
    "address": "경상남도 김해시 삼정동 635-1",
    "lat": "35.2336489641952",
    "lng": "128.90015432655653",
    "region": "경상남도"
  },
  {
    "name": "기성초등학교 운동장",
    "address": "경상북도 울진군 기성면 척산리 194",
    "lat": "36.79765864104278",
    "lng": "129.44955864334392",
    "region": "경상북도"
  },
  {
    "name": "금명중학교운동장",
    "address": "부산광역시 북구 금곡동 1893",
    "lat": "35.24333340502801",
    "lng": "129.01236400915346",
    "region": "부산광역시"
  },
  {
    "name": "기성초등학교구산분교 운동장",
    "address": "경상북도 울진군 기성면 구산리 320",
    "lat": "36.755801585613405",
    "lng": "129.46574031435188",
    "region": "경상북도"
  },
  {
    "name": "만덕중학교운동장",
    "address": "부산광역시 북구 만덕동 646-18",
    "lat": "35.21479565375677",
    "lng": "129.03144340282634",
    "region": "부산광역시"
  },
  {
    "name": "만덕초등학교운동장",
    "address": "부산광역시 북구 만덕동 646-1",
    "lat": "35.21469806315921",
    "lng": "129.02956832970256",
    "region": "부산광역시"
  },
  {
    "name": "명덕초등학교운동장",
    "address": "부산광역시 북구 화명동 2327",
    "lat": "35.22550035453484",
    "lng": "129.01236734137456",
    "region": "부산광역시"
  },
  {
    "name": "양덕여자중학교운동장",
    "address": "부산광역시 북구 구포동 1",
    "lat": "35.20457977510431",
    "lng": "129.01314103312845",
    "region": "부산광역시"
  },
  {
    "name": "대천중학교 운동장",
    "address": "부산광역시 남구 대연동 643-1",
    "lat": "35.128433657887626",
    "lng": "129.10280830629569",
    "region": "부산광역시"
  },
  {
    "name": "동항중학교 운동장",
    "address": "부산광역시 남구 감만동 176-82",
    "lat": "35.11870190483958",
    "lng": "129.08522749308509",
    "region": "부산광역시"
  },
  {
    "name": "안양서중학교 운동장",
    "address": "경기도 안양시 만안구 안양동 1055-3",
    "lat": "37.38574826616134",
    "lng": "126.90446595167228",
    "region": "경기도"
  },
  {
    "name": "매산초등학교 운동장",
    "address": "울산광역시 북구 매곡동 산90-6",
    "lat": "35.6438544",
    "lng": "129.360093",
    "region": "울산광역시"
  },
  {
    "name": "오륙도중학교 운동장",
    "address": "부산광역시 남구 용호동 951",
    "lat": "35.10301369316642",
    "lng": "129.11493301391394",
    "region": "부산광역시"
  },
  {
    "name": "부산배화학교 운동장",
    "address": "부산광역시 수영구 망미동 787",
    "lat": "35.169344346978725",
    "lng": "129.10371065139944",
    "region": "부산광역시"
  },
  {
    "name": "용호초등학교 운동장",
    "address": "부산광역시 남구 용호동 75-1",
    "lat": "35.122762721129114",
    "lng": "129.1090225624113",
    "region": "부산광역시"
  },
  {
    "name": "낙동중학교 운동장",
    "address": "부산광역시 강서구 대저1동 1491-7",
    "lat": "35.21565598608369",
    "lng": "128.96534085274337",
    "region": "부산광역시"
  },
  {
    "name": "중산어린이공원",
    "address": "울산광역시 북구 중산동 569",
    "lat": "35.66164568112541",
    "lng": "129.33689656623855",
    "region": "울산광역시"
  },
  {
    "name": "명지초등학교 운동장",
    "address": "부산광역시 강서구 명지동 3385",
    "lat": "35.10148639913508",
    "lng": "128.92449617385822",
    "region": "부산광역시"
  },
  {
    "name": "금지중학교운동장",
    "address": "전북특별자치도 남원시 금지면 옹정리 589-1",
    "lat": "35.34938930233372",
    "lng": "127.30145308342523",
    "region": "전북특별자치도"
  },
  {
    "name": "보절초등학교운동장",
    "address": "전북특별자치도 남원시 보절면 신파리 856-1",
    "lat": "35.51355716479065",
    "lng": "127.40074396133423",
    "region": "전북특별자치도"
  },
  {
    "name": "화도초등학교운동장",
    "address": "인천광역시 강화군 화도면 상방리 937",
    "lat": "37.63156040938104",
    "lng": "126.41836613416649",
    "region": "인천광역시"
  },
  {
    "name": "인천광역시교육청학생교육원 운동장",
    "address": "인천광역시 강화군 화도면 장화리 336-1",
    "lat": "37.62348235008722",
    "lng": "126.38024503819986",
    "region": "인천광역시"
  },
  {
    "name": "조산초등학교 운동장",
    "address": "인천광역시 강화군 양도면 조산리 235-1",
    "lat": "37.652805590525375",
    "lng": "126.43775582313516",
    "region": "인천광역시"
  },
  {
    "name": "방어진초등학교 운동장",
    "address": "울산광역시 동구 방어동 146",
    "lat": "35.48733718656533",
    "lng": "129.4246937534964",
    "region": "울산광역시"
  },
  {
    "name": "화암초등학교 운동장",
    "address": "울산광역시 동구 방어동 1150",
    "lat": "35.48383107638685",
    "lng": "129.41594379143902",
    "region": "울산광역시"
  },
  {
    "name": "명덕초등학교 운동장",
    "address": "울산광역시 동구 일산동 433",
    "lat": "35.505494105493334",
    "lng": "129.42458050475423",
    "region": "울산광역시"
  },
  {
    "name": "미포초등학교 운동장",
    "address": "울산광역시 동구 일산동 438",
    "lat": "35.50603269509149",
    "lng": "129.42177908632573",
    "region": "울산광역시"
  },
  {
    "name": "일산중학교 운동장",
    "address": "울산광역시 동구 일산동 437-3",
    "lat": "35.50575476415318",
    "lng": "129.42325224452412",
    "region": "울산광역시"
  },
  {
    "name": "남목고등학교 운동장",
    "address": "울산광역시 동구 서부동 728",
    "lat": "35.53740051792996",
    "lng": "129.41832201687316",
    "region": "울산광역시"
  },
  {
    "name": "동부초등학교 운동장",
    "address": "경기도 하남시 덕풍동 427",
    "lat": "37.53711963101782",
    "lng": "127.20253644838911",
    "region": "경기도"
  },
  {
    "name": "금천중고등학교 운동장 ",
    "address": "경상북도 청도군 금천면 동곡리 1000-1",
    "lat": "35.688114936027915",
    "lng": "128.89458954334341",
    "region": "경상북도"
  },
  {
    "name": "동산초등학교",
    "address": "경상북도 청도군 매전면 동산리 233-5",
    "lat": "35.66724783256689",
    "lng": "128.85472038604547",
    "region": "경상북도"
  },
  {
    "name": "평해초등학교 운동장",
    "address": "경상북도 울진군 평해읍 평해리 803",
    "lat": "36.72318065738118",
    "lng": "129.4382696579025",
    "region": "경상북도"
  },
  {
    "name": "노음초등학교 운동장",
    "address": "경상북도 울진군 근남면 노음리 535",
    "lat": "36.95847092754033",
    "lng": "129.39214619796354",
    "region": "경상북도"
  },
  {
    "name": "탄벌소공원",
    "address": "경기도 광주시 탄벌동 731-7",
    "lat": "37.42098582359701",
    "lng": "127.2377461194992",
    "region": "경기도"
  },
  {
    "name": "곤지암 공설운동장",
    "address": "경기도 광주시 곤지암읍 삼리 612-14",
    "lat": "37.36047177964278",
    "lng": "127.3212148507744",
    "region": "경기도"
  },
  {
    "name": "읍내제4어린이공원",
    "address": "경상북도 울진군 울진읍 읍내리 384-3",
    "lat": "36.991770973275635",
    "lng": "129.39648933149243",
    "region": "경상북도"
  },
  {
    "name": "낙동고등학교운동장",
    "address": "부산광역시 북구 덕천동 297-1",
    "lat": "35.21710924114838",
    "lng": "129.01017158474545",
    "region": "부산광역시"
  },
  {
    "name": "용수초등학교운동장",
    "address": "부산광역시 북구 화명동 2305",
    "lat": "35.22881736989943",
    "lng": "129.00899275287168",
    "region": "부산광역시"
  },
  {
    "name": "문현여자고등학교 운동장",
    "address": "부산광역시 남구 문현동 40-1",
    "lat": "35.14488901509565",
    "lng": "129.07419562339743",
    "region": "부산광역시"
  },
  {
    "name": "호암초등학교",
    "address": "경기도 의정부시 호원동 226-14",
    "lat": "37.70488122261128",
    "lng": "127.04623407655275",
    "region": "경기도"
  },
  {
    "name": "의정부장암초등학교",
    "address": "경기도 의정부시 장암동 17-23",
    "lat": "37.72596001157248",
    "lng": "127.05932172502253",
    "region": "경기도"
  },
  {
    "name": "문현여자중학교 운동장",
    "address": "부산광역시 남구 문현동 490",
    "lat": "35.1422658002762",
    "lng": "129.06922462396787",
    "region": "부산광역시"
  },
  {
    "name": "장전중학교 운동장",
    "address": "부산광역시 금정구 장전동 521-183",
    "lat": "35.22861278643678",
    "lng": "129.07802047318236",
    "region": "부산광역시"
  },
  {
    "name": "영양중고등학교 운동장",
    "address": "경상북도 영양군 영양읍 서부리 540",
    "lat": "36.66090132070113",
    "lng": "129.1109789576601",
    "region": "경상북도"
  },
  {
    "name": "한얼고등학교 운동장",
    "address": "부산광역시 남구 문현동 557-1",
    "lat": "35.146740088225364",
    "lng": "129.07104134559853",
    "region": "부산광역시"
  },
  {
    "name": "부용고등학교",
    "address": "경기도 의정부시 민락동 757-1",
    "lat": "37.736311598474316",
    "lng": "127.09265555597284",
    "region": "경기도"
  },
  {
    "name": "일월초등학교 청기분교 운동장",
    "address": "경상북도 영양군 청기면 정족리 139-2",
    "lat": "36.699530564118426",
    "lng": "129.0589486140201",
    "region": "경상북도"
  },
  {
    "name": "남성여자고등학교 운동장",
    "address": "부산광역시 중구 대청동1가 10",
    "lat": "35.104670423734014",
    "lng": "129.03372645378246",
    "region": "부산광역시"
  },
  {
    "name": "남원대산초등학교운동장",
    "address": "전북특별자치도 남원시 대산면 운교리 178",
    "lat": "35.43143840336364",
    "lng": "127.32689953920278",
    "region": "전북특별자치도"
  },
  {
    "name": "남원초등학교운동장",
    "address": "전북특별자치도 남원시 금동 343-1",
    "lat": "35.401775961346935",
    "lng": "127.37385928703023",
    "region": "전북특별자치도"
  },
  {
    "name": "남성초등학교 운동장",
    "address": "부산광역시 중구 대청동1가 10",
    "lat": "35.104840136425295",
    "lng": "129.03348700102558",
    "region": "부산광역시"
  },
  {
    "name": "덕곡초등학교 운동장",
    "address": "경상북도 고령군 덕곡면 예리 473",
    "lat": "35.778249606379504",
    "lng": "128.23372886902075",
    "region": "경상북도"
  },
  {
    "name": "남원중학교운동장",
    "address": "전북특별자치도 남원시 향교동 640",
    "lat": "35.42015548008452",
    "lng": "127.37929701805116",
    "region": "전북특별자치도"
  },
  {
    "name": "선두2리 마을회관 공터",
    "address": "인천광역시 강화군 길상면 선두리 1364-2",
    "lat": "37.62063704929874",
    "lng": "126.47102862596493",
    "region": "인천광역시"
  },
  {
    "name": "동광중학교운동장",
    "address": "인천광역시 강화군 양도면 하일리 204-1",
    "lat": "37.66196613761896",
    "lng": "126.42330676317192",
    "region": "인천광역시"
  },
  {
    "name": "화정초등학교 운동장",
    "address": "울산광역시 동구 화정동 153",
    "lat": "35.50178210601673",
    "lng": "129.42089693746524",
    "region": "울산광역시"
  },
  {
    "name": "현대청운고등학교 운동장",
    "address": "울산광역시 동구 서부동 290",
    "lat": "35.53679339458254",
    "lng": "129.42859416456045",
    "region": "울산광역시"
  },
  {
    "name": "방림초등학교 운동장",
    "address": "강원특별자치도 평창군 방림면 방림리 1344",
    "lat": "37.42781625827464",
    "lng": "128.3916426677123",
    "region": "강원특별자치도"
  },
  {
    "name": "신장초등학교 운동장",
    "address": "경기도 하남시 신장동 422-10",
    "lat": "37.54225376472332",
    "lng": "127.2080190488911",
    "region": "경기도"
  },
  {
    "name": "서부초등학교 운동장",
    "address": "경기도 하남시 감일동 14-8",
    "lat": "37.51538201489173",
    "lng": "127.16210866350303",
    "region": "경기도"
  },
  {
    "name": "김해동광초등학교 운동장",
    "address": "경상남도 김해시 동상동 534",
    "lat": "35.236508235396435",
    "lng": "128.8870641912275",
    "region": "경상남도"
  },
  {
    "name": "한림중학교 운동장",
    "address": "경상남도 김해시 한림면 장방리 346",
    "lat": "35.32115313034213",
    "lng": "128.79954622403872",
    "region": "경상남도"
  },
  {
    "name": "신어중학교 운동장",
    "address": "경상남도 김해시 삼방동 201",
    "lat": "35.24487328194537",
    "lng": "128.91143366258237",
    "region": "경상남도"
  },
  {
    "name": "연지공원",
    "address": "경상남도 김해시 내동 106-1",
    "lat": "35.245930181160034",
    "lng": "128.86877203493145",
    "region": "경상남도"
  },
  {
    "name": "삼근초등학교 운동장",
    "address": "경상북도 울진군 금강송면 삼근리 403",
    "lat": "36.935452057230734",
    "lng": "129.24626715116358",
    "region": "경상북도"
  },
  {
    "name": "매화초등학교 운동장",
    "address": "경상북도 울진군 매화면 매화리 1135",
    "lat": "36.913866853110655",
    "lng": "129.38160579547076",
    "region": "경상북도"
  },
  {
    "name": "후포초등학교 운동장",
    "address": "경상북도 울진군 후포면 삼율리 322",
    "lat": "36.680671089088726",
    "lng": "129.44158248453226",
    "region": "경상북도"
  },
  {
    "name": "마량원포축구장",
    "address": "전라남도 강진군 마량면 원포리 222",
    "lat": "34.46438975888324",
    "lng": "126.83305801118736",
    "region": "전라남도"
  },
  {
    "name": "가람중학교운동장",
    "address": "부산광역시 북구 구포동 1020-1",
    "lat": "35.20359706741527",
    "lng": "128.99839893434063",
    "region": "부산광역시"
  },
  {
    "name": "남종 공설운동장",
    "address": "경기도 광주시 남종면 분원리 659",
    "lat": "37.49628631833704",
    "lng": "127.30059027671814",
    "region": "경기도"
  },
  {
    "name": "명진중학교운동장",
    "address": "부산광역시 북구 화명동 2258",
    "lat": "35.23958641585096",
    "lng": "129.00970057478958",
    "region": "부산광역시"
  },
  {
    "name": "의정부용현초등학교",
    "address": "경기도 의정부시 용현동 5-1",
    "lat": "37.738609226303105",
    "lng": "127.08733686505177",
    "region": "경기도"
  },
  {
    "name": "의정부여자중학교",
    "address": "경기도 의정부시 가능동 653-24",
    "lat": "37.74958017034977",
    "lng": "127.03978021635182",
    "region": "경기도"
  },
  {
    "name": "일월초등학교 운동장",
    "address": "경상북도 영양군 일월면 도계리 719-2",
    "lat": "36.70151296565481",
    "lng": "129.12733577053353",
    "region": "경상북도"
  },
  {
    "name": "수비고등학교 운동장",
    "address": "경상북도 영양군 수비면 발리리 500",
    "lat": "36.76540903137896",
    "lng": "129.2039385757911",
    "region": "경상북도"
  },
  {
    "name": "만안초등학교 운동장",
    "address": "경기도 안양시 만안구 안양동 848-1",
    "lat": "37.406377743750355",
    "lng": "126.91663735725436",
    "region": "경기도"
  },
  {
    "name": "화정초등학교운동장",
    "address": "부산광역시 북구 화명동 2330",
    "lat": "35.21813097864447",
    "lng": "129.0098881243104",
    "region": "부산광역시"
  },
  {
    "name": "백운초등학교 운동장",
    "address": "부산광역시 남구 용호동 713-2",
    "lat": "35.11810954286598",
    "lng": "129.10612463951696",
    "region": "부산광역시"
  },
  {
    "name": "산동초등학교운동장",
    "address": "전북특별자치도 남원시 산동면 태평리 138",
    "lat": "35.49251157654142",
    "lng": "127.47735220734764",
    "region": "전북특별자치도"
  },
  {
    "name": "산내초등학교운동장",
    "address": "전북특별자치도 남원시 산내면 대정리 646-1",
    "lat": "35.41967533608335",
    "lng": "127.62726457677277",
    "region": "전북특별자치도"
  },
  {
    "name": "금정초등학교 운동장",
    "address": "부산광역시 금정구 장전동 348-1",
    "lat": "35.22735246736631",
    "lng": "129.08408761024637",
    "region": "부산광역시"
  },
  {
    "name": "용산초등학교 운동장",
    "address": "부산광역시 남구 용호동 382-1",
    "lat": "35.11641504530063",
    "lng": "129.1156066937093",
    "region": "부산광역시"
  },
  {
    "name": "관모초등학교 운동장",
    "address": "경기도 군포시 산본동 1054",
    "lat": "37.37601114150273",
    "lng": "126.93817919357954",
    "region": "경기도"
  },
  {
    "name": "금정중학교 운동장",
    "address": "부산광역시 금정구 남산동 382",
    "lat": "35.27162951630978",
    "lng": "129.09398837132895",
    "region": "부산광역시"
  },
  {
    "name": "교동중고등학교 운동장",
    "address": "인천광역시 강화군 교동면 대룡리 723-7",
    "lat": "37.77786371023635",
    "lng": "126.28355026245075",
    "region": "인천광역시"
  },
  {
    "name": "방어진중학교 운동장",
    "address": "울산광역시 동구 화정동 207",
    "lat": "35.504587904588625",
    "lng": "129.4188162739307",
    "region": "울산광역시"
  },
  {
    "name": "방어진고등학교 운동장",
    "address": "울산광역시 동구 화정동 274-1",
    "lat": "35.50396080363204",
    "lng": "129.422822167691",
    "region": "울산광역시"
  },
  {
    "name": "울산생활과학고등학교 운동장",
    "address": "울산광역시 동구 화정동 300",
    "lat": "35.50493610344903",
    "lng": "129.42171948165705",
    "region": "울산광역시"
  },
  {
    "name": "전하초등학교 운동장",
    "address": "울산광역시 동구 전하동 549-5",
    "lat": "35.5149843986276",
    "lng": "129.42809717874354",
    "region": "울산광역시"
  },
  {
    "name": "새마을공원",
    "address": "경상북도 청도군 청도읍 고수리 1039-70",
    "lat": "35.65055525352339",
    "lng": "128.74214619398165",
    "region": "경상북도"
  },
  {
    "name": "광주초등학교 운동장",
    "address": "경기도 광주시 경안동 36-5",
    "lat": "37.410011646127316",
    "lng": "127.2554022073078",
    "region": "경기도"
  },
  {
    "name": "광남초등학교 운동장",
    "address": "경기도 광주시 중대동 16-66",
    "lat": "37.394196106017944",
    "lng": "127.23088781095197",
    "region": "경기도"
  },
  {
    "name": "진영공설운동장",
    "address": "경상남도 김해시 진영읍 진영리 1340",
    "lat": "35.308737010348445",
    "lng": "128.71776442588688",
    "region": "경상남도"
  },
  {
    "name": "김해하키경기장",
    "address": "경상남도 김해시 삼방동 730",
    "lat": "35.2561458280071",
    "lng": "128.9083321989386",
    "region": "경상남도"
  },
  {
    "name": "생림중학교 운동장",
    "address": "경상남도 김해시 생림면 생철리 316-5",
    "lat": "35.3533573498987",
    "lng": "128.84970241161412",
    "region": "경상남도"
  },
  {
    "name": "울진고등학교 운동장",
    "address": "경상북도 울진군 울진읍 연지리 781",
    "lat": "36.997047618238184",
    "lng": "129.4059273333958",
    "region": "경상북도"
  },
  {
    "name": "한국원자력마이스터고등학교 운동장",
    "address": "경상북도 울진군 평해읍 월송리 508-3",
    "lat": "36.74290530594867",
    "lng": "129.46364963506497",
    "region": "경상북도"
  },
  {
    "name": "온정중학교 운동장",
    "address": "경상북도 울진군 온정면 소태리 776",
    "lat": "36.72624470178953",
    "lng": "129.34624878790757",
    "region": "경상북도"
  },
  {
    "name": "광주시호국보훈공원",
    "address": "경기도 광주시 경안동 168-1",
    "lat": "37.40832077789598",
    "lng": "127.25213885307313",
    "region": "경기도"
  },
  {
    "name": "중대물빛공원",
    "address": "경기도 광주시 중대동 229",
    "lat": "37.402805461271605",
    "lng": "127.21815200740603",
    "region": "경기도"
  },
  {
    "name": "울진중학교 운동장",
    "address": "경상북도 울진군 울진읍 읍내리 1",
    "lat": "36.99451533037782",
    "lng": "129.40500855446285",
    "region": "경상북도"
  },
  {
    "name": "금곡고등학교운동장",
    "address": "부산광역시 북구 금곡동 1892",
    "lat": "35.2443105966214",
    "lng": "129.01217574699393",
    "region": "부산광역시"
  },
  {
    "name": "금��중학교운동장",
    "address": "부산광역시 북구 금곡동 99-2",
    "lat": "35.26057897386578",
    "lng": "129.01715460095008",
    "region": "부산광역시"
  },
  {
    "name": "대천리초등학교운동장",
    "address": "부산광역시 북구 화명동 507",
    "lat": "35.24218892847925",
    "lng": "129.02299467268375",
    "region": "부산광역시"
  },
  {
    "name": "신금초등학교운동장",
    "address": "부산광역시 북구 금곡동 1109",
    "lat": "35.250402325369926",
    "lng": "129.0151598888412",
    "region": "부산광역시"
  },
  {
    "name": "신덕중학교운동장",
    "address": "부산광역시 북구 만덕동 946",
    "lat": "35.203058890542046",
    "lng": "129.03085846439907",
    "region": "부산광역시"
  },
  {
    "name": "구서초등학교 운동장",
    "address": "부산광역시 금정구 구서동 752",
    "lat": "35.25380638948261",
    "lng": "129.0870334833365",
    "region": "부산광역시"
  },
  {
    "name": "오동초등학교",
    "address": "경기도 의정부시 민락동 735-6",
    "lat": "37.74269676055715",
    "lng": "127.09054821458204",
    "region": "경기도"
  },
  {
    "name": "남원성원고등학교 운동장",
    "address": "전북특별자치도 남원시 왕정동 267",
    "lat": "35.41399392592492",
    "lng": "127.37033634164551",
    "region": "전북특별자치도"
  },
  {
    "name": "부산정보관광고등학교 운동장",
    "address": "부산광역시 금정구 부곡동 323-7",
    "lat": "35.22348476505416",
    "lng": "129.09230595458016",
    "region": "부산광역시"
  },
  {
    "name": "화명초등학교운동장",
    "address": "부산광역시 북구 화명동 256",
    "lat": "35.24239326541187",
    "lng": "129.0175411395911",
    "region": "부산광역시"
  },
  {
    "name": "화신중학교운동장",
    "address": "부산광역시 북구 화명동 1408",
    "lat": "35.238425209569456",
    "lng": "129.0148204743704",
    "region": "부산광역시"
  },
  {
    "name": "명신초등학교 운동장",
    "address": "인천광역시 강화군 하점면 망월리 31",
    "lat": "37.75120631777592",
    "lng": "126.39226019382454",
    "region": "인천광역시"
  },
  {
    "name": "교동초등학교 운동장",
    "address": "인천광역시 강화군 교동면 대룡리 535",
    "lat": "37.78383337757134",
    "lng": "126.28161907196002",
    "region": "인천광역시"
  },
  {
    "name": "해명초등학교 운동장",
    "address": "인천광역시 강화군 삼산면 매음리 77-4",
    "lat": "37.66837402643437",
    "lng": "126.36232137680025",
    "region": "인천광역시"
  },
  {
    "name": "명덕여자중학교 운동장",
    "address": "울산광역시 동구 일산동 450",
    "lat": "35.5039608036386",
    "lng": "129.42424075827287",
    "region": "울산광역시"
  },
  {
    "name": "도곡초등학교 운동장",
    "address": "경기도 광주시 초월읍 쌍동리 182",
    "lat": "37.37056668779431",
    "lng": "127.29949612843797",
    "region": "경기도"
  },
  {
    "name": "오포 공설운동장",
    "address": "경기도 광주시 매산동 626-6",
    "lat": "37.37058777294996",
    "lng": "127.24279940128325",
    "region": "경기도"
  },
  {
    "name": "도척 그린공원",
    "address": "경기도 광주시 도척면 유정리 211",
    "lat": "37.29465938824753",
    "lng": "127.32727289199826",
    "region": "경기도"
  },
  {
    "name": "금창초등학교운동장",
    "address": "부산광역시 북구 금곡동 56-2",
    "lat": "35.26553659852155",
    "lng": "129.0198560801748",
    "region": "부산광역시"
  },
  {
    "name": "백산초등학교운동장",
    "address": "부산광역시 북구 만덕동 923",
    "lat": "35.21153155480024",
    "lng": "129.03246998783038",
    "region": "부산광역시"
  },
  {
    "name": "신덕초등학교운동장",
    "address": "부산광역시 북구 만덕동 947",
    "lat": "35.202655672171545",
    "lng": "129.03243258244447",
    "region": "부산광역시"
  },
  {
    "name": "양덕초등학교운동장",
    "address": "부산광역시 북구 덕천동 812",
    "lat": "35.20612492388593",
    "lng": "129.01122193146705",
    "region": "부산광역시"
  },
  {
    "name": "곤제근린공원",
    "address": "경기도 의정부시 낙양동 692-1",
    "lat": "37.746285990700734",
    "lng": "127.08622276782988",
    "region": "경기도"
  },
  {
    "name": "혜광고등학교 운동장",
    "address": "부산광역시 중구 보수동1가 2-420",
    "lat": "35.109189254675016",
    "lng": "129.02511607757526",
    "region": "부산광역시"
  },
  {
    "name": "군포중학교 운동장",
    "address": "경기도 군포시 당동 735",
    "lat": "37.357344968108265",
    "lng": "126.94460213184358",
    "region": "경기도"
  },
  {
    "name": "내성고등학교 운동장",
    "address": "부산광역시 금정구 부곡동 812-13",
    "lat": "35.22080026686571",
    "lng": "129.09291613078335",
    "region": "부산광역시"
  },
  {
    "name": "장전초등학교 운동장",
    "address": "부산광역시 금정구 장전동 657-8",
    "lat": "35.24076475282497",
    "lng": "129.08271431923072",
    "region": "부산광역시"
  },
  {
    "name": "용문중학교 운동장",
    "address": "부산광역시 남구 용호동 246-1",
    "lat": "35.124647284201934",
    "lng": "129.10746574401915",
    "region": "부산광역시"
  },
  {
    "name": "동상초등학교 운동장",
    "address": "부산광역시 금정구 서동 235",
    "lat": "35.2116526969136",
    "lng": "129.1075916881135",
    "region": "부산광역시"
  },
  {
    "name": "한국조형예술고등학교 운동장",
    "address": "부산광역시 남구 용호동 506-39",
    "lat": "35.12019341521519",
    "lng": "129.11694149284486",
    "region": "부산광역시"
  },
  {
    "name": "예문여자고등학교 운동장",
    "address": "부산광역시 남구 용호동 산73-11",
    "lat": "35.11571316178703",
    "lng": "129.1069194303522",
    "region": "부산광역시"
  },
  {
    "name": "녹산초등학교 운동장",
    "address": "부산광역시 강서구 지사동 1184-2",
    "lat": "35.15094651729442",
    "lng": "128.8371688127569",
    "region": "부산광역시"
  },
  {
    "name": "대강중학교운동장",
    "address": "전북특별자치도 남���시 대강면 방동리 500-1",
    "lat": "35.341963362724464",
    "lng": "127.21515520628031",
    "region": "전북특별자치도"
  },
  {
    "name": "마니산청소년 수련원 운동장",
    "address": "인천광역시 강화군 화도면 장화리 985-171",
    "lat": "37.617063559751735",
    "lng": "126.40357375144936",
    "region": "인천광역시"
  },
  {
    "name": "수비초등학교 운동장",
    "address": "경상북도 영양군 수비면 발리리 509",
    "lat": "36.76564045631431",
    "lng": "129.20188056982806",
    "region": "경상북도"
  },
  {
    "name": "남원용성초등학교운동장",
    "address": "전북특별자치도 남원시 동충동 192-4",
    "lat": "35.40976729498341",
    "lng": "127.37956992541011",
    "region": "전북특별자치도"
  },
  {
    "name": "인천광역시 학생교육원 흥왕체험학습장 운동장",
    "address": "인천광역시 강화군 화도면 흥왕리 338-1",
    "lat": "37.6051988528093",
    "lng": "126.42327725887276",
    "region": "인천광역시"
  },
  {
    "name": "양도초등학교 운동장",
    "address": "인천광역시 강화군 양도면 삼흥리 288",
    "lat": "37.688396705136846",
    "lng": "126.41990303993201",
    "region": "인천광역시"
  },
  {
    "name": "내가초등학교 운동장",
    "address": "인천광역시 강화군 내가면 고천리 745-2",
    "lat": "37.720559231997015",
    "lng": "126.39088153839086",
    "region": "인천광역시"
  },
  {
    "name": "지석초등학교 운동장",
    "address": "인천광역시 강화군 교동면 삼선리 493",
    "lat": "37.8008983001507",
    "lng": "126.25674517246509",
    "region": "인천광역시"
  },
  {
    "name": "승영중학교 운동장",
    "address": "인천광역시 강화군 삼산면 석모리 302",
    "lat": "37.70188646317567",
    "lng": "126.31849408149684",
    "region": "인천광역시"
  },
  {
    "name": "하남천현초등학교 운동장",
    "address": "경기도 하남시 신장동 529",
    "lat": "37.53786669718666",
    "lng": "127.21637100731617",
    "region": "경기도"
  },
  {
    "name": "남성현초등학교 운동장",
    "address": "경상북도 청도군 화양읍 삼신리 257",
    "lat": "35.69611711206693",
    "lng": "128.71655707521188",
    "region": "경상북도"
  },
  {
    "name": "(구)금천초등학교 문명분교 운동장",
    "address": "경상북도 청도군 운문면 신원리 702",
    "lat": "35.68492772337625",
    "lng": "128.96149456501112",
    "region": "경상북도"
  },
  {
    "name": "도궁초등학교 운동장",
    "address": "경기도 광주시 도척면 도웅리 125",
    "lat": "37.33452600952137",
    "lng": "127.31290704342919",
    "region": "경기도"
  },
  {
    "name": "광일중학교 운동장",
    "address": "경기도 광주시 도척면 노곡리 241-2",
    "lat": "37.30327283502968",
    "lng": "127.33072385218418",
    "region": "경기도"
  },
  {
    "name": "안골소공원",
    "address": "경기도 광주시 초월읍 서하리 471-3",
    "lat": "37.43496187706039",
    "lng": "127.30709679106063",
    "region": "경기도"
  },
  {
    "name": "김해부곡초등학교 운동장",
    "address": "경상남도 김해시 부곡동 800-4",
    "lat": "35.20658352073668",
    "lng": "128.79971564010003",
    "region": "경상남도"
  },
  {
    "name": "진례중학교 운동장",
    "address": "경상남도 김해시 진례면 초전리 243",
    "lat": "35.248570994889384",
    "lng": "128.75629595182934",
    "region": "경상남도"
  },
  {
    "name": "삼금초등옥방분교 운동장",
    "address": "경상북도 울진군 금강송면 광회리 168-4",
    "lat": "36.924320922721385",
    "lng": "129.1381304364196",
    "region": "경상북도"
  },
  {
    "name": "삼근초등광회분교 운동장",
    "address": "경상북도 울진군 금강송면 광회리 310",
    "lat": "36.94589407409343",
    "lng": "129.10334136466386",
    "region": "경상북도"
  },
  {
    "name": "경안2소공원",
    "address": "경기도 광주시 경안동 428",
    "lat": "37.41175980982625",
    "lng": "127.26214362895875",
    "region": "경기도"
  },
  {
    "name": "오산초등학교 운동장",
    "address": "전라남도 진도군 고군면 오산리 1048-3",
    "lat": "34.49183897963677",
    "lng": "126.3418636916799",
    "region": "전라남도"
  },
  {
    "name": "부산여자중학교 운동장",
    "address": "부산광역시 서구 서대신동3가 60",
    "lat": "35.12002649882702",
    "lng": "129.01460799351014",
    "region": "부산광역시"
  },
  {
    "name": "소현초등학교 운동장",
    "address": "경기도 용인시 수지구 상현동 854",
    "lat": "37.30183324458328",
    "lng": "127.09232639482474",
    "region": "경기도"
  },
  {
    "name": "성복초등학교 운동장",
    "address": "경기도 용인시 수지구 성복동 104-5",
    "lat": "37.31908350633634",
    "lng": "127.07802129257816",
    "region": "경기도"
  },
  {
    "name": "대구초등학교 운동장",
    "address": "대구광역시 중구 봉산동 57",
    "lat": "35.8636682672171",
    "lng": "128.59573654079043",
    "region": "대구광역시"
  },
  {
    "name": "계성중학교 운동장",
    "address": "대구광역시 중구 대신동 277-1",
    "lat": "35.86736518667649",
    "lng": "128.58083478880187",
    "region": "대구광역시"
  },
  {
    "name": "남양초등학교 운동장",
    "address": "경상북도 울릉군 서면 남양리 584",
    "lat": "37.46841436610456",
    "lng": "130.83978116520902",
    "region": "경상북도"
  },
  {
    "name": "그린꽃님공원",
    "address": "부산광역시 북구 화명동 513",
    "lat": "35.2399864472184",
    "lng": "129.0225725148362",
    "region": "부산광역시"
  },
  {
    "name": "선암초등학교운동장",
    "address": "울산광역시 남구 선암동 180",
    "lat": "35.51410388805037",
    "lng": "129.33802786055242",
    "region": "울산광역시"
  },
  {
    "name": "야음초등학교운동장",
    "address": "울산광역시 남구 야음동 865-4",
    "lat": "35.52098630309342",
    "lng": "129.32978116836264",
    "region": "울산광역시"
  },
  {
    "name": "창신공원",
    "address": "부산광역시 사상구 주례동 294",
    "lat": "35.155977",
    "lng": "129.004713",
    "region": "부산광역시"
  },
  {
    "name": "아시아드 보조경기장",
    "address": "부산광역시 연제구 거제동 1299",
    "lat": "35.19008351127896",
    "lng": "129.05849397182612",
    "region": "부산광역시"
  },
  {
    "name": "자은초등학교운동장",
    "address": "경상남도 창원시 진해구 자은동 396",
    "lat": "35.14919674074783",
    "lng": "128.7115722355612",
    "region": "경상남도"
  },
  {
    "name": "안골포초등학교운동장",
    "address": "경상남도 창원시 진해구 청안동 475",
    "lat": "35.103353796075766",
    "lng": "128.80567258253137",
    "region": "경상남도"
  },
  {
    "name": "광명초등학교 운동장",
    "address": "경기도 광명시 광명동 135-1",
    "lat": "37.48038405634029",
    "lng": "126.8577063016445",
    "region": "경기도"
  },
  {
    "name": "달맞이어린이공원",
    "address": "경기도 광명시 소하동 1299",
    "lat": "37.455635817067396",
    "lng": "126.88440737978891",
    "region": "경기도"
  },
  {
    "name": "삼례재래시장",
    "address": "전북특별자치도 완주군 삼례읍 삼례리 1410",
    "lat": "35.910206",
    "lng": "127.072502",
    "region": "전북특별자치도"
  },
  {
    "name": "봉동 장기늘푸름공원",
    "address": "전북특별자치도 완주군 봉동읍 장기리 1129-27",
    "lat": "35.935921565919635",
    "lng": "127.16500420121099",
    "region": "전북특별자치도"
  },
  {
    "name": "봉동 신월마을경로회관",
    "address": "전북특별자치도 완주군 봉동읍 낙평리 1217-2",
    "lat": "35.92751439006273",
    "lng": "127.16136647954487",
    "region": "전북특별자치도"
  },
  {
    "name": "용진 파출소 뒤 주차장",
    "address": "전북특별자치도 완주군 용진읍 용흥리 842-3",
    "lat": "35.882589482286804",
    "lng": "127.15662539005281",
    "region": "전북특별자치도"
  },
  {
    "name": "율목공원",
    "address": "인천���역시 중구 율목동 244-1",
    "lat": "37.4696967",
    "lng": "126.6330547",
    "region": "인천���역시"
  },
  {
    "name": "마장공원",
    "address": "인천광역시 부평구 산곡동 261-1",
    "lat": "37.500668737692784",
    "lng": "126.7075500739829",
    "region": "인천광역시"
  },
  {
    "name": "사근공원",
    "address": "인천광역시 부평구 갈산동 376",
    "lat": "37.508640320460785",
    "lng": "126.72434389208519",
    "region": "인천광역시"
  },
  {
    "name": "청운공원",
    "address": "인천광역시 부평구 부개동 499-6",
    "lat": "37.502257602242345",
    "lng": "126.74291158592564",
    "region": "인천광역시"
  },
  {
    "name": "보은정보고등학교 운동장 ",
    "address": "충청북도 보은군 보은읍 성주리 171-2",
    "lat": "36.490755",
    "lng": "127.734215",
    "region": "충청북도"
  },
  {
    "name": "구산어린이공원",
    "address": "인천광역시 부평구 구산동 126",
    "lat": "37.474677",
    "lng": "126.749591",
    "region": "인천광역시"
  },
  {
    "name": "진안여자중학교",
    "address": "전북특별자치도 진안군 진안읍 군상리 1066",
    "lat": "35.80105809271957",
    "lng": "127.42104346727075",
    "region": "전북특별자치도"
  },
  {
    "name": "송죽초등학교 운���장 ",
    "address": "충청북도 보은군 삼승면 송죽리 192-4",
    "lat": "36.437503",
    "lng": "127.734859",
    "region": "충청북도"
  },
  {
    "name": "속리산중학교 운동장",
    "address": "충청북도 보은군 삼승면 내망리 653",
    "lat": "36.392397",
    "lng": "127.736235",
    "region": "충청북도"
  },
  {
    "name": "성저초등학교 운동장",
    "address": "경기도 고양시 일산서구 대화동 2006",
    "lat": "37.68490772098834",
    "lng": "126.75728177922007",
    "region": "경기도"
  },
  {
    "name": "가좌초등학교 운동장",
    "address": "경기도 고양시 일산서구 가좌동 1099",
    "lat": "37.68865417433825",
    "lng": "126.72107495720155",
    "region": "경기도"
  },
  {
    "name": "고양종합운동장",
    "address": "경기도 고양시 일산서구 대화동 2320",
    "lat": "37.67574285086712",
    "lng": "126.74288020305683",
    "region": "경기도"
  },
  {
    "name": "회인초등학교 운동장 ",
    "address": "충청북도 보은군 회인면 중앙리 96",
    "lat": "36.491535",
    "lng": "127.595778",
    "region": "충청북도"
  },
  {
    "name": "연풍중학교 운동장",
    "address": "충청북도 괴산군 연풍면 행촌리 488",
    "lat": "36.76641723055821",
    "lng": "127.99940406403361",
    "region": "충청북도"
  },
  {
    "name": "산외면사무소 공터",
    "address": "충청북도 보은군 산외면 구티리 50-1",
    "lat": "36.551858",
    "lng": "127.73279",
    "region": "충청북도"
  },
  {
    "name": "만수리 마을회관 공터",
    "address": "충청북도 보은군 속리산면 만수리 44-2",
    "lat": "36.514425",
    "lng": "127.887852",
    "region": "충청북도"
  },
  {
    "name": "부흥공원(부평3호공원)",
    "address": "인천광역시 부평구 부평동 178",
    "lat": "37.49503894734189",
    "lng": "126.73153052268434",
    "region": "인천광역시"
  },
  {
    "name": "벽지리 마을회관 공터 ",
    "address": "충청북도 보은군 탄부면 벽지리 231-1",
    "lat": "36.43186112035416",
    "lng": "127.78340902879998",
    "region": "충청북도"
  },
  {
    "name": "청안중학교 운동장",
    "address": "충청북도 괴산군 청안면 읍내리 231",
    "lat": "36.773107159236",
    "lng": "127.64136769040014",
    "region": "충청북도"
  },
  {
    "name": "대청초등학교운동장",
    "address": "인천광역시 옹진군 대청면 대청리 1085",
    "lat": "37.83234841203747",
    "lng": "124.69944873935182",
    "region": "인천광역시"
  },
  {
    "name": "개운초등학교운동장",
    "address": "울산광역시 남구 선암동 586-2",
    "lat": "35.51306943361829",
    "lng": "129.3114632445161",
    "region": "울산광역시"
  },
  {
    "name": "하남중앙초등학교 운동장",
    "address": "광주광역시 광산구 월곡동 540",
    "lat": "35.168006861976366",
    "lng": "126.8053042888641",
    "region": "광주광역시"
  },
  {
    "name": "중앙초등학교운동장",
    "address": "강원특별자치도 동해시 천곡동 793",
    "lat": "37.52519266674273",
    "lng": "129.10912096726264",
    "region": "강원특별자치도"
  },
  {
    "name": "솔무공원",
    "address": "광주광역시 광산구 장덕동 1112",
    "lat": "35.199014605360695",
    "lng": "126.81609800724772",
    "region": "광주광역시"
  },
  {
    "name": "신복초등학교운동장",
    "address": "울산광역시 남구 무거동 810",
    "lat": "35.54985445628062",
    "lng": "129.25395285236416",
    "region": "울산광역시"
  },
  {
    "name": "야시곡공원",
    "address": "부산광역시 사상구 모라동 1325",
    "lat": "35.194433095135295",
    "lng": "128.99467974906776",
    "region": "부산광역시"
  },
  {
    "name": "옥동초등학교운동장",
    "address": "울산광역시 남구 신정동 1629-3",
    "lat": "35.53459361326067",
    "lng": "129.29681688303774",
    "region": "울산광역시"
  },
  {
    "name": "삼호중학교운동장",
    "address": "울산광역시 남구 무거동 1454-1",
    "lat": "35.54897446215373",
    "lng": "129.2677831551828",
    "region": "울산광역시"
  },
  {
    "name": "연서초등학교 운동장",
    "address": "부산광역시 연제구 연산동 583-3",
    "lat": "35.19024760444102",
    "lng": "129.0861780308886",
    "region": "부산광역시"
  },
  {
    "name": "소하중학교 운동장",
    "address": "경기도 광명시 소하동 1329",
    "lat": "37.44791780750396",
    "lng": "126.88752551544535",
    "region": "경기도"
  },
  {
    "name": "가평초등학교 운동장",
    "address": "충청북도 단양군 매포읍 가평리 181-2",
    "lat": "37.072464428095024",
    "lng": "128.28234428723053",
    "region": "충청북도"
  },
  {
    "name": "삼산고등학교운동장",
    "address": "울산광역시 남구 삼산동 1535-4",
    "lat": "35.54481904648257",
    "lng": "129.34159706355592",
    "region": "울산광역시"
  },
  {
    "name": "단성중학교 운동장",
    "address": "충청북도 단양군 단성면 상방리 79-1",
    "lat": "36.93537504344581",
    "lng": "128.32167218384623",
    "region": "충청북도"
  },
  {
    "name": "단양고등학교 운동장",
    "address": "충청북도 단양군 단양읍 도전리 324",
    "lat": "36.97676805081738",
    "lng": "128.36736398094334",
    "region": "충청북도"
  },
  {
    "name": "단양군 보건소 주차장",
    "address": "충청북도 단양군 단양읍 상진리 84",
    "lat": "36.98126328690454",
    "lng": "128.350408",
    "region": "충청북도"
  },
  {
    "name": "중방리주차장(뉴타운)",
    "address": "충청북도 단양군 단성면 중방리 405",
    "lat": "36.93657880942545",
    "lng": "128.31097957408795",
    "region": "충청북도"
  },
  {
    "name": "저동고등학교 운동장",
    "address": "경기도 고양시 일산동구 정발산동 1208",
    "lat": "37.67096654572428",
    "lng": "126.77935891114691",
    "region": "경기도"
  },
  {
    "name": "문촌초등학교 운동장",
    "address": "경기도 고양시 일산서구 주엽동 24",
    "lat": "37.6731076023076",
    "lng": "126.7602333875647",
    "region": "경기도"
  },
  {
    "name": "오성중학교 운동장",
    "address": "충청북도 괴산군 감물면 오성리 123",
    "lat": "36.84154833927864",
    "lng": "127.86850941187733",
    "region": "충청북도"
  },
  {
    "name": "속리산면사무소 공터",
    "address": "충청북도 보은군 속리산면 상판리 196",
    "lat": "36.512305",
    "lng": "127.81047",
    "region": "충청북도"
  },
  {
    "name": "금정구 공터 2",
    "address": "부산광역시 금정구 회동동 558",
    "lat": "35.23071437224251",
    "lng": "129.12606769217817",
    "region": "부산광역시"
  },
  {
    "name": "의왕덕성초등학교 운동장",
    "address": "경기도 의왕시 삼동 263",
    "lat": "37.32128365174033",
    "lng": "126.95821222997357",
    "region": "경기도"
  },
  {
    "name": "송정중앙초등학교 운동장",
    "address": "광주광역시 광산구 소촌동 432",
    "lat": "35.14745506491936",
    "lng": "126.79481953382488",
    "region": "광주광역시"
  },
  {
    "name": "풍영초등학교 운동장",
    "address": "광주광역시 광산구 신가동 1021-2",
    "lat": "35.18285828894069",
    "lng": "126.8405055999756",
    "region": "광주광역시"
  },
  {
    "name": "동곡초등학교 운동장",
    "address": "광주광역시 광산구 하산동 141",
    "lat": "35.09817077205658",
    "lng": "126.77286894152563",
    "region": "광주광역시"
  },
  {
    "name": "모덕초등학교 운동장",
    "address": "부산광역시 사상구 모라동 1364-1",
    "lat": "35.182198029034716",
    "lng": "128.99134476969132",
    "region": "부산광역시"
  },
  {
    "name": "주례여자중학교 운동장",
    "address": "부산광역시 사상구 주례동 95",
    "lat": "35.14834361763334",
    "lng": "129.00694738172564",
    "region": "부산광역시"
  },
  {
    "name": "이사벨중학교, 이사벨고등학교, 지구촌고등학교 운동장",
    "address": "부산광역시 연제구 거제동 75-7",
    "lat": "35.19432715305752",
    "lng": "129.07862663269202",
    "region": "부산광역시"
  },
  {
    "name": "월평초등학교운동장",
    "address": "울산광역시 남구 신정동 791-9",
    "lat": "35.52900777987086",
    "lng": "129.3122392726774",
    "region": "울산광역시"
  },
  {
    "name": "옥현중학교운동장",
    "address": "울산광역시 남구 무거동 476",
    "lat": "35.53979563149518",
    "lng": "129.26297681822916",
    "region": "울산광역시"
  },
  {
    "name": "강남고등학교운동장",
    "address": "울산광역시 남구 신정동 341",
    "lat": "35.54909208917593",
    "lng": "129.31865344949136",
    "region": "울산광역시"
  },
  {
    "name": "상진제3어린이공원",
    "address": "충청북도 단양군 단양읍 상진리 806",
    "lat": "36.977864648642466",
    "lng": "128.35774859326187",
    "region": "충청북도"
  },
  {
    "name": "단양문화의집 주차장",
    "address": "충청북도 단양군 단양읍 도전리 636",
    "lat": "36.98266668321677",
    "lng": "128.37117032510878",
    "region": "충청북도"
  },
  {
    "name": "대강면 체육공원",
    "address": "충청북도 단양군 대강면 두음리 527",
    "lat": "36.91972335741533",
    "lng": "128.3575327556629",
    "region": "충청북도"
  },
  {
    "name": "두음리 마을주차장",
    "address": "충청북도 단양군 대강면 두음리 590-12",
    "lat": "36.91351645866386",
    "lng": "128.35336157980845",
    "region": "충청북도"
  },
  {
    "name": "하1리 마을공터",
    "address": "충청북도 단양군 영춘면 하리 292-9",
    "lat": "37.075561025935535",
    "lng": "128.48949544444167",
    "region": "충청북도"
  },
  {
    "name": "남천리 마을회관 앞 공터",
    "address": "충청북도 단양군 영춘면 남천리 250-2",
    "lat": "37.04566828920159",
    "lng": "128.50663763394994",
    "region": "충청북도"
  },
  {
    "name": "동대1리 분교 운동장",
    "address": "충청북도 단양군 영춘면 동대리 761",
    "lat": "37.07447333905241",
    "lng": "128.52139422695652",
    "region": "충청북도"
  },
  {
    "name": "동두��초등학교 운동장",
    "address": "경기도 동두천시 생연동 469-2",
    "lat": "37.90788838436884",
    "lng": "127.05957336961234",
    "region": "경기도"
  },
  {
    "name": "외중방리마을회관",
    "address": "충청북도 단양군 단성면 외중방리 149",
    "lat": "36.92758574568392",
    "lng": "128.29711856528223",
    "region": "충청북도"
  },
  {
    "name": "동두천중앙고등학교 운동장",
    "address": "경기도 동두천시 지행동 340-2",
    "lat": "37.89140750554334",
    "lng": "127.0581048680998",
    "region": "경기도"
  },
  {
    "name": "방촌공원",
    "address": "인천광역시 부평구 부개동 500-7",
    "lat": "37.49798089719868",
    "lng": "126.7381561369874",
    "region": "인천광역시"
  },
  {
    "name": "내성초등학교 운동장",
    "address": "부산광역시 동래구 복천동 72",
    "lat": "35.20437123236088",
    "lng": "129.08968853577616",
    "region": "부산광역시"
  },
  {
    "name": "교동초등학교 운동장",
    "address": "부산광역시 동래구 명륜동 105-1",
    "lat": "35.215152207823635",
    "lng": "129.09201467100704",
    "region": "부산광역시"
  },
  {
    "name": "보은중학교 운동장 ",
    "address": "충청북도 보은군 보은읍 이평리 30-1",
    "lat": "36.485289",
    "lng": "127.727326",
    "region": "충청북도"
  },
  {
    "name": "일산고등학교 운동장",
    "address": "경기도 고양시 일산서구 일산동 966-50",
    "lat": "37.68811543925143",
    "lng": "126.76782228472457",
    "region": "경기도"
  },
  {
    "name": "동인초등학교 운동장",
    "address": "충청북도 괴산군 괴산읍 서부리 485",
    "lat": "36.80567136196097",
    "lng": "127.78984989970961",
    "region": "충청북도"
  },
  {
    "name": "온천초등학교 운동장",
    "address": "부산광역시 동래구 온천동 397-4",
    "lat": "35.21254481284639",
    "lng": "129.07375560605539",
    "region": "부산광역시"
  },
  {
    "name": "대연초등학교 운동장",
    "address": "부산광역시 남구 대연동 289-15",
    "lat": "35.136940326851935",
    "lng": "129.09228444099833",
    "region": "부산광역시"
  },
  {
    "name": "광주자동화설비공업고등학교 운동장",
    "address": "광주광역시 광산구 우산동 1084",
    "lat": "35.14951333436669",
    "lng": "126.81328909110073",
    "region": "광주광역시"
  },
  {
    "name": "과천중앙공원",
    "address": "경기도 과천시 별양동 2-5",
    "lat": "37.4306182",
    "lng": "126.9949285",
    "region": "경기도"
  },
  {
    "name": "보은국민체육센터 공터",
    "address": "충청북도 보은군 보은읍 이평리 45-6",
    "lat": "36.48850384890301",
    "lng": "127.72932261228561",
    "region": "충청북도"
  },
  {
    "name": "번남어린이공원",
    "address": "서울특별시 강북구 번동 447-1",
    "lat": "37.63579333499867",
    "lng": "127.02492953923029",
    "region": "서울특별시"
  },
  {
    "name": "기대리 마을회관 공터",
    "address": "충청북도 보은군 마로면 기대리 560-1",
    "lat": "36.409784",
    "lng": "127.819071",
    "region": "충청북도"
  },
  {
    "name": "대신여자중학교 운동장",
    "address": "부산광역시 서구 동대신동2가 87-9",
    "lat": "35.1134594422569",
    "lng": "129.02431388316776",
    "region": "부산광역시"
  },
  {
    "name": "단양초등학교 운동장",
    "address": "충청북도 단양군 단양읍 도전리 405",
    "lat": "36.97911797476602",
    "lng": "128.36883180949562",
    "region": "충청북도"
  },
  {
    "name": "단천초등학교 운동장",
    "address": "충청북도 단양군 단성면 북상리 108",
    "lat": "36.92663154758583",
    "lng": "128.3390429194282",
    "region": "충청북도"
  },
  {
    "name": "울산여자고등학교운동장",
    "address": "울산광역시 남구 신정동 1234-2",
    "lat": "35.53471452898263",
    "lng": "129.30868919617345",
    "region": "울산광역시"
  },
  {
    "name": "울산체육공원",
    "address": "울산광역시 남구 옥동 1226",
    "lat": "35.53255694571798",
    "lng": "129.2606149590456",
    "region": "울산광역시"
  },
  {
    "name": "단양중앙공원",
    "address": "충청북도 단양군 단양읍 별곡리 309-1",
    "lat": "36.986562674118154",
    "lng": "128.36909675060997",
    "region": "충청북도"
  },
  {
    "name": "오사리 마을회관 앞 공터",
    "address": "충청북도 단양군 영춘면 오사리 73-5",
    "lat": "37.10127366062185",
    "lng": "128.51038393204038",
    "region": "충청북도"
  },
  {
    "name": "맑음공원",
    "address": "대구광역시 수성구 두산동 149-11",
    "lat": "35.8335115",
    "lng": "128.618200",
    "region": "대구광역시"
  },
  {
    "name": "회산리마을회관",
    "address": "충청북도 단양군 단성면 회산리 106",
    "lat": "36.89260004654199",
    "lng": "128.29352762447166",
    "region": "충청북도"
  },
  {
    "name": "강북중학교운동장",
    "address": "서울특별시 강북구 수유동 694",
    "lat": "37.64476884512306",
    "lng": "127.02597197683588",
    "region": "서울특별시"
  },
  {
    "name": "솔밭(근린)공원",
    "address": "서울특별시 강북구 우이동 80",
    "lat": "37.65211856640859",
    "lng": "127.01217726400222",
    "region": "서울특별시"
  },
  {
    "name": "진천역사테마공원",
    "address": "충청북도 진천군 진천읍 장관리 705",
    "lat": "36.869126455772026",
    "lng": "127.41126933340111",
    "region": "충청북도"
  },
  {
    "name": "혜화여자중학교 운동장",
    "address": "부산광역시 동래구 명장동 41-4",
    "lat": "35.20456296928803",
    "lng": "129.11035874425306",
    "region": "부산광역시"
  },
  {
    "name": "강동초등학교운동장",
    "address": "부산광역시 해운대구 우동 1113",
    "lat": "35.17174737951873",
    "lng": "129.13703441620066",
    "region": "부산광역시"
  },
  {
    "name": "반송초등학교운동장",
    "address": "부산광역시 해운대구 반송동 250-8",
    "lat": "35.223334046236495",
    "lng": "129.14774715900813",
    "region": "부산광역시"
  },
  {
    "name": "도암초등학교 운동장",
    "address": "경기도 이천시 신둔면 도암리 358",
    "lat": "37.31812505078455",
    "lng": "127.44210407750597",
    "region": "경기도"
  },
  {
    "name": "송운초등학교운동장",
    "address": "부산광역시 해운대구 반송동 893",
    "lat": "35.22907896886904",
    "lng": "129.15713489055625",
    "region": "부산광역시"
  },
  {
    "name": "생영초등학교",
    "address": "전라남도 완도군 생일면 유서리 270",
    "lat": "34.33268837832286",
    "lng": "126.99664967802663",
    "region": "전라남도"
  },
  {
    "name": "신곡중학교운동장",
    "address": "부산광역시 해운대구 좌동 1329",
    "lat": "35.16761657531705",
    "lng": "129.1818702220949",
    "region": "부산광역시"
  },
  {
    "name": "신재초등학교운동장",
    "address": "부산광역시 해운대구 재송동 1024-1",
    "lat": "35.191395630858516",
    "lng": "129.12277050721474",
    "region": "부산광역시"
  },
  {
    "name": "신방초등학교운동장",
    "address": "경상남도 창원시 의창구 동읍 신방리 664",
    "lat": "35.28685538183408",
    "lng": "128.67835215413078",
    "region": "경상남도"
  },
  {
    "name": "서여자중학교운동장",
    "address": "울산광역시 남구 신정동 1632-6",
    "lat": "35.53238516362861",
    "lng": "129.3004651299498",
    "region": "울산광역시"
  },
  {
    "name": "상진초등학교 운동장",
    "address": "충청북도 단양군 단양읍 상진리 734",
    "lat": "36.978864725415484",
    "lng": "128.3565559305452",
    "region": "충청북도"
  },
  {
    "name": "하2리 소재지 공원",
    "address": "충청북도 단양군 적성면 하리 282",
    "lat": "36.95920474937643",
    "lng": "128.29311338745384",
    "region": "충청북도"
  },
  {
    "name": "단양읍 공설운동장",
    "address": "충청북도 단양군 단양읍 별곡리 15-6",
    "lat": "36.98748851071982",
    "lng": "128.3670184963424",
    "region": "충청북도"
  },
  {
    "name": "천동리 주차장",
    "address": "충청북도 단양군 단양읍 천동리 201",
    "lat": "36.973017974903335",
    "lng": "128.4178950089332",
    "region": "충청북도"
  }
]