[
  {
    "name": "대전화정초등학교 운동장",
    "address": "대전광역시 대덕구 오정동 93-1",
    "lat": "36.356911318730226",
    "lng": "127.41222226867623",
    "region": "대전광역시"
  },
  {
    "name": "대전중리초등학교  운동장",
    "address": "대전광역시 대덕구 법동 284-4",
    "lat": "36.36749268082329",
    "lng": "127.42722240011919",
    "region": "대전광역시"
  },
  {
    "name": "고성초등학교 운동장",
    "address": "경상남도 고성군 고성읍 서외리 90",
    "lat": "34.97612898438882",
    "lng": "128.31904381513868",
    "region": "경상남도"
  },
  {
    "name": "고성중학교 운동장",
    "address": "경상남도 고성군 고성읍 교사리 337-1",
    "lat": "34.97916138505296",
    "lng": "128.3054366422868",
    "region": "경상남도"
  },
  {
    "name": "철성중학교 운동장",
    "address": "경상남도 고성군 고성읍 기월리 143-1",
    "lat": "34.98455807328688",
    "lng": "128.3194504121789",
    "region": "경상남도"
  },
  {
    "name": "하동초등학교 운동장",
    "address": "경상남도 하동군 하동읍 광평리 299",
    "lat": "35.066580358407144",
    "lng": "127.74814707136728",
    "region": "경상남도"
  },
  {
    "name": "적량초등학교 운동장",
    "address": "경상남도 하동군 적량면 관리 136-2",
    "lat": "35.08552952275477",
    "lng": "127.77373275939694",
    "region": "경상남도"
  },
  {
    "name": "횡천초등학교 운동장",
    "address": "경상남도 하동군 횡천면 횡천리 752",
    "lat": "35.11032088250436",
    "lng": "127.8078745137188",
    "region": "경상남도"
  },
  {
    "name": "천안시종합운동장(주경기장)",
    "address": "충청남도 천안시 서북구 백석동 251",
    "lat": "36.818758746861185",
    "lng": "127.11512625217436",
    "region": "충청남도"
  },
  {
    "name": "남면초등학교 운동장",
    "address": "전라남도 담양군 가사문학면 연천리 355",
    "lat": "35.17804619994087",
    "lng": "127.02671456952291",
    "region": "전라남도"
  },
  {
    "name": "금성초등학교 운동장",
    "address": "전라남도 담양군 금성면 석현리 124",
    "lat": "35.34432506771475",
    "lng": "127.02550213577231",
    "region": "전라남도"
  },
  {
    "name": "용면초등학교 운동장",
    "address": "전라남도 담양군 용면 추성리 404",
    "lat": "35.363282003695076",
    "lng": "126.99082728502928",
    "region": "전라남도"
  },
  {
    "name": "동해초등학교 운동장",
    "address": "경상남도 고성군 동해면 양촌리 832",
    "lat": "35.04578691746404",
    "lng": "128.44433510561967",
    "region": "경상남도"
  },
  {
    "name": "산청중학교 운동장",
    "address": "경상남도 산청군 오부면 오전리 840",
    "lat": "35.49926892322059",
    "lng": "127.88688286702154",
    "region": "경상남도"
  },
  {
    "name": "산청중학교 운동장",
    "address": "경상남도 산청군 생초면 어서리 351",
    "lat": "35.49483997056435",
    "lng": "127.83619308822215",
    "region": "경상남도"
  },
  {
    "name": "천마초등학교 운동장",
    "address": "인천광역시 서구 석남동 295-13",
    "lat": "37.50488099870258",
    "lng": "126.67928069829937",
    "region": "인천광역시"
  },
  {
    "name": "신현초등학교 운동장",
    "address": "인천광역시 서구 신현동 291",
    "lat": "37.514252649089165",
    "lng": "126.67010646254104",
    "region": "인천광역시"
  },
  {
    "name": "구례공설운동장",
    "address": "전라남도 구례군 구례읍 봉북리 1423-1",
    "lat": "35.21830903723424",
    "lng": "127.46572042044755",
    "region": "전라남도"
  },
  {
    "name": "임학중학교 운동장",
    "address": "인천광역시 계양구 병방동 432-2",
    "lat": "37.54591181330454",
    "lng": "126.74041778547078",
    "region": "인천광역시"
  },
  {
    "name": "돌산공원",
    "address": "전라남도 여수시 돌산읍 우두리 산355-145",
    "lat": "34.730613544297455",
    "lng": "127.73879885673524",
    "region": "전라남도"
  },
  {
    "name": "청룡초등학교 운동장",
    "address": "충청북도 음성군 삼성면 청용리 352-7",
    "lat": "37.0007614242613",
    "lng": "127.47284934147629",
    "region": "충청북도"
  },
  {
    "name": "의성생활체육야구장",
    "address": "경상북도 의성군 의성읍 후죽리 153",
    "lat": "36.363322933678695",
    "lng": "128.69482295663917",
    "region": "경상북도"
  },
  {
    "name": "석곡도서관 주차장",
    "address": "경상북도 포항시 남구 동해면 도구리 737-8",
    "lat": "35.990687730463904",
    "lng": "129.43776905537146",
    "region": "경상북도"
  },
  {
    "name": "감포공설시장 주차장",
    "address": "경상북도 경주시 감포읍 감포리 436-1",
    "lat": "35.804099037910625",
    "lng": "129.50203833967535",
    "region": "경상북도"
  },
  {
    "name": "감포읍복지회관 주차장",
    "address": "경상북도 경주시 감포읍 전촌리 221",
    "lat": "35.79869071724662",
    "lng": "129.49313328696138",
    "region": "경상북도"
  },
  {
    "name": "석천초등학교 운동장",
    "address": "인천광역시 남동구 구월동 21",
    "lat": "37.456272785682316",
    "lng": "126.70946942410505",
    "region": "인천광역시"
  },
  {
    "name": "광주양동초등학교  운동장",
    "address": "광주광역시 서구 양동 295",
    "lat": "35.15391588843393",
    "lng": "126.89863979816435",
    "region": "광주광역시"
  },
  {
    "name": "한재초등학��� 운동장",
    "address": "전라남도 담양군 대전면 대치리 788",
    "lat": "35.278153743502244",
    "lng": "126.88936685938384",
    "region": "전라남도"
  },
  {
    "name": "만수여자중학교 운동장",
    "address": "인천광역시 남동구 만수동 27",
    "lat": "37.459138441212694",
    "lng": "126.73303077679186",
    "region": "인천광역시"
  },
  {
    "name": "부안스포츠파크 부안공설운동장",
    "address": "전북특별자치도 부안군 행안면 진동리 933",
    "lat": "35.700557571019935",
    "lng": "126.72215580939873",
    "region": "전북특별자치도"
  },
  {
    "name": "장흥중학교 운동장",
    "address": "전라남도 장흥군 장흥읍 건산리 506",
    "lat": "34.683838637740564",
    "lng": "126.90975126399006",
    "region": "전라남도"
  },
  {
    "name": "전남여자고등학교 운동장",
    "address": "광주광역시 동구 장동 39-12",
    "lat": "35.151362263454914",
    "lng": "126.92072076588185",
    "region": "광주광역시"
  },
  {
    "name": "용산초등학교  운동장",
    "address": "광주광역시 동구 용산동 175-1",
    "lat": "35.11834649030813",
    "lng": "126.93148612976077",
    "region": "광주광역시"
  },
  {
    "name": "다대고등학교운동장",
    "address": "부산광역시 사하구 다대동 1551",
    "lat": "35.05257153565273",
    "lng": "128.96968603134167",
    "region": "부산광역시"
  },
  {
    "name": "유등초등학교 운동장",
    "address": "전북특별자치도 순창군 유등면 외이리 186",
    "lat": "35.362298551681334",
    "lng": "127.18890845775819",
    "region": "전북특별자치도"
  },
  {
    "name": "풍산초등학교 운동장",
    "address": "전북특별자치도 순창군 풍산면 반월리 153",
    "lat": "35.33700427640309",
    "lng": "127.13752806186403",
    "region": "전북특별자치도"
  },
  {
    "name": "다도초등학교 운동장",
    "address": "전라남도 나주시 다도면 궁원리 316",
    "lat": "34.95795794697587",
    "lng": "126.82676646377509",
    "region": "전라남도"
  },
  {
    "name": "성명초등학교 실외운동장",
    "address": "경상남도 남해군 서면 서상리 655-1",
    "lat": "34.80844483307951",
    "lng": "127.83843862544646",
    "region": "경상남도"
  },
  {
    "name": "마량초등학교 운동장",
    "address": "전라남도 강진군 마량면 마량리 1028-3",
    "lat": "34.45592315935931",
    "lng": "126.81143770661471",
    "region": "전라남도"
  },
  {
    "name": "신전초등학교 운동장",
    "address": "전라남도 강진군 신전면 용월리 1033-1",
    "lat": "34.49956037699742",
    "lng": "126.7096259403113",
    "region": "전라남도"
  },
  {
    "name": "진잠초등학교 운동장",
    "address": "대전광역시 유성구 원내동 62",
    "lat": "36.29932232016055",
    "lng": "127.3149577019149",
    "region": "대전광역시"
  },
  {
    "name": "문산초등학교 운동장",
    "address": "충청남도 서천군 문산면 신농리 21-1",
    "lat": "36.14264673957438",
    "lng": "126.75134928905837",
    "region": "충청남도"
  },
  {
    "name": "도계중학교 운동장",
    "address": "강원특별자치도 삼척시 도계읍 도계리 285-1",
    "lat": "37.23276037084104",
    "lng": "129.04813849935556",
    "region": "강원특별자치도"
  },
  {
    "name": "정라초등학교 운동장",
    "address": "강원특별자치도 삼척시 정상동 344",
    "lat": "37.44547175203904",
    "lng": "129.17643713957645",
    "region": "강원특별자치도"
  },
  {
    "name": "봉명초등학교 운동장",
    "address": "대전광역시 유성구 봉명동 1023",
    "lat": "36.34946618233118",
    "lng": "127.3435837586923",
    "region": "대전광역시"
  },
  {
    "name": "덕송초등학교 운동장",
    "address": "대전광역시 유성구 덕명동 498",
    "lat": "36.361028216217",
    "lng": "127.30192492373193",
    "region": "대전광역시"
  },
  {
    "name": "전민초등학교 운동장",
    "address": "대전광역시 유성구 전민동 468",
    "lat": "36.39844572223531",
    "lng": "127.40714331694495",
    "region": "대전광역시"
  },
  {
    "name": "순천도사초등학교 운동장",
    "address": "전라남도 순천시 홍내동 637-3",
    "lat": "34.91451934562393",
    "lng": "127.5001185262266",
    "region": "전라남도"
  },
  {
    "name": "대산중학교 운동장",
    "address": "경상남도 함안군 대산면 평림리 955",
    "lat": "35.347775601902704",
    "lng": "128.43855069185832",
    "region": "경상남도"
  },
  {
    "name": "경남항공고등학교 운동장",
    "address": "경상남도 고성군 고성읍 교사리 338-5",
    "lat": "34.97805459555892",
    "lng": "128.30593028804256",
    "region": "경상남도"
  },
  {
    "name": "만덕초등학교 운동장",
    "address": "전라남도 담양군 대덕면 매산리 97",
    "lat": "35.24916501831959",
    "lng": "127.03585140898602",
    "region": "전라남도"
  },
  {
    "name": "수북초등학교 운동장",
    "address": "전라남도 담양군 수북면 수북리 161",
    "lat": "35.30099701904775",
    "lng": "126.93029446019165",
    "region": "전라남도"
  },
  {
    "name": "북천초등학교 운동장",
    "address": "경상남도 하동군 북천면 직전리 677-1",
    "lat": "35.1133742094813",
    "lng": "127.88911628990003",
    "region": "경상남도"
  },
  {
    "name": "하일초등학교 장춘분교(폐교부지) 운동장",
    "address": "경상남도 고성군 하일면 춘암리 401-2",
    "lat": "34.912398718463216",
    "lng": "128.178900661462",
    "region": "경상남도"
  },
  {
    "name": "고성고등학교 운동장",
    "address": "경상남도 고성군 회화면 배둔리 1182",
    "lat": "35.0554733442522",
    "lng": "128.36317603320734",
    "region": "경상남도"
  },
  {
    "name": "문평초등학교 운동장",
    "address": "전라남도 나주시 문평면 동원리 719",
    "lat": "35.058415373424666",
    "lng": "126.60434552535348",
    "region": "전라남도"
  },
  {
    "name": "노안중학교 운동장",
    "address": "전라남도 나주시 노안면 금동리 59-8",
    "lat": "35.0728955867627",
    "lng": "126.73431222247683",
    "region": "전라남도"
  },
  {
    "name": "살레시오여고 운동장",
    "address": "광주광역시 동구 지산동 480",
    "lat": "35.146565540812794",
    "lng": "126.92999755239185",
    "region": "광주광역시"
  },
  {
    "name": "속초여자고등학교 운동장",
    "address": "강원특별자치도 속초시 교동 802-1",
    "lat": "38.19929616742852",
    "lng": "128.5690845599902",
    "region": "강원특별자치도"
  },
  {
    "name": "광남초등학교 운동장",
    "address": "부산광역시 수영구 남천동 147",
    "lat": "35.14514343048408",
    "lng": "129.11426782608208",
    "region": "부산광역시"
  },
  {
    "name": "팔덕초등학교 운동장",
    "address": "전북특별자치도 순창군 팔덕면 용산리 353-1",
    "lat": "35.39227300990539",
    "lng": "127.09735393523928",
    "region": "전북특별자치도"
  },
  {
    "name": "쌍치초등학교 운동장",
    "address": "전북특별자치도 순창군 쌍치면 쌍계리 129",
    "lat": "35.50186445827393",
    "lng": "127.00284802467714",
    "region": "전북특별자치도"
  },
  {
    "name": "순창군공설운동장",
    "address": "전북특별자치도 순창군 순창읍 교성리 196-25",
    "lat": "35.369822736770516",
    "lng": "127.1290040016182",
    "region": "전북특별자치도"
  },
  {
    "name": "민락초등학교 운동장",
    "address": "부산광역시 수영구 민락동 2",
    "lat": "35.160507768158475",
    "lng": "129.12721216678804",
    "region": "부산광역시"
  },
  {
    "name": "상주초등학교 실외운동장",
    "address": "경상남도 남해군 상주면 상주리 1174",
    "lat": "34.72418101239441",
    "lng": "127.98650622367859",
    "region": "경상남도"
  },
  {
    "name": "대덕초등학교 운동장",
    "address": "전라남도 장흥군 대덕읍 연정리 390-1",
    "lat": "34.49977619645689",
    "lng": "126.89025923117427",
    "region": "전라남도"
  },
  {
    "name": "송림초등학교 운동장",
    "address": "충청남도 서천군 장항읍 옥산리 639-5",
    "lat": "36.02921254668083",
    "lng": "126.68408453464504",
    "region": "충청남도"
  },
  {
    "name": "마동초등학교 운동장",
    "address": "충청남도 서천군 마서면 송내리 419-1",
    "lat": "36.02494239220149",
    "lng": "126.71492692181863",
    "region": "충청남도"
  },
  {
    "name": "산서초등학교 운동장",
    "address": "전북특별자치도 장수군 산서면 동화리 208",
    "lat": "35.58679809579409",
    "lng": "127.39477899670423",
    "region": "전북특별자치도"
  },
  {
    "name": "번암초등학교 운동장",
    "address": "전북특별자치도 장수군 번암면 노단리 453",
    "lat": "35.53424989713406",
    "lng": "127.54686472747733",
    "region": "전북특별자치도"
  },
  {
    "name": "근덕초등학교 운동장",
    "address": "강원특별자치도 삼척시 근덕면 교가리 676-1",
    "lat": "37.38042413749816",
    "lng": "129.22451198097895",
    "region": "강원특별자치도"
  },
  {
    "name": "순천신흥초등학교 운동장",
    "address": "전라남도 순천시 조례동 1615",
    "lat": "34.95372504939143",
    "lng": "127.52812610259551",
    "region": "전라남도"
  },
  {
    "name": "종합운동장 주차장",
    "address": "경상남도 양산시 북부동 533",
    "lat": "35.34612574251046",
    "lng": "129.0338015556349",
    "region": "경상남도"
  },
  {
    "name": "김제시민운동장",
    "address": "전북특별자치도 김제시 검산동 산62-1",
    "lat": "35.81465792310927",
    "lng": "126.90115505185666",
    "region": "전북특별자치도"
  },
  {
    "name": "봉산초등학교 운동장",
    "address": "전라남도 담양군 봉산면 신학리 131",
    "lat": "35.27684345364426",
    "lng": "126.9573656031494",
    "region": "전라남도"
  },
  {
    "name": "궁항초등학교 운동장",
    "address": "경상남도 하동군 금성면 궁항리 1038",
    "lat": "34.971092320271104",
    "lng": "127.79623211576342",
    "region": "경상남도"
  },
  {
    "name": "월평초등학교운동장",
    "address": "대전광역시 서구 월평동 314",
    "lat": "36.35550541601638",
    "lng": "127.3577793139614",
    "region": "대전광역시"
  },
  {
    "name": "생비량초등학교 운동장",
    "address": "경상남도 산청군 신등면 단계리 663",
    "lat": "35.378713975553175",
    "lng": "128.01008780423294",
    "region": "경상남도"
  },
  {
    "name": "대포초등학교 운동장",
    "address": "강원특별자치도 속초시 대포동 350",
    "lat": "38.1738318918052",
    "lng": "128.60373395920158",
    "region": "강원특별자치도"
  },
  {
    "name": "한바다중학교 운동장",
    "address": "부산광역시 수영구 광안동 154-1",
    "lat": "35.15703649829417",
    "lng": "129.11826192341587",
    "region": "부산광역시"
  },
  {
    "name": "복흥면정산체육소공원",
    "address": "전북특별자치도 순창군 복흥면 정산리 744-39",
    "lat": "35.42799773585079",
    "lng": "126.93267971277619",
    "region": "전북특별자치도"
  },
  {
    "name": "고현초등학교 실외운동장",
    "address": "경상남도 남해군 고현면 대사리 618",
    "lat": "34.89672875219065",
    "lng": "127.87767311440442",
    "region": "경상남도"
  },
  {
    "name": "설천초등학교 실외운동장",
    "address": "경상남도 남해군 설천면 남양리 71",
    "lat": "34.92599974529152",
    "lng": "127.91486410803739",
    "region": "경상남도"
  },
  {
    "name": "남면공설운동장",
    "address": "경상남도 남해군 남면 당항리 1329-2",
    "lat": "34.7718619263466",
    "lng": "127.89112063220111",
    "region": "경상남도"
  },
  {
    "name": "장흥장평중학교 운동장",
    "address": "전라남도 장흥군 장평면 용강리 52",
    "lat": "34.77400203577255",
    "lng": "126.97321374576829",
    "region": "전라남도"
  },
  {
    "name": "송지초등학교운동장",
    "address": "전라남도 해남군 송지면 산정리 724-1",
    "lat": "34.36890435092888",
    "lng": "126.52038843084524",
    "region": "전라남도"
  },
  {
    "name": "해남군축구전용구장3",
    "address": "전라남도 해남군 해남읍 해리 6-1",
    "lat": "34.56745482602262",
    "lng": "126.61932383623709",
    "region": "전라남도"
  },
  {
    "name": "장흥고등학교 운동장",
    "address": "전라남도 장흥군 장흥읍 건산리 77",
    "lat": "34.679620474687525",
    "lng": "126.91596208322309",
    "region": "전라남도"
  },
  {
    "name": "장동초등학교 운동장",
    "address": "전라남도 장흥군 장동면 북교리 306-4",
    "lat": "34.74654175147143",
    "lng": "126.99402716761878",
    "region": "전라남도"
  },
  {
    "name": "보수초등학교 운동장",
    "address": "부산광역시 중구 보수동1가 50-1",
    "lat": "35.10588522978146",
    "lng": "129.02421895818253",
    "region": "부산광역시"
  },
  {
    "name": "물야초등학교",
    "address": "경상북도 봉화군 물야면 오록리 545-3",
    "lat": "36.97935458672524",
    "lng": "128.73700888363692",
    "region": "경상북도"
  },
  {
    "name": "봉성초등학교",
    "address": "경상북도 봉화군 봉성면 봉성리 526-1",
    "lat": "36.88563611880543",
    "lng": "128.8147185844608",
    "region": "경상북도"
  },
  {
    "name": "석포초등학교",
    "address": "경상북도 봉화군 석포면 석포리 376-8",
    "lat": "37.047021450479235",
    "lng": "129.06381707528217",
    "region": "경상북도"
  },
  {
    "name": "이월초등학교 운동장",
    "address": "충청북도 진천군 이월면 송림리 667",
    "lat": "36.93106026492745",
    "lng": "127.43134574040734",
    "region": "충청북도"
  },
  {
    "name": "이월중학교 운동장",
    "address": "충청북도 진천군 이월면 송림리 455-5",
    "lat": "36.92699258652761",
    "lng": "127.42846200786771",
    "region": "충청북도"
  },
  {
    "name": "학하초등학교 운동장",
    "address": "대전광역시 유성구 학하동 580-1",
    "lat": "36.33440505206067",
    "lng": "127.31224170432378",
    "region": "대전광역시"
  },
  {
    "name": "순천남산초등학교 운동장",
    "address": "전라남도 순천시 풍덕동 1102-18",
    "lat": "34.938241267889154",
    "lng": "127.49553183124951",
    "region": "전라남도"
  },
  {
    "name": "순천왕조초등학교 운동장",
    "address": "전라남도 순천시 조례동 1669",
    "lat": "34.9605034464135",
    "lng": "127.51388159352545",
    "region": "전라남도"
  },
  {
    "name": "순천남초등학교 운동장",
    "address": "전라남도 순천시 저전동 90-3",
    "lat": "34.95030258499488",
    "lng": "127.48268526900785",
    "region": "전라남도"
  },
  {
    "name": "신탄진초등학교  운동장",
    "address": "대전광역시 대덕구 석봉동 308-7",
    "lat": "36.44907401892214",
    "lng": "127.42230833071467",
    "region": "대전광역시"
  },
  {
    "name": "무정초등학교 운동장",
    "address": "전라남도 담양군 무정면 봉안리 68-1",
    "lat": "35.290264867180895",
    "lng": "127.04038122413121",
    "region": "전라남도"
  },
  {
    "name": "월산초등학교 운동장",
    "address": "전라남도 담양군 월산면 화방리 629-1",
    "lat": "35.34021845811527",
    "lng": "126.95063710212709",
    "region": "전라남도"
  },
  {
    "name": "청암중학교 운동장",
    "address": "경상남도 하동군 청암면 평촌리 918",
    "lat": "35.16069983345401",
    "lng": "127.79814082861769",
    "region": "경상남도"
  },
  {
    "name": "유천초등학교운동장",
    "address": "대전광역시 서구 도마동 149-1",
    "lat": "36.314476839175825",
    "lng": "127.37581696429467",
    "region": "대전광역시"
  },
  {
    "name": "기성중학교운동장",
    "address": "대전광역시 서구 흑석동 295",
    "lat": "36.25048597446611",
    "lng": "127.34118504656634",
    "region": "대전광역시"
  },
  {
    "name": "방산초등학교 운동장",
    "address": "경상남도 고성군 거류면 용산리 195-158",
    "lat": "34.97134815976057",
    "lng": "128.36395149022937",
    "region": "경상남도"
  },
  {
    "name": "반남초등학교 운동장",
    "address": "전라남도 나주시 반남면 신촌리 129",
    "lat": "34.91141543019634",
    "lng": "126.65888996765922",
    "region": "전라남도"
  },
  {
    "name": "금천초등학교 운동장",
    "address": "전라남도 나주시 금천면 오강리 207",
    "lat": "35.0337912962498",
    "lng": "126.75512842111071",
    "region": "전라남도"
  },
  {
    "name": "산포초등학교 운동장",
    "address": "전라남도 나주시 산포면 매성리 199",
    "lat": "35.034278306648005",
    "lng": "126.80563943980273",
    "region": "전라남도"
  },
  {
    "name": "생비량초등학교 운동장",
    "address": "경상남도 산청군 생비량면 도리 595-1",
    "lat": "35.34629467684524",
    "lng": "128.04672688845832",
    "region": "경상남도"
  },
  {
    "name": "속초고등학교 운동장",
    "address": "강원특별자치도 속초시 장사동 460",
    "lat": "38.22482734495425",
    "lng": "128.58349481514912",
    "region": "강원특별자치도"
  },
  {
    "name": "조양초등학교운동장",
    "address": "강원특별자치도 속초시 조양동 1396",
    "lat": "38.1883290158277",
    "lng": "128.59850623475893",
    "region": "강원특별자치도"
  },
  {
    "name": "금과초등학교 운동장",
    "address": "전북특별자치도 순창군 금과면 매우리 145",
    "lat": "35.33911790518027",
    "lng": "127.08712399006194",
    "region": "전북특별자치도"
  },
  {
    "name": "광안중학교 운동장",
    "address": "부산광역시 수영구 광안동 977-1",
    "lat": "35.16768235410118",
    "lng": "129.10522878170187",
    "region": "부산광역시"
  },
  {
    "name": "구림���등학교 운동장",
    "address": "전북특별자치도 순창군 구림면 운남리 233",
    "lat": "35.45290079511244",
    "lng": "127.10097491741213",
    "region": "전북특별자치도"
  },
  {
    "name": "이동초등학교 실외운동장",
    "address": "경상남도 남해군 이동면 석평리 52-2",
    "lat": "34.80399401642839",
    "lng": "127.95244704883272",
    "region": "경상남도"
  },
  {
    "name": "부산남고등학교 운동장",
    "address": "부산광역시 영도구 동삼동 592",
    "lat": "35.069791777667525",
    "lng": "129.0658551172196",
    "region": "부산광역시"
  },
  {
    "name": "화원초등학교운동장",
    "address": "전라남도 해남군 화원면 청용리 235-1",
    "lat": "34.6721247076635",
    "lng": "126.332792253054",
    "region": "전라남도"
  },
  {
    "name": "해남군축구전용구장1",
    "address": "전라남도 해남군 해남읍 해리 4-18",
    "lat": "34.56838567605491",
    "lng": "126.61998110609566",
    "region": "전라남도"
  },
  {
    "name": "내성초등학교",
    "address": "경상북도 봉화군 봉화읍 내성리 452-1",
    "lat": "36.88609298651814",
    "lng": "128.73595728533633",
    "region": "경상북도"
  },
  {
    "name": "재산초등학교",
    "address": "경상북도 봉화군 재산면 현동리 735",
    "lat": "36.81688112983973",
    "lng": "128.9635433648607",
    "region": "경상북도"
  },
  {
    "name": "문상초등학교 운동장",
    "address": "충청북도 진천군 문백면 사양리 38-1",
    "lat": "36.83754673012188",
    "lng": "127.47216644322636",
    "region": "충청북도"
  },
  {
    "name": "만승초등학교 운동장",
    "address": "충청북도 진천군 광혜원면 광혜원리 79",
    "lat": "36.99255942013796",
    "lng": "127.44213044643402",
    "region": "충청북도"
  },
  {
    "name": "장항중학교 운동장",
    "address": "충청남도 서천군 장항읍 원��리 923-19",
    "lat": "36.0079764230969",
    "lng": "126.70263685448728",
    "region": "충청남도"
  },
  {
    "name": "부내초등학교 운동장",
    "address": "충청남도 서천군 종천면 종천리 208-60",
    "lat": "36.10256936568732",
    "lng": "126.6464378207613",
    "region": "충청남도"
  },
  {
    "name": "비인초등학교 운동장",
    "address": "충청남도 서천군 비인면 성내리 212-4",
    "lat": "36.14185167380294",
    "lng": "126.6019767522779",
    "region": "충청남도"
  },
  {
    "name": "장수고등학교 운동장",
    "address": "전북특별자치도 장수군 장수읍 선창리 345-1",
    "lat": "35.655520784806406",
    "lng": "127.52270663770815",
    "region": "전북특별자치도"
  },
  {
    "name": "삼척초등학교 운동장",
    "address": "강원특별자치도 삼척시 교동 585",
    "lat": "37.449419726895876",
    "lng": "129.16703116893908",
    "region": "강원특별자치도"
  },
  {
    "name": "승주초등학교 운동장",
    "address": "전라남도 순천시 승주읍 서평리 546-1",
    "lat": "35.016734862814566",
    "lng": "127.38025422188466",
    "region": "전라남도"
  },
  {
    "name": "송광초등학교 운동장",
    "address": "전라남도 순천시 송광면 이읍리 766",
    "lat": "34.96167072631896",
    "lng": "127.26759374141693",
    "region": "전라남도"
  },
  {
    "name": "대전중원초등학교  운동장",
    "address": "대전광역시 대덕구 중리동 371-5",
    "lat": "36.36541840008397",
    "lng": "127.42764061473305",
    "region": "대전광역시"
  },
  {
    "name": "담양동초등학교 운동장",
    "address": "전라남도 담양군 담양읍 객사리 271",
    "lat": "35.320649190814486",
    "lng": "126.98348589189324",
    "region": "전라남도"
  },
  {
    "name": "창평고등학교 운동장",
    "address": "전라남도 담양군 창평면 창평리 232",
    "lat": "35.2376608635878",
    "lng": "127.01166173842975",
    "region": "전라남도"
  },
  {
    "name": "진교중학교 운동장",
    "address": "경상남도 하동군 진교면 진교리 560-1",
    "lat": "35.0370498713271",
    "lng": "127.89912736163983",
    "region": "경상남도"
  },
  {
    "name": "가장초등학교운동장",
    "address": "대전광역시 서구 가장동 25-1",
    "lat": "36.330541569399685",
    "lng": "127.38854002090511",
    "region": "대전광역시"
  },
  {
    "name": "삼산초등학교 운동장",
    "address": "경상남도 고성군 삼산면 미룡리 276",
    "lat": "34.93786190424886",
    "lng": "128.27328232044144",
    "region": "경상남도"
  },
  {
    "name": "하일초등학교 운동장",
    "address": "경상남도 고성군 하일면 학림리 722-5",
    "lat": "34.945778206175554",
    "lng": "128.19025426019684",
    "region": "경상남도"
  },
  {
    "name": "고성곤충생태학교 운동장(구.영천중학교 영현분교)",
    "address": "경상남도 고성군 영현면 봉림리 44-9",
    "lat": "35.05301507078972",
    "lng": "128.2045269012451",
    "region": "경상남도"
  },
  {
    "name": "회화중학교 운동장",
    "address": "경상남도 고성군 회화면 배둔리 1112-1",
    "lat": "35.056288395201086",
    "lng": "128.36208447382776",
    "region": "경상남도"
  },
  {
    "name": "남평초등학교 운동장",
    "address": "전라남도 나주시 남평읍 동사리 238",
    "lat": "35.042382927874066",
    "lng": "126.8460108553868",
    "region": "전라남도"
  },
  {
    "name": "산청중학교 운동장",
    "address": "경상남도 산청군 금서면 화계리 671",
    "lat": "35.46073102965709",
    "lng": "127.7926108160891",
    "region": "경상남도"
  },
  {
    "name": "동강초등학교 운동장",
    "address": "전라남도 나주시 동강면 인동리 355",
    "lat": "34.9380733345314",
    "lng": "126.56455624222671",
    "region": "전라남도"
  },
  {
    "name": "부여 종합운동장",
    "address": "충청남도 부여군 규암면 나복리 456",
    "lat": "36.2787945549941",
    "lng": "126.86362156032007",
    "region": "충청남도"
  },
  {
    "name": "속초해랑중학교 운동장",
    "address": "강원특별자치도 속초시 금호동 625-37",
    "lat": "38.20686849212873",
    "lng": "128.5850174702265",
    "region": "강원특별자치도"
  },
  {
    "name": "설악중학교 운동장",
    "address": "강원특별자치도 속초시 교동 780-5",
    "lat": "38.20586494719546",
    "lng": "128.57853377117343",
    "region": "강원특별자치도"
  },
  {
    "name": "설악고등학교 운동장",
    "address": "강원특별자치도 속초시 조양동 589-7",
    "lat": "38.185741655790565",
    "lng": "128.57416382426646",
    "region": "강원특별자치도"
  },
  {
    "name": "간절곶스포츠파크",
    "address": "울산광역시 울주군 서생면 서생리 21",
    "lat": "35.372340284698794",
    "lng": "129.33716883797482",
    "region": "울산광역시"
  },
  {
    "name": "남해스포츠파크",
    "address": "경상남도 남해군 서면 서상리 1182-1",
    "lat": "34.80608174160718",
    "lng": "127.83492028165338",
    "region": "경상남도"
  },
  {
    "name": "영도초등학교 운동장",
    "address": "부산광역시 영도구 신선동1가 100",
    "lat": "35.090034072974454",
    "lng": "129.0460697039844",
    "region": "부산광역시"
  },
  {
    "name": "우수영초등학교운동장",
    "address": "전라남도 해남군 문내면 난대리 437-1",
    "lat": "34.6045497692559",
    "lng": "126.312215106244",
    "region": "전라남도"
  },
  {
    "name": "강진중앙초등학교 운동장",
    "address": "전라남도 강진군 강진읍 평동리 215-1",
    "lat": "34.636561346162935",
    "lng": "126.76655907285402",
    "region": "전라남도"
  },
  {
    "name": "병영초등학교 운동장",
    "address": "전라남도 강진군 병영면 성남리 199-7",
    "lat": "34.71439678465467",
    "lng": "126.8125462532043",
    "region": "전라남도"
  },
  {
    "name": "강원도립대학",
    "address": "강원특별자치도 강릉시 주문진읍 교항리 8-2",
    "lat": "37.87662433570669",
    "lng": "128.8295392577568",
    "region": "강원특별자치도"
  },
  {
    "name": "진천삼수초등학교 운동장",
    "address": "충청북도 진천군 진천읍 읍내리 333-1",
    "lat": "36.85612510552614",
    "lng": "127.44090301514228",
    "region": "충청북도"
  },
  {
    "name": "진천중학교 운동장",
    "address": "충청북도 진천군 진천읍 성석리 462",
    "lat": "36.867819579742786",
    "lng": "127.44670027062644",
    "region": "충청북도"
  },
  {
    "name": "서천고등학교 운동장",
    "address": "충청남도 서천군 서천읍 사곡리 203",
    "lat": "36.08576966884219",
    "lng": "126.6894794110327",
    "region": "충청남도"
  },
  {
    "name": "노은초등학교 운동장",
    "address": "대전광역시 유성구 노은동 540",
    "lat": "36.36898536622618",
    "lng": "127.321386010471",
    "region": "대전광역시"
  },
  {
    "name": "순천전자고등학교 운동장",
    "address": "전라남도 순천시 서면 동산리 107",
    "lat": "34.997969727697196",
    "lng": "127.48769559662058",
    "region": "전라남도"
  },
  {
    "name": "순천낙안중학교 운동장",
    "address": "전라남도 순천시 낙안면 교촌리 247-1",
    "lat": "34.901471633149136",
    "lng": "127.34571049306496",
    "region": "전라남도"
  },
  {
    "name": "효성공원",
    "address": "인천광역시 계양구 효성동 223",
    "lat": "37.52615028834677",
    "lng": "126.71603857866334",
    "region": "인천광역시"
  },
  {
    "name": "대전회덕초등학교  운동장",
    "address": "대전광역시 대덕구 읍내동 317",
    "lat": "36.37446115318212",
    "lng": "127.42141578947526",
    "region": "대전광역시"
  },
  {
    "name": "고성여자중학교 운동장",
    "address": "경상남도 고성군 고성읍 송학리 309-1",
    "lat": "34.97966317993973",
    "lng": "128.3256994925311",
    "region": "경상남도"
  },
  {
    "name": "악양초등학교 운동장",
    "address": "경상남도 하동군 악양면 정서리 285-2",
    "lat": "35.16161740144341",
    "lng": "127.70862837875895",
    "region": "경상남도"
  },
  {
    "name": "담양남초등학교 운동장",
    "address": "전라남도 담양군 담양읍 지침리 92",
    "lat": "35.31788712668477",
    "lng": "126.98648781620078",
    "region": "전라남도"
  },
  {
    "name": "서산시종합운동장",
    "address": "충청남도 서산시 갈산동 90",
    "lat": "36.79786291935665",
    "lng": "126.43577509074606",
    "region": "충청남도"
  },
  {
    "name": "대흥초등학교 운동장",
    "address": "경상남도 고성군 대가면 유흥리 679",
    "lat": "35.01554933609622",
    "lng": "128.29704374545156",
    "region": "경상남도"
  },
  {
    "name": "영현초등학교 운동장",
    "address": "경상남도 고성군 영현면 침점리 350",
    "lat": "35.053888305700106",
    "lng": "128.2048473039164",
    "region": "경상남도"
  },
  {
    "name": "세지초등학교 운동장",
    "address": "전라남도 나주시 세지면 오봉리 263",
    "lat": "34.918802939780306",
    "lng": "126.74694497451894",
    "region": "전라남도"
  },
  {
    "name": "산청중학교 운동장",
    "address": "경상남도 산청군 차황면 장위리 22-2",
    "lat": "35.46488467116623",
    "lng": "127.92732995497327",
    "region": "경상남도"
  },
  {
    "name": "삼장초등학교 운동장",
    "address": "경상남도 산청군 삼장면 석남리 188",
    "lat": "35.334909878607775",
    "lng": "127.83916155021568",
    "region": "경상남도"
  },
  {
    "name": "신안초등학교 운동장",
    "address": "경상남도 산청군 신안면 하정리 721",
    "lat": "35.30138045465091",
    "lng": "127.97239185012961",
    "region": "경상남도"
  },
  {
    "name": "서석초등학교  운동장",
    "address": "광주광역시 동구 서석동 14-1",
    "lat": "35.14705590692721",
    "lng": "126.92508101463321",
    "region": "광주광역시"
  },
  {
    "name": "감천중학교운동장",
    "address": "부산광역시 사하구 감천동 632-4",
    "lat": "35.09261473145046",
    "lng": "128.99998573447743",
    "region": "부산광역시"
  },
  {
    "name": "덕문여자고등학교 운동장",
    "address": "부산광역시 수영구 광안동 산8-8",
    "lat": "35.16679214341875",
    "lng": "129.10403788089923",
    "region": "부산광역시"
  },
  {
    "name": "영일고등학교 운동장",
    "address": "경상북도 포항시 남구 연일읍 동문리 47-1",
    "lat": "35.99527324855739",
    "lng": "129.35303270816817",
    "region": "경상북도"
  },
  {
    "name": "문충초등학교 운동장",
    "address": "경상북도 포항시 남구 오천읍 문충리 149-4",
    "lat": "35.93032239874368",
    "lng": "129.39880273149817",
    "region": "경상북도"
  },
  {
    "name": "지곡\"라\"공원",
    "address": "경상북도 포항시 남구 지곡동 965-1",
    "lat": "36.0333",
    "lng": "129.3134",
    "region": "경상북도"
  },
  {
    "name": "지곡초등학교 운동장",
    "address": "경상남도 함양군 지곡면 개평리 287-1",
    "lat": "35.56624944330714",
    "lng": "127.77141108597971",
    "region": "경상남도"
  },
  {
    "name": "병곡초등학교 운동장",
    "address": "경상남도 함양군 병곡면 송평리 80",
    "lat": "35.52882383882288",
    "lng": "127.68885550284905",
    "region": "경상남도"
  },
  {
    "name": "도화초등학교운동장",
    "address": "인천광역시 미추홀구 도화동 541-5",
    "lat": "37.46341170223252",
    "lng": "126.66832781154426",
    "region": "인천광역시"
  },
  {
    "name": "감골운동장",
    "address": "경기도 안산시 상록구 사동 1342",
    "lat": "37.29343396291148",
    "lng": "126.8558915583649",
    "region": "경기도"
  },
  {
    "name": "성안고등학교 운동장",
    "address": "경기도 안산시 상록��� 사동 1582",
    "lat": "37.30272388630724",
    "lng": "126.84205206736829",
    "region": "경기도"
  },
  {
    "name": "본오중학교 운동장",
    "address": "경기도 안산시 상록구 본오동 861",
    "lat": "37.292770442380125",
    "lng": "126.86725055479877",
    "region": "경기도"
  },
  {
    "name": "본오초등학교 운동장",
    "address": "경기도 안산시 상록구 본오동 821",
    "lat": "37.29453360929016",
    "lng": "126.86867560277081",
    "region": "경기도"
  },
  {
    "name": "안산디자인문화고등학교 운동장",
    "address": "경기도 안산시 상록구 본오동 798",
    "lat": "37.297461445826904",
    "lng": "126.87186890539495",
    "region": "경기도"
  },
  {
    "name": "안산부곡중학교 운동장",
    "address": "경기도 안산시 상록구 부곡동 693",
    "lat": "37.3236806930353",
    "lng": "126.85864961072393",
    "region": "경기도"
  },
  {
    "name": "화개초등학교 운동장",
    "address": "경상남도 하동군 화개면 삼신리 594-2",
    "lat": "35.19926665104187",
    "lng": "127.62882907814921",
    "region": "경상남도"
  },
  {
    "name": "천안시종합운동장(보조경기장)",
    "address": "충청남도 천안시 서북구 백석동 272",
    "lat": "36.82066114485193",
    "lng": "127.11649149656296",
    "region": "충청남도"
  },
  {
    "name": "구월초등학교 운동장",
    "address": "인천광역시 남동구 구월동 1226-1",
    "lat": "37.4518958767911",
    "lng": "126.7167624329455",
    "region": "인천광역시"
  },
  {
    "name": "정각초등학교 운동장",
    "address": "인천광역시 남동구 구월동 24-2",
    "lat": "37.45565108314709",
    "lng": "126.71566807884808",
    "region": "인천광역시"
  },
  {
    "name": "인제고등학교 운동장",
    "address": "인천광역시 남동구 간석동 136-1",
    "lat": "37.461590906945844",
    "lng": "126.7132068083547",
    "region": "인천광역시"
  },
  {
    "name": "간석여자중학교 운동장",
    "address": "인천광역시 남동구 간석동 80-1",
    "lat": "37.46833018826199",
    "lng": "126.7107391283048",
    "region": "인천광역시"
  },
  {
    "name": "부산수영중학교 운동장",
    "address": "부산광역시 수영구 광안동 732",
    "lat": "35.15734127649885",
    "lng": "129.1097027063387",
    "region": "부산광역시"
  },
  {
    "name": "강릉중학교 운동장",
    "address": "강원특별자치도 강릉시 입암동 497",
    "lat": "37.75359728813465",
    "lng": "128.90974575733483",
    "region": "강원특별자치도"
  },
  {
    "name": "장항중앙초등학교 운동장",
    "address": "충청남도 서천군 장항읍 신창리 45",
    "lat": "36.01227184443584",
    "lng": "126.6910314559936",
    "region": "충청남도"
  },
  {
    "name": "유성초등학교 운동장",
    "address": "대전광역시 유성구 장대동 155",
    "lat": "36.36215484472587",
    "lng": "127.3333291573663",
    "region": "대전광역시"
  },
  {
    "name": "순천삼산초등학교 운동장",
    "address": "전라남도 순천시 석현동 24",
    "lat": "34.96623967489063",
    "lng": "127.48825445712782",
    "region": "전라남도"
  },
  {
    "name": "부일공원",
    "address": "인천광역시 계양구 계산동 930-1",
    "lat": "37.5447919042083",
    "lng": "126.72323871629044",
    "region": "인천광역시"
  },
  {
    "name": "신석초등학교 운동장",
    "address": "인천광역시 서구 석남동 208-2",
    "lat": "37.510838982305536",
    "lng": "126.66452328851202",
    "region": "인천광역시"
  },
  {
    "name": "삼동면민운동장",
    "address": "울산광역시 울주군 삼동면 보은리 615",
    "lat": "35.50414329416411",
    "lng": "129.1308771569364",
    "region": "울산광역시"
  },
  {
    "name": "상주한려해상체육공원",
    "address": "경상남도 남해군 상주면 상주리 1722",
    "lat": "34.72453373444844",
    "lng": "127.97986507415769",
    "region": "경상남도"
  },
  {
    "name": "관산남초등학교 운동장",
    "address": "전라남도 장흥군 관산읍 삼산리 97",
    "lat": "34.52593751795958",
    "lng": "126.95486059733025",
    "region": "전라남도"
  },
  {
    "name": "부산초등학교 운동장",
    "address": "전라남도 장흥군 부산면 구룡리 378",
    "lat": "34.72230149408461",
    "lng": "126.90200295595758",
    "region": "전라남도"
  },
  {
    "name": "북일초등학교운동장",
    "address": "전라남도 해남군 북일면 흥촌리 109",
    "lat": "34.467052",
    "lng": "126.676845",
    "region": "전라남도"
  },
  {
    "name": "현산초등학교운동장",
    "address": "전라남도 해남군 현산면 일평리 876-2",
    "lat": "34.4588962739612",
    "lng": "126.55283029169965",
    "region": "전라남도"
  },
  {
    "name": "우슬경기장",
    "address": "전라남도 해남군 해남읍 해리 2",
    "lat": "34.56832671682975",
    "lng": "126.62234743694026",
    "region": "전라남도"
  },
  {
    "name": "안양초등학교 운동장",
    "address": "전라남도 장흥군 안양면 운흥리 508",
    "lat": "34.65151140327439",
    "lng": "126.9734373434087",
    "region": "전라남도"
  },
  {
    "name": "명호초등학교",
    "address": "경상북도 봉화군 명호면 도천리 195-3",
    "lat": "36.85608916583285",
    "lng": "128.89920771879855",
    "region": "경상북도"
  },
  {
    "name": "문백초등학교 운동장",
    "address": "충청북도 진천군 문백면 봉죽리 297",
    "lat": "36.78627638961693",
    "lng": "127.43288471911032",
    "region": "충청북도"
  },
  {
    "name": "백곡초등학교 운동장",
    "address": "충청북도 진천군 백곡면 구수리 21-1",
    "lat": "36.88608896674715",
    "lng": "127.35955160479519",
    "region": "충청북도"
  },
  {
    "name": "시초초등학교 운동장",
    "address": "충청남도 서천군 시초면 초현리 61-1",
    "lat": "36.12165289124774",
    "lng": "126.75191491842052",
    "region": "충청남도"
  },
  {
    "name": "계북초등학교 운동장",
    "address": "전북특별자치도 장수군 계북면 어전리 739",
    "lat": "35.787282304579",
    "lng": "127.6167638829661",
    "region": "전북특별자치도"
  },
  {
    "name": "외삼초등학교 운동장",
    "address": "대전광역시 유성구 반석동 244",
    "lat": "36.39300354039569",
    "lng": "127.31058955192566",
    "region": "대전광역시"
  },
  {
    "name": "이순신종합운동장",
    "address": "충청남도 아산시 풍기동 366-2",
    "lat": "36.76788320770711",
    "lng": "127.02134549617769",
    "region": "충청남도"
  },
  {
    "name": "작전공원 1",
    "address": "인천광역시 계양구 작전동 414",
    "lat": "37.52623008793687",
    "lng": "126.72570657587873",
    "region": "인천광역시"
  },
  {
    "name": "옥종고등학교 운동장",
    "address": "경상남도 하동군 옥종면 양구리 41-1",
    "lat": "35.177754337788734",
    "lng": "127.88439653512951",
    "region": "경상남도"
  },
  {
    "name": "가수원중학교운동장",
    "address": "대전광역시 서구 가수원동 806-18",
    "lat": "36.297967548271515",
    "lng": "127.35459837774167",
    "region": "대전광역시"
  },
  {
    "name": "고성중앙고등학교 운동장",
    "address": "경상남도 고성군 고성읍 수남리 524",
    "lat": "34.96762767730899",
    "lng": "128.31915724874827",
    "region": "경상남도"
  },
  {
    "name": "경남고성음악고등학교 운동장",
    "address": "경상남도 고성군 하일면 학림리 701-2",
    "lat": "34.943901628335205",
    "lng": "128.1934097896819",
    "region": "경상남도"
  },
  {
    "name": "하이체육공원",
    "address": "경상남도 고성군 하이면 덕호리 513-2",
    "lat": "34.9303667322813",
    "lng": "128.12159878502837",
    "region": "경상남도"
  },
  {
    "name": "구만초등학교 운동장",
    "address": "경상남도 고성군 구만면 효락리 621-2",
    "lat": "35.08792065089569",
    "lng": "128.33562721835136",
    "region": "경상남도"
  },
  {
    "name": "마암초등학교 운동장",
    "address": "경상남도 고성군 마암면 도전리 492",
    "lat": "35.056006431458144",
    "lng": "128.33643332363448",
    "region": "경상남도"
  },
  {
    "name": "거류체육공원",
    "address": "경상남도 고성군 거류면 신용리 888",
    "lat": "34.98331828300792",
    "lng": "128.40697652975354",
    "region": "경상남도"
  },
  {
    "name": "학운초등학교  운동장",
    "address": "광주광역시 동구 운림동 482",
    "lat": "35.13291304618904",
    "lng": "126.94649040699007",
    "region": "광주광역시"
  },
  {
    "name": "중앙초등학교 운동장",
    "address": "전북특별자치도 순창군 순창읍 남계리 268",
    "lat": "35.377162515885864",
    "lng": "127.14427649974941",
    "region": "전북특별자치도"
  },
  {
    "name": "화양초등학교 운동장",
    "address": "충청남도 서천군 화양면 봉명리 132-2",
    "lat": "36.04345506888142",
    "lng": "126.77634231742665",
    "region": "충청남도"
  },
  {
    "name": "비인중학교 운동장",
    "address": "충청남도 서천군 비인면 성내리 151",
    "lat": "36.1392523793721",
    "lng": "126.60540461539938",
    "region": "충청남도"
  },
  {
    "name": "장대초등학교 운동장",
    "address": "대전광역시 유성구 장대동 348",
    "lat": "36.36153199629948",
    "lng": "127.3393672392681",
    "region": "대전광역시"
  },
  {
    "name": "용산초등학교 운동장",
    "address": "대전광역시 유성구 용산동 662",
    "lat": "36.419973396062524",
    "lng": "127.39477257391977",
    "region": "대전광역시"
  },
  {
    "name": "원촌초등학교 운동장",
    "address": "전라남도 구례군 산동면 원촌리 214",
    "lat": "35.31682224999097",
    "lng": "127.43839990058234",
    "region": "전라남도"
  },
  {
    "name": "신반중학교 운동장",
    "address": "경상남도 의령군 부림면 신반리 148-6",
    "lat": "35.46242642841858",
    "lng": "128.3195453882218",
    "region": "경상남도"
  },
  {
    "name": "환경사업소 운동장",
    "address": "전라남도 광양시 중동 308-124",
    "lat": "34.92917730508358",
    "lng": "127.69074062861324",
    "region": "전라남도"
  },
  {
    "name": "성호초등학교",
    "address": "경기도 오산시 오산동 862-1",
    "lat": "37.149759610187786",
    "lng": "127.07103943263029",
    "region": "경기도"
  },
  {
    "name": "안의초등학교 운동장",
    "address": "경상남도 함양군 안의면 당본리 203",
    "lat": "35.62910497920283",
    "lng": "127.80983224105252",
    "region": "경상남도"
  },
  {
    "name": "서하초등학교 운동장",
    "address": "경상남도 함양군 서하면 송계리 869",
    "lat": "35.64846642630471",
    "lng": "127.69837155231046",
    "region": "경상남도"
  },
  {
    "name": "흥해공업고등학교 운동장",
    "address": "경상북도 포항시 북구 흥해읍 옥성리 376",
    "lat": "36.106656180276374",
    "lng": "129.33837356083072",
    "region": "경상북도"
  },
  {
    "name": "포항항도중학교 운동장",
    "address": "경상북도 포항시 북구 죽도동 655-9",
    "lat": "36.0186242210189",
    "lng": "129.35563445091128",
    "region": "경상북도"
  },
  {
    "name": "성리초등학교  운동장",
    "address": "인천광역시 남동구 구월동 1487",
    "lat": "37.44550667568134",
    "lng": "126.70982301235192",
    "region": "인천광역시"
  },
  {
    "name": "주원초등학교 운동장",
    "address": "인천광역시 남동구 간석동 379-1",
    "lat": "37.464774568055944",
    "lng": "126.69985064793174",
    "region": "인천광역시"
  },
  {
    "name": "만수중학교 운동장",
    "address": "인천광역시 남동구 만수동 48",
    "lat": "37.45462925804804",
    "lng": "126.73683574805324",
    "region": "인천광역시"
  },
  {
    "name": "마장초등학교 운동장",
    "address": "인천광역시 부평구 청천동 336-10",
    "lat": "37.506609",
    "lng": "126.709434",
    "region": "인천광역시"
  },
  {
    "name": "단원중학교 운동장",
    "address": "경기도 안산시 단원구 고잔동 431-4",
    "lat": "37.32748587285961",
    "lng": "126.82258933682492",
    "region": "경기도"
  },
  {
    "name": "중앙중학교 운동장",
    "address": "경기도 안산시 단원구 고잔동 673-2",
    "lat": "37.32165845865595",
    "lng": "126.8397503890414",
    "region": "경기도"
  },
  {
    "name": "왕길근린공원",
    "address": "인천광역시 서구 왕길동 649-4",
    "lat": "37.60053561968273",
    "lng": "126.65148685870089",
    "region": "인천광역시"
  },
  {
    "name": "황성초등학교 운동장",
    "address": "경상북도 경주시 용강동 1151-1",
    "lat": "35.859616274607106",
    "lng": "129.22312700034226",
    "region": "경상북도"
  },
  {
    "name": "용황초등학교 운동장",
    "address": "경상북도 경주시 황성동 325-1",
    "lat": "35.86506131385571",
    "lng": "129.22075707528742",
    "region": "경상북도"
  },
  {
    "name": "산내중학교 운동장",
    "address": "경상북도 경주시 산내면 의곡리 70-65",
    "lat": "35.752389924875985",
    "lng": "129.0464963887842",
    "region": "경상북도"
  },
  {
    "name": "어은숲",
    "address": "경상북도 영천시 금호읍 어은리 420",
    "lat": "35.91954757518849",
    "lng": "128.89762545648185",
    "region": "경상북도"
  },
  {
    "name": "구)자양중학교 주차장",
    "address": "경상북도 영천시 자양면 성곡리 537",
    "lat": "36.08013705180509",
    "lng": "129.01853993986035",
    "region": "경상북도"
  },
  {
    "name": "자천초등보현분교 운동장",
    "address": "경상북도 영천시 자양면 보현리 687-1",
    "lat": "36.13320894925904",
    "lng": "129.0466386103202",
    "region": "경상북도"
  },
  {
    "name": "곰들덤공원",
    "address": "경상북도 영천시 임고면 선원리 909-159",
    "lat": "36.028372922046444",
    "lng": "128.9741722973088",
    "region": "경상북도"
  },
  {
    "name": "영천중학교 앞 공터주차장",
    "address": "경상북도 영천시 문내동 산2-1",
    "lat": "35.97485446814578",
    "lng": "128.92977476120086",
    "region": "경상북도"
  },
  {
    "name": "홍농중학교",
    "address": "전라남도 영광군 홍농읍 상하리 345",
    "lat": "35.401435456768766",
    "lng": "126.44727940228842",
    "region": "전라남도"
  },
  {
    "name": "묘량중앙초등학교",
    "address": "전라남도 영광군 묘량면 운당리 478",
    "lat": "35.267710131261936",
    "lng": "126.55141631080787",
    "region": "전라남도"
  },
  {
    "name": "송담근린공원",
    "address": "경기도 평택시 안중읍 송담리 861",
    "lat": "36.980869461961476",
    "lng": "126.93122397011105",
    "region": "경기도"
  },
  {
    "name": "평원중학교",
    "address": "강원특별자치도 원주시 단계동 913",
    "lat": "37.339028487781135",
    "lng": "127.93617490933904",
    "region": "강원특별자치도"
  },
  {
    "name": "미리내공원",
    "address": "대구광역시 달성군 화원읍 본리리 113-3",
    "lat": "35.80280460703621",
    "lng": "128.50976838967148",
    "region": "대구광역시"
  },
  {
    "name": "나무놀이터",
    "address": "대구광역시 달성군 화원읍 천내리 110",
    "lat": "35.80656371135822",
    "lng": "128.49592359650003",
    "region": "대구광역시"
  },
  {
    "name": "동오초등학교",
    "address": "경기도 의정부시 신곡동 669-3",
    "lat": "37.744617",
    "lng": "127.058553",
    "region": "경기도"
  },
  {
    "name": "신동초등학교",
    "address": "경기도 의정부시 신곡동 561",
    "lat": "37.73966424113556",
    "lng": "127.05523252487181",
    "region": "경기도"
  },
  {
    "name": "발곡중학교",
    "address": "경기도 의정부시 신곡동 724-3",
    "lat": "37.727613",
    "lng": "127.055250",
    "region": "경기도"
  },
  {
    "name": "황성공원",
    "address": "경상북도 경주시 황성동 산1-1",
    "lat": "35.85950913482907",
    "lng": "129.21428203583008",
    "region": "경상북도"
  },
  {
    "name": "경주용강동고분 공터",
    "address": "경상북도 경주시 용강동 1130-2",
    "lat": "35.861309030667854",
    "lng": "129.22434702515852",
    "region": "경상북도"
  },
  {
    "name": "흥무공원",
    "address": "경상북도 경주시 충효동 9-2",
    "lat": "35.84572840393183",
    "lng": "129.19509651413057",
    "region": "경상북도"
  },
  {
    "name": "만년초등학교운동장",
    "address": "대전광역시 서구 만년동 280",
    "lat": "36.36671956417664",
    "lng": "127.37729241429474",
    "region": "대전광역시"
  },
  {
    "name": "괘릉초등학교 운동장",
    "address": "경상북도 경주시 외동읍 괘릉리 595",
    "lat": "35.75996825842205",
    "lng": "129.32219193188692",
    "region": "경상북도"
  },
  {
    "name": "영지초등학교 운동장",
    "address": "경상북도 경주시 외동읍 방어리 634",
    "lat": "35.75380239285285",
    "lng": "129.2949805659022",
    "region": "경상북도"
  },
  {
    "name": "용장 공영주차장",
    "address": "경상북도 경주시 내남면 용장리 428-1",
    "lat": "35.77638469267725",
    "lng": "129.20530065894368",
    "region": "경상북도"
  },
  {
    "name": "대릉원 주차장",
    "address": "경상북도 경주시 황남동 198-4",
    "lat": "35.83512825997249",
    "lng": "129.21576529741532",
    "region": "경상북도"
  },
  {
    "name": "능안초등학교 운동장",
    "address": "경기도 파주시 조리읍 능안리 53-6",
    "lat": "37.740239166254675",
    "lng": "126.79274336342515",
    "region": "경기도"
  },
  {
    "name": "파주대원초등학교 운동장",
    "address": "경기도 파주시 조리읍 대원리 203",
    "lat": "37.72686871525411",
    "lng": "126.81985259056088",
    "region": "경기도"
  },
  {
    "name": "단대초등학교 운동장",
    "address": "경기도 성남시 수정구 단대동 77",
    "lat": "37.45338512224014",
    "lng": "127.15745563526637",
    "region": "경기도"
  },
  {
    "name": "청람중학교 운동장",
    "address": "전라남도 강진군 군동면 라천리 161",
    "lat": "34.64911478349817",
    "lng": "126.81986458055911",
    "region": "전라남도"
  },
  {
    "name": "강진여자중학교 운동장",
    "address": "전라남도 강진군 강진읍 서성리 292",
    "lat": "34.63991292300724",
    "lng": "126.76052579961139",
    "region": "전라남도"
  },
  {
    "name": "암태중학교",
    "address": "전라남도 신안군 암태면 단고리 104",
    "lat": "34.82965273568737",
    "lng": "126.1127887735456",
    "region": "전라남도"
  },
  {
    "name": "화북면사무소 주차장",
    "address": "경상북도 영천시 화북면 자천리 1470",
    "lat": "36.108230556338775",
    "lng": "128.9193561787336",
    "region": "경상북도"
  },
  {
    "name": "북안면 반정3리 공원",
    "address": "경상북도 영천시 북안면 반정리 158",
    "lat": "35.92987452258965",
    "lng": "129.00006898434438",
    "region": "경상북도"
  },
  {
    "name": "우로지생태공원",
    "address": "경상북도 영천시 망정동 444-14",
    "lat": "35.983422372762014",
    "lng": "128.95763020037617",
    "region": "경상북도"
  },
  {
    "name": "영천초등학교 운동장",
    "address": "경상북도 영천시 금노동 504-1",
    "lat": "35.96142606467812",
    "lng": "128.93223450005596",
    "region": "경상북도"
  },
  {
    "name": "영천영화초등학교 운동장",
    "address": "경상북도 영천시 화룡동 196-1",
    "lat": "35.965289907703216",
    "lng": "128.9219592437195",
    "region": "경상북도"
  },
  {
    "name": "대마초등학교",
    "address": "전라남도 영광군 대마면 월산리 375",
    "lat": "35.30269622742194",
    "lng": "126.58147162331524",
    "region": "전라남도"
  },
  {
    "name": "청송군민운동장",
    "address": "경상북도 청송군 청송읍 월막리 142",
    "lat": "36.43257385876911",
    "lng": "129.0617823600817",
    "region": "경상북도"
  },
  {
    "name": "목포공고 운동장",
    "address": "전라남도 목포시 용당동 171-11",
    "lat": "34.79608311473161",
    "lng": "126.40362739562967",
    "region": "전라남도"
  },
  {
    "name": "남초등학교 운동장",
    "address": "전라남도 목포시 호남동 567",
    "lat": "34.7911582018988",
    "lng": "126.3909275458454",
    "region": "전라남도"
  },
  {
    "name": "부남초등학교 운동장",
    "address": "경상북도 청송군 부남면 하속리 97",
    "lat": "36.31358510140843",
    "lng": "129.09780544176448",
    "region": "경상북도"
  },
  {
    "name": "안덕초등학교 운동장",
    "address": "경상북도 청송군 안덕면 명당리 503-1",
    "lat": "36.29305688301133",
    "lng": "128.960616775997",
    "region": "경상북도"
  },
  {
    "name": "송정중학교 운동장",
    "address": "부산광역시 강서구 송정동 1437-19",
    "lat": "35.1066052625924",
    "lng": "128.84244328634784",
    "region": "부산광역시"
  },
  {
    "name": "반송고등학교 운동장",
    "address": "경기도 화성시 반송동 213",
    "lat": "37.192443979388656",
    "lng": "127.07730296660628",
    "region": "경기도"
  },
  {
    "name": "이충레포츠공원",
    "address": "경기도 평택시 이충동 700",
    "lat": "37.06495451757757",
    "lng": "127.07342863082887",
    "region": "경기도"
  },
  {
    "name": "덕동산근린공원",
    "address": "경기도 평택시 비전동 802",
    "lat": "36.99932375090204",
    "lng": "127.09822403276046",
    "region": "경기도"
  },
  {
    "name": "모산골공원",
    "address": "경기도 평택시 동삭동 390",
    "lat": "37.01526787012749",
    "lng": "127.09352424439392",
    "region": "경기도"
  },
  {
    "name": "파천초등학교 운동장",
    "address": "경상북도 청송군 파천면 관리 774-1",
    "lat": "36.444929792571024",
    "lng": "129.03195079250997",
    "region": "경상북도"
  },
  {
    "name": "서당공원",
    "address": "경상북도 구미시 선산읍 이문리 138-4",
    "lat": "36.23919452041239",
    "lng": "128.2944014668738",
    "region": "경상북도"
  },
  {
    "name": "다솜공원",
    "address": "경상북도 구미시 구평동 464-2",
    "lat": "36.09123982905674",
    "lng": "128.44111889528276",
    "region": "경상북도"
  },
  {
    "name": "구미여자고등학교 운동장",
    "address": "경상북도 구미시 도량동 682",
    "lat": "36.14441981568227",
    "lng": "128.3322868648527",
    "region": "경상북도"
  },
  {
    "name": "오양공원",
    "address": "경상북도 구미시 임은동 444-5",
    "lat": "36.0886806842408",
    "lng": "128.35968805325993",
    "region": "경상북도"
  },
  {
    "name": "애린공원",
    "address": "경상북도 구미시 상모동 45",
    "lat": "36.09071643789506",
    "lng": "128.35609778484286",
    "region": "경상북도"
  },
  {
    "name": "정수초등학교 운동장",
    "address": "경상북도 구미시 상모동 114-5",
    "lat": "36.09029401558376",
    "lng": "128.35154921457328",
    "region": "경상북도"
  },
  {
    "name": "군남초등학교 운동장",
    "address": "충청북도 옥천군 옥천읍 서대리 279",
    "lat": "36.27760930506341",
    "lng": "127.58167523742969",
    "region": "충청북도"
  },
  {
    "name": "상주남부초등학교 운동장",
    "address": "경상북도 상주시 지천동 500-1",
    "lat": "36.36311313974533",
    "lng": "128.150095697683",
    "region": "경상북도"
  },
  {
    "name": "고달초등학교 운동장",
    "address": "전라남도 곡성군 고달면 목동리 730",
    "lat": "35.296317289833304",
    "lng": "127.34184417250958",
    "region": "전라남도"
  },
  {
    "name": "운남초등학교 운동장",
    "address": "전라남도 무안군 운남면 연리 391-1",
    "lat": "34.95883097295308",
    "lng": "126.33777152623877",
    "region": "전라남도"
  },
  {
    "name": "대동향교초등학교",
    "address": "전라남도 함평군 대동면 향교리 906",
    "lat": "35.06777879390215",
    "lng": "126.53232002126369",
    "region": "전라남도"
  },
  {
    "name": "성남제일초등학교 운동장",
    "address": "경기도 성남시 중원구 중앙동 2970",
    "lat": "37.43860936866818",
    "lng": "127.14942210604191",
    "region": "경기도"
  },
  {
    "name": "석전근린공원",
    "address": "경상���도 창원시 마산회원구 석전동 152-1",
    "lat": "35.22989088619275",
    "lng": "128.56948897815806",
    "region": "경상���도"
  },
  {
    "name": "녹산중학교 운동장",
    "address": "부산광역시 강서구 녹산동 124-2",
    "lat": "35.11811890534002",
    "lng": "128.88873850717235",
    "region": "부산광역시"
  },
  {
    "name": "팽성레포츠공원",
    "address": "경기도 평택시 팽성읍 객사리 29-1",
    "lat": "36.96848161240251",
    "lng": "127.0646900370795",
    "region": "경기도"
  },
  {
    "name": "부론초등학교",
    "address": "강원특별자치도 원주시 부론면 법천리 1535",
    "lat": "37.20811791090781",
    "lng": "127.74867874668405",
    "region": "강원특별자치도"
  },
  {
    "name": "연동초 운동장",
    "address": "전라남도 목포시 산정동 1080-4",
    "lat": "34.796323875136615",
    "lng": "126.39442106682213",
    "region": "전라남도"
  },
  {
    "name": "삼학초등학교 운동장",
    "address": "전라남도 목포시 산정동 1367",
    "lat": "34.79093405706313",
    "lng": "126.40084781224948",
    "region": "전라남도"
  },
  {
    "name": "목포시청 주차장",
    "address": "전라남도 목포시 용당동 1188-2",
    "lat": "34.81146",
    "lng": "126.391840",
    "region": "전라남도"
  },
  {
    "name": "유경주차장",
    "address": "전라남도 목포시 보광동2가 2",
    "lat": "34.78765866171892",
    "lng": "126.38809110020692",
    "region": "전라남도"
  },
  {
    "name": "안산화정초등학교 운동장",
    "address": "경기도 안산시 단원구 선부동 1100",
    "lat": "37.34556850359902",
    "lng": "126.81740094320823",
    "region": "경기도"
  },
  {
    "name": "하당중학교 운동장",
    "address": "전라남도 목포시 옥암동 963",
    "lat": "34.81022495935776",
    "lng": "126.42875603723611",
    "region": "전라남도"
  },
  {
    "name": "칠곡군청 공용주차장",
    "address": "경상북도 칠곡군 왜관읍 왜관리 216-102",
    "lat": "35.99462520953529",
    "lng": "128.4008659164896",
    "region": "경상북도"
  },
  {
    "name": "왜관달오체육시설 공터",
    "address": "경상북도 칠곡군 왜관읍 왜관리 1282",
    "lat": "35.973058536384464",
    "lng": "128.39488076166182",
    "region": "경상북도"
  },
  {
    "name": "북삼고등학교 운동장",
    "address": "경상북도 칠곡군 북삼읍 인평리 694-1",
    "lat": "36.071512201655864",
    "lng": "128.33431623954343",
    "region": "경상북도"
  },
  {
    "name": "안산문화광장",
    "address": "경기도 안산시 단원구 고잔동 800",
    "lat": "37.31196595",
    "lng": "126.83003869999997",
    "region": "경기도"
  },
  {
    "name": "안강제일초등학교 운동장",
    "address": "경상북도 경주시 안강읍 양월리 1146-4",
    "lat": "35.993817197550385",
    "lng": "129.22085852255063",
    "region": "경상북도"
  },
  {
    "name": "반곡고등학교 운동장",
    "address": "세종특별자치시 세종시 반곡동 1033",
    "lat": "36.49646283119938",
    "lng": "127.31730580329895",
    "region": "세종특별자치시"
  },
  {
    "name": "다솜근린공원",
    "address": "경기도 평택시 비전동 1005-1",
    "lat": "37.00250126329146",
    "lng": "127.09338426589964",
    "region": "경기도"
  },
  {
    "name": "죽백근린공원",
    "address": "경기도 평택시 용이동 647-1",
    "lat": "36.9982941864362",
    "lng": "127.12087154388425",
    "region": "경기도"
  },
  {
    "name": "적상면 생활체육공원",
    "address": "전북특별자치도 무주군 적상면 사천리 294-4",
    "lat": "35.94228808800025",
    "lng": "127.65754938125609",
    "region": "전북특별자치도"
  },
  {
    "name": "세경고등학교 운동장",
    "address": "경기도 파주시 파주읍 연풍리 445",
    "lat": "37.832196602408864",
    "lng": "126.82981606354438",
    "region": "경기도"
  },
  {
    "name": "삼계 삼풍대공원",
    "address": "경상남도 창원시 마산회원구 내서읍 삼계리 12",
    "lat": "35.2335708549896",
    "lng": "128.50124707823056",
    "region": "경상남도"
  },
  {
    "name": "서호중학교 운동장",
    "address": "전라남도 영암군 서호면 장천리 483",
    "lat": "34.75595355025922",
    "lng": "126.58438594948137",
    "region": "전라남도"
  },
  {
    "name": "신동초등학교 운동장",
    "address": "경상북도 칠곡군 지천면 신리 396",
    "lat": "35.95679952572054",
    "lng": "128.4901314145393",
    "region": "경상북도"
  },
  {
    "name": "약목고등학교 운동장",
    "address": "경상북도 칠곡군 약목면 무림리 1111",
    "lat": "36.02744305104156",
    "lng": "128.37143811187866",
    "region": "경상북도"
  },
  {
    "name": "문장초등학교 운동장",
    "address": "경상북도 구미시 도량동 801",
    "lat": "36.148007325935744",
    "lng": "128.33268821239477",
    "region": "경상북도"
  },
  {
    "name": "지산초등학교 운동장",
    "address": "경상북도 구미시 지산동 177-1",
    "lat": "36.14059731104208",
    "lng": "128.34450372647123",
    "region": "경상북도"
  },
  {
    "name": "안덕중학교 운동장",
    "address": "경상북도 청송군 안덕면 명당리 360-1",
    "lat": "36.28992570555472",
    "lng": "128.95707855507487",
    "region": "경상북도"
  },
  {
    "name": "형남초등학교 운동장",
    "address": "경상북도 구미시 형곡동 807-4",
    "lat": "36.101110804452496",
    "lng": "128.33497142256005",
    "region": "경상북도"
  },
  {
    "name": "선주초등학교 운동장",
    "address": "경상북도 구미시 봉곡동 287",
    "lat": "36.15081224977647",
    "lng": "128.3113788590762",
    "region": "경상북도"
  },
  {
    "name": "경구고등학교 운동장",
    "address": "경상북도 구미시 봉곡동 279",
    "lat": "36.14856160755084",
    "lng": "128.3070904781253",
    "region": "경상북도"
  },
  {
    "name": "강서고등학교 운동장",
    "address": "부산광역시 강서구 대저1동 421-3",
    "lat": "35.21564722075979",
    "lng": "128.98228168488114",
    "region": "부산광역시"
  },
  {
    "name": "평촌중앙공원",
    "address": "경기도 안양시 동안구 평촌동 895",
    "lat": "37.39006795846999",
    "lng": "126.96005942048451",
    "region": "경기도"
  },
  {
    "name": "나성중학교 운동장",
    "address": "세종특별자치시 세종시 나성동 847",
    "lat": "36.49074434954869",
    "lng": "127.26340413093564",
    "region": "세종특별자치시"
  },
  {
    "name": "노와이주단지체육공원",
    "address": "경기도 평택시 팽성읍 노와리 456",
    "lat": "36.94723792157054",
    "lng": "127.09006545221507",
    "region": "경기도"
  },
  {
    "name": "용이근린공원",
    "address": "경기도 평택시 용이동 441-1",
    "lat": "36.99709311947404",
    "lng": "127.13584674289564",
    "region": "경기도"
  },
  {
    "name": "버드내1공원",
    "address": "전라남도 순천시 해룡면 상삼리 690",
    "lat": "34.946473950142284",
    "lng": "127.5278384809903",
    "region": "전라남도"
  },
  {
    "name": "장모루근린공원",
    "address": "인천광역시 서구 검암동 594-2",
    "lat": "37.567733628056146",
    "lng": "126.67549892644942",
    "region": "인천광역시"
  },
  {
    "name": "불로지구4호어린이공원",
    "address": "인천광역시 서구 불로동 793-2",
    "lat": "37.61050270171249",
    "lng": "126.68577324569313",
    "region": "인천광역시"
  },
  {
    "name": "예천동부초등학교운동장",
    "address": "경상북도 예천군 예천읍 백전리 88",
    "lat": "36.66131922689389",
    "lng": "128.45920146899238",
    "region": "경상북도"
  },
  {
    "name": "화산면복지회관 앞마당",
    "address": "경상북도 영천시 화산면 유성리 1377-1",
    "lat": "36.01936189242504",
    "lng": "128.85201730210358",
    "region": "경상북도"
  },
  {
    "name": "오리장림 다목적광장",
    "address": "경상북도 영천시 화북면 자천리 1266",
    "lat": "36.102600610139156",
    "lng": "128.9141350780852",
    "region": "경상북도"
  },
  {
    "name": "임고강변공원",
    "address": "경상북도 영천시 임고면 덕연리 163",
    "lat": "36.04606502799691",
    "lng": "128.9915058016789",
    "region": "경상북도"
  },
  {
    "name": "단포초등학교 운동장",
    "address": "경상북도 영천시 고경면 단포리 160",
    "lat": "35.98101234601885",
    "lng": "128.97504776716346",
    "region": "경상북도"
  },
  {
    "name": "영천고등학교 운동장",
    "address": "경상북도 영천시 야사동 178-1",
    "lat": "35.97285797432637",
    "lng": "128.94480005656797",
    "region": "경상북도"
  },
  {
    "name": "영천역광장",
    "address": "경상북도 영천시 완산동 891-2",
    "lat": "35.95965395369785",
    "lng": "128.9394683666404",
    "region": "경상북도"
  },
  {
    "name": "남부동복지회관 주차장",
    "address": "경상북도 영천시 도동 178-10",
    "lat": "35.94144986927366",
    "lng": "128.93520891666506",
    "region": "경상북도"
  },
  {
    "name": "제일중학교 운동장",
    "address": "전라남도 목포시 용해동 170-5",
    "lat": "34.796175008510815",
    "lng": "126.40764693958474",
    "region": "전라남도"
  },
  {
    "name": "임성초등학교 운동장",
    "address": "전라남도 목포시 석현동 96-1",
    "lat": "34.82480766231686",
    "lng": "126.43610274309015",
    "region": "전라남도"
  },
  {
    "name": "청호초등학교 운동장",
    "address": "전라남도 목포시 옥암동 966",
    "lat": "34.80973185434273",
    "lng": "126.42771413657039",
    "region": "전라남도"
  },
  {
    "name": "부영초등학교 운동장",
    "address": "전라남도 목포시 옥암동 1024",
    "lat": "34.8033152535232",
    "lng": "126.43350382643641",
    "region": "전라남도"
  },
  {
    "name": "도마동제3공영주차장",
    "address": "대전광역시 서구 도마동 134-26",
    "lat": "36.3154217609567",
    "lng": "127.3823891174634",
    "region": "대전광역시"
  },
  {
    "name": "은실어린이공원",
    "address": "경기도 평택시 세교동 594",
    "lat": "37.0076976671971",
    "lng": "127.08792865276337",
    "region": "경기도"
  },
  {
    "name": "고덕수변공원",
    "address": "경기도 평택시 고덕동 1968-2",
    "lat": "37.046408899699564",
    "lng": "127.04765796661376",
    "region": "경기도"
  },
  {
    "name": "부남면 생활체육공원",
    "address": "전북특별자치도 무주군 부남면 대유리 1238-20",
    "lat": "35.97980121166205",
    "lng": "127.55644619464874",
    "region": "전북특별자치도"
  },
  {
    "name": "문막중고등학교",
    "address": "강원특별자치도 원주시 문막읍 문막리 237",
    "lat": "37.3051810744318",
    "lng": "127.81529500792637",
    "region": "강원특별자치도"
  },
  {
    "name": "가산초등학교 운동장",
    "address": "경상북도 칠곡군 가산면 천평리 287-2",
    "lat": "36.07966828294259",
    "lng": "128.53964210605167",
    "region": "경상북도"
  },
  {
    "name": "남계초등학교 운동장",
    "address": "경상북도 구미시 고아읍 봉한리 438-2",
    "lat": "36.18123560227616",
    "lng": "128.34916502237323",
    "region": "경상북도"
  },
  {
    "name": "서후초등학교 운동장",
    "address": "경상북도 안동시 서후면 성곡리 123-3",
    "lat": "36.61735014963972",
    "lng": "128.66320149496997",
    "region": "경상북도"
  },
  {
    "name": "임하초등학교 운동장",
    "address": "경상북도 안동시 임하면 신덕리 467",
    "lat": "36.52612188714916",
    "lng": "128.82801917560974",
    "region": "경상북도"
  },
  {
    "name": "구미전자공업고등학교 운동장",
    "address": "경상북도 구미시 임수동 278",
    "lat": "36.11586612053106",
    "lng": "128.40536526318039",
    "region": "경상북도"
  },
  {
    "name": "늘푸른 공���",
    "address": "경상북도 구미시 사곡동 692",
    "lat": "36.093563115958766",
    "lng": "128.35433496217803",
    "region": "경상북도"
  },
  {
    "name": "외골공원",
    "address": "경상북도 구미시 고아읍 문성리 1212",
    "lat": "36.16413094206753",
    "lng": "128.34572247584933",
    "region": "경상북도"
  },
  {
    "name": "퇴경공원",
    "address": "경상북도 구미시 고아읍 원호리 436",
    "lat": "36.15090927239786",
    "lng": "128.32946242241064",
    "region": "경상북도"
  },
  {
    "name": "도봉초등학교 운동장",
    "address": "경상북도 구미시 도량동 221",
    "lat": "36.14174206044324",
    "lng": "128.31716927871423",
    "region": "경상북도"
  },
  {
    "name": "성산초등학교",
    "address": "전라남도 장성군 장성읍 성산리 450",
    "lat": "35.3260432294391",
    "lng": "126.8059700140781",
    "region": "전라남도"
  },
  {
    "name": "양남초등학교 운동장",
    "address": "경상북도 경주시 양남면 하서리 566",
    "lat": "35.67501654701589",
    "lng": "129.46101414938266",
    "region": "경상북도"
  },
  {
    "name": "무산중학교 운동장",
    "address": "경상북도 경주시 건천읍 천포리 636",
    "lat": "35.844747560778245",
    "lng": "129.09698609347032",
    "region": "경상북도"
  },
  {
    "name": "위량초등학교",
    "address": "경상북도 김천시 감문면 금라리 725-1",
    "lat": "36.20179836666876",
    "lng": "128.1607251827223",
    "region": "경상북도"
  },
  {
    "name": "벌교초등학교 운동장",
    "address": "전라남도 보성군 벌교읍 벌교리 637",
    "lat": "34.843782808887795",
    "lng": "127.34243300227796",
    "region": "전라남도"
  },
  {
    "name": "능동고등학교 운동장",
    "address": "경기도 화성시 능동 1086",
    "lat": "37.21354683672348",
    "lng": "127.05789482954567",
    "region": "경기도"
  },
  {
    "name": "집현초등학교 운동장",
    "address": "세종특별자치시 세종시 집현동 883-106",
    "lat": "36.48875830748381",
    "lng": "127.32006579637526",
    "region": "세종특별자치시"
  },
  {
    "name": "서원주초등학교",
    "address": "강원특별자치도 원주시 명륜동 844",
    "lat": "37.32686306115332",
    "lng": "127.93997950484716",
    "region": "강원특별자치도"
  },
  {
    "name": "단구중학교",
    "address": "강원특별자치도 원주시 단구동 1675",
    "lat": "37.32053473536367",
    "lng": "127.95639155739413",
    "region": "강원특별자치도"
  },
  {
    "name": "우산초등학교",
    "address": "강원특별자치도 원주시 우산동 262-2",
    "lat": "37.36941302717836",
    "lng": "127.93314664360135",
    "region": "강원특별자치도"
  },
  {
    "name": "비금중학교",
    "address": "전라남도 신안군 비금면 덕산리 714",
    "lat": "34.75992696854769",
    "lng": "125.92421662237263",
    "region": "전라남도"
  },
  {
    "name": "은풍초등학교운동장",
    "address": "경상북도 예천군 은풍면 우곡리 214",
    "lat": "36.74741874340663",
    "lng": "128.44225828268142",
    "region": "경상북도"
  },
  {
    "name": "청통면사무소 주차장",
    "address": "경상북도 영천시 청통면 치일리 14-1",
    "lat": "35.99210005278875",
    "lng": "128.82303526530774",
    "region": "경상북도"
  },
  {
    "name": "숭산초등학교 운동장",
    "address": "경상북도 칠곡군 북삼읍 보손리 264-1",
    "lat": "36.05366205721791",
    "lng": "128.31456661610562",
    "region": "경상북도"
  },
  {
    "name": "관호초등학교 운동장",
    "address": "경상북도 칠곡군 약목면 무림리 730",
    "lat": "36.020427937746035",
    "lng": "128.3808906897313",
    "region": "경상북도"
  },
  {
    "name": "덕산체육공원 공터",
    "address": "경상북도 칠곡군 약목면 덕산리 349",
    "lat": "36.03380960941203",
    "lng": "128.40099086362764",
    "region": "경상북도"
  },
  {
    "name": "도산초등학교 운동장",
    "address": "경상북도 구미시 도량동 668",
    "lat": "36.14247242038058",
    "lng": "128.33290702875877",
    "region": "경상북도"
  },
  {
    "name": "신기초등학교 운동장",
    "address": "경상북도 구미시 신평동 69",
    "lat": "36.12622022646505",
    "lng": "128.36545312565002",
    "region": "경상북도"
  },
  {
    "name": "함박공원",
    "address": "경상북도 구미시 옥계동 798-1",
    "lat": "36.13763351987346",
    "lng": "128.42659109994835",
    "region": "경상북도"
  },
  {
    "name": "가람공원",
    "address": "경상북도 구미시 옥계동 756-1",
    "lat": "36.13538416429261",
    "lng": "128.42332235891442",
    "region": "경상북도"
  },
  {
    "name": "한울공원",
    "address": "경상북도 구미시 옥계동 571",
    "lat": "36.14612515985836",
    "lng": "128.41624706983512",
    "region": "경상북도"
  },
  {
    "name": "한누리공원",
    "address": "경상북도 구미시 인의동 838-1",
    "lat": "36.10463279675025",
    "lng": "128.42196018032965",
    "region": "경상북도"
  },
  {
    "name": "중탑초등학교 운동장",
    "address": "경기도 성남시 분당구 야탑동 212",
    "lat": "37.413642748542465",
    "lng": "127.139292739428",
    "region": "경기도"
  },
  {
    "name": "보현산 녹색체험터",
    "address": "경상북도 영천시 화북면 자천리 1409",
    "lat": "36.10492558133882",
    "lng": "128.91599761039387",
    "region": "경상북도"
  },
  {
    "name": "한백고등학교 운동장",
    "address": "경기도 화성시 영천동 696",
    "lat": "37.20745006817885",
    "lng": "127.11376923198925",
    "region": "경기도"
  },
  {
    "name": "오상고등학교 운동장",
    "address": "경상북도 구미시 장천면 상장리 700",
    "lat": "36.12386556888312",
    "lng": "128.49672620498637",
    "region": "경상북도"
  },
  {
    "name": "소롯골공원",
    "address": "경상북도 구미시 도량동 80",
    "lat": "36.14605959528292",
    "lng": "128.32489077344013",
    "region": "경상북도"
  },
  {
    "name": "봉곡도서관공원",
    "address": "경상북도 구미시 봉곡동 197",
    "lat": "36.153121271509356",
    "lng": "128.30771385396562",
    "region": "경상북도"
  },
  {
    "name": "봉곡테마공원",
    "address": "경상북도 구미시 봉곡동 292",
    "lat": "36.150614131035894",
    "lng": "128.31407305849643",
    "region": "경상북도"
  },
  {
    "name": "구미오산초등학교 운동장",
    "address": "경상북도 구미시 오태동 618-1",
    "lat": "36.07242097380467",
    "lng": "128.35240244865426",
    "region": "경상북도"
  },
  {
    "name": "구미고등학교 운동장",
    "address": "경상북도 구미시 도량동 600",
    "lat": "36.13673314767944",
    "lng": "128.33324342966083",
    "region": "경상북도"
  },
  {
    "name": "남후초등학교 운동장",
    "address": "경상북도 안동시 남후면 무릉리 347",
    "lat": "36.52147921585888",
    "lng": "128.69174545030694",
    "region": "경상북도"
  },
  {
    "name": "도개고등학교 운동장",
    "address": "경상북도 구미시 도개면 궁기리 754",
    "lat": "36.30144026601602",
    "lng": "128.33139392199956",
    "region": "경상북도"
  },
  {
    "name": "화랑초등학교 운동장",
    "address": "경상북도 경주시 구황동 862",
    "lat": "35.84199929487999",
    "lng": "129.229929291919",
    "region": "경상북도"
  },
  {
    "name": "모화초등학교 운동장",
    "address": "경상북도 경주시 외동읍 모화리 237-4",
    "lat": "35.67713962412809",
    "lng": "129.33297718169305",
    "region": "경상북도"
  },
  {
    "name": "능동중학교 운동장",
    "address": "경기도 화성시 능동 1082",
    "lat": "37.211897508633534",
    "lng": "127.0610985356895",
    "region": "경기도"
  },
  {
    "name": "일산공원",
    "address": "강원특별자치도 원주시 일산동 367",
    "lat": "37.34768639449265",
    "lng": "127.93993502855304",
    "region": "강원특별자치도"
  },
  {
    "name": "군서초등학교 운동장",
    "address": "충청북도 옥천군 군서면 동평리 551",
    "lat": "36.278304191258556",
    "lng": "127.52729412027708",
    "region": "충청북도"
  },
  {
    "name": "금당공원",
    "address": "전라남도 순천시 연향동 1441",
    "lat": "34.95017564477165",
    "lng": "127.52415688283878",
    "region": "전라남도"
  },
  {
    "name": "검단2지구2호근린공원",
    "address": "인천광역시 서구 마전동 994",
    "lat": "37.603427352784436",
    "lng": "126.66405852964948",
    "region": "인천광역시"
  },
  {
    "name": "종다리공원",
    "address": "인천광역시 서구 왕길동 641-13",
    "lat": "37.601436091014314",
    "lng": "126.65430990018473",
    "region": "인천광역시"
  },
  {
    "name": "감천초등학교운동장",
    "address": "경상북도 예천군 감천면 포리 380",
    "lat": "36.7222366894146",
    "lng": "128.52618030633758",
    "region": "경상북도"
  },
  {
    "name": "청통중학교 운동장",
    "address": "경상북도 영천시 청통면 원촌리 220",
    "lat": "35.99092626197533",
    "lng": "128.82550894124532",
    "region": "경상북도"
  },
  {
    "name": "자천초등학교 운동장",
    "address": "경상북도 영천시 화북면 자천리 895",
    "lat": "36.109269916508296",
    "lng": "128.92087422121097",
    "region": "경상북도"
  },
  {
    "name": "북안면 희망마을 주차장",
    "address": "경상북도 영천시 북안면 상리 610",
    "lat": "35.851883562438125",
    "lng": "128.99144952795652",
    "region": "경상북도"
  },
  {
    "name": "예당중학교 운동장",
    "address": "경기도 화성시 석우동 61-1",
    "lat": "37.2075568805449",
    "lng": "127.0793645369512",
    "region": "경기도"
  },
  {
    "name": "문막초등학교",
    "address": "강원특별자치도 원주시 문막읍 건등리 1704",
    "lat": "37.312343550645565",
    "lng": "127.82099724883717",
    "region": "강원특별자치도"
  },
  {
    "name": "단구공원(열린광장)",
    "address": "강원특별자치도 원주시 단구동 1707",
    "lat": "37.327170919768385",
    "lng": "127.95427641039103",
    "region": "강원특별자치도"
  },
  {
    "name": "대성중고등학교",
    "address": "강원특별자치도 원주시 무실동 산123-1",
    "lat": "37.32811369644082",
    "lng": "127.92106953711638",
    "region": "강원특별자치도"
  },
  {
    "name": "삼육중고등학교",
    "address": "강원특별자치도 원주시 무실동 664",
    "lat": "37.32555610317978",
    "lng": "127.92322587368628",
    "region": "강원특별자치도"
  },
  {
    "name": "솔샘초등학교",
    "address": "강원특별자치도 원주시 무실동 1863-1",
    "lat": "37.33006695334634",
    "lng": "127.92901154304973",
    "region": "강원특별자치도"
  },
  {
    "name": "금호강변공원",
    "address": "경상북도 영천시 야사동 241-1",
    "lat": "35.97151160502451",
    "lng": "128.9444276690493",
    "region": "경상북도"
  },
  {
    "name": "구림공업고등학교 운동장",
    "address": "전라남도 영암군 군서면 동구림리 414-1",
    "lat": "34.75960910534644",
    "lng": "126.62698229932",
    "region": "전라남도"
  },
  {
    "name": "대연초등학교 운동장",
    "address": "전라남도 목포시 용해동 631",
    "lat": "34.82046340699283",
    "lng": "126.3993971421537",
    "region": "전라남도"
  },
  {
    "name": "목여상 운동장",
    "address": "전라남도 목포시 상동 525",
    "lat": "34.80748146404034",
    "lng": "126.4099257103057",
    "region": "전라남도"
  },
  {
    "name": "풍천풍서초등학교 운동장",
    "address": "경상북도 안동시 풍천면 갈전리 1459",
    "lat": "36.574061405530585",
    "lng": "128.49894582690672",
    "region": "경상북도"
  },
  {
    "name": "경주여자중학교 운동장",
    "address": "경상북도 경주시 서악동 255",
    "lat": "35.838654337218045",
    "lng": "129.19487196525048",
    "region": "경상북도"
  },
  {
    "name": "석현초등학교 운동장",
    "address": "전라남도 목포시 석현동 1172",
    "lat": "34.81479152994929",
    "lng": "126.42458835136226",
    "region": "전라남도"
  },
  {
    "name": "왜관동부초등학교 운동장",
    "address": "경상북도 칠곡군 왜관읍 왜관리 694",
    "lat": "35.985264900260844",
    "lng": "128.40728222003418",
    "region": "경상북도"
  },
  {
    "name": "낙산초등학교 운동장",
    "address": "경상북도 칠곡군 왜관읍 낙산리 663",
    "lat": "35.94466597091482",
    "lng": "128.40296484509435",
    "region": "경상북도"
  },
  {
    "name": "석전중학교 운동장",
    "address": "경상북도 칠곡군 왜관읍 석전리 505-1",
    "lat": "36.002541740563906",
    "lng": "128.4095970830257",
    "region": "경상북도"
  },
  {
    "name": "송호초등학교 운동장",
    "address": "경기도 안산시 단원구 고잔동 767-1",
    "lat": "37.31139916777745",
    "lng": "126.83544005791018",
    "region": "경기도"
  },
  {
    "name": "고잔고등학교 운동장",
    "address": "경기도 안산시 단원구 고잔동 776-1",
    "lat": "37.30856388778765",
    "lng": "126.83523112785362",
    "region": "경기도"
  },
  {
    "name": "동천초등학교 운동장",
    "address": "경상북도 경주시 동천동 586-10",
    "lat": "35.84822244526622",
    "lng": "129.22771129700135",
    "region": "경상북도"
  },
  {
    "name": "경희학교 운동장",
    "address": "경상북도 경주시 동천동 733-6",
    "lat": "35.847198076871614",
    "lng": "129.23112747286106",
    "region": "경상북도"
  },
  {
    "name": "(구)황남초등학교 운동장",
    "address": "경상북도 경주시 황남동 173",
    "lat": "35.83369308997386",
    "lng": "129.21218186617142",
    "region": "경상북도"
  },
  {
    "name": "화랑중학교 운동장",
    "address": "경상북도 경주시 현곡면 오류리 191",
    "lat": "35.874554978690696",
    "lng": "129.20412924894535",
    "region": "경상북도"
  },
  {
    "name": "물량장(덕적)",
    "address": "인천광역시 옹진군 덕적면 북리 155-4",
    "lat": "37.252567",
    "lng": "126.118795",
    "region": "인천광역시"
  },
  {
    "name": "정림동제2공영주차장",
    "address": "대전광역시 서구 정림동 127-1",
    "lat": "36.30550928692081",
    "lng": "127.36837842687157",
    "region": "대전광역시"
  },
  {
    "name": "혜화초등학교 운동장",
    "address": "부산광역시 동래구 명장동 산12",
    "lat": "35.202218892174535",
    "lng": "129.11265589410874",
    "region": "부산광역시"
  },
  {
    "name": "서신중학교 운동장",
    "address": "경기도 화성시 서신면 상안리 872",
    "lat": "37.16903609151116",
    "lng": "126.7008366633274",
    "region": "경기도"
  },
  {
    "name": "원주젊음의광장",
    "address": "강원특별자치도 원주시 명륜동 345",
    "lat": "37.33603099655754",
    "lng": "127.94705169307767",
    "region": "강원특별자치도"
  },
  {
    "name": "일산초등학교",
    "address": "강원특별자치도 원주시 일산동 278",
    "lat": "37.34675790749354",
    "lng": "127.94225006899923",
    "region": "강원특별자치도"
  },
  {
    "name": "세현초등학교 운동장",
    "address": "대구광역시 달성군 구지면 창리 1446",
    "lat": "35.659546197294766",
    "lng": "128.4199781464263",
    "region": "대구광역시"
  },
  {
    "name": "춘산초등학교운동장",
    "address": "경상북도 의성군 춘산면 옥정리 301-2",
    "lat": "36.23793702491812",
    "lng": "128.81205095824586",
    "region": "경상북도"
  },
  {
    "name": "성주고등학교 운동장",
    "address": "경상북도 성주군 성주읍 금산리 1158",
    "lat": "35.93830934182618",
    "lng": "128.2732194281651",
    "region": "경상북도"
  },
  {
    "name": "문화광장",
    "address": "전라남도 화순군 화순읍 만연리 219",
    "lat": "35.05960942401921",
    "lng": "126.99076028485973",
    "region": "전라남도"
  },
  {
    "name": "장대공원B",
    "address": "전라남도 순천시 조곡동 730-1",
    "lat": "34.95120424647645",
    "lng": "127.49350957606518",
    "region": "전라남도"
  },
  {
    "name": "능내근린공원",
    "address": "인천광역시 서구 마전동 657-11",
    "lat": "37.60114384991091",
    "lng": "126.6669241498022",
    "region": "인천광역시"
  },
  {
    "name": "예천남부초등학교운동장",
    "address": "경상북도 예천군 예천읍 남본리 11",
    "lat": "36.65076804405542",
    "lng": "128.46198346849408",
    "region": "경상북도"
  },
  {
    "name": "토지초등학교 운동장",
    "address": "전라남도 구례군 토지면 구산리 137-1",
    "lat": "35.196965231601055",
    "lng": "127.52785518976395",
    "region": "전라남도"
  },
  {
    "name": "작전초등학교 운동장",
    "address": "인천광역시 계양구 작전동 42-5",
    "lat": "37.53464437081422",
    "lng": "126.72873670082375",
    "region": "인천광역시"
  },
  {
    "name": "거북선공원",
    "address": "전라남도 여수시 학동 162",
    "lat": "34.76128607546987",
    "lng": "127.66646214777928",
    "region": "전라남도"
  },
  {
    "name": "성산초등학교",
    "address": "경기도 오산시 오산동 524-1",
    "lat": "37.14974573822184",
    "lng": "127.06651447684976",
    "region": "경기도"
  },
  {
    "name": "의성중학교운동장",
    "address": "경상북도 의성군 의성읍 도동리 643",
    "lat": "36.341375293241434",
    "lng": "128.70105483409833",
    "region": "경상북도"
  },
  {
    "name": "영흥초등학교 운동장",
    "address": "경상북도 포항시 북구 죽도동 26-2",
    "lat": "36.031068484276766",
    "lng": "129.36817904697756",
    "region": "경상북도"
  },
  {
    "name": "옥전초등학교운동장",
    "address": "경상북도 의성군 옥산면 정자리 102",
    "lat": "36.39385529570531",
    "lng": "128.80737420487537",
    "region": "경상북도"
  },
  {
    "name": "남주중학교 운동장",
    "address": "제주특별자치도 서귀포시 동홍동 1907",
    "lat": "33.275605608482095",
    "lng": "126.56451113694673",
    "region": "제주특별자치도"
  },
  {
    "name": "삼성여고 운동장",
    "address": "제주특별자치도 서귀포시 토평동 893",
    "lat": "33.2545487680816",
    "lng": "126.58407992763685",
    "region": "제주특별자치도"
  },
  {
    "name": "서귀중앙초등학교 운동장",
    "address": "제주특별자치도 서귀포시 서귀동 283-3",
    "lat": "33.25282370731282",
    "lng": "126.5637568277886",
    "region": "제주특별자치도"
  },
  {
    "name": "온평초등학교 운동장",
    "address": "제주특별자치도 서귀포시 성산읍 온평리 1577",
    "lat": "33.408162979623725",
    "lng": "126.89671096400507",
    "region": "제주특별자치도"
  },
  {
    "name": "안산광덕초등학교 운동장",
    "address": "경기도 안산시 상록구 월피동 523",
    "lat": "37.332896567722386",
    "lng": "126.84389082231932",
    "region": "경기도"
  },
  {
    "name": "경주공업고등학교 운동장",
    "address": "경상북도 경주시 사정동 70",
    "lat": "35.83595632503183",
    "lng": "129.20586877492468",
    "region": "경상북도"
  },
  {
    "name": "아화초등학교 운동장",
    "address": "경상북도 경주시 서면 아화리 282",
    "lat": "35.89237304079309",
    "lng": "129.05316834102624",
    "region": "경상북도"
  },
  {
    "name": "양남중학교 운동장",
    "address": "경상북도 경주시 양남면 하서리 651",
    "lat": "35.674119923660356",
    "lng": "129.46050315805067",
    "region": "경상북도"
  },
  {
    "name": "나산초등학교 운동장",
    "address": "경상북도 경주시 양남면 읍천리 17",
    "lat": "35.69825739821618",
    "lng": "129.47010442615067",
    "region": "경상북도"
  },
  {
    "name": "경주화랑고등학교 운동장",
    "address": "경상북도 경주시 문무대왕면 장항리 1211",
    "lat": "35.79438979144427",
    "lng": "129.3882501125377",
    "region": "경상북도"
  },
  {
    "name": "석계초등학교 운동장",
    "address": "경상북도 경주시 외동읍 석계리 91",
    "lat": "35.67855444180922",
    "lng": "129.3094560443883",
    "region": "경상북도"
  },
  {
    "name": "연안초등학교 운동장",
    "address": "경상북도 경주시 외동읍 연안리 777-42",
    "lat": "35.7276960037252",
    "lng": "129.31891202794463",
    "region": "경상북도"
  },
  {
    "name": "모량초등학교 운동장",
    "address": "경상북도 경주시 건천읍 모량리 612-14",
    "lat": "35.823801687075054",
    "lng": "129.1306541689659",
    "region": "경상북도"
  },
  {
    "name": "건천초등학교 운동장",
    "address": "경상북도 경주시 건천읍 건천리 229",
    "lat": "35.8504177320851",
    "lng": "129.10315275192357",
    "region": "경상북도"
  },
  {
    "name": "안강중학교 운동장",
    "address": "경상북도 경주시 안강읍 안강리 233-7",
    "lat": "35.992195081881746",
    "lng": "129.2300860152154",
    "region": "경상북도"
  },
  {
    "name": "안강초등학교 운동장",
    "address": "경상북도 경주시 안강읍 안강리 398-1",
    "lat": "35.99046614753437",
    "lng": "129.22910456326983",
    "region": "경상북도"
  },
  {
    "name": "안강여자중학교 운동장",
    "address": "경상북도 경주시 안강읍 산대리 1859",
    "lat": "35.99297531507743",
    "lng": "129.21148511843754",
    "region": "경상북도"
  },
  {
    "name": "사방초등학교 운동장",
    "address": "경상북도 경주시 안강읍 사방리 646",
    "lat": "35.938528415189786",
    "lng": "129.2259765335477",
    "region": "경상북도"
  },
  {
    "name": "감포중고등학교운동장",
    "address": "경상북도 경주시 감포읍 오류리 478-2",
    "lat": "35.810886231193585",
    "lng": "129.50674296762458",
    "region": "경상북도"
  },
  {
    "name": "가정초등학교 운동장",
    "address": "인천광역시 서구 가좌동 395-4",
    "lat": "37.4913643181775",
    "lng": "126.6884970334358",
    "region": "인천광역시"
  },
  {
    "name": "백석초등학교 운동장",
    "address": "인천광역시 서구 당하동 1084-1",
    "lat": "37.5892960689377",
    "lng": "126.67184717650005",
    "region": "인천광역시"
  },
  {
    "name": "감포초등학교 운동장",
    "address": "경상북도 경주시 감포읍 감포리 12",
    "lat": "35.80993766500488",
    "lng": "129.50196258401994",
    "region": "경상북도"
  },
  {
    "name": "양동초등학교 운동장",
    "address": "경상북도 경주시 강동면 양동리 65-1",
    "lat": "35.99773300169596",
    "lng": "129.2530373567142",
    "region": "경상북도"
  },
  {
    "name": "내남면체육공원",
    "address": "경상북도 경주시 내남면 덕천리 957-2",
    "lat": "35.746037692899044",
    "lng": "129.17621344328143",
    "region": "경상북도"
  },
  {
    "name": "초전공원",
    "address": "경상남도 사천시 사남면 방지리 652",
    "lat": "35.060891542767806",
    "lng": "128.06199390123032",
    "region": "경상남도"
  },
  {
    "name": "병방초등학교 운동장",
    "address": "인천광역시 계양구 병방동 432-1",
    "lat": "37.54669419257803",
    "lng": "126.74105273601305",
    "region": "인천광역시"
  },
  {
    "name": "장대공원A",
    "address": "전라남도 순천시 조곡동 208-1",
    "lat": "34.94983506630171",
    "lng": "127.49574468628856",
    "region": "전라남도"
  },
  {
    "name": "영천전자고등학교 운동장",
    "address": "경상북도 영천시 화남면 삼창리 86",
    "lat": "36.067986744935354",
    "lng": "128.89825164496432",
    "region": "경상북도"
  },
  {
    "name": "영천시민운동장",
    "address": "경상북도 영천시 교촌동 314",
    "lat": "35.96995734253372",
    "lng": "128.92458200454803",
    "region": "경상북도"
  },
  {
    "name": "영광중앙초등학교",
    "address": "전라남도 영광군 영광읍 백학리 253",
    "lat": "35.27918594012387",
    "lng": "126.50600884816784",
    "region": "전라남도"
  },
  {
    "name": "영광중학교",
    "address": "전라남도 영광군 영광읍 녹사리 183-3",
    "lat": "35.2655561042881",
    "lng": "126.50570763140426",
    "region": "전라남도"
  },
  {
    "name": "백수초등학교",
    "address": "전라남도 영광군 백수읍 천마리 597-2",
    "lat": "35.28320338153332",
    "lng": "126.42135679721811",
    "region": "전라남도"
  },
  {
    "name": "홍농초등학교",
    "address": "전라남도 영광군 홍농읍 상하리 222",
    "lat": "35.39946661188189",
    "lng": "126.44823354694854",
    "region": "전라남도"
  },
  {
    "name": "삼호중앙초등학교 운동장",
    "address": "전라남도 영암군 삼호읍 용앙리 280",
    "lat": "34.74684309532871",
    "lng": "126.47023298606472",
    "region": "전라남도"
  },
  {
    "name": "삼호중학교 운동장",
    "address": "전라남도 영암군 삼호읍 용앙리 262",
    "lat": "34.74953469973104",
    "lng": "126.46823179189961",
    "region": "전라남도"
  },
  {
    "name": "도포초등학교 운동장",
    "address": "전라남도 영암군 도포면 덕화리 100-2",
    "lat": "34.83613475866141",
    "lng": "126.63577608230504",
    "region": "전라남도"
  },
  {
    "name": "목상고등학교 운동장",
    "address": "전라남도 목포시 용당동 937-1",
    "lat": "34.80633840386696",
    "lng": "126.39595671196669",
    "region": "전라남도"
  },
  {
    "name": "신흥초등학교 운동장",
    "address": "전라남도 목포시 상동 1017",
    "lat": "34.7994123650269",
    "lng": "126.42509305636663",
    "region": "전라남도"
  },
  {
    "name": "청송초등학교 운동장",
    "address": "경상북도 청송군 청송읍 월막리 432-1",
    "lat": "36.435457455199696",
    "lng": "129.05509461766064",
    "region": "경상북도"
  },
  {
    "name": "구천중학교 운동장",
    "address": "경상북도 청송군 부남면 하속리 90",
    "lat": "36.31352498710608",
    "lng": "129.09909846382735",
    "region": "경상북도"
  },
  {
    "name": "현서중고등학교 운동장",
    "address": "경상북도 청송군 현서면 덕계리 529",
    "lat": "36.28148944311842",
    "lng": "128.89864313818555",
    "region": "경상북도"
  },
  {
    "name": "현동중학교 운동장",
    "address": "경상북도 청송군 현동면 도평리 729",
    "lat": "36.2894533138701",
    "lng": "129.02146845354903",
    "region": "경상북도"
  },
  {
    "name": "사동초등학교",
    "address": "경상북도 경산시 사동 661",
    "lat": "35.813342265412075",
    "lng": "128.76103200492827",
    "region": "경상북도"
  },
  {
    "name": "다문초등학교",
    "address": "경상북도 경산시 진량읍 다문리 261",
    "lat": "35.87117091959258",
    "lng": "128.85097053860008",
    "region": "경상북도"
  },
  {
    "name": "계당초등학교",
    "address": "경상북도 경산시 와촌면 계당리 1468",
    "lat": "35.92805667701285",
    "lng": "128.8509904747432",
    "region": "경상북도"
  },
  {
    "name": "경산동부초등학교",
    "address": "경상북도 경산시 계양동 683",
    "lat": "35.8178948287396",
    "lng": "128.74876572180924",
    "region": "경상북도"
  },
  {
    "name": "군민생활체육공원",
    "address": "경상남도 합천군 합천읍 합천리 1364-102",
    "lat": "35.56051266349712",
    "lng": "128.15642594349467",
    "region": "경상남도"
  },
  {
    "name": "합천중학교 운동장",
    "address": "경상남도 합천군 합천읍 합천리 293",
    "lat": "35.56484030439325",
    "lng": "128.16736309391496",
    "region": "경상남도"
  },
  {
    "name": "야로중학교 운동장",
    "address": "경상남도 합천군 야로면 구정리 303",
    "lat": "35.70575220583001",
    "lng": "128.16673468948258",
    "region": "경상남도"
  },
  {
    "name": "안남초등학교 운동장",
    "address": "충청북도 옥천군 안남면 연주리 416",
    "lat": "36.355094230033664",
    "lng": "127.6723950422997",
    "region": "충청북도"
  },
  {
    "name": "쌍책초등학교 운동장",
    "address": "경상남도 합천군 쌍책면 성산리 639-1",
    "lat": "35.57497367107064",
    "lng": "128.28301319525377",
    "region": "경상남도"
  },
  {
    "name": "덕곡초등학교 운동장",
    "address": "경상남도 합천군 덕곡면 장리 761",
    "lat": "35.628862988422554",
    "lng": "128.32117655124702",
    "region": "경상남도"
  },
  {
    "name": "대병초등학교 운동장",
    "address": "경상남도 합천군 대병면 회양리 880",
    "lat": "35.51939609629772",
    "lng": "128.01073155872288",
    "region": "경상남도"
  },
  {
    "name": "강화여자고등학교운동장",
    "address": "인천광역시 강화군 강화읍 관청리 805-5",
    "lat": "37.75324009878941",
    "lng": "126.48039221763597",
    "region": "인천광역시"
  },
  {
    "name": "보문물레방아 광장",
    "address": "경상북도 경주시 신평동 417-6",
    "lat": "35.844961673121915",
    "lng": "129.28728772179883",
    "region": "경상북도"
  },
  {
    "name": "함창초등학교 운동장",
    "address": "경상북도 상주시 함창읍 구향리 56",
    "lat": "36.571130862369536",
    "lng": "128.18064451217654",
    "region": "경상북도"
  },
  {
    "name": "화령초등학교 운동장",
    "address": "경상북도 상주시 화서면 신봉리 184",
    "lat": "36.44626419891249",
    "lng": "127.95247696335302",
    "region": "경상북도"
  },
  {
    "name": "백두대간수목원 주차장",
    "address": "경상북도 봉화군 춘양면 서벽리 485",
    "lat": "37.0090145818162",
    "lng": "128.82952974186125",
    "region": "경상북도"
  },
  {
    "name": "율곡초등학교 운동장",
    "address": "광주광역시 동구 산수동 573-1",
    "lat": "35.15989377663975",
    "lng": "126.9360136985779",
    "region": "광주광역시"
  },
  {
    "name": "동탄고등학교 운동장",
    "address": "경기도 화성시 반송동 60",
    "lat": "37.20387487551544",
    "lng": "127.05977066927574",
    "region": "경기도"
  },
  {
    "name": "원주여자중학교",
    "address": "강원특별자치도 원주시 명륜동 204",
    "lat": "37.339195068856824",
    "lng": "127.94488776348317",
    "region": "강원특별자치도"
  },
  {
    "name": "원주중학교",
    "address": "강원특별자치도 원주시 단구동 460",
    "lat": "37.33684855916717",
    "lng": "127.95814915870653",
    "region": "강원특별자치도"
  },
  {
    "name": "진광중고등학교",
    "address": "강원특별자치도 원주시 우산동 307-1",
    "lat": "37.37299197999232",
    "lng": "127.93695960868133",
    "region": "강원특별자치도"
  },
  {
    "name": "나래공원",
    "address": "경상북도 구미시 옥계동 884",
    "lat": "36.13953618804982",
    "lng": "128.41950361446285",
    "region": "경상북도"
  },
  {
    "name": "신평중학교 운동장",
    "address": "경상북도 구미시 신평동 5-4",
    "lat": "36.12655664632693",
    "lng": "128.36307019995934",
    "region": "경상북도"
  },
  {
    "name": "진보고등학교 운동장",
    "address": "경상북도 청송군 진보면 진안리 562-2",
    "lat": "36.53309977887419",
    "lng": "129.04154192244494",
    "region": "경상북도"
  },
  {
    "name": "진보초등학교 운동장",
    "address": "경상북도 청송군 진보면 진안리 54-74",
    "lat": "36.52931364579026",
    "lng": "129.04871745277956",
    "region": "경상북도"
  },
  {
    "name": "솔밭공원",
    "address": "경상북도 구미시 봉곡동 237-1",
    "lat": "36.152398930400956",
    "lng": "128.30940504491457",
    "region": "경상북도"
  },
  {
    "name": "관동공원",
    "address": "경상북도 구미시 봉곡동 425-6",
    "lat": "36.14650412357716",
    "lng": "128.31178985722215",
    "region": "경상북도"
  },
  {
    "name": "구평초등학교 운동장",
    "address": "경상북도 구미시 구평동 121-2",
    "lat": "36.09142899583505",
    "lng": "128.45168138785706",
    "region": "경상북도"
  },
  {
    "name": "건천운동장 ",
    "address": "경상북도 경주시 건천읍 천포리 1122",
    "lat": "35.842401",
    "lng": "129.094388",
    "region": "경상북도"
  },
  {
    "name": "사벌초등학교 운동장",
    "address": "경상북도 상주시 사벌국면 덕담리 396",
    "lat": "36.46744342662033",
    "lng": "128.2086950540543",
    "region": "경상북도"
  },
  {
    "name": "미리내공원",
    "address": "경상북도 구미시 진평동 105-3",
    "lat": "36.093730638502244",
    "lng": "128.4278076547359",
    "region": "경상북도"
  },
  {
    "name": "시립테니스장",
    "address": "인천광역시 서구 가좌동 606-3",
    "lat": "37.47576057479904",
    "lng": "126.67661554945707",
    "region": "인천광역시"
  },
  {
    "name": "동이초등학교 운동장",
    "address": "충청북도 옥천군 동이면 평산리 72-1",
    "lat": "36.28596804571228",
    "lng": "127.61921462172671",
    "region": "충청북도"
  },
  {
    "name": "기안중학교 운동장",
    "address": "경기도 화성시 기안동 365",
    "lat": "37.2240442027302",
    "lng": "126.97557573629935",
    "region": "경기도"
  },
  {
    "name": "집현중학교 운동장",
    "address": "세종특별자치시 세종시 집현동 883-58",
    "lat": "36.49096429895802",
    "lng": "127.32252538204192",
    "region": "세종특별자치시"
  },
  {
    "name": "봉골근린공원",
    "address": "경기도 평택시 고덕동 1732",
    "lat": "37.02629985099606",
    "lng": "127.06310749053952",
    "region": "경기도"
  },
  {
    "name": "아홉거리근린공원",
    "address": "경기도 평택시 고덕동 2390-1",
    "lat": "37.06020295599407",
    "lng": "127.03171491622925",
    "region": "경기도"
  },
  {
    "name": "상록수공원",
    "address": "충청남도 당진시 송악읍 부곡리 566",
    "lat": "36.9610",
    "lng": "126.7811",
    "region": "충청남도"
  },
  {
    "name": "선주중학교 운동장",
    "address": "경상북도 구미시 봉곡동 6",
    "lat": "36.142350017056195",
    "lng": "128.31306994638229",
    "region": "경상북도"
  },
  {
    "name": "장성중학교",
    "address": "전라남도 장성군 장성읍 영천리 610-2",
    "lat": "35.30923741022312",
    "lng": "126.79218643960672",
    "region": "전라남도"
  },
  {
    "name": "옥계동부초등학교 운동장",
    "address": "경상북도 구미시 옥계동 910",
    "lat": "36.13887491611419",
    "lng": "128.427601867798",
    "region": "경상북도"
  },
  {
    "name": "오태중학교 운동장",
    "address": "경상북도 구미시 오태동 613-2",
    "lat": "36.07220417768673",
    "lng": "128.35439801216134",
    "region": "경상북도"
  },
  {
    "name": "원곡고등학교 운동장",
    "address": "경기도 안산시 단원구 원곡동 965-1",
    "lat": "37.33323663599907",
    "lng": "126.79773837948584",
    "region": "경기도"
  },
  {
    "name": "희망공원",
    "address": "경상북도 구미시 진평동 111-3",
    "lat": "36.09478342545019",
    "lng": "128.42595540628952",
    "region": "경상북도"
  },
  {
    "name": "아름공원",
    "address": "경상북도 구미시 진평동 19-4",
    "lat": "36.09694132713901",
    "lng": "128.42691435635857",
    "region": "경상북도"
  },
  {
    "name": "형일공원",
    "address": "경상북도 구미시 형곡동 133-1",
    "lat": "36.11504577134579",
    "lng": "128.33137685004587",
    "region": "경상북도"
  },
  {
    "name": "산동초등학교 운동장",
    "address": "경상북도 구미시 산동읍 인덕리 612",
    "lat": "36.16675288046361",
    "lng": "128.44635486602792",
    "region": "경상북도"
  },
  {
    "name": "초지중학교 운동장",
    "address": "경기도 안산시 단원구 초지동 723-2",
    "lat": "37.31230114038778",
    "lng": "126.81784658601062",
    "region": "경기도"
  },
  {
    "name": "화랑유원지1주차장",
    "address": "경기도 안산시 단원구 초지동 667",
    "lat": "37.326471794149114",
    "lng": "126.81423661447337",
    "region": "경기도"
  },
  {
    "name": "안동과학대학교 운동장",
    "address": "경상북도 안동시 서후면 교리 496",
    "lat": "36.589805500672085",
    "lng": "128.6538489028178",
    "region": "경상북도"
  },
  {
    "name": "신성초등학교 운동장",
    "address": "경상북도 안동시 풍천면 신성리 373",
    "lat": "36.52548837380342",
    "lng": "128.46215245720026",
    "region": "경상북도"
  },
  {
    "name": "하의중고등학교",
    "address": "전라남도 신안군 하의면 웅곡리 220",
    "lat": "34.60576407452846",
    "lng": "126.0374952528835",
    "region": "전라남도"
  },
  {
    "name": "신의초등학교",
    "address": "전라남도 신안군 신의면 상태동리 29-5",
    "lat": "34.582992510346315",
    "lng": "126.09562170403362",
    "region": "전라남도"
  },
  {
    "name": "안계중학교운동장",
    "address": "경상북도 의성군 안계면 용기리 1009-1",
    "lat": "36.386645207864206",
    "lng": "128.4304913613886",
    "region": "경상북도"
  },
  {
    "name": "안사쌍호초등학교운동장",
    "address": "경상북도 의성군 안사면 월소리 750-1",
    "lat": "36.497311028158734",
    "lng": "128.42340261048162",
    "region": "경상북도"
  },
  {
    "name": "아포택지1호 공원",
    "address": "경상북도 김천시 아포읍 국사리 1111",
    "lat": "36.15975847149492",
    "lng": "128.2595551013975",
    "region": "경상북도"
  },
  {
    "name": "신월숲",
    "address": "경상북도 영천시 금호읍 신월리 122-1",
    "lat": "35.937823276493674",
    "lng": "128.9024108648309",
    "region": "경상북도"
  },
  {
    "name": "신녕초등학교 운동장",
    "address": "경상북도 영천시 신녕면 화성리 714",
    "lat": "36.04662195867539",
    "lng": "128.78952540946835",
    "region": "경상북도"
  },
  {
    "name": "신북중학교 운동장",
    "address": "전라남도 영암군 신북면 월평리 25",
    "lat": "34.89060607063518",
    "lng": "126.69754528273911",
    "region": "전라남도"
  },
  {
    "name": "시종중학교 운동장",
    "address": "전라남도 영암군 시종면 내동리 36",
    "lat": "34.864850794718336",
    "lng": "126.6084893799399",
    "region": "전라남도"
  },
  {
    "name": "그리스도의 교회 주차장",
    "address": "전라남도 목포시 산정동 1112-3",
    "lat": "34.81078218855868",
    "lng": "126.37246358583265",
    "region": "전라남도"
  },
  {
    "name": "왜관초등학교 운동장",
    "address": "경상북도 칠곡군 왜관읍 왜관리 780-8",
    "lat": "35.98484801238623",
    "lng": "128.3958932010871",
    "region": "경상북도"
  },
  {
    "name": "왜관금산체육시설 공터",
    "address": "경상북도 칠곡군 왜관읍 금산리 851-51",
    "lat": "35.95338190524136",
    "lng": "128.39846789623968",
    "region": "경상북도"
  },
  {
    "name": "인평중학교 운동장",
    "address": "경상북도 칠곡군 북삼읍 인평리 518-2",
    "lat": "36.062386875266",
    "lng": "128.3359341980769",
    "region": "경상북도"
  },
  {
    "name": "장곡초등학교 운동장",
    "address": "경상북도 칠곡군 석적읍 중리 235",
    "lat": "36.075073968831546",
    "lng": "128.41842692105772",
    "region": "경상북도"
  },
  {
    "name": "지천초등학교 운동장",
    "address": "경상북도 칠곡군 지천면 용산리 583-2",
    "lat": "35.90581362852969",
    "lng": "128.4987279764421",
    "region": "경상북도"
  },
  {
    "name": "분향초등학교",
    "address": "전라남도 장성군 남면 분향리 1083-8",
    "lat": "35.239121626551366",
    "lng": "126.80146092252731",
    "region": "전라남도"
  },
  {
    "name": "동화초등학교",
    "address": "전라남도 장성군 동화면 용정리 717-1",
    "lat": "35.27375158718341",
    "lng": "126.73646801615837",
    "region": "전라남도"
  },
  {
    "name": "청송여자중고등학교 운동장",
    "address": "경상북도 청송군 청송읍 월막리 315",
    "lat": "36.4358075540236",
    "lng": "129.05882694957188",
    "region": "경상북도"
  },
  {
    "name": "구운초등학교 운동장",
    "address": "경상북도 구미시 고아읍 괴평리 350",
    "lat": "36.170537138025836",
    "lng": "128.36890460133228",
    "region": "경상북도"
  },
  {
    "name": "구천초등학교운동장",
    "address": "경상북도 의성군 구천면 유산리 507",
    "lat": "36.34948674869928",
    "lng": "128.43206822552943",
    "region": "경상북도"
  },
  {
    "name": "수륜초등학교 운동장",
    "address": "경상북도 성주군 수륜면 신파리 41",
    "lat": "35.8338951816154",
    "lng": "128.19194252741028",
    "region": "경상북도"
  },
  {
    "name": "벽진초등학교 운동장",
    "address": "경상북도 성주군 벽진면 수촌리 759-1",
    "lat": "35.95095418238538",
    "lng": "128.21569957955168",
    "region": "경상북도"
  },
  {
    "name": "보현청소년수련원 주차장",
    "address": "경상북도 영천시 자양면 보현리 1305",
    "lat": "36.138477825407655",
    "lng": "129.0338585893307",
    "region": "경상북도"
  },
  {
    "name": "영천강변체육공원",
    "address": "경상북도 영천시 고경면 단포리 399-4",
    "lat": "35.97658663910521",
    "lng": "128.9694832808173",
    "region": "경상북도"
  },
  {
    "name": "영안중학교 운동장",
    "address": "경상북도 영천시 북안면 임포리 311",
    "lat": "35.91810387653462",
    "lng": "129.00793720656307",
    "region": "경상북도"
  },
  {
    "name": "영광초등학교",
    "address": "전라남도 영광군 영광읍 무령리 306",
    "lat": "35.27840772402572",
    "lng": "126.51432823781492",
    "region": "전라남도"
  },
  {
    "name": "낭주고등학교 운동장",
    "address": "전라남도 영암군 학산면 독천리 325",
    "lat": "34.73064297098247",
    "lng": "126.56423519389426",
    "region": "전라남도"
  },
  {
    "name": "월평초등학교",
    "address": "전라남도 장성군 황룡면 월평리 61-2",
    "lat": "35.29027043621312",
    "lng": "126.77580410251022",
    "region": "전라남도"
  },
  {
    "name": "경산여자고등학교",
    "address": "경상북도 경산시 옥곡동 8-3",
    "lat": "35.81702819664986",
    "lng": "128.7300227352698",
    "region": "경상북도"
  },
  {
    "name": "계림청소년수련원",
    "address": "경상북도 경산시 자인면 계림리 113-3",
    "lat": "35.83839040105924",
    "lng": "128.80913247398666",
    "region": "경상북도"
  },
  {
    "name": "안동중학교 인계분교 운동장",
    "address": "경상북도 안동시 예안면 인계리 산19-5",
    "lat": "36.69342538478171",
    "lng": "128.9161684586494",
    "region": "경상북도"
  },
  {
    "name": "동부초등학교 운동장",
    "address": "경상북도 안동시 신세동 122-1",
    "lat": "36.56625589591327",
    "lng": "128.73683249071928",
    "region": "경상북도"
  },
  {
    "name": "한국생명과학고등학교 운동장",
    "address": "경상북도 안동시 옥동 1230",
    "lat": "36.54920086296963",
    "lng": "128.68720114231147",
    "region": "경상북도"
  },
  {
    "name": "옥동2공원",
    "address": "경상북도 안동시 옥동 611-1",
    "lat": "36.56490469895557",
    "lng": "128.7025003201752",
    "region": "경상북도"
  },
  {
    "name": "강화중학교운동장",
    "address": "인천광역시 강화군 강화읍 옥림리 1061-1",
    "lat": "37.74978963644841",
    "lng": "126.49110764265046",
    "region": "인천광역시"
  },
  {
    "name": "풍양중학교",
    "address": "전라남도 고흥군 풍양면 율치리 920-1",
    "lat": "34.57032638133618",
    "lng": "127.25072951551721",
    "region": "전라남도"
  },
  {
    "name": "도덕초등학교",
    "address": "전라남도 고흥군 도덕면 도덕리 799",
    "lat": "34.56683636246382",
    "lng": "127.17401085405598",
    "region": "전라남도"
  },
  {
    "name": "도화고등학교",
    "address": "전라남도 고흥군 도화면 당오리 480-3",
    "lat": "34.51423",
    "lng": "127.3194323",
    "region": "전라남도"
  },
  {
    "name": "포두중학교",
    "address": "전라남도 고흥군 포두면 길두리 1036",
    "lat": "34.56648892833169",
    "lng": "127.34078067968308",
    "region": "전라남도"
  },
  {
    "name": "남양초등학교",
    "address": "전라남도 고흥군 남양면 대곡리 520",
    "lat": "34.728464009378875",
    "lng": "127.35449232759717",
    "region": "전라남도"
  },
  {
    "name": "동강초등학교",
    "address": "전라남도 고흥군 동강면 유둔리 228",
    "lat": "34.78142802860017",
    "lng": "127.33221810683585",
    "region": "전라남도"
  },
  {
    "name": "두원초등학교",
    "address": "전라남도 고흥군 두원면 용산리 773",
    "lat": "34.647278838239316",
    "lng": "127.27470772058584",
    "region": "전라남도"
  },
  {
    "name": "죽향초등학교 운동장",
    "address": "충청북도 옥천군 옥천읍 문정리 83",
    "lat": "36.313312646841524",
    "lng": "127.57741537241024",
    "region": "충청북도"
  },
  {
    "name": "회천초등학교 운동장",
    "address": "전라남도 보성군 회천면 율포리 278",
    "lat": "34.67285274138919",
    "lng": "127.08564877510075",
    "region": "전라남도"
  },
  {
    "name": "삼향초등학교 운동장",
    "address": "전라남도 무안군 삼향읍 유교리 900-1",
    "lat": "34.84243764888452",
    "lng": "126.43253835391923",
    "region": "전라남도"
  },
  {
    "name": "강진호수공원",
    "address": "전라남도 강진군 강진읍 서성리 533-1",
    "lat": "34.63873376221827",
    "lng": "126.75399074844273",
    "region": "전라남도"
  },
  {
    "name": "지도초등학교 어의분교",
    "address": "전라남도 신안군 지도읍 어의리 492",
    "lat": "35.1330872",
    "lng": "126.1873509",
    "region": "전라남도"
  },
  {
    "name": "지명중학교",
    "address": "전라남도 신안군 지도읍 광정리 1271",
    "lat": "35.0604156",
    "lng": "126.2134806",
    "region": "전라남도"
  },
  {
    "name": "성주초등학교 운동장",
    "address": "경상북도 성주군 성주읍 경산리 183",
    "lat": "35.920103297036746",
    "lng": "128.2848753646869",
    "region": "경상북도"
  },
  {
    "name": "용암초등학교 운동장",
    "address": "경상북도 성주군 용암면 상언리 121",
    "lat": "35.84504643976444",
    "lng": "128.33899604175238",
    "region": "경상북도"
  },
  {
    "name": "무을중학교 운동장",
    "address": "경상북도 구미시 무을면 무등리 327",
    "lat": "36.258927507999886",
    "lng": "128.19006170468566",
    "region": "경상북도"
  },
  {
    "name": "신평초등학교 운동장",
    "address": "경상북도 구미시 신평동 99-3",
    "lat": "36.12174052809437",
    "lng": "128.36530533458176",
    "region": "경상북도"
  },
  {
    "name": "인의초등학교 운동장",
    "address": "경상북도 구미시 인의동 653",
    "lat": "36.101838891242835",
    "lng": "128.42690910594948",
    "region": "경상북도"
  },
  {
    "name": "해마루초등학교 운동장",
    "address": "경상북도 구미시 옥계동 920",
    "lat": "36.1403387224158",
    "lng": "128.43303176335894",
    "region": "경상북도"
  },
  {
    "name": "서삼초등학교",
    "address": "전라남도 장성군 서삼면 장산리 196",
    "lat": "35.33369721827041",
    "lng": "126.76795715085802",
    "region": "전라남도"
  },
  {
    "name": "상모중학교 운동장",
    "address": "경상북도 구미시 임은동 436-1",
    "lat": "36.09107942427033",
    "lng": "128.3596598672229",
    "region": "경상북도"
  },
  {
    "name": "신길고등학교 운동장",
    "address": "경기도 안산시 단원구 신길동 1672",
    "lat": "37.334221503395916",
    "lng": "126.78751135512667",
    "region": "경기도"
  },
  {
    "name": "안산서초등학교 운동장",
    "address": "경기도 안산시 단원구 원곡동 936-4",
    "lat": "37.3310615570611",
    "lng": "126.79961996357073",
    "region": "경기도"
  },
  {
    "name": "3.1.공원",
    "address": "경상북도 구미시 옥계동 629-1",
    "lat": "36.13909451969955",
    "lng": "128.41459589838865",
    "region": "경상북도"
  },
  {
    "name": "여울공원",
    "address": "경상북도 구미시 상모동 63-1",
    "lat": "36.0893175647115",
    "lng": "128.35743535428213",
    "region": "경상북도"
  },
  {
    "name": "장성중앙초등학교",
    "address": "전라남도 장성군 장성읍 영천리 880",
    "lat": "35.298808313741375",
    "lng": "126.78652995866419",
    "region": "전라남도"
  },
  {
    "name": "(구)전촌초등학교 운동장",
    "address": "경상북도 경주시 감포읍 전촌리 636",
    "lat": "35.790560649687826",
    "lng": "129.491088688379",
    "region": "경상북도"
  },
  {
    "name": "영신숲공원 주차장",
    "address": "경상북도 문경시 영신동 646",
    "lat": "36.59260885683233",
    "lng": "128.2109105587006",
    "region": "경상북도"
  },
  {
    "name": "봉양(도리원)초등학교운동장",
    "address": "경상북도 의성군 봉양면 화전리 143",
    "lat": "36.300146799308074",
    "lng": "128.57881188782042",
    "region": "경상북도"
  },
  {
    "name": "지도초등학교",
    "address": "전라남도 신안군 지도읍 읍내리 93-1",
    "lat": "35.06315898790547",
    "lng": "126.20703625519397",
    "region": "전라남도"
  },
  {
    "name": "압해서초등학교",
    "address": "전라남도 신안군 압해읍 대천리 659-1",
    "lat": "34.8623248",
    "lng": "126.2733871",
    "region": "전라남도"
  },
  {
    "name": "도원초등학교 운동장",
    "address": "경상북도 성주군 선남면 소학리 587",
    "lat": "35.896601548869484",
    "lng": "128.3819296157659",
    "region": "경상북도"
  },
  {
    "name": "수륜중학교 운동장",
    "address": "경상북도 성주군 수륜면 신파리 84-1",
    "lat": "35.83102537949698",
    "lng": "128.19618816885847",
    "region": "경상북도"
  },
  {
    "name": "지방초등학교 운동장",
    "address": "경상북도 성주군 월항면 지방리 536",
    "lat": "35.98689176369077",
    "lng": "128.28938334860555",
    "region": "경상북도"
  },
  {
    "name": "운곡초등학교",
    "address": "경상북도 김천시 율곡동 535",
    "lat": "36.12354575305789",
    "lng": "128.1929166095277",
    "region": "경상북도"
  },
  {
    "name": "아천초등학교",
    "address": "경상북도 김천시 어모면 중왕리 735",
    "lat": "36.17834308934115",
    "lng": "128.11652763186228",
    "region": "경상북도"
  },
  {
    "name": "마전제1호공원",
    "address": "인천광역시 서구 마전동 907",
    "lat": "37.60512796863173",
    "lng": "126.65745260074175",
    "region": "인천광역시"
  },
  {
    "name": "군남초등학교",
    "address": "전라남도 영광군 군남면 백양리 161-1",
    "lat": "35.23601699651548",
    "lng": "126.45811486204802",
    "region": "전라남도"
  },
  {
    "name": "미항초등학교 운동장",
    "address": "전라남도 목포시 옥암동 1102",
    "lat": "34.80119198235661",
    "lng": "126.43925278726465",
    "region": "전라남도"
  },
  {
    "name": "옥암중학교 운동장",
    "address": "전라남도 목포시 옥암동 1271",
    "lat": "34.81027619227433",
    "lng": "126.4527524419734",
    "region": "전라남도"
  },
  {
    "name": "문장골공원",
    "address": "경상북도 구미시 도량동 산2-3",
    "lat": "36.14801310159644",
    "lng": "128.33128809931625",
    "region": "경상북도"
  },
  {
    "name": "진원동초등학교",
    "address": "전라남도 장성군 진원면 용산리 841-1",
    "lat": "35.25971643343514",
    "lng": "126.86319345475724",
    "region": "전라남도"
  },
  {
    "name": "하양초등학교",
    "address": "경상북도 경산시 하양읍 금락리 133-2",
    "lat": "35.91222866768485",
    "lng": "128.8192354174613",
    "region": "경상북도"
  },
  {
    "name": "진량초등학교",
    "address": "경상북도 경산시 진량읍 신상리 717",
    "lat": "35.87596805429025",
    "lng": "128.81562796308765",
    "region": "경상북도"
  },
  {
    "name": "문명고등학교",
    "address": "경상북도 경산시 백천동 산16",
    "lat": "35.8050701",
    "lng": "128.7449957",
    "region": "경상북도"
  },
  {
    "name": "길원여자고등학교 운동장",
    "address": "경상북도 안동시 안막동 73-1",
    "lat": "36.579112014778815",
    "lng": "128.73457044140486",
    "region": "경상북도"
  },
  {
    "name": "안동중학교 운동장",
    "address": "경상북도 안동시 태화동 255",
    "lat": "36.563855819626944",
    "lng": "128.7121767804774",
    "region": "경상북도"
  },
  {
    "name": "영가초등학교 운동장",
    "address": "경상북도 안동시 태화동 179",
    "lat": "36.56274972499769",
    "lng": "128.71597382098113",
    "region": "경상북도"
  },
  {
    "name": "초계중학교 운동장",
    "address": "경상남도 합천군 초계면 아막리 99",
    "lat": "35.5595782591464",
    "lng": "128.26992585079424",
    "region": "경상남도"
  },
  {
    "name": "명덕초등학교 운동장",
    "address": "경상남도 창녕군 창녕읍 교리 254",
    "lat": "35.5434622458943",
    "lng": "128.49686622619646",
    "region": "경상남도"
  },
  {
    "name": "남지초등학교 운동장",
    "address": "경상남도 창녕군 남지읍 남지리 723",
    "lat": "35.38867386395021",
    "lng": "128.47146034240737",
    "region": "경상남도"
  },
  {
    "name": "성산초등학교 운동장",
    "address": "경상남도 창녕군 성산면 정녕리 28",
    "lat": "35.623413345626766",
    "lng": "128.47796201705944",
    "region": "경상남도"
  },
  {
    "name": "이방초등학교 운동장",
    "address": "경상남도 창녕군 이방면 안리 828",
    "lat": "35.57741391248914",
    "lng": "128.38735163211834",
    "region": "경상남도"
  },
  {
    "name": "도천초등학교 운동장",
    "address": "경상남도 창녕군 도천면 도천리 276",
    "lat": "35.434169587480184",
    "lng": "128.51729661226287",
    "region": "경상남도"
  },
  {
    "name": "포두초등학교",
    "address": "전라남도 고흥군 포두면 상대리 111",
    "lat": "34.56908409783507",
    "lng": "127.34105893042685",
    "region": "전라남도"
  },
  {
    "name": "봉래초등학교",
    "address": "전라남도 고흥군 봉래면 신금리 682-1",
    "lat": "34.46882414987976",
    "lng": "127.46588999512596",
    "region": "전라남도"
  },
  {
    "name": "백양초등학교",
    "address": "전라남도 고흥군 동일면 백양리 795",
    "lat": "34.50370343792109",
    "lng": "127.4669655675989",
    "region": "전라남도"
  },
  {
    "name": "백양중학교",
    "address": "전라남도 고흥군 동일면 백양리 788",
    "lat": "34.5035014447248",
    "lng": "127.4655212366302",
    "region": "전라남도"
  },
  {
    "name": "점암초등학교",
    "address": "전라남도 고흥군 점암면 모룡리 817",
    "lat": "34.65156422303289",
    "lng": "127.38179293335608",
    "region": "전라남도"
  },
  {
    "name": "영남초등학교",
    "address": "전라남도 고흥군 영남면 양사리 528",
    "lat": "34.60333107743442",
    "lng": "127.45553806388767",
    "region": "전라남도"
  },
  {
    "name": "낙동중학교 운동장",
    "address": "경상북도 상주시 낙동면 낙동리 127-1",
    "lat": "36.364813699899",
    "lng": "128.30033540725714",
    "region": "경상북도"
  },
  {
    "name": "은척초등학교 운동장",
    "address": "경상북도 상주시 은척면 봉중리 318",
    "lat": "36.531807387156086",
    "lng": "128.0708254045982",
    "region": "경상북도"
  },
  {
    "name": "이안초등학교 운동장",
    "address": "경상북도 상주시 이안면 양범리 268",
    "lat": "36.578463171999516",
    "lng": "128.14474582672122",
    "region": "경상북도"
  },
  {
    "name": "염산중학교",
    "address": "전라남도 영광군 염산면 봉남리 126",
    "lat": "35.2199805596225",
    "lng": "126.37310642716143",
    "region": "전라남도"
  },
  {
    "name": "장천초등학교 운동장",
    "address": "전라남도 영암군 서호면 장천리 573",
    "lat": "34.755736299377496",
    "lng": "126.58236600559356",
    "region": "전라남도"
  },
  {
    "name": "상록공원",
    "address": "경상북도 구미시 사곡동 678-4",
    "lat": "36.09624682113267",
    "lng": "128.35786553252638",
    "region": "경상북도"
  },
  {
    "name": "색동공원",
    "address": "경상북도 구미시 인의동 690-4",
    "lat": "36.0984935134852",
    "lng": "128.4287859605659",
    "region": "경상북도"
  },
  {
    "name": "푸르미공원",
    "address": "경상북도 구미시 신평동 56-2",
    "lat": "36.124947223224254",
    "lng": "128.36293716050398",
    "region": "경상북도"
  },
  {
    "name": "송리공원",
    "address": "경상북도 구미시 송정동 476",
    "lat": "36.11569214712832",
    "lng": "128.3454288075131",
    "region": "경상북도"
  },
  {
    "name": "청백리공원",
    "address": "경상북도 구미시 진평동 14",
    "lat": "36.09927512771079",
    "lng": "128.42375222499544",
    "region": "경상북도"
  },
  {
    "name": "금락초등학교",
    "address": "경상북도 경산시 하양읍 금락리 396-1",
    "lat": "35.910716285349636",
    "lng": "128.8242687284953",
    "region": "경상북도"
  },
  {
    "name": "옥곡초등학교",
    "address": "경상북도 경산시 옥곡동 827",
    "lat": "35.81478099400718",
    "lng": "128.7324803628013",
    "region": "경상북도"
  },
  {
    "name": "남성초등학교",
    "address": "경상북도 경산시 평산동 36",
    "lat": "35.81321487651552",
    "lng": "128.77636729444274",
    "region": "경상북도"
  },
  {
    "name": "남정초등학교 운동장",
    "address": "경상남도 합천군 합천읍 합천리 840-2",
    "lat": "35.56323849087527",
    "lng": "128.15674134388044",
    "region": "경상남도"
  },
  {
    "name": "봉산초등학교 운동장",
    "address": "경상남도 합천군 봉산면 김봉리 348-1",
    "lat": "35.62617494089787",
    "lng": "128.04078405775869",
    "region": "경상남도"
  },
  {
    "name": "경상남도교육청가야산독서당정글북 주차장",
    "address": "경상남도 합천군 가야면 매안리 392",
    "lat": "35.732349354883894",
    "lng": "128.10793205708373",
    "region": "경상남도"
  },
  {
    "name": "초계초등학교 운동장",
    "address": "경상남도 합천군 초계면 초계리 87-2",
    "lat": "35.559794743695456",
    "lng": "128.2641142933708",
    "region": "경상남도"
  },
  {
    "name": "삼가중학교 운동장",
    "address": "경상남도 합천군 삼가면 일부리 398",
    "lat": "35.412075746084334",
    "lng": "128.12649371087096",
    "region": "경상남도"
  },
  {
    "name": "강화초등학교운동장",
    "address": "인천광역시 강화군 강화읍 관청리 334-2",
    "lat": "37.7493824415876",
    "lng": "126.4873498678206",
    "region": "인천광역시"
  },
  {
    "name": "서상초등학교 운동장",
    "address": "경상남도 함양군 서상면 대남리 1769",
    "lat": "35.683595073867",
    "lng": "127.68666938506774",
    "region": "경상남도"
  },
  {
    "name": "과역초등학교",
    "address": "전라남도 고흥군 과역면 과역리 458",
    "lat": "34.679566550806676",
    "lng": "127.35744235355958",
    "region": "전라남도"
  },
  {
    "name": "과역영주고등학교",
    "address": "전라남도 고흥군 과역면 과역리 442-2",
    "lat": "34.68193173210066",
    "lng": "127.35675200713732",
    "region": "전라남도"
  },
  {
    "name": "남양우도분교",
    "address": "전라남도 고흥군 남양면 남양리 1230",
    "lat": "34.72229424020312",
    "lng": "127.31432601774269",
    "region": "전라남도"
  },
  {
    "name": "남양중학교",
    "address": "전라남도 고흥군 남양면 대곡리 45-1",
    "lat": "34.73622868128442",
    "lng": "127.35675117658434",
    "region": "전라남도"
  },
  {
    "name": "대서초등학교",
    "address": "전라남도 고흥군 대서면 금마리 34",
    "lat": "34.77209491379324",
    "lng": "127.28362245453116",
    "region": "전라남도"
  },
  {
    "name": "박지성공설운동장",
    "address": "전라남도 고흥군 고흥읍 호형리 957",
    "lat": "34.61413775269652",
    "lng": "127.29844450950138",
    "region": "전라남도"
  },
  {
    "name": "남포미술관",
    "address": "전라남도 고흥군 영남면 양사리 552",
    "lat": "34.60366757058398",
    "lng": "127.45663486866565",
    "region": "전라남도"
  },
  {
    "name": "무장사지 제1공영주차장",
    "address": "경상북도 경주시 암곡동 54-1",
    "lat": "35.87559371076754",
    "lng": "129.3222302198444",
    "region": "경상북도"
  },
  {
    "name": "경주 진평왕릉 주차장",
    "address": "경상북도 경주시 보문동 608",
    "lat": "35.832318",
    "lng": "129.250541",
    "region": "경상북도"
  },
  {
    "name": "과역중학교",
    "address": "전라남도 고흥군 과역면 과역리 535",
    "lat": "34.67581382512633",
    "lng": "127.35894054341247",
    "region": "전라남도"
  },
  {
    "name": "영호초등학교 운동장",
    "address": "경상북도 안동시 옥동 923-1",
    "lat": "36.55986208518586",
    "lng": "128.69173733452894",
    "region": "경상북도"
  },
  {
    "name": "합일초등학교운동장",
    "address": "인천광역시 강화군 강화읍 신문리 439-4",
    "lat": "37.743231830040834",
    "lng": "126.48388445377336",
    "region": "인천광역시"
  },
  {
    "name": "낙운중학교 운동장",
    "address": "경상북도 상주시 낙동면 상촌리 650",
    "lat": "36.37681637486407",
    "lng": "128.25282916621086",
    "region": "경상북도"
  },
  {
    "name": "내서중학교 운동장",
    "address": "경상북도 상주시 내서면 낙서리 2",
    "lat": "36.41278690222438",
    "lng": "128.01895022392273",
    "region": "경상북도"
  },
  {
    "name": "무양 제2어린이공원",
    "address": "경상북도 상주시 무양동 289",
    "lat": "36.418867741536026",
    "lng": "128.1503229743843",
    "region": "경상북도"
  },
  {
    "name": "무양 제3어린이공원",
    "address": "경상북도 상주시 무양동 280",
    "lat": "36.41750851906802",
    "lng": "128.15299415840815",
    "region": "경상북도"
  },
  {
    "name": "보성남초등학교 운동장",
    "address": "전라남도 보성군 보성읍 주봉리 226",
    "lat": "34.77022055437554",
    "lng": "127.07771480083464",
    "region": "전라남도"
  },
  {
    "name": "문덕초등학교 운동장",
    "address": "전라남도 보성군 문덕면 봉정리 277",
    "lat": "34.91981576234568",
    "lng": "127.17473298311234",
    "region": "전라남도"
  },
  {
    "name": "와룡체육공원",
    "address": "전라남도 곡성군 죽곡면 남양리 282-11",
    "lat": "35.15943590915115",
    "lng": "127.34109270958756",
    "region": "전라남도"
  },
  {
    "name": "문경여자중학교 운동장",
    "address": "경상북도 문경시 모전동 513",
    "lat": "36.59516544412213",
    "lng": "128.1897384354459",
    "region": "경상북도"
  },
  {
    "name": "농암초등학교 운동장",
    "address": "경상북도 문경시 농암면 농암리 207",
    "lat": "36.602645814347675",
    "lng": "128.00365472139111",
    "region": "경상북도"
  },
  {
    "name": "대가초등학교 운동장",
    "address": "경상북도 성주군 대가면 옥련리 533",
    "lat": "35.90882653909397",
    "lng": "128.22247979758166",
    "region": "경상북도"
  },
  {
    "name": "지곡초등학교 운동장",
    "address": "경상북도 영천시 화남면 삼창리 248",
    "lat": "36.060255589319674",
    "lng": "128.8905720787026",
    "region": "경상북도"
  },
  {
    "name": "고경면복지회관 주차장",
    "address": "경상북도 영천시 고경면 해선리 309-2",
    "lat": "36.00165928961181",
    "lng": "129.0458896098349",
    "region": "경상북도"
  },
  {
    "name": "군서초등학교",
    "address": "전라남도 영광군 군서면 남죽리 658",
    "lat": "35.2571613781433",
    "lng": "126.47772653822828",
    "region": "전라남도"
  },
  {
    "name": "서해초등학교 운동장",
    "address": "전라남도 목포시 연산동 1271",
    "lat": "34.81051259584414",
    "lng": "126.38129399850156",
    "region": "전라남도"
  },
  {
    "name": "유달초등학교 운동장",
    "address": "전라남도 목포시 유달동 8",
    "lat": "34.786070538207284",
    "lng": "126.37929521174355",
    "region": "전라남도"
  },
  {
    "name": "중앙고등학교 운동장",
    "address": "전라남도 목포시 대양동 208-4",
    "lat": "34.83498190436754",
    "lng": "126.42493620954606",
    "region": "전라남도"
  },
  {
    "name": "제일여자고등학교 운동장",
    "address": "전라남도 목포시 옥암동 983",
    "lat": "34.807487293732315",
    "lng": "126.43081619702498",
    "region": "전라남도"
  },
  {
    "name": "갓골공원",
    "address": "경상북도 구미시 봉곡동 437-2",
    "lat": "36.143422590118256",
    "lng": "128.31089309480217",
    "region": "경상북도"
  },
  {
    "name": "버금공원",
    "address": "경상북도 구미시 진평동 75-1",
    "lat": "36.09454230830619",
    "lng": "128.42979897526646",
    "region": "경상북도"
  },
  {
    "name": "평성공원",
    "address": "경상북도 구미시 고아읍 원호리 424",
    "lat": "36.15194964359983",
    "lng": "128.32742324980214",
    "region": "경상북도"
  },
  {
    "name": "구평공원",
    "address": "경상북도 구미시 구평동 474-3",
    "lat": "36.09061598178858",
    "lng": "128.4386048452493",
    "region": "경상북도"
  },
  {
    "name": "곡성중앙초등학교 운동장",
    "address": "전라남도 곡성군 곡성읍 읍내리 703",
    "lat": "35.284274154939816",
    "lng": "127.29171422458666",
    "region": "전라남도"
  },
  {
    "name": "오산초등학교 운동장",
    "address": "전라남도 곡성군 오산면 봉동리 500",
    "lat": "35.23877004374507",
    "lng": "127.12124281421885",
    "region": "전라남도"
  },
  {
    "name": "문경여자고등학교 운동장",
    "address": "경상북도 문경시 모전동 21-2",
    "lat": "36.59363393056472",
    "lng": "128.19399923086172",
    "region": "경상북도"
  },
  {
    "name": "문경시민운동장",
    "address": "경상북도 문경시 모전동 415-1",
    "lat": "36.593272976364425",
    "lng": "128.18738783648988",
    "region": "경상북도"
  },
  {
    "name": "점촌고등학교 운동장",
    "address": "경상북도 문경시 모전동 620",
    "lat": "36.595601",
    "lng": "128.182651",
    "region": "경상북도"
  },
  {
    "name": "안좌중학교",
    "address": "전라남도 신안군 안좌면 창마리 290",
    "lat": "34.74475526122512",
    "lng": "126.12799894781526",
    "region": "전라남도"
  },
  {
    "name": "다인초등학교운동장",
    "address": "경상북도 의성군 다인면 서릉리 120-1",
    "lat": "36.44863410266549",
    "lng": "128.35721433162698",
    "region": "경상북도"
  },
  {
    "name": "강변조각공원",
    "address": "경상북도 김천시 신음동 1058-2",
    "lat": "36.13001552319989",
    "lng": "128.11645388603003",
    "region": "경상북도"
  },
  {
    "name": "공설운동장",
    "address": "전라남도 화순군 화순읍 대리 460",
    "lat": "35.04951863863373",
    "lng": "126.96779470519469",
    "region": "전라남도"
  },
  {
    "name": "청풍초등학교 운동장",
    "address": "전라남도 화순군 청풍면 차리 270",
    "lat": "34.8755335820577",
    "lng": "126.97070664234182",
    "region": "전라남도"
  },
  {
    "name": "합성 하늘동산공원",
    "address": "경상남도 창원시 마산회원구 합성동 358-1",
    "lat": "35.24618604183771",
    "lng": "128.58886639186107",
    "region": "경상남도"
  },
  {
    "name": "아산초등학교 운동장",
    "address": "전라남도 화순군 북면 이천리 55",
    "lat": "35.16877657629882",
    "lng": "127.13334775136231",
    "region": "전라남도"
  },
  {
    "name": "예천진호국제양궁장",
    "address": "경상북도 예천군 예천읍 청복리 150",
    "lat": "36.63491962220227",
    "lng": "128.46878768962594",
    "region": "경상북도"
  },
  {
    "name": "호원초등학교 운동장",
    "address": "경기도 안산시 단원구 초지동 741-1",
    "lat": "37.302736616764335",
    "lng": "126.81880994613044",
    "region": "경기도"
  },
  {
    "name": "원일초등학교 운동장",
    "address": "경기도 안산시 단원구 선부동 962",
    "lat": "37.332502459744596",
    "lng": "126.80371366968004",
    "region": "경기도"
  },
  {
    "name": "동본어린이공원",
    "address": "경상북도 예천군 예천읍 동본리 453-6",
    "lat": "36.657168650789224",
    "lng": "128.45959353863418",
    "region": "경상북도"
  },
  {
    "name": "별빛중학교 운동장",
    "address": "경상북도 영천시 고경면 해선리 240-3",
    "lat": "36.00226928497694",
    "lng": "129.0436398983016",
    "region": "경상북도"
  },
  {
    "name": "영천중학교 운동장",
    "address": "경상북도 영천시 문내동 산2-1",
    "lat": "35.97482407911866",
    "lng": "128.92972648143862",
    "region": "경상북도"
  },
  {
    "name": "영암여자고등학교 운동장",
    "address": "전라남도 영암군 영암읍 동무리 4",
    "lat": "34.80316127178239",
    "lng": "126.70280529575174",
    "region": "전라남도"
  },
  {
    "name": "백수서초등학교",
    "address": "전라남도 영광군 백수읍 대전리 404",
    "lat": "35.282142023319956",
    "lng": "126.39656650132306",
    "region": "전라남도"
  },
  {
    "name": "순심여자중고등학교 운동장",
    "address": "경상북도 칠곡군 왜관읍 왜관리 776-9",
    "lat": "35.98601464815293",
    "lng": "128.39627584379159",
    "region": "경상북도"
  },
  {
    "name": "옥산초등학교 운동장",
    "address": "경상북도 상주시 공성면 옥산리 74-1",
    "lat": "36.287235728267625",
    "lng": "128.097163438797",
    "region": "경상북도"
  },
  {
    "name": "상주 시민운동장",
    "address": "경상북도 상주시 계산동 474-1",
    "lat": "36.43236669162716",
    "lng": "128.16160082817083",
    "region": "경상북도"
  },
  {
    "name": "물야중학교",
    "address": "경상북도 봉화군 물야면 오록리 465",
    "lat": "36.97797648797969",
    "lng": "128.73811546548086",
    "region": "경상북도"
  },
  {
    "name": "증도초등학교",
    "address": "전라남도 신안군 증도면 증동리 1812-2",
    "lat": "35.0018739",
    "lng": "126.136542",
    "region": "전라남도"
  },
  {
    "name": "상대원초등학교 운동장",
    "address": "경기도 성남시 중원구 상대원동 54",
    "lat": "37.44225156001052",
    "lng": "127.18140128479142",
    "region": "경기도"
  },
  {
    "name": "세정초등학교 운동장",
    "address": "경기도 화성시 산척동 742",
    "lat": "37.16642123551308",
    "lng": "127.12643444538116",
    "region": "경기도"
  },
  {
    "name": "하길중학교 운동장",
    "address": "경기도 화성시 향남읍 하길리 1510",
    "lat": "37.112126076387625",
    "lng": "126.9089503871967",
    "region": "경기도"
  },
  {
    "name": "반곡초등학교 운동장",
    "address": "세종특별자치시 세종시 반곡동 853",
    "lat": "36.49964102041671",
    "lng": "127.31060028076173",
    "region": "세종특별자치시"
  },
  {
    "name": "신대레포츠공원",
    "address": "경기도 평택시 신대동 621-10",
    "lat": "36.993964041331864",
    "lng": "127.06424468940637",
    "region": "경기도"
  },
  {
    "name": "육민관중고등학교",
    "address": "강원특별자치도 원주시 흥업면 흥업리 751",
    "lat": "37.308433247821185",
    "lng": "127.91937306613757",
    "region": "강원특별자치도"
  },
  {
    "name": "증도중학교",
    "address": "전라남도 신안군 증도면 증동리 1512",
    "lat": "34.99866848826811",
    "lng": "126.14437043666771",
    "region": "전라남도"
  },
  {
    "name": "원남초등학교 운동장",
    "address": "경상북도 구미시 남통동 21",
    "lat": "36.12911737133019",
    "lng": "128.32142414536173",
    "region": "경상북도"
  },
  {
    "name": "상모공원",
    "address": "경상북도 구미시 상모동 22-1",
    "lat": "36.08817187737628",
    "lng": "128.35347846438472",
    "region": "경상북도"
  },
  {
    "name": "천생중학교 운동장",
    "address": "경상북도 구미시 구평동 474-2",
    "lat": "36.09031615327714",
    "lng": "128.437389845073",
    "region": "경상북도"
  },
  {
    "name": "인서공원",
    "address": "경상북도 구미시 고아읍 문성리 1333",
    "lat": "36.16411110274296",
    "lng": "128.35126787424096",
    "region": "경상북도"
  },
  {
    "name": "현일고등학교 운동장",
    "address": "경상북도 구미시 고아읍 항곡리 468-1",
    "lat": "36.18736017021193",
    "lng": "128.34963237475668",
    "region": "경상북도"
  },
  {
    "name": "초지고등학교 운동장",
    "address": "경기도 안산시 단원구 초지동 725-1",
    "lat": "37.30986630534248",
    "lng": "126.81073326390589",
    "region": "경기도"
  },
  {
    "name": "증약초등학교 운동장",
    "address": "충청북도 옥천군 군북면 증약리 641",
    "lat": "36.334010523386695",
    "lng": "127.52332423124454",
    "region": "충청북도"
  },
  {
    "name": "점촌중학교 운동장",
    "address": "경상북도 문경시 모전동 600",
    "lat": "36.599071",
    "lng": "128.191128",
    "region": "경상북도"
  },
  {
    "name": "문경공업고등학교 운동장",
    "address": "경상북도 문경시 점촌동 5-2",
    "lat": "36.59369978029784",
    "lng": "128.2073313247881",
    "region": "경상북도"
  },
  {
    "name": "문경중학교 운동장",
    "address": "경상북도 문경시 흥덕동 705",
    "lat": "36.60509454208046",
    "lng": "128.20653329493305",
    "region": "경상북도"
  },
  {
    "name": "모전초등학교 운동장",
    "address": "경상북도 문경시 모전동 855-7",
    "lat": "36.5915",
    "lng": "128.1816",
    "region": "경상북도"
  },
  {
    "name": "안계고등학교운동장",
    "address": "경상북도 의성군 안계면 용기리 810",
    "lat": "36.38257245524347",
    "lng": "128.43393619120738",
    "region": "경상북도"
  },
  {
    "name": "직지초등학교",
    "address": "경상북도 김천시 대항면 향천리 589-1",
    "lat": "36.1227211961406",
    "lng": "128.0218935310502",
    "region": "경상북도"
  },
  {
    "name": "석천중학교",
    "address": "경상북도 김천시 황금동 67",
    "lat": "36.11757957691451",
    "lng": "128.1221964955315",
    "region": "경상북도"
  },
  {
    "name": "안산공원",
    "address": "경상북도 김천시 율곡동 767",
    "lat": "36.11990659194184",
    "lng": "128.19122314452719",
    "region": "경상북도"
  },
  {
    "name": "동성공원",
    "address": "전라남도 순천시 연향동 1352",
    "lat": "34.94949925591121",
    "lng": "127.51724540306732",
    "region": "전라남도"
  },
  {
    "name": "신대23공원",
    "address": "전라남도 순천시 해룡면 신대리 2102",
    "lat": "34.92719624056352",
    "lng": "127.54677414894104",
    "region": "전라남도"
  },
  {
    "name": "금촌고등학교 운동장",
    "address": "경기도 파주시 금릉동 451",
    "lat": "37.75009090697491",
    "lng": "126.77845090491967",
    "region": "경기도"
  },
  {
    "name": "가덕초중학교 운동장",
    "address": "충청북도 청주시 상당구 가덕면 병암리 125",
    "lat": "36.57833980129691",
    "lng": "127.57816462066137",
    "region": "충청북도"
  },
  {
    "name": "舊가덕중학교 운동장",
    "address": "충청북도 청주시 상당구 가덕면 수곡리 255",
    "lat": "36.562502281734496",
    "lng": "127.56111548938614",
    "region": "충청북도"
  },
  {
    "name": "현동초등학교운동장",
    "address": "경상남도 창원시 마산합포구 현동 490",
    "lat": "35.14641119995428",
    "lng": "128.55688658537858",
    "region": "경상남도"
  },
  {
    "name": "은계중학교 운동장",
    "address": "경기도 시흥시 대야동 642-244",
    "lat": "37.447018530590476",
    "lng": "126.80009169724686",
    "region": "경기도"
  },
  {
    "name": "답내초등학교 운동장",
    "address": "경기도 남양주시 화도읍 답내리 270-2",
    "lat": "37.6621139013271",
    "lng": "127.34679670039358",
    "region": "경기도"
  },
  {
    "name": "별가람초등학교 운동장",
    "address": "경기도 남양주시 별내동 920",
    "lat": "37.65393941844954",
    "lng": "127.12441451137543",
    "region": "경기도"
  },
  {
    "name": "사능초등학교 운동장",
    "address": "경기도 남양주시 진건읍 사능리 360-1",
    "lat": "37.65521654608026",
    "lng": "127.184065687781",
    "region": "경기도"
  },
  {
    "name": "진전중학교운동장",
    "address": "경상남도 창원시 마산합포구 진전면 오서리 892",
    "lat": "35.10412792274368",
    "lng": "128.40940082539475",
    "region": "경상남도"
  },
  {
    "name": "동아방송예술대학교 운동장",
    "address": "경기도 안성시 삼죽면 진촌리 632-18",
    "lat": "37.059042673913",
    "lng": "127.35930209979658",
    "region": "경기도"
  },
  {
    "name": "주중초등학교 운동장",
    "address": "충청북도 청주시 청원구 주중동 173-3",
    "lat": "36.67179338628185",
    "lng": "127.49151179501756",
    "region": "충청북도"
  },
  {
    "name": "고삼초등학교 운동장",
    "address": "경기도 안성시 고삼면 가유리 329-1",
    "lat": "37.0823798094419",
    "lng": "127.26454051110429",
    "region": "경기도"
  },
  {
    "name": "남당초등학교  운동장",
    "address": "충청북도 제천시 영천동 760",
    "lat": "37.13053402309271",
    "lng": "128.202471777215",
    "region": "충청북도"
  },
  {
    "name": "서화초등학교",
    "address": "강원특별자치도 인제군 서화면 천도리 435-2",
    "lat": "38.22964475595625",
    "lng": "128.20826080333615",
    "region": "강원특별자치도"
  },
  {
    "name": "흥덕초등학교 운동장",
    "address": "충청북도 청주시 흥덕구 운천동 865",
    "lat": "36.6452214986984",
    "lng": "127.47354007617089",
    "region": "충청북도"
  },
  {
    "name": "모통공원",
    "address": "인천광역시 서구 심곡동 301-3",
    "lat": "37.54232195875331",
    "lng": "126.67899810625235",
    "region": "인천광역시"
  },
  {
    "name": "득량남초등학교 운동장",
    "address": "전라남도 보성군 득량면 해평리 588",
    "lat": "34.75254517715965",
    "lng": "127.18675611273012",
    "region": "전라남도"
  },
  {
    "name": "명덕초등학교 운동장",
    "address": "경기도 안성시 대덕면 진현리 285-1",
    "lat": "37.050709764496084",
    "lng": "127.26261649089022",
    "region": "경기도"
  },
  {
    "name": "진천근린공원(1호)",
    "address": "충청북도 진천군 진천읍 읍내리 산3-10",
    "lat": "36.856651942771116",
    "lng": "127.4394994124317",
    "region": "충청북도"
  },
  {
    "name": "옥동공원",
    "address": "충청북도 진천군 덕산읍 두촌리 2407",
    "lat": "36.909188368672595",
    "lng": "127.53335237503053",
    "region": "충청북도"
  },
  {
    "name": "우도축구장",
    "address": "제주특별자치도 제주시 우도면 연평리 635-3",
    "lat": "33.509892815373796",
    "lng": "126.96183456795595",
    "region": "제주특별자치도"
  },
  {
    "name": "광양초등학교 운동장",
    "address": "제주특별자치도 제주시 이도일동 1257-1",
    "lat": "33.502395200637146",
    "lng": "126.52974078919956",
    "region": "제주특별자치도"
  },
  {
    "name": "제주중앙초등학교 운동장",
    "address": "제주특별자치도 제주시 삼도일동 503",
    "lat": "33.50264053772485",
    "lng": "126.51566205970269",
    "region": "제주특별자치도"
  },
  {
    "name": "화북초등학교 운동장",
    "address": "제주특별자치도 제주시 화북일동 3994",
    "lat": "33.518455776251635",
    "lng": "126.56193755329917",
    "region": "제주특별자치도"
  },
  {
    "name": "아라초등학교 운동장",
    "address": "제주특별자치도 제주시 아라일동 6101",
    "lat": "33.47657780405348",
    "lng": "126.5435299241236",
    "region": "제주특별자치도"
  },
  {
    "name": "마산삼진고등학교운동장",
    "address": "경상남도 창원시 마산합포구 진동면 진동리 533-5",
    "lat": "35.11865803126353",
    "lng": "128.48865866661086",
    "region": "경상남도"
  },
  {
    "name": "봉곡운동장",
    "address": "경상남도 창원시 의창구 봉곡동 57",
    "lat": "35.246177339039704",
    "lng": "128.65659193504314",
    "region": "경상남도"
  },
  {
    "name": "반송중학교운동장",
    "address": "부산광역시 해운대구 반송동 418-4",
    "lat": "35.23455182343791",
    "lng": "129.15208697319",
    "region": "부산광역시"
  },
  {
    "name": "도지초등학교 운동장",
    "address": "경기도 이천시 백사면 도지리 410",
    "lat": "37.30840757764352",
    "lng": "127.48317229126368",
    "region": "경기도"
  },
  {
    "name": "센텀고등학교운동장",
    "address": "부산광역시 해운대구 재송동 1222",
    "lat": "35.17667586735937",
    "lng": "129.12755613713438",
    "region": "부산광역시"
  },
  {
    "name": "호계초등학교 운동장",
    "address": "경상남도 창원시 마산회원구 내서읍 호계리 71-1",
    "lat": "35.265159909551485",
    "lng": "128.52263356942325",
    "region": "경상남도"
  },
  {
    "name": "무학여자고등학교 운동장",
    "address": "경상남도 창원시 마산회원구 회원동 145-1",
    "lat": "35.22266814583608",
    "lng": "128.57495198310787",
    "region": "경상남도"
  },
  {
    "name": "석전초등학교 운동장",
    "address": "경상남도 창원시 마산회원구 석전동 243-1",
    "lat": "35.232088886748194",
    "lng": "128.57645027084504",
    "region": "경상남도"
  },
  {
    "name": "내서초등학교 운동장",
    "address": "경상남도 창원시 마산회원구 두척동 550-1",
    "lat": "35.23782699461552",
    "lng": "128.54540528338882",
    "region": "경상남도"
  },
  {
    "name": "송산초등학교",
    "address": "경기도 의정부시 민락동 846",
    "lat": "37.746603",
    "lng": "127.100657",
    "region": "경기도"
  },
  {
    "name": "부용중학교",
    "address": "경기도 의정부시 민락동 757-2",
    "lat": "37.735574",
    "lng": "127.091771",
    "region": "경기도"
  },
  {
    "name": "송현고등학교",
    "address": "경기도 의정부시 민락동 735-4",
    "lat": "37.743744",
    "lng": "127.090535",
    "region": "경기도"
  },
  {
    "name": "훈민초등학교",
    "address": "경기도 의정부시 고산동 917",
    "lat": "37.73916366199289",
    "lng": "127.11434841156009",
    "region": "경기도"
  },
  {
    "name": "천보중학교",
    "address": "경기도 의정부시 금오동 469-2",
    "lat": "37.750359",
    "lng": "127.064790",
    "region": "경기도"
  },
  {
    "name": "금오중학교",
    "address": "경기도 의정부시 금오동 341-1",
    "lat": "37.74930185067251",
    "lng": "127.05805420875552",
    "region": "경기도"
  },
  {
    "name": "의정부공업고등학교",
    "address": "경기도 의정부시 가능동 652",
    "lat": "37.748296",
    "lng": "127.038202",
    "region": "경기도"
  },
  {
    "name": "의정부여자고등학교",
    "address": "경기도 의정부시 가능동 653",
    "lat": "37.749576",
    "lng": "127.041011",
    "region": "경기도"
  },
  {
    "name": "제천시립도서관",
    "address": "충청북도 제천시 장락동 672-8",
    "lat": "37.14502438601789",
    "lng": "128.22057752992157",
    "region": "충청북도"
  },
  {
    "name": "의림초등학교  운동장",
    "address": "충청북도 제천시 의림동 186",
    "lat": "37.141103708780804",
    "lng": "128.20681913988176",
    "region": "충청북도"
  },
  {
    "name": "양진초등학교 운동장",
    "address": "경기도 안성시 공도읍 진사리 124-1",
    "lat": "36.98899452115623",
    "lng": "127.14055895805355",
    "region": "경기도"
  },
  {
    "name": "수봉근린공원",
    "address": "인천광역시 미추홀구 숭의동 8-183",
    "lat": "37.45982089572194",
    "lng": "126.66288066640396",
    "region": "인천광역시"
  },
  {
    "name": "제천제일고등학교  운동장",
    "address": "충청북도 제천시 동현동 15-3",
    "lat": "37.13489451699092",
    "lng": "128.22059316186807",
    "region": "충청북도"
  },
  {
    "name": "제천중학교  운동장",
    "address": "충청북도 제천시 서부동 251",
    "lat": "37.13900817908991",
    "lng": "128.20394550656383",
    "region": "충청북도"
  },
  {
    "name": "제천시청",
    "address": "충청북도 제천시 천남동 12-2",
    "lat": "37.13248861744821",
    "lng": "128.19125719598853",
    "region": "충청북도"
  },
  {
    "name": "제천의림여자중학교  운동장",
    "address": "충청북도 제천시 하소동 49-2",
    "lat": "37.142458162851234",
    "lng": "128.19756470379394",
    "region": "충청북도"
  },
  {
    "name": "용두초등학교  운동장",
    "address": "충청북도 제천시 하소동 405",
    "lat": "37.14368553111228",
    "lng": "128.1969040294983",
    "region": "충청북도"
  },
  {
    "name": "제천종합운동장",
    "address": "충청북도 제천시 화산동 1",
    "lat": "37.13018895503688",
    "lng": "128.21781054477657",
    "region": "충청북도"
  },
  {
    "name": "원통초등학교",
    "address": "강원특별자치도 인제군 북면 원통리 737",
    "lat": "38.11994231109261",
    "lng": "128.20053950092395",
    "region": "강원특별자치도"
  },
  {
    "name": "용대초등학교",
    "address": "강원특별자치도 인제군 북면 용대리 1025-1",
    "lat": "38.19513941421993",
    "lng": "128.32967857027938",
    "region": "강원특별자치도"
  },
  {
    "name": "월학초등학교",
    "address": "강원특별자치도 인제군 북면 월학리 162",
    "lat": "38.170911272173086",
    "lng": "128.20884826505937",
    "region": "강원특별자치도"
  },
  {
    "name": "신지동초등학교",
    "address": "전라남도 완도군 신지면 신상리 211",
    "lat": "34.32709647095669",
    "lng": "126.85130861107903",
    "region": "전라남도"
  },
  {
    "name": "수기1어린이공원",
    "address": "경기도 김포시 고촌읍 신곡리 1249",
    "lat": "37.6002",
    "lng": "126.7674",
    "region": "경기도"
  },
  {
    "name": "아름마을공원",
    "address": "경기도 구리시 인창동 651-2",
    "lat": "37.610212",
    "lng": "127.130209",
    "region": "경기도"
  },
  {
    "name": "늘푸른공원",
    "address": "경기도 구리시 인창동 674-2",
    "lat": "37.60453799418058",
    "lng": "127.14387416839597",
    "region": "경기도"
  },
  {
    "name": "토평공원",
    "address": "경기도 구리시 토평동 990-1",
    "lat": "37.589816",
    "lng": "127.149885",
    "region": "경기도"
  },
  {
    "name": "서울대학교 사범대학 부설 중학교 운동장",
    "address": "서울특별시 성북구 종암동 7-10",
    "lat": "37.5958036172146",
    "lng": "127.03896757562556",
    "region": "서울특별시"
  },
  {
    "name": "서울대학교 사범대학 부설 고등학교 운동장",
    "address": "서울특별시 성북구 종암동 7-10",
    "lat": "37.59272684332387",
    "lng": "127.03781065510172",
    "region": "서울특별시"
  },
  {
    "name": "올림픽공원",
    "address": "서울특별시 송파구 방이동 88-8",
    "lat": "37.52135280713316",
    "lng": "127.1160609460758",
    "region": "서울특별시"
  },
  {
    "name": "오금공원",
    "address": "서울특별시 송파구 오금��� 51",
    "lat": "37.50081142048579",
    "lng": "127.13163657902338",
    "region": "서울특별시"
  },
  {
    "name": "마전초등학교 운동장",
    "address": "경기도 안성시 삼죽면 마전리 37-1",
    "lat": "37.03036098828109",
    "lng": "127.34150832479797",
    "region": "경기도"
  },
  {
    "name": "온평리 마을 운동장",
    "address": "제주특별자치도 서귀포시 성산읍 온평리 1268-2",
    "lat": "33.393747903020746",
    "lng": "126.89861873731753",
    "region": "제주특별자치도"
  },
  {
    "name": "진동초등학교운동장",
    "address": "경상남도 창원시 마산합포구 진동면 진동리 113-1",
    "lat": "35.118456902390555",
    "lng": "128.49019004608212",
    "region": "경상남도"
  },
  {
    "name": "동중학교 운동장",
    "address": "경상남도 창원시 마산회원구 회원동 376-1",
    "lat": "35.22075985250063",
    "lng": "128.56795206766597",
    "region": "경상남도"
  },
  {
    "name": "합포여자중학교 운동장",
    "address": "경상남도 창원시 마산회원구 회성동 458-9",
    "lat": "35.2318800927109",
    "lng": "128.56167283007386",
    "region": "경상남도"
  },
  {
    "name": "팔룡초등학교 운동장",
    "address": "경상남도 창원시 마산회원구 합성동 17-4",
    "lat": "35.2418742533321",
    "lng": "128.59404127621647",
    "region": "경상남도"
  },
  {
    "name": "구암고등학교 운동장",
    "address": "경상남도 창원시 마산회원구 구암동 44-5",
    "lat": "35.24692407228023",
    "lng": "128.5964175833369",
    "region": "경상남도"
  },
  {
    "name": "중앙초등학교 운동장",
    "address": "경상남도 창원시 마산회원구 구암동 9-2",
    "lat": "35.24840430803563",
    "lng": "128.60208827991568",
    "region": "경상남도"
  },
  {
    "name": "밀양초등학교 운동장",
    "address": "경상남도 밀양시 삼문동 3-5",
    "lat": "35.48862612430222",
    "lng": "128.75654215313003",
    "region": "경상남도"
  },
  {
    "name": "삼문동공설운동장",
    "address": "경상남도 밀양시 삼문동 15-48",
    "lat": "35.48693816473808",
    "lng": "128.75856727688443",
    "region": "경상남도"
  },
  {
    "name": "마산제일여자고등학교운동장",
    "address": "경상남도 창원시 마산합포구 문화동 4",
    "lat": "35.18843290272088",
    "lng": "128.5568229854109",
    "region": "경상남도"
  },
  {
    "name": "월영초등학교운동장",
    "address": "경상남도 창원시 마산합포구 장군동1가 6",
    "lat": "35.19128859518615",
    "lng": "128.562527014505",
    "region": "경상남도"
  },
  {
    "name": "중곡초등학교운동장",
    "address": "서울특별시 중랑구 면목동 380",
    "lat": "37.57432888152134",
    "lng": "127.08359232180996",
    "region": "서울특별시"
  },
  {
    "name": "면남초등학교운동장",
    "address": "서울특별시 중랑구 면목동 583-15",
    "lat": "37.577507103176615",
    "lng": "127.08795743242528",
    "region": "서울특별시"
  },
  {
    "name": "상봉중학교운동장",
    "address": "서울특별시 중랑구 상봉동 282",
    "lat": "37.60114683115257",
    "lng": "127.09050035685544",
    "region": "서울특별시"
  },
  {
    "name": "신묵초등학교운동장",
    "address": "서울특별시 중랑구 묵동 246-12",
    "lat": "37.607417981358765",
    "lng": "127.07548041777443",
    "region": "서울특별시"
  },
  {
    "name": "산마루초등학교 운동장",
    "address": "경기도 구리시 갈매동 575",
    "lat": "37.631364731035184",
    "lng": "127.12048783524467",
    "region": "경기도"
  },
  {
    "name": "개운산 공원",
    "address": "서울특별시 성북구 돈암동 산6-23",
    "lat": "37.59653279739132",
    "lng": "127.0252765662497",
    "region": "서울특별시"
  },
  {
    "name": "월곡인조잔디구장",
    "address": "서울특별시 성북구 하월곡동 산2-1",
    "lat": "37.60866385336706",
    "lng": "127.04232778624254",
    "region": "서울특별시"
  },
  {
    "name": "서경대학교 운동장",
    "address": "서울특별시 성북구 정릉동 산16-1",
    "lat": "37.61540900558824",
    "lng": "127.01208503100445",
    "region": "서울특별시"
  },
  {
    "name": "중화초등학교운동장",
    "address": "서울특별시 중랑구 신내동 531",
    "lat": "37.60293150949442",
    "lng": "127.09490776062013",
    "region": "서울특별시"
  },
  {
    "name": "미곡초등학교 운동장",
    "address": "경기도 안성시 양성면 노곡리 443",
    "lat": "37.11032335272123",
    "lng": "127.24516242742538",
    "region": "경기도"
  },
  {
    "name": "원곡초등학교 운동장",
    "address": "경기도 안성시 원곡면 내가천리 40-2",
    "lat": "37.04160051244604",
    "lng": "127.12814569473265",
    "region": "경기도"
  },
  {
    "name": "광선초등학교 운동장",
    "address": "경기도 안성시 죽산면 두교리 203-1",
    "lat": "37.00815024827241",
    "lng": "127.43287943485973",
    "region": "경기도"
  },
  {
    "name": "장락초등학교  운동장",
    "address": "충청북도 제천시 장락동 626",
    "lat": "37.15430712595068",
    "lng": "128.22256772279943",
    "region": "충청북도"
  },
  {
    "name": "인제초등학교",
    "address": "강원특별자치도 인제군 인제읍 합강리 316",
    "lat": "38.07539087003436",
    "lng": "128.17905576726196",
    "region": "강원특별자치도"
  },
  {
    "name": "남천초등학교 운동장",
    "address": "충청북도 제천시 남천동 260",
    "lat": "37.136669728158296",
    "lng": "128.21659093898876",
    "region": "충청북도"
  },
  {
    "name": "귀둔초등학교",
    "address": "강원특별자치도 인제군 인제읍 귀둔리 676-2",
    "lat": "38.01703291970414",
    "lng": "128.36109117928865",
    "region": "강원특별자치도"
  },
  {
    "name": "기린초등학교",
    "address": "강원특별자치도 인제군 기린면 현리 433-1",
    "lat": "37.958911173018734",
    "lng": "128.31929257028793",
    "region": "강원특별자치도"
  },
  {
    "name": "상남중학교",
    "address": "강원특별자치도 인제군 상남면 상남리 153",
    "lat": "37.8723620739933",
    "lng": "128.25646472004905",
    "region": "강원특별자치도"
  },
  {
    "name": "기린중고등학교",
    "address": "강원특별자치도 인제군 기린면 현리 765-2",
    "lat": "37.94649756037521",
    "lng": "128.31261777056017",
    "region": "강원특별자치도"
  },
  {
    "name": "월곶초등학교 운동장",
    "address": "경기도 김포시 월곶면 군하리 84-1",
    "lat": "37.717452399603076",
    "lng": "126.5518526623548",
    "region": "경기도"
  },
  {
    "name": "김포서초등학교 운동장",
    "address": "경기도 김포시 북변동 687",
    "lat": "37.62863967305612",
    "lng": "126.70157253231712",
    "region": "경기도"
  },
  {
    "name": "문산초등학교 운동장",
    "address": "경기도 파주시 문산읍 문산리 86",
    "lat": "37.86050375252888",
    "lng": "126.78299505547234",
    "region": "경기도"
  },
  {
    "name": "하성고등학교  운동장",
    "address": "경기도 김포시 하성면 마곡리 640-1",
    "lat": "37.718666720742895",
    "lng": "126.62815016821136",
    "region": "경기도"
  },
  {
    "name": "신천근린공원",
    "address": "경기도 시흥시 신천동 57",
    "lat": "37.43558611363488",
    "lng": "126.78527822007422",
    "region": "경기도"
  },
  {
    "name": "한강신도시 제7공원",
    "address": "경기도 김포시 장기동 1888-14",
    "lat": "37.639240855428824",
    "lng": "126.65907480086534",
    "region": "경기도"
  },
  {
    "name": "한강신도시 제8공원",
    "address": "경기도 김포시 장기동 1866-4",
    "lat": "37.6520982733887",
    "lng": "126.66621681590686",
    "region": "경기도"
  },
  {
    "name": "신정중학교운동장",
    "address": "���산광역시 남구 옥동 163-6",
    "lat": "35.5416215611491",
    "lng": "129.29106653447934",
    "region": "���산광역시"
  },
  {
    "name": "어상천초등학교 운동장",
    "address": "충청북도 단양군 어상천면 임현리 456-1",
    "lat": "37.10277179039893",
    "lng": "128.35780068839426",
    "region": "충청북도"
  },
  {
    "name": "매포중학교 운동장",
    "address": "충청북도 단양군 매포읍 평동리 118",
    "lat": "37.02956370265991",
    "lng": "128.30547747522158",
    "region": "충청북도"
  },
  {
    "name": "백자리 마을회관 공터",
    "address": "충청북도 단양군 영춘면 백자리 82",
    "lat": "37.04137517719974",
    "lng": "128.48514927134835",
    "region": "충청북도"
  },
  {
    "name": "보산초등학교 운동장",
    "address": "경기도 동두천시 생연동 160-14",
    "lat": "37.91449139166296",
    "lng": "127.0638360387484",
    "region": "경기도"
  },
  {
    "name": "송내중앙중학교 운동장",
    "address": "경기도 동두천시 송내동 665",
    "lat": "37.88790696209401",
    "lng": "127.05232501029967",
    "region": "경기도"
  },
  {
    "name": "신한대학교 제2캠퍼스(동두천캠퍼스) 운동장",
    "address": "경기도 동두천시 상패동 233-1",
    "lat": "37.90389660363309",
    "lng": "127.03653105891269",
    "region": "경기도"
  },
  {
    "name": "삼죽초등학교 운동장",
    "address": "경기도 안성시 삼죽면 덕산리 263",
    "lat": "37.076015301398876",
    "lng": "127.37410677547378",
    "region": "경기도"
  },
  {
    "name": "의왕고등학교 운동장",
    "address": "경기도 의왕시 삼동 268",
    "lat": "37.322200823848455",
    "lng": "126.95834969415937",
    "region": "경기도"
  },
  {
    "name": "의왕중학교 운동장",
    "address": "경기도 의왕시 오전동 350-1",
    "lat": "37.35147562517128",
    "lng": "126.97502774621344",
    "region": "경기도"
  },
  {
    "name": "대야초등학교 운동장",
    "address": "경기도 시흥시 대야동 456-2",
    "lat": "37.4465421105902",
    "lng": "126.78946287824968",
    "region": "경기도"
  },
  {
    "name": "목감공원",
    "address": "경기도 시흥시 목감동 398",
    "lat": "37.38551403698998",
    "lng": "126.86121225357051",
    "region": "경기도"
  },
  {
    "name": "중앙공원",
    "address": "경기도 시흥시 능곡동 766",
    "lat": "37.36804393984693",
    "lng": "126.81320420316116",
    "region": "경기도"
  },
  {
    "name": "도일초등학교 운동장",
    "address": "경기도 시흥시 거모동 1379",
    "lat": "37.34883996494204",
    "lng": "126.78199199205427",
    "region": "경기도"
  },
  {
    "name": "능골공원",
    "address": "경기도 시흥시 능곡동 781",
    "lat": "37.36565389339675",
    "lng": "126.80825622012301",
    "region": "경기도"
  },
  {
    "name": "은행고등학교 운동장",
    "address": "경기도 시흥시 은행동 543-2",
    "lat": "37.44293127262401",
    "lng": "126.80323101654466",
    "region": "경기도"
  },
  {
    "name": "문학공원",
    "address": "충청북도 진천군 진천읍 교성리 104",
    "lat": "36.849383314899804",
    "lng": "127.43908616325737",
    "region": "충청북도"
  },
  {
    "name": "조천초등학교 운동장",
    "address": "제주특별자치도 제주시 조천읍 조천리 3140",
    "lat": "33.535472084304885",
    "lng": "126.63381822438258",
    "region": "제주특별자치도"
  },
  {
    "name": "한울공원",
    "address": "충청북도 진천군 덕산읍 두촌리 2304",
    "lat": "36.908495639343315",
    "lng": "127.52896964550018",
    "region": "충청북도"
  },
  {
    "name": "우산초등학교운동장",
    "address": "경상남도 창원시 마산합포구 진동면 고현리 429-1",
    "lat": "35.10464271160943",
    "lng": "128.47913206684527",
    "region": "경상남도"
  },
  {
    "name": "반안중학교운동장",
    "address": "부산광역시 해운대구 반여동 1164-4",
    "lat": "35.20346250556319",
    "lng": "129.11289453507126",
    "region": "부산광역시"
  },
  {
    "name": "양운중학교운동장",
    "address": "부산광역시 해운대구 좌동 1373",
    "lat": "35.17511062878418",
    "lng": "129.16736483573686",
    "region": "부산광역시"
  },
  {
    "name": "이천중학교 운동장",
    "address": "경기도 이천시 안흥동 371",
    "lat": "37.27827019115581",
    "lng": "127.45580434799193",
    "region": "경기도"
  },
  {
    "name": "장산초등학교운동장",
    "address": "부산광역시 해운대구 반여동 1449-5",
    "lat": "35.19965769472776",
    "lng": "129.1197073459642",
    "region": "부산광역시"
  },
  {
    "name": "소안중학교 운동장",
    "address": "전라남도 완도군 소안면 비자리 874",
    "lat": "34.173092808406004",
    "lng": "126.6559226840527",
    "region": "전라남도"
  },
  {
    "name": "백암중고등학교 운동장",
    "address": "경기도 용인시 처인구 백암면 근창리 166",
    "lat": "37.16519221491356",
    "lng": "127.36876398324969",
    "region": "경기도"
  },
  {
    "name": "제일초등학교 운동장",
    "address": "경기도 용인시 처인구 양지면 제일리 85",
    "lat": "37.2426775569065",
    "lng": "127.31327980756762",
    "region": "경기도"
  },
  {
    "name": "부양공원",
    "address": "경기도 구리시 수택동 854-1",
    "lat": "37.591031",
    "lng": "127.141737",
    "region": "경기도"
  },
  {
    "name": "구갈초등학교 운동장",
    "address": "경기도 용인시 기흥구 구갈동 397",
    "lat": "37.27753441647614",
    "lng": "127.11188161746347",
    "region": "경기도"
  },
  {
    "name": "동신중학교 운동장",
    "address": "부산광역시 동래구 명장동 26-1",
    "lat": "35.2057088860204",
    "lng": "129.09790887692142",
    "region": "부산광역시"
  },
  {
    "name": "합포중학교운동장",
    "address": "경상남도 창원시 마산합포구 산호동 117-7",
    "lat": "35.21544106716749",
    "lng": "128.58537068709091",
    "region": "경상남도"
  },
  {
    "name": "지석초등학교 운동장",
    "address": "경기도 용인시 기흥구 상하동 435-8",
    "lat": "37.269746432174266",
    "lng": "127.13885471992194",
    "region": "경기도"
  },
  {
    "name": "동천초등학교 운��장",
    "address": "경기도 용인시 수지구 동천동 154",
    "lat": "37.34424625239421",
    "lng": "127.09378283656842",
    "region": "경기도"
  },
  {
    "name": "성서중학교  운동장",
    "address": "경기도 용인시 수지구 성복동 769",
    "lat": "37.31497020849534",
    "lng": "127.06411063671112",
    "region": "경기도"
  },
  {
    "name": "용마중학교운동장",
    "address": "서울특별시 중랑구 면목동 378-2",
    "lat": "37.57405135181204",
    "lng": "127.08598380737297",
    "region": "서울특별시"
  },
  {
    "name": "명륜여자중학교 운동장",
    "address": "경기도 안성시 낙원동 399-1",
    "lat": "37.00493828521061",
    "lng": "127.27505341829918",
    "region": "경기도"
  },
  {
    "name": "안성고등학교 운동장",
    "address": "경기도 안성시 금산동 33-1",
    "lat": "37.01428155336536",
    "lng": "127.27053344249728",
    "region": "경기도"
  },
  {
    "name": "상남초등학교",
    "address": "강원특별자치도 인제군 상남면 상남리 103",
    "lat": "37.873144729381536",
    "lng": "128.26068905028535",
    "region": "강원특별자치도"
  },
  {
    "name": "문산동초등학교 운동장",
    "address": "경기도 파주시 문산읍 선유리 788-1",
    "lat": "37.86537562035709",
    "lng": "126.7982763662877",
    "region": "경기도"
  },
  {
    "name": "임진초등학교 운동장",
    "address": "경기도 파주시 문산읍 문산리 21",
    "lat": "37.854514415532066",
    "lng": "126.78483512993564",
    "region": "경기도"
  },
  {
    "name": "자유초등학교 운동장",
    "address": "경기도 파주시 문산읍 당동리 939",
    "lat": "37.86548014233769",
    "lng": "126.78667419877854",
    "region": "경기도"
  },
  {
    "name": "문산북중학교  운동장",
    "address": "경기도 파주시 문산읍 당동리 149",
    "lat": "37.86251246263623",
    "lng": "126.77606106630363",
    "region": "경기도"
  },
  {
    "name": "선유중학교 운동장",
    "address": "경기도 파주시 문산읍 선유리 1395",
    "lat": "37.86657251961326",
    "lng": "126.80212232768945",
    "region": "경기도"
  },
  {
    "name": "파주고등학교 운동장",
    "address": "경기도 파주시 문산읍 당동리 140",
    "lat": "37.860050661190265",
    "lng": "126.7813818052175",
    "region": "경기도"
  },
  {
    "name": "2호 근린공원",
    "address": "경기도 화성시 새솔동 83",
    "lat": "37.28276050327656",
    "lng": "126.81706309318544",
    "region": "경기도"
  },
  {
    "name": "옥천중학교 운동장",
    "address": "충청북도 옥천군 옥천읍 삼양리 163",
    "lat": "36.305099820159484",
    "lng": "127.56897320225035",
    "region": "충청북도"
  },
  {
    "name": "봉일천초등학교 운동장",
    "address": "경기도 파주시 조리읍 봉일천리 191-6",
    "lat": "37.74481335389706",
    "lng": "126.80706356057448",
    "region": "경기도"
  },
  {
    "name": "인제중학교",
    "address": "강원특별자치도 인제군 인제읍 상동리 26-2",
    "lat": "38.072118943727325",
    "lng": "128.17535301749894",
    "region": "강원특별자치도"
  },
  {
    "name": "법원여자중학교 운동장",
    "address": "경기도 파주시 법원읍 가야리 57-1",
    "lat": "37.85239808897772",
    "lng": "126.86879731607739",
    "region": "경기도"
  },
  {
    "name": "서화중학교",
    "address": "강원특별자치도 인제군 서화면 천도리 619",
    "lat": "38.221513955726195",
    "lng": "128.2095668056664",
    "region": "강원특별자치도"
  },
  {
    "name": "인제고등학교",
    "address": "강원특별자치도 인제군 인제읍 합강리 344",
    "lat": "38.07322819186584",
    "lng": "128.17846335119222",
    "region": "강원특별자치도"
  },
  {
    "name": "동이면사무소",
    "address": "충청북도 옥천군 동이면 평산리 976-2",
    "lat": "36.28366471182611",
    "lng": "127.62038309397357",
    "region": "충청북도"
  },
  {
    "name": "안남면사무소",
    "address": "충청북도 옥천군 안남면 연주리 408-3",
    "lat": "36.356222161717376",
    "lng": "127.67285166231146",
    "region": "충청북도"
  },
  {
    "name": "한민고등학교 운동장",
    "address": "경기도 파주시 광탄면 용미리 704-10",
    "lat": "37.75701980021313",
    "lng": "126.85807041749989",
    "region": "경기도"
  },
  {
    "name": "갈현초등학교 운동장",
    "address": "경기도 파주시 탄현면 갈현리 653-1",
    "lat": "37.7718886117805",
    "lng": "126.71681700684034",
    "region": "경기도"
  },
  {
    "name": "안내중학교 운동장",
    "address": "충청북도 옥천군 안내면 인포리 289",
    "lat": "36.376629836933304",
    "lng": "127.65327458794242",
    "region": "충청북도"
  },
  {
    "name": "충렬고등학교 운동장",
    "address": "부산광역시 동래구 명장동 151-5",
    "lat": "35.20245838985354",
    "lng": "129.10993344474034",
    "region": "부산광역시"
  },
  {
    "name": "종암 5-1 어린이 공원",
    "address": "서울특별시 성북구 종암동 134-3",
    "lat": "37.5996388990629",
    "lng": "127.03663033877629",
    "region": "서울특별시"
  },
  {
    "name": "2호 근린공원-2",
    "address": "경기도 화성시 새솔동 97",
    "lat": "37.281019045206165",
    "lng": "126.8175995349884",
    "region": "경기도"
  },
  {
    "name": "향남1지구 2호근린공원(평원공원)",
    "address": "경기도 화성시 향남읍 행정리 444",
    "lat": "37.1279851154151",
    "lng": "126.91792488098146",
    "region": "경기도"
  },
  {
    "name": "솔빛공원-1",
    "address": "경기도 화성시 반송동 138",
    "lat": "37.196588",
    "lng": "127.071549",
    "region": "경기도"
  },
  {
    "name": "동탄2지구 5호 근린공원-2",
    "address": "경기도 화성시 영천동 667-8",
    "lat": "37.208367",
    "lng": "127.106948",
    "region": "경기도"
  },
  {
    "name": "탄요유적공원",
    "address": "경기도 화성시 반송동 202",
    "lat": "37.189612846436184",
    "lng": "127.07618594169615",
    "region": "경기도"
  },
  {
    "name": "용성초등학교 운동장",
    "address": "충청북도 청주시 상당구 용암동 2840",
    "lat": "36.62379254762196",
    "lng": "127.51695299608642",
    "region": "충청북도"
  },
  {
    "name": "파주광일중학교 운동장",
    "address": "경기도 파주시 월롱면 영태리 535",
    "lat": "37.77477778618664",
    "lng": "126.78681543114709",
    "region": "경기도"
  },
  {
    "name": "현매초등학교 운동장",
    "address": "경기도 안성시 서운면 현매리 193",
    "lat": "36.93585681914448",
    "lng": "127.2302001840514",
    "region": "경기도"
  },
  {
    "name": "비룡초등학교 운동장",
    "address": "경기도 안성시 당왕동 536-2",
    "lat": "37.014736005937664",
    "lng": "127.26261627370023",
    "region": "경기도"
  },
  {
    "name": "양성중학교 운동장",
    "address": "경기도 안성시 양성면 동항리 415",
    "lat": "37.06277568529295",
    "lng": "127.19537526369095",
    "region": "경기도"
  },
  {
    "name": "청주농업고등학교운동장",
    "address": "충청북도 청주시 청원구 내덕동 322",
    "lat": "36.658917628348675",
    "lng": "127.48430246767838",
    "region": "충청북도"
  },
  {
    "name": "원봉초등학교 운동장",
    "address": "충청북도 청주시 상당구 용암동 1328",
    "lat": "36.61253850365232",
    "lng": "127.50146394687481",
    "region": "충청북도"
  },
  {
    "name": "시외버스공영주차장",
    "address": "충청북도 옥천군 옥천읍 삼양리 206",
    "lat": "36.30657953099809",
    "lng": "127.56463636194508",
    "region": "충청북도"
  },
  {
    "name": "교하초등학교 운동장",
    "address": "경기도 파주시 교하동 337",
    "lat": "37.753693280035556",
    "lng": "126.74712277233748",
    "region": "경기도"
  },
  {
    "name": "석곶초등학교 운동장",
    "address": "경기도 파주시 동패동 1700",
    "lat": "37.7249921808434",
    "lng": "126.72203507229843",
    "region": "경기도"
  },
  {
    "name": "교하중학교 운동장",
    "address": "경기도 파주시 동패동 1706",
    "lat": "37.722508823781865",
    "lng": "126.72080941498479",
    "region": "경기도"
  },
  {
    "name": "두일중학교 운동장",
    "address": "경기도 파주시 동패동 1744",
    "lat": "37.71967596906587",
    "lng": "126.71241348431113",
    "region": "경기도"
  },
  {
    "name": "가온초등학교 운동장",
    "address": "경기도 파주시 목동동 687",
    "lat": "37.720402715754524",
    "lng": "126.74709142991863",
    "region": "경기도"
  },
  {
    "name": "청암초등학교 운동장",
    "address": "경기도 파주시 목동동 868",
    "lat": "37.730534908464946",
    "lng": "126.73820581757495",
    "region": "경기도"
  },
  {
    "name": "해솔초등학교 운동장",
    "address": "경기도 파주시 목동동 664",
    "lat": "37.726532440419795",
    "lng": "126.74723026626356",
    "region": "경기도"
  },
  {
    "name": "교하고등학교 운동장",
    "address": "경기도 파주시 동패동 1707",
    "lat": "37.72257051769956",
    "lng": "126.72221481800074",
    "region": "경기도"
  },
  {
    "name": "동패고등학교 운동장",
    "address": "경기도 파주시 동패동 1976",
    "lat": "37.710944653671476",
    "lng": "126.73441112356088",
    "region": "경기도"
  },
  {
    "name": "한빛고등학교 운동장",
    "address": "경기도 파주시 야당동 1013",
    "lat": "37.713125598051036",
    "lng": "126.75479735251105",
    "region": "경기도"
  },
  {
    "name": "와동초등학교 운동장",
    "address": "경기도 파주시 와동동 1348-1",
    "lat": "37.726485292753026",
    "lng": "126.75709549972213",
    "region": "경기도"
  },
  {
    "name": "금릉초등학교 운동장",
    "address": "경기도 파주시 금촌동 994",
    "lat": "37.752344370833164",
    "lng": "126.77294208867224",
    "region": "경기도"
  },
  {
    "name": "금향초등학교 운동장",
    "address": "경기도 파주시 금촌동 1007",
    "lat": "37.752350229856845",
    "lng": "126.77683108210176",
    "region": "경기도"
  },
  {
    "name": "금화초등학교 운동장",
    "address": "경기도 파주시 금촌동 974",
    "lat": "37.75482196432734",
    "lng": "126.76786462386954",
    "region": "경기도"
  },
  {
    "name": "금릉중학교 운동장",
    "address": "경기도 파주시 금촌동 996",
    "lat": "37.75125145875455",
    "lng": "126.77295032883158",
    "region": "경기도"
  },
  {
    "name": "금촌중학교 운동장",
    "address": "경기도 파주시 금릉동 449",
    "lat": "37.75128688668951",
    "lng": "126.7785141569742",
    "region": "경기도"
  },
  {
    "name": "금촌초등학교 운동장",
    "address": "경기도 파주시 금촌동 929-1",
    "lat": "37.76166807422019",
    "lng": "126.7696703249819",
    "region": "경기도"
  },
  {
    "name": "대황강체육공원",
    "address": "전라남도 곡성군 석곡면 유정리 20-1",
    "lat": "35.124849554215224",
    "lng": "127.25361689710148",
    "region": "전라남도"
  },
  {
    "name": "산양초등학교 운동장",
    "address": "경상북도 문경시 산양면 존도리 72",
    "lat": "36.61032242417833",
    "lng": "128.2529506978818",
    "region": "경상북도"
  },
  {
    "name": "마성중학교 운동장",
    "address": "경상북도 문경시 마성면 외어리 400",
    "lat": "36.69480671453963",
    "lng": "128.13420334938252",
    "region": "경상북도"
  },
  {
    "name": "개나리공원",
    "address": "경상북도 구미시 상모동 260-5",
    "lat": "36.085924026008556",
    "lng": "128.3490040898324",
    "region": "경상북도"
  },
  {
    "name": "진성중학교 운동장",
    "address": "경상북도 청송군 진보면 이촌리 596",
    "lat": "36.533761755763756",
    "lng": "129.03398554574366",
    "region": "경상북도"
  },
  {
    "name": "삼계중학교",
    "address": "전라남도 장성군 삼계면 사창리 339",
    "lat": "35.258022706826864",
    "lng": "126.6662775846335",
    "region": "전라남도"
  },
  {
    "name": "동살공원",
    "address": "경상북도 구미시 봉곡동 249",
    "lat": "36.15189944787327",
    "lng": "128.30524919773893",
    "region": "경상북도"
  },
  {
    "name": "사창초등학교",
    "address": "전라남도 장성군 삼계면 사창리 270",
    "lat": "35.26046351138967",
    "lng": "126.66607492882214",
    "region": "전라남도"
  },
  {
    "name": "병곡면 병곡휴게소 주차장(병곡지구)",
    "address": "경상북도 영덕군 병곡면 병곡리 353",
    "lat": "36.60643228276624",
    "lng": "129.4134773697904",
    "region": "경상북도"
  },
  {
    "name": "푸른꿈공원",
    "address": "경상북도 구미시 진평동 1056-1",
    "lat": "36.090761530156364",
    "lng": "128.42774725290798",
    "region": "경상북도"
  },
  {
    "name": "파주초등학교 운동장",
    "address": "경기도 파주시 파주읍 파주리 486-1",
    "lat": "37.83220248694947",
    "lng": "126.81522186589139",
    "region": "경기도"
  },
  {
    "name": "가음초등학교운동장",
    "address": "경상북도 의성군 가음면 가산리 884",
    "lat": "36.23176882238778",
    "lng": "128.72785806655926",
    "region": "경상북도"
  },
  {
    "name": "경북중부중학교운동장",
    "address": "경상북도 의성군 비안면 이두리 341",
    "lat": "36.33803131557511",
    "lng": "128.49088175879638",
    "region": "경상북도"
  },
  {
    "name": "도초고등학교",
    "address": "전라남도 신안군 도초면 수항리 1468",
    "lat": "34.703805",
    "lng": "125.9512298",
    "region": "전라남도"
  },
  {
    "name": "팔금초등학교",
    "address": "전라남도 신안군 팔금면 읍리 699",
    "lat": "34.78560918294482",
    "lng": "126.14430910744036",
    "region": "전라남도"
  },
  {
    "name": "암태초등학교",
    "address": "전라남도 신안군 암태면 단고리 266",
    "lat": "34.8291632649623",
    "lng": "126.10785853792027",
    "region": "전라남도"
  },
  {
    "name": "청통초등학교 운동장",
    "address": "경상북도 영천시 청통면 신학리 577-1",
    "lat": "35.99487356479418",
    "lng": "128.8238319184319",
    "region": "경상북도"
  },
  {
    "name": "신녕중학교 운동장",
    "address": "경상북도 영천시 신녕면 매양리 405",
    "lat": "36.043439419198585",
    "lng": "128.7808768293151",
    "region": "경상북도"
  },
  {
    "name": "북안초등학교 운동장",
    "address": "경상북도 영천시 북안면 고지리 580-2",
    "lat": "35.9146857505052",
    "lng": "129.0108828269067",
    "region": "경상북도"
  },
  {
    "name": "대창초등학교 운동장",
    "address": "경상북도 영천시 대창면 조곡리 261",
    "lat": "35.86954652462698",
    "lng": "128.9062129442401",
    "region": "경상북도"
  },
  {
    "name": "삼호서초등학교 운동장",
    "address": "전라남도 영암군 삼호읍 용당리 2178-1",
    "lat": "34.7456494461196",
    "lng": "126.37851926342445",
    "region": "전라남도"
  },
  {
    "name": "덕진초등학교 운동장",
    "address": "전라남도 영암군 덕진면 덕진리 310-2",
    "lat": "34.82129752138694",
    "lng": "126.69878050784595",
    "region": "전라남도"
  },
  {
    "name": "금정초등학교 운동장",
    "address": "전라남도 영암군 금정면 용흥리 1052",
    "lat": "34.86100184325687",
    "lng": "126.7534681854848",
    "region": "전라남도"
  },
  {
    "name": "동명초등학교 운동장",
    "address": "경상북도 칠곡군 동명면 금암리 302-4",
    "lat": "35.986845717518236",
    "lng": "128.55455105493579",
    "region": "경상북도"
  },
  {
    "name": "북이초등학교",
    "address": "전라남도 장성군 북이면 신평리 5-1",
    "lat": "35.4331865152982",
    "lng": "126.8048345455691",
    "region": "전라남도"
  },
  {
    "name": "도량초등학교 운동장",
    "address": "경상북도 구미시 도량동 106",
    "lat": "36.14443953200036",
    "lng": "128.32000762077408",
    "region": "경상북도"
  },
  {
    "name": "경북골프경영고등학교 운동장",
    "address": "경상북도 청송군 부남면 대전리 654",
    "lat": "36.341334205819955",
    "lng": "129.05970481130544",
    "region": "경상북도"
  },
  {
    "name": "어우름공원",
    "address": "경상북도 구미시 진평동 99-2",
    "lat": "36.09226585029434",
    "lng": "128.4307593516578",
    "region": "경상북도"
  },
  {
    "name": "매화공원",
    "address": "경상북도 구미시 거의동 610-2",
    "lat": "36.13860892889274",
    "lng": "128.4122130854124",
    "region": "경상북도"
  },
  {
    "name": "왕산초등학교 운동장",
    "address": "경상북도 구미시 임은동 307",
    "lat": "36.08617546557462",
    "lng": "128.36467623710644",
    "region": "경상북도"
  },
  {
    "name": "금오초등학교 운동장",
    "address": "경상북도 구미시 원평동 504",
    "lat": "36.124138104785544",
    "lng": "128.33456908976845",
    "region": "경상북도"
  },
  {
    "name": "참빛공원",
    "address": "경상북도 구미시 구평동 431-1",
    "lat": "36.09452029744533",
    "lng": "128.43811141457024",
    "region": "경상북도"
  },
  {
    "name": "구진벌공원",
    "address": "경상북도 구미시 구평동 443-1",
    "lat": "36.09488261798023",
    "lng": "128.43529307250918",
    "region": "경상북도"
  },
  {
    "name": "구미여자상업고등학교 운동장",
    "address": "경상북도 구미시 형곡동 198",
    "lat": "36.107109029008924",
    "lng": "128.34140349449638",
    "region": "경상북도"
  },
  {
    "name": "비룡중학교 운동장",
    "address": "경기도 안성시 당왕동 536-1",
    "lat": "37.01571648213036",
    "lng": "127.26333975791931",
    "region": "경기도"
  },
  {
    "name": "홍익대학교 사범대학 부속 중-고등학교 운동장",
    "address": "서울특별시 성북구 성북동 151",
    "lat": "37.59407353159552",
    "lng": "127.00365519318062",
    "region": "서울특별시"
  },
  {
    "name": "심석고등학교 운동장",
    "address": "경기도 남양주시 화도읍 마석우리 215-1",
    "lat": "37.65662389447835",
    "lng": "127.30688405390718",
    "region": "경기도"
  },
  {
    "name": "청학고등학교 운동장",
    "address": "경기도 남양주시 별내면 청학리 408-1",
    "lat": "37.71137192887034",
    "lng": "127.11942606284191",
    "region": "경기도"
  },
  {
    "name": "판곡고등학교 운동장",
    "address": "경기도 남양주시 호평동 442",
    "lat": "37.66264857334031",
    "lng": "127.2432021533013",
    "region": "경기도"
  },
  {
    "name": "와부읍 공설운동장",
    "address": "경기도 남양주시 와부읍 덕소리 33",
    "lat": "37.59457960522061",
    "lng": "127.22294642436653",
    "region": "경기도"
  },
  {
    "name": "별내 체육공원 축구장",
    "address": "경기도 남양주시 별내동 863",
    "lat": "37.6627521825774",
    "lng": "127.12091258322299",
    "region": "경기도"
  },
  {
    "name": "일죽초등학교 운동장",
    "address": "경기도 안성시 일죽면 주천리 300",
    "lat": "37.09185210246943",
    "lng": "127.48183779453515",
    "region": "경기도"
  },
  {
    "name": "율금초등학교(운동장) ",
    "address": "대구광역시 동구 율하동 1403",
    "lat": "35.861786259148786",
    "lng": "128.6920281702349",
    "region": "대구광역시"
  },
  {
    "name": "안심중학교(운동장)",
    "address": "대구광역시 동구 서호동 121",
    "lat": "35.866984840891284",
    "lng": "128.71029545674594",
    "region": "대구광역시"
  },
  {
    "name": "율원중학교(운동장)",
    "address": "대구광역시 동구 율하동 1623",
    "lat": "35.86138808517041",
    "lng": "128.70185351792406",
    "region": "대구광역시"
  },
  {
    "name": "정동고등학교(운동장)",
    "address": "대구광역시 동구 용계동 산38-4",
    "lat": "35.87722490700513",
    "lng": "128.69407740915068",
    "region": "대구광역시"
  },
  {
    "name": "조일로봇고등학교(운동장)",
    "address": "대구광역시 동구 신평동 50",
    "lat": "35.88174276696115",
    "lng": "128.69479741445502",
    "region": "대구광역시"
  },
  {
    "name": "신암선열공원",
    "address": "대구광역시 동구 신암동 산27-1",
    "lat": "35.89184915737465",
    "lng": "128.6313507417279",
    "region": "대구광역시"
  },
  {
    "name": "불로고분공원",
    "address": "대구광역시 동구 불로동 산4",
    "lat": "35.91365235239408",
    "lng": "128.64877112519613",
    "region": "대구광역시"
  },
  {
    "name": "홍천종합체육관 주차장",
    "address": "강원특별자치도 홍천군 홍천읍 태학리 143-10",
    "lat": "37.70823148852235",
    "lng": "127.90723621845245",
    "region": "강원특별자치도"
  },
  {
    "name": "갈산근린공원",
    "address": "인천광역시 부평구 갈산동 166-1",
    "lat": "37.519022",
    "lng": "126.724471",
    "region": "인천광역시"
  },
  {
    "name": "도드리공원(삼산2-5공원)",
    "address": "인천광역시 부평구 삼산동 391-4",
    "lat": "37.52059372942281",
    "lng": "126.74595756256163",
    "region": "인천광역시"
  },
  {
    "name": "백운공원",
    "address": "인천광역시 부평구 십정동 186-419",
    "lat": "37.482117121388846",
    "lng": "126.70287234300245",
    "region": "인천광역시"
  },
  {
    "name": "사리면사무소 광장",
    "address": "충청북도 괴산군 사리면 사담리 522",
    "lat": "36.816775665388334",
    "lng": "127.6486921018164",
    "region": "충청북도"
  },
  {
    "name": "마석중학교 운동장",
    "address": "경기도 남양주시 화도읍 창현리 742",
    "lat": "37.6481723851866",
    "lng": "127.30483690501099",
    "region": "경기도"
  },
  {
    "name": "교동초등학교",
    "address": "강원특별자치도 강릉시 교동 310-1",
    "lat": "37.7670051495753",
    "lng": "128.893021192654",
    "region": "강원특별자치도"
  },
  {
    "name": "도하공원",
    "address": "서울특별시 금천구 독산동 1149",
    "lat": "37.4587",
    "lng": "126.8953",
    "region": "서울특별시"
  },
  {
    "name": "안민중학교",
    "address": "경상남도 창원시 성산구 안민동 639-1",
    "lat": "35.183523258325664",
    "lng": "128.69368225336112",
    "region": "경상남도"
  },
  {
    "name": "삼정자 공원",
    "address": "경상남도 창원시 성산구 성주동 144-1",
    "lat": "35.197319",
    "lng": "128.707956",
    "region": "경상남도"
  },
  {
    "name": "명장초등학교 운동장",
    "address": "부산광역시 동래구 명장동 273-1",
    "lat": "35.20797793629116",
    "lng": "129.09679457136443",
    "region": "부산광역시"
  },
  {
    "name": "부흥중학교운동장",
    "address": "부산광역시 해운대구 좌동 1304",
    "lat": "35.174772994659406",
    "lng": "129.17917191982772",
    "region": "부산광역시"
  },
  {
    "name": "해운대고등학교운동장",
    "address": "부산광역시 해운대구 우동 278-3",
    "lat": "35.17216834141302",
    "lng": "129.1634005308189",
    "region": "부산광역시"
  },
  {
    "name": "삼가초등학교 운동장",
    "address": "경기도 용인시 처인구 삼가동 555",
    "lat": "37.23662119861366",
    "lng": "127.17070451379129",
    "region": "경기도"
  },
  {
    "name": "운학초등학교 운동장",
    "address": "경기도 용인시 처인구 운학동 220-1",
    "lat": "37.203118064865535",
    "lng": "127.24626581358875",
    "region": "경기도"
  },
  {
    "name": "죽전초등학교 운동장",
    "address": "경기도 용인시 수지구 죽전동 513-1",
    "lat": "37.33352803980595",
    "lng": "127.11029808730403",
    "region": "경기도"
  }
]