[
  {
    "name": "하북초등학교 운동장",
    "address": "경상남도 양산시 하북면 순지리 702",
    "lat": "35.489667",
    "lng": "129.088129",
    "region": "경상남도"
  },
  {
    "name": "천안병천초등학교 운동장",
    "address": "충청남도 천안시 동남구 병천면 병천리 123",
    "lat": "36.76552397655979",
    "lng": "127.30122059583663",
    "region": "충청남도"
  },
  {
    "name": "천안풍세초등학교 운동장",
    "address": "충청남도 천안시 동남구 풍세면 풍서리 452",
    "lat": "36.72599677550778",
    "lng": "127.1182374949155",
    "region": "충청남도"
  },
  {
    "name": "천안부성초등학교 운동장",
    "address": "충청남도 천안시 서북구 두정동 956",
    "lat": "36.83510282559484",
    "lng": "127.13686369699181",
    "region": "충청남도"
  },
  {
    "name": "천안백석초등학교 운동장",
    "address": "충청남도 천안시 서북구 백석동 902",
    "lat": "36.82042735892953",
    "lng": "127.12197146597693",
    "region": "충청남도"
  },
  {
    "name": "양산초등학교 운동장",
    "address": "경상남도 양산시 북부동 269",
    "lat": "35.345692",
    "lng": "129.042992",
    "region": "경상남도"
  },
  {
    "name": "호수 제2주차장",
    "address": "세종특별자치시 세종시 어진동 621",
    "lat": "36.50031",
    "lng": "127.26896",
    "region": "세종특별자치시"
  },
  {
    "name": "광주하백초등학교 운동장",
    "address": "광주광역시 북구 매곡동 339",
    "lat": "35.18886473847761",
    "lng": "126.88949346542357",
    "region": "광주광역시"
  },
  {
    "name": "청아초등학교 운동장",
    "address": "경기도 하남시 풍산동 561",
    "lat": "37.558383",
    "lng": "127.193916",
    "region": "경기도"
  },
  {
    "name": "궁말어린이공원",
    "address": "서울특별시 은평구 갈현동 327-21",
    "lat": "37.616910555773636",
    "lng": "126.90893986871136",
    "region": "서울특별시"
  },
  {
    "name": "미아초등학교 운동장",
    "address": "서울특별시 성북구 길음동 1168",
    "lat": "37.610217603224335",
    "lng": "127.02191979014538",
    "region": "서울특별시"
  },
  {
    "name": "숭곡중학교 운동장",
    "address": "서울특별시 성북구 하월곡동 87-1",
    "lat": "37.60806467057607",
    "lng": "127.03166455269061",
    "region": "서울특별시"
  },
  {
    "name": "갈대밭어린이공원",
    "address": "서울특별시 도봉구 도봉동 625-123",
    "lat": "37.674342087291684",
    "lng": "127.04579202363675",
    "region": "서울특별시"
  },
  {
    "name": "사슴어린이공원",
    "address": "서울특별시 도봉구 방학동 681-13",
    "lat": "37.66445168740676",
    "lng": "127.04171326815965",
    "region": "서울특별시"
  },
  {
    "name": "개나리어린이공원",
    "address": "서울특별시 도봉구 방학동 638-12",
    "lat": "37.667335640020994",
    "lng": "127.03711693366328",
    "region": "서울특별시"
  },
  {
    "name": "생잇들어린이공원",
    "address": "서울특별시 도봉구 방학동 644-28",
    "lat": "37.66897023080976",
    "lng": "127.03915529523567",
    "region": "서울특별시"
  },
  {
    "name": "원당샘공원",
    "address": "서울특별시 도봉구 방학동 547",
    "lat": "37.66088168118939",
    "lng": "127.02223977286012",
    "region": "서울특별시"
  },
  {
    "name": "위례고등학교 운동장",
    "address": "경기도 하남시 학암동 666",
    "lat": "37.476474",
    "lng": "127.150566",
    "region": "경기도"
  },
  {
    "name": "동대문성��공원(흥인지문공원)",
    "address": "서울특별시 종로구 종로6가 70",
    "lat": "37.57229774081507",
    "lng": "127.00871276949773",
    "region": "서울특별시"
  },
  {
    "name": "등서초등학교 운동장",
    "address": "서울특별시 강서구 화곡동 1130-4",
    "lat": "37.55187781618911",
    "lng": "126.85494124889374",
    "region": "서울특별시"
  },
  {
    "name": "서북구청 운동장",
    "address": "충청남도 천안시 서북구 성거읍 신월리 343-1",
    "lat": "36.87807068381618",
    "lng": "127.15508796590552",
    "region": "충청남도"
  },
  {
    "name": "천안입장초등학교 운동장 ",
    "address": "충청남도 천안시 서북구 입장면 하장리 54-1",
    "lat": "36.91307299455215",
    "lng": "127.2200210523342",
    "region": "충청남도"
  },
  {
    "name": "용산생활체육공원",
    "address": "광주광역시 동구 용산동 151",
    "lat": "35.117386",
    "lng": "126.932479",
    "region": "광주광역시"
  },
  {
    "name": "제3호 어린이공원",
    "address": "세종특별자치시 세종시 조치원읍 남리 425",
    "lat": "36.595049289165715",
    "lng": "127.30060043696285",
    "region": "세종특별자치시"
  },
  {
    "name": "동구여자중학교 운동장",
    "address": "서울특별시 성북구 성북동 168-275",
    "lat": "37.59392252528379",
    "lng": "127.00762166276382",
    "region": "서울특별시"
  },
  {
    "name": "송정중학교 운동장",
    "address": "서울특별시 강서구 공항동 768-1",
    "lat": "37.55370605139317",
    "lng": "126.81551277465861",
    "region": "서울특별시"
  },
  {
    "name": "충렬여자중학교",
    "address": "경상남도 통영시 용남면 장평리 202",
    "lat": "34.887084",
    "lng": "128.465357",
    "region": "경상남도"
  },
  {
    "name": "동작중학교운동장",
    "address": "서울특별시 동작구 동작동 59-1",
    "lat": "37.49490962662041",
    "lng": "126.97699955917625",
    "region": "서울특별시"
  },
  {
    "name": "보라매초등학교 운동장",
    "address": "서울특별시 동작구 신대방동 488-1",
    "lat": "37.49535787508075",
    "lng": "126.91611027263517",
    "region": "서울특별시"
  },
  {
    "name": "농심잔디마당",
    "address": "서울특별시 동작구 신대방동 370-1",
    "lat": "37.49699205361714",
    "lng": "126.91868448182956",
    "region": "서울특별시"
  },
  {
    "name": "경기항공고등학교 운동장",
    "address": "경기도 광명시 광명동 42-122",
    "lat": "37.47367244935021",
    "lng": "126.85766454785812",
    "region": "경기도"
  },
  {
    "name": "빛가온초등학교 학교운동장",
    "address": "경기도 광명시 일직동 526",
    "lat": "37.41273088543821",
    "lng": "126.88114106655121",
    "region": "경기도"
  },
  {
    "name": "대영고등학교 운동장",
    "address": "서울특별시 영등포구 신길동 336-2",
    "lat": "37.503212784571495",
    "lng": "126.9061553478241",
    "region": "서울특별시"
  },
  {
    "name": "당산근���공원",
    "address": "서울특별시 영등포구 당산동3가 385",
    "lat": "37.52557949821959",
    "lng": "126.89579129219055",
    "region": "서울특별시"
  },
  {
    "name": "원묵초등학교운동장",
    "address": "서울특별시 중랑구 묵동 11",
    "lat": "37.61760637472913",
    "lng": "127.08616230029222",
    "region": "서울특별시"
  },
  {
    "name": "안골어린이공원",
    "address": "서울특별시 강서구 화곡동 155-1",
    "lat": "37.53577952759434",
    "lng": "126.85083850196942",
    "region": "서울특별시"
  },
  {
    "name": "색동어린이공원",
    "address": "서울특별시 강북구 수유동 49-7",
    "lat": "37.63317612969565",
    "lng": "127.02063647623835",
    "region": "서울특별시"
  },
  {
    "name": "체류지 마을마당(미아마을마당)",
    "address": "서울특별시 강북구 미아동 51-29",
    "lat": "37.61197967969682",
    "lng": "127.03294833404537",
    "region": "서울특별시"
  },
  {
    "name": "모산초등학교 운동장",
    "address": "충청남도 아산시 배방읍 공수리 176-35",
    "lat": "36.77002416755558",
    "lng": "127.05170660500245",
    "region": "충청남도"
  },
  {
    "name": "온양풍기초등학교 운동장",
    "address": "충청남도 아산시 풍기동 200",
    "lat": "36.7743988594391",
    "lng": "127.0191200553193",
    "region": "충청남도"
  },
  {
    "name": "천안위례초등학교 운동장",
    "address": "충청남도 천안시 동남구 북면 오곡리 360",
    "lat": "36.82442947190121",
    "lng": "127.27404323011062",
    "region": "충청남도"
  },
  {
    "name": "천안불무초등학교 운동장",
    "address": "충청남도 천안시 서북구 불당동 1501",
    "lat": "36.819183891824444",
    "lng": "127.10485607385637",
    "region": "충청남도"
  },
  {
    "name": "은평평화공원",
    "address": "서울특별시 은평구 녹번동 153-1",
    "lat": "37.605416463787556",
    "lng": "126.92307751657103",
    "region": "서울특별시"
  },
  {
    "name": "불광중학교 운동장",
    "address": "서울특별시 은평구 불광동 173",
    "lat": "37.62302057849913",
    "lng": "126.93145718531262",
    "region": "서울특별시"
  },
  {
    "name": "동구고등학교 운동장",
    "address": "서울특별시 성북구 성북동 168-275",
    "lat": "37.59323673513684",
    "lng": "127.00653964514142",
    "region": "서울특별시"
  },
  {
    "name": "탑골공원",
    "address": "서울특별시 종로구 종로2가 38-1",
    "lat": "37.57131669417287",
    "lng": "126.98829249071959",
    "region": "서울특별시"
  },
  {
    "name": "은행나무어린이공원",
    "address": "서울특별시 도봉구 창동 347-3",
    "lat": "37.64960345153201",
    "lng": "127.04366714178524",
    "region": "서울특별시"
  },
  {
    "name": "명신초등학교 운동장",
    "address": "서울특별시 종로구 창신동 7-40",
    "lat": "37.581582795293706",
    "lng": "127.0145031809807",
    "region": "서울특별시"
  },
  {
    "name": "사당중학교 운동장",
    "address": "서울특별시 동작구 사당동 209-16",
    "lat": "37.48740585153993",
    "lng": "126.9687885886981",
    "region": "서울특별시"
  },
  {
    "name": "상도중학교 운동장",
    "address": "서울특별시 동작구 사당동 181-20",
    "lat": "37.490275739810016",
    "lng": "126.96182844014378",
    "region": "서울특별시"
  },
  {
    "name": "묵동초등학교운동장",
    "address": "서울특별시 중랑구 중화동 277-1",
    "lat": "37.603894993171224",
    "lng": "127.08135650672075",
    "region": "서울특별시"
  },
  {
    "name": "등촌근린공원",
    "address": "서울특별시 강서구 등촌동 687-4",
    "lat": "37.563374779549946",
    "lng": "126.84179116766228",
    "region": "서울특별시"
  },
  {
    "name": "봉화초등학교운동장",
    "address": "서울특별시 중랑구 신내동 655",
    "lat": "37.61327105392301",
    "lng": "127.09198951721194",
    "region": "서울특별시"
  },
  {
    "name": "신도림중학교 운동장",
    "address": "서울특별시 구로구 신도림동 311-1",
    "lat": "37.510279486100835",
    "lng": "126.88520370453573",
    "region": "서울특별시"
  },
  {
    "name": "천안성환초등학교 운동장",
    "address": "충청남도 천안시 서북구 성환읍 성환리 274-2",
    "lat": "36.91765137099207",
    "lng": "127.13251146377999",
    "region": "충청남도"
  },
  {
    "name": "천안환서초등학교 운동장",
    "address": "충청남도 천안시 서북구 백석동 105",
    "lat": "36.827750527316674",
    "lng": "127.12241041354388",
    "region": "충청남도"
  },
  {
    "name": "새록어린이공원",
    "address": "서울특별시 은평구 녹번동 158-1",
    "lat": "37.60398620594728",
    "lng": "126.92368385234747",
    "region": "서울특별시"
  },
  {
    "name": "연신초등학교 운동장",
    "address": "서울특별시 은평구 불광동 73-1",
    "lat": "37.62627128767171",
    "lng": "126.92840599556135",
    "region": "서울특별시"
  },
  {
    "name": "새동네어린이공원",
    "address": "서울특별시 도봉구 도봉동 289-5",
    "lat": "37.68894351418703",
    "lng": "127.04317774791194",
    "region": "서울특별시"
  },
  {
    "name": "소망어린이공원",
    "address": "서울특별시 도봉구 방학동 694-9",
    "lat": "37.66351644471365",
    "lng": "127.03693414912051",
    "region": "서울특별시"
  },
  {
    "name": "영화초등학교 운동장",
    "address": "���울특별시 동작구 대방동 44-3",
    "lat": "37.50947526009754",
    "lng": "126.93297506955301",
    "region": "���울특별시"
  },
  {
    "name": "백합공원",
    "address": "서울특별시 강서구 염창동 267-24",
    "lat": "37.55118239344942",
    "lng": "126.86937479566559",
    "region": "서울특별시"
  },
  {
    "name": "신내초등학교운동장",
    "address": "서울특별시 중랑구 신내동 444",
    "lat": "37.60414083685996",
    "lng": "127.10002537765423",
    "region": "서울특별시"
  },
  {
    "name": "가재울초등학교 운동장",
    "address": "서울특별시 서대문구 남가좌동 385-1",
    "lat": "37.5737",
    "lng": "126.9186",
    "region": "서울특별시"
  },
  {
    "name": "서연중학교 운동장",
    "address": "서울특별시 서대문구 연희동 267-1",
    "lat": "37.56824809696575",
    "lng": "126.92781689167708",
    "region": "서울특별시"
  },
  {
    "name": "연북중학교 운동장",
    "address": "서울특별시 서대문구 연희동 141",
    "lat": "37.577627760381986",
    "lng": "126.9375361518297",
    "region": "서울특별시"
  },
  {
    "name": "나비울어린이공원",
    "address": "서울특별시 서대문구 북가좌동 475",
    "lat": "37.5748",
    "lng": "126.9097",
    "region": "서울특별시"
  },
  {
    "name": "공주교동초등학교 운동장",
    "address": "충청남도 공주시 교동 199-1",
    "lat": "36.459522450700454",
    "lng": "127.11693942546843",
    "region": "충청남도"
  },
  {
    "name": "공주금성여자고등학교 운동장",
    "address": "충청남도 공주시 웅진동 277",
    "lat": "36.45787714224267",
    "lng": "127.11187760032794",
    "region": "충청남도"
  },
  {
    "name": "효포초등학교 운동장",
    "address": "충청남도 공주시 신기동 407",
    "lat": "36.428750",
    "lng": "127.148108",
    "region": "충청남도"
  },
  {
    "name": "충화초등학교 운동장",
    "address": "충청남도 부여군 충화면 천당리 463-1",
    "lat": "36.18272341654642",
    "lng": "126.81468254537639",
    "region": "충청남도"
  },
  {
    "name": "배방고등학교 운동장",
    "address": "충청남도 아산시 배방읍 북수리 729",
    "lat": "36.768642035491915",
    "lng": "127.06673099764429",
    "region": "충청남도"
  },
  {
    "name": "방아다리공원",
    "address": "충청남도 천안시 서북구 쌍용동 1563",
    "lat": "36.793093564567",
    "lng": "127.11792701586504",
    "region": "충청남도"
  },
  {
    "name": "천안성신초등학교 운동장",
    "address": "충청남도 천안시 서북구 성환읍 성환리 449-5",
    "lat": "36.91856177553727",
    "lng": "127.12890987837719",
    "region": "충청남도"
  },
  {
    "name": "천안신흥초등학교 운동장",
    "address": "충청남도 천안시 동남구 목천읍 신계리 105-9",
    "lat": "36.77366666835143",
    "lng": "127.21661204612701",
    "region": "충청남도"
  },
  {
    "name": "천안아름초등학교 운동장",
    "address": "충청남도 천안시 서북구 불당동 1574",
    "lat": "36.813482",
    "lng": "127.102472",
    "region": "충청남도"
  },
  {
    "name": "천안쌍정초등학교 운동장",
    "address": "충청남도 천안시 서북구 쌍��동 2076",
    "lat": "36.786869142715965",
    "lng": "127.11521005359901",
    "region": "충청남도"
  },
  {
    "name": "천안청룡초등학교 운동장",
    "address": "충청남도 천안시 동남구 용곡동 584",
    "lat": "36.78072151760657",
    "lng": "127.13950212130004",
    "region": "충청남도"
  },
  {
    "name": "천안안서초등학교 운동장",
    "address": "충청남도 천안시 동남구 안서동 318-7",
    "lat": "36.832163676679954",
    "lng": "127.17551327340922",
    "region": "충청남도"
  },
  {
    "name": "정수초등학교 운동장",
    "address": "서울특별시 성북구 정릉동 431-62",
    "lat": "37.60429094205992",
    "lng": "127.00819572492829",
    "region": "서울특별시"
  },
  {
    "name": "장위중학교 운동장",
    "address": "서울특별시 성북구 장위동 231-623",
    "lat": "37.61166082975689",
    "lng": "127.04097176320458",
    "region": "서울특별시"
  },
  {
    "name": "무궁화어린이공원",
    "address": "서울특별시 도봉구 방학동 655-31",
    "lat": "37.667820418550214",
    "lng": "127.04216303511825",
    "region": "서울특별시"
  },
  {
    "name": "명륜공원",
    "address": "서울특별시 종로구 명륜1가 23-9",
    "lat": "37.58808901041688",
    "lng": "126.99812024831772",
    "region": "서울특별시"
  },
  {
    "name": "서울사대부설여자중학교 운동장",
    "address": "서울특별시 종로구 이화동 149",
    "lat": "37.57748662759197",
    "lng": "127.00344979763031",
    "region": "서울특별시"
  },
  {
    "name": "우성중학교 운동장",
    "address": "충청남도 공주시 우성면 방흥리 20",
    "lat": "36.46376346601281",
    "lng": "127.05420255661014",
    "region": "충청남도"
  },
  {
    "name": "상서초등학교 운동장",
    "address": "충청남도 공주시 우성면 상서리 710-3",
    "lat": "36.47885759646045",
    "lng": "127.07797016561726",
    "region": "충청남도"
  },
  {
    "name": "신풍초등학교 운동장",
    "address": "충청남도 공주시 신풍면 산정리 191",
    "lat": "36.51693827577655",
    "lng": "126.95371409026009",
    "region": "충청남도"
  },
  {
    "name": "공주정보고등학교 운동장",
    "address": "충청남도 공주시 송선동 566-1",
    "lat": "36.48530579394908",
    "lng": "127.15727448463436",
    "region": "충청남도"
  },
  {
    "name": "부여초등학교 운동장",
    "address": "충청남도 부여군 부여읍 쌍북리 228-1",
    "lat": "36.285896581092665",
    "lng": "126.92278928817632",
    "region": "충청남도"
  },
  {
    "name": "세도초등학교 운동장",
    "address": "충청남도 부여군 세도면 청송리 466-3",
    "lat": "36.17524892557061",
    "lng": "126.94768838502267",
    "region": "충청남도"
  },
  {
    "name": "신창중학교 운동장",
    "address": "충청남도 아산시 신창면 오목리 268-4",
    "lat": "36.79966343870883",
    "lng": "126.93068951368335",
    "region": "충청남도"
  },
  {
    "name": "천안차암초등학교 운동장",
    "address": "충청남도 천안시 서북구 차암동 549",
    "lat": "36.84459914483129",
    "lng": "127.10596552602964",
    "region": "충청남도"
  },
  {
    "name": "천안신촌초등학교 운동장",
    "address": "충청남도 천안시 동남구 신방동 768-1",
    "lat": "36.78683100517804",
    "lng": "127.12329379186633",
    "region": "충청남도"
  },
  {
    "name": "천안봉명초등학교 운동장",
    "address": "충청남도 천안시 동남구 봉명동 214",
    "lat": "36.80565938087312",
    "lng": "127.13505987090929",
    "region": "충청남도"
  },
  {
    "name": "천안신안초등학교 운동장",
    "address": "충청남도 천안시 동남구 신부동 58-11",
    "lat": "36.81494657762777",
    "lng": "127.16223885477521",
    "region": "충청남도"
  },
  {
    "name": "숭곡초등학교 운동장",
    "address": "서울특별시 성북구 하월곡동 84-86",
    "lat": "37.608422087499505",
    "lng": "127.03235096379493",
    "region": "서울특별시"
  },
  {
    "name": "해태어린이공원",
    "address": "서울특별시 도봉구 도봉동 614-37",
    "lat": "37.672007648726684",
    "lng": "127.04118970135649",
    "region": "서울특별시"
  },
  {
    "name": "신창어린이공원",
    "address": "서울특별시 도봉구 창동 449-103",
    "lat": "37.64006006760134",
    "lng": "127.04083317536725",
    "region": "서울특별시"
  },
  {
    "name": "유만어린이공원",
    "address": "서울특별시 도봉구 창동 33-4",
    "lat": "37.65038091704941",
    "lng": "127.05294658546752",
    "region": "서울특별시"
  },
  {
    "name": "모랫어린이공원",
    "address": "서울특별시 도봉구 창동 30-1",
    "lat": "37.64683602552717",
    "lng": "127.05177031144629",
    "region": "서울특별시"
  },
  {
    "name": "대창어린이공원",
    "address": "서울특별시 도봉구 창동 38-4",
    "lat": "37.64434316099331",
    "lng": "127.05222320310922",
    "region": "서울특별시"
  },
  {
    "name": "숭실대학교 운동장",
    "address": "서울특별시 동작구 상도동 511",
    "lat": "37.4972739778768",
    "lng": "126.9560464562546",
    "region": "서울특별시"
  },
  {
    "name": "중목초등학교 운동장",
    "address": "서울특별시 중랑구 면목동 180-5",
    "lat": "37.58981932734955",
    "lng": "127.07956293414841",
    "region": "서울특별시"
  },
  {
    "name": "천안두정초등학교 운동장",
    "address": "충청남도 천안시 서북구 두정동 1626",
    "lat": "36.83614636524133",
    "lng": "127.14736413452049",
    "region": "충청남도"
  },
  {
    "name": "천안초등학교 운동장",
    "address": "충청남도 천안시 동남구 성황동 36",
    "lat": "36.813207739655674",
    "lng": "127.15160848206781",
    "region": "충청남도"
  },
  {
    "name": "성덕고등학교 운동장(성덕여자중학교 운동장)",
    "address": "서울특별시 강동구 천호동 23-3",
    "lat": "37.54988659416202",
    "lng": "127.14226164333851",
    "region": "서울특별시"
  },
  {
    "name": "가람초등학교 운동장",
    "address": "경상남도 진주시 상평동 278-1",
    "lat": "35.173337663501385",
    "lng": "128.10156780744964",
    "region": "경상남도"
  },
  {
    "name": "일선어린이공원",
    "address": "서울특별시 관악구 봉천동 1587-7",
    "lat": "37.477976112715986",
    "lng": "126.94945468326344",
    "region": "서울특별시"
  },
  {
    "name": "강동고등학교 운동장",
    "address": "서울특별시 강동구 상일동 267",
    "lat": "37.55025072686406",
    "lng": "127.16101948084548",
    "region": "서울특별시"
  },
  {
    "name": "수경공원",
    "address": "서울특별시 중랑구 중화동 381-3",
    "lat": "37.60322332474716",
    "lng": "127.07393273216054",
    "region": "서울특별시"
  },
  {
    "name": "방화근린공원",
    "address": "서울특별시 강서구 방화동 855",
    "lat": "37.5815041475947",
    "lng": "126.81282520294185",
    "region": "서울특별시"
  },
  {
    "name": "송곡고등학교운동장",
    "address": "서울특별시 중랑구 망우동 239-1",
    "lat": "37.60540497150212",
    "lng": "127.10716009140016",
    "region": "서울특별시"
  },
  {
    "name": "도선고등학교 운동장",
    "address": "서울특별시 성동구 하왕십리동 1070-4",
    "lat": "37.5663233935879",
    "lng": "127.02700948976572",
    "region": "서울특별시"
  },
  {
    "name": "마장초등학교 운동장",
    "address": "서울특별시 성동구 마장동 766-49",
    "lat": "37.56795554182414",
    "lng": "127.04224901067822",
    "region": "서울특별시"
  },
  {
    "name": "동마중학교 운동장",
    "address": "서울특별시 성동구 마장동 405-45",
    "lat": "37.56231433204862",
    "lng": "127.03987680590537",
    "region": "서울특별시"
  },
  {
    "name": "행당중학교 운동장",
    "address": "서울특별시 성동구 행당동 66-3",
    "lat": "37.55414700296215",
    "lng": "127.04253734224287",
    "region": "서울특별시"
  },
  {
    "name": "한양광장",
    "address": "서울특별시 성동구 행당동 20-2",
    "lat": "37.55811773743908",
    "lng": "127.03999577993957",
    "region": "서울특별시"
  },
  {
    "name": "무지개텃밭",
    "address": "서울특별시 성동구 행당동 378",
    "lat": "37.5539302256489",
    "lng": "127.04108322178463",
    "region": "서울특별시"
  },
  {
    "name": "어린이꿈공원",
    "address": "서울특별시 성동구 행당동 142-16",
    "lat": "37.55917098008467",
    "lng": "127.03637561875325",
    "region": "서울특별시"
  },
  {
    "name": "금곡초등학교 운동장",
    "address": "충청남도 아산시 배방읍 중리 345",
    "lat": "36.7497780164572",
    "lng": "127.04093593535848",
    "region": "충청남도"
  },
  {
    "name": "신광초등학교 운동장",
    "address": "충청남도 아산시 배미동 174-2",
    "lat": "36.78870279550803",
    "lng": "126.96970139516415",
    "region": "충청남도"
  },
  {
    "name": "쌍용공원",
    "address": "충청남도 천안시 서북구 쌍용동 산84",
    "lat": "36.81086634252401",
    "lng": "127.12977203310945",
    "region": "충청남도"
  },
  {
    "name": "천안소망초등학교 운동장",
    "address": "충청남도 천안시 서북구 성거읍 소우리 188-29",
    "lat": "36.87579481179811",
    "lng": "127.16208806600838",
    "region": "충청남도"
  },
  {
    "name": "금마중학교 운동장",
    "address": "충청남도 홍성군 금마면 화양리 306-2",
    "lat": "36.62104596634636",
    "lng": "126.72309942982005",
    "region": "충청남도"
  },
  {
    "name": "배양초등학교 운동장",
    "address": "충청남도 홍성군 금마면 죽림리 381-2",
    "lat": "36.613740",
    "lng": "126.709690",
    "region": "충청남도"
  },
  {
    "name": "새숲어린이공원",
    "address": "서울특별시 관악구 신림동 539-14",
    "lat": "37.48240076618594",
    "lng": "126.91309324844578",
    "region": "서울특별시"
  },
  {
    "name": "앵봉산주민쉼터",
    "address": "서울특별시 은평구 갈현동 산49-22",
    "lat": "37.62437004059601",
    "lng": "126.91223703297865",
    "region": "서울특별시"
  },
  {
    "name": "명일여자고등학교 운동장",
    "address": "서울특별시 강동구 명일동 40",
    "lat": "37.549569209993166",
    "lng": "127.15025473252508",
    "region": "서울특별시"
  },
  {
    "name": "세곡초등학교 운동장",
    "address": "서울특별시 구로구 고척동 253-129",
    "lat": "37.504567960767716",
    "lng": "126.84908918975262",
    "region": "서울특별시"
  },
  {
    "name": "돌마초등학교 운동장",
    "address": "경기도 성남시 분당구 야탑동 515",
    "lat": "37.40885542862047",
    "lng": "127.1301043888652",
    "region": "경기도"
  },
  {
    "name": "국립국악고등학교 운동장",
    "address": "서울특별시 강남구 개포동 1272",
    "lat": "37.47613444066529",
    "lng": "127.05147200634636",
    "region": "서울특별시"
  },
  {
    "name": "동자초등학교 운동장 ",
    "address": "서울특별시 광진구 자양동 518-1",
    "lat": "37.53452175429334",
    "lng": "127.0725917816162",
    "region": "서울특별시"
  },
  {
    "name": "성자초등학교 운동장",
    "address": "서울특별시 광진구 자양동 662",
    "lat": "37.53108943451444",
    "lng": "127.08310001765778",
    "region": "서울특별시"
  },
  {
    "name": "광진중학교 운동장",
    "address": "서울특별시 광진구 자양동 693",
    "lat": "37.531564950401496",
    "lng": "127.08966426610938",
    "region": "서울특별시"
  },
  {
    "name": "구남초등학교 운동장",
    "address": "서울특별시 광진구 구의동 587-95",
    "lat": "37.53666241887976",
    "lng": "127.09220478990484",
    "region": "서울특별시"
  },
  {
    "name": "홍주중학교 운동장",
    "address": "충청남도 홍성군 홍성읍 오관리 516",
    "lat": "36.59331488995944",
    "lng": "126.66187487812503",
    "region": "충청남도"
  },
  {
    "name": "비안어린이공원",
    "address": "서울특별시 관악구 봉천동 1530-14",
    "lat": "37.48087663389702",
    "lng": "126.94019238637209",
    "region": "서울특별시"
  },
  {
    "name": "연신어린이공원",
    "address": "서울특별시 은평구 불광동 339",
    "lat": "37.619769951810326",
    "lng": "126.92509707100814",
    "region": "서울특별시"
  },
  {
    "name": "송곡여자중학교운동장",
    "address": "서울특별시 중랑구 망우동 252-1",
    "lat": "37.60598720060037",
    "lng": "127.10490167140959",
    "region": "서울특별시"
  },
  {
    "name": "장안초등학교 운동장",
    "address": "서울특별시 광진구 군자동 365",
    "lat": "37.550006500553984",
    "lng": "127.07185444298301",
    "region": "서울특별시"
  },
  {
    "name": "건국대학교사범대학부속고등학교 운동장",
    "address": "서울특별시 광진구 화양동 528",
    "lat": "37.53946841060092",
    "lng": "127.08051004919119",
    "region": "서울특별시"
  },
  {
    "name": "동국대학교 사범대학 부속여자중고등학교 운동장",
    "address": "서울��별시 광진구 구의동 238-1",
    "lat": "37.54264202743345",
    "lng": "127.08683431148526",
    "region": "서울��별시"
  },
  {
    "name": "광진초등학교 운동장",
    "address": "서울특별시 광진구 구의동 60-44",
    "lat": "37.54761236317009",
    "lng": "127.09081991452032",
    "region": "서울특별시"
  },
  {
    "name": "광장초등학교 운동장 ",
    "address": "서울특별시 광진구 광장동 389-1",
    "lat": "37.54815715737261",
    "lng": "127.10143294786417",
    "region": "서울특별시"
  },
  {
    "name": "세종초등학교 운동장",
    "address": "서울특별시 광진구 군자동 98",
    "lat": "37.55269986123626",
    "lng": "127.07300832004123",
    "region": "서울특별시"
  },
  {
    "name": "대원외국어고등학교 운동장 ",
    "address": "서울특별시 광진구 중곡동 176-124",
    "lat": "37.56302997324606",
    "lng": "127.08921548445375",
    "region": "서울특별시"
  },
  {
    "name": "문래공원",
    "address": "서울특별시 영등포구 문래동3가 66",
    "lat": "37.517146760042465",
    "lng": "126.89401030540469",
    "region": "서울특별시"
  },
  {
    "name": "양평어린이공원",
    "address": "서울특별시 영등포구 양평동4가 301-7",
    "lat": "37.53810558783385",
    "lng": "126.89813286066368",
    "region": "서울특별시"
  },
  {
    "name": "두암어린이공원",
    "address": "서울특별시 영등포구 대림동 715",
    "lat": "37.49550532162447",
    "lng": "126.89738988876341",
    "region": "서울특별시"
  },
  {
    "name": "꽃재어린이공원",
    "address": "서울특별시 성동구 하왕십리동 1069",
    "lat": "37.56738447674863",
    "lng": "127.028336673975",
    "region": "서울특별시"
  },
  {
    "name": "성수공원",
    "address": "서울특별시 성동구 성수동2가 302-25",
    "lat": "37.544791032382605",
    "lng": "127.05241444588907",
    "region": "서울특별시"
  },
  {
    "name": "청소년문화공원",
    "address": "경기도 수원시 팔달구 인계동 323-21",
    "lat": "37.274761414828745",
    "lng": "127.03356027603151",
    "region": "경기도"
  },
  {
    "name": "교체어린이공원",
    "address": "서울특별시 관악구 봉천동 196-193",
    "lat": "37.473337831459105",
    "lng": "126.96402852543815",
    "region": "서울특별시"
  },
  {
    "name": "남부창의어린이공원",
    "address": "서울특별시 관악구 신림동 483-14",
    "lat": "37.48498341449375",
    "lng": "126.92057758569717",
    "region": "서울특별시"
  },
  {
    "name": "수림대공원(서울장미공원)",
    "address": "서울특별시 중랑구 묵동 375",
    "lat": "37.6151525884543",
    "lng": "127.07309195268093",
    "region": "서울특별시"
  },
  {
    "name": "무지개어린이공원",
    "address": "서울특별시 강서구 화곡동 806-10",
    "lat": "37.53395965249317",
    "lng": "126.86129247150993",
    "region": "서울특별시"
  },
  {
    "name": "더부리어린이공원",
    "address": "서울특별시 강서구 화곡동 339-19",
    "lat": "37.534882644769766",
    "lng": "126.84673013140899",
    "region": "서울특별시"
  },
  {
    "name": "공암나루근린공원",
    "address": "서울특별시 강서구 가양동 1459-9",
    "lat": "37.570282182474315",
    "lng": "126.84984505176543",
    "region": "서울특별시"
  },
  {
    "name": "고원초등학교 운동장",
    "address": "서울특별시 구로구 고척동 66-26",
    "lat": "37.49720935150677",
    "lng": "126.8653615044176",
    "region": "서울특별시"
  },
  {
    "name": "개웅초등학교 운동장",
    "address": "서울특별시 구로구 개봉동 273-15",
    "lat": "37.487264989456804",
    "lng": "126.85125589370723",
    "region": "서울특별시"
  },
  {
    "name": "신도림고등학교 운동장",
    "address": "서울특별시 구로구 신도림동 270-2",
    "lat": "37.513553898764414",
    "lng": "126.88157518383296",
    "region": "서울특별시"
  },
  {
    "name": "구의초등학교 운동장",
    "address": "서울특별시 광진구 화양동 303-9",
    "lat": "37.542715346733914",
    "lng": "127.08015230792715",
    "region": "서울특별시"
  },
  {
    "name": "광남초���학교 운동장",
    "address": "서울특별시 광진구 광장동 554",
    "lat": "37.54082648459045",
    "lng": "127.10102220154926",
    "region": "서울특별시"
  },
  {
    "name": "용마초등학교 운동장",
    "address": "서울특별시 광진구 중곡동 135-1",
    "lat": "37.557890547123954",
    "lng": "127.08417215136804",
    "region": "서울특별시"
  },
  {
    "name": "중광초등학교 운동장 ",
    "address": "서울특별시 광진구 중곡동 220-22",
    "lat": "37.56500783690997",
    "lng": "127.08263104557759",
    "region": "서울특별시"
  },
  {
    "name": "왕십리문화공원",
    "address": "서울특별시 성동구 도선동 35-2",
    "lat": "37.561791780819426",
    "lng": "127.03529221204066",
    "region": "서울특별시"
  },
  {
    "name": "안계1리마을회관 앞 공터",
    "address": "경상북도 경주시 강동면 안계리 579-2",
    "lat": "36.03148677124287",
    "lng": "129.2631782213548",
    "region": "경상북도"
  },
  {
    "name": "예산중앙초등학교",
    "address": "충청남도 예산군 예산읍 주교리 250-5",
    "lat": "36.683600",
    "lng": "126.831525",
    "region": "충청남도"
  },
  {
    "name": "오가초등학교",
    "address": "충청남도 예산군 오가면 역탑리 242-1",
    "lat": "36.687512",
    "lng": "126.794028",
    "region": "충청남도"
  },
  {
    "name": "예산전자공업고등학교",
    "address": "충청남도 예산군 예산읍 관작리 315-7",
    "lat": "36.713684",
    "lng": "126.838274",
    "region": "충청남도"
  },
  {
    "name": "가야곡초등학교 운동장",
    "address": "충청남도 논산시 가야곡면 강청리 343-14",
    "lat": "36.14424294861335",
    "lng": "127.16923713684083",
    "region": "충청남도"
  },
  {
    "name": "상읍2리 마을회관",
    "address": "경상북도 포항시 북구 신광면 상읍리 628-3",
    "lat": "36.1467439160894",
    "lng": "129.24734070381487",
    "region": "경상북도"
  },
  {
    "name": "역전근린공원",
    "address": "경기도 의정부시 의정부동 222-20",
    "lat": "37.73960060838148",
    "lng": "127.04700618982316",
    "region": "경기도"
  },
  {
    "name": "직동근린공원",
    "address": "경기도 의정부시 의정부동 산4-5",
    "lat": "37.739536975572726",
    "lng": "127.03273952007294",
    "region": "경기도"
  },
  {
    "name": "전주신동초등학교(운동장)",
    "address": "전북특별자치도 전주시 덕진구 송천동2가 1269",
    "lat": "35.868844527650346",
    "lng": "127.12688315621729",
    "region": "전북특별자치도"
  },
  {
    "name": "전주전일초등학교(운동장)",
    "address": "전북특별자치도 전주시 덕진구 진북동 382-1",
    "lat": "35.829918929215005",
    "lng": "127.13703653840152",
    "region": "전북특별자치도"
  },
  {
    "name": "전주우아중학교(운동장)",
    "address": "전북특별자치도 전주시 덕진구 우아동3가 602-21",
    "lat": "35.85409822328451",
    "lng": "127.15357949434934",
    "region": "전북특별자치도"
  },
  {
    "name": "대진리 마을회관",
    "address": "경상북도 포항시 남구 장기면 대진리 119",
    "lat": "35.925013774705626",
    "lng": "129.51712220907308",
    "region": "경상북도"
  },
  {
    "name": "용한2리 마을회관",
    "address": "경상북도 포항시 북구 흥해읍 용한리 197",
    "lat": "36.10226375778126",
    "lng": "129.43105548620372",
    "region": "경상북도"
  },
  {
    "name": "양백1리 마을회관",
    "address": "경상북도 포항시 북구 흥해읍 양백리 477",
    "lat": "36.1259513086901",
    "lng": "129.32074964046626",
    "region": "경상북도"
  },
  {
    "name": "장수경찰서",
    "address": "전북특별자치도 장수군 장수읍 장수리 546",
    "lat": "35.64677580401289",
    "lng": "127.5165624030778",
    "region": "전북특별자치도"
  },
  {
    "name": "용진읍행정복지센터 주차장",
    "address": "전북특별자치도 완주군 용진읍 용흥리 819",
    "lat": "35.88350760008299",
    "lng": "127.15689171680202",
    "region": "전북특별자치도"
  },
  {
    "name": "상관면행정복지센터 주차장",
    "address": "전북특별자치도 완주군 상관면 신리 602-2",
    "lat": "35.77146260702061",
    "lng": "127.20693727038115",
    "region": "전북특별자치도"
  },
  {
    "name": "삼례 수도산 근린공원",
    "address": "전북특별자치도 완주군 삼례읍 후정리 115-1",
    "lat": "35.9032032",
    "lng": "127.06823340000005",
    "region": "전북특별자치도"
  },
  {
    "name": "지사울문화공원 운동장",
    "address": "전북특별자치도 완주군 이서면 용서리 777-1",
    "lat": "35.82925343511775",
    "lng": "127.02171513768954",
    "region": "전북특별자치도"
  },
  {
    "name": "요죽공원",
    "address": "전북특별자치도 군산시 오식도동 661",
    "lat": "35.96504810987504",
    "lng": "126.56994453220904",
    "region": "전북특별자치도"
  },
  {
    "name": "상서중학교 운동장",
    "address": "전북특별자치도 부안군 상서면 용서리 117",
    "lat": "35.687862229349186",
    "lng": "126.67668700218623",
    "region": "전북특별자치도"
  },
  {
    "name": "덕산공원",
    "address": "전북특별자치도 고창군 고창읍 읍내리 1180",
    "lat": "35.42719125146535",
    "lng": "126.6956582665447",
    "region": "전북특별자치도"
  },
  {
    "name": "무장초등학교",
    "address": "전북특별자치도 고창군 무장면 무장리 21-1",
    "lat": "35.4149355632389",
    "lng": "126.56422208470468",
    "region": "전북특별자치도"
  },
  {
    "name": "창지2리 마을회관",
    "address": "경상북도 포항시 남구 장기면 창지리 470-1",
    "lat": "35.92712711623734",
    "lng": "129.48242247105",
    "region": "경상북도"
  },
  {
    "name": "월성초등학교",
    "address": "전북특별자치도 김제시 월성동 139-7",
    "lat": "35.76019537049001",
    "lng": "126.91024672265205",
    "region": "전북특별자치도"
  },
  {
    "name": "황산초등학교",
    "address": "전북특별자치도 김제시 황산면 봉월리 524-2",
    "lat": "35.79643376608182",
    "lng": "126.94396147068653",
    "region": "전북특별자치도"
  },
  {
    "name": "덕암정보고등학교",
    "address": "전북특별자치도 김제시 서암동 5",
    "lat": "35.8132608257477",
    "lng": "126.88681629845776",
    "region": "전북특별자치도"
  },
  {
    "name": "어룡초등학교",
    "address": "경기도 의정부시 용현동 547-5",
    "lat": "37.747519",
    "lng": "127.082599",
    "region": "경기도"
  },
  {
    "name": "송산사지근린공원",
    "address": "경기도 의정부시 민락동 878",
    "lat": "37.74704102765564",
    "lng": "127.11024999618532",
    "region": "경기도"
  },
  {
    "name": "한일장신대 운동장",
    "address": "전북특별자치도 완주군 상관면 신리 694-1",
    "lat": "35.76377325026096",
    "lng": "127.20652533983804",
    "region": "전북특별자치도"
  },
  {
    "name": "배다리공원",
    "address": "서울특별시 강서구 화곡동 341-24",
    "lat": "37.532123326314036",
    "lng": "126.84829325405428",
    "region": "서울특별시"
  },
  {
    "name": "구일초등학교 운동장",
    "address": "서울특별시 구로구 구로동 685-221",
    "lat": "37.492709945406965",
    "lng": "126.87300800355335",
    "region": "서울특별시"
  },
  {
    "name": "내촌어린이공원",
    "address": "서울특별시 강서구 개화동 551-26",
    "lat": "37.577597924511025",
    "lng": "126.80136976326699",
    "region": "서울특별시"
  },
  {
    "name": "신대부석공원",
    "address": "서울특별시 강서구 개화동 411",
    "lat": "37.58287464269459",
    "lng": "126.79886522878734",
    "region": "서울특별시"
  },
  {
    "name": "어린이 3공원",
    "address": "전북특별자치도 군산시 서흥남동 843-18",
    "lat": "35.97583673787983",
    "lng": "126.71652777293865",
    "region": "전북특별자치도"
  },
  {
    "name": "어린이 9공원",
    "address": "전북특별자치도 군산시 소룡동 1544",
    "lat": "35.96948999493106",
    "lng": "126.68355309556726",
    "region": "전북특별자치도"
  },
  {
    "name": "어린이 14공원",
    "address": "전북특별자치도 군산시 산북동 3615-6",
    "lat": "35.959860403671236",
    "lng": "126.67609155178064",
    "region": "전북특별자치도"
  },
  {
    "name": "어린이 17공원",
    "address": "전북특별자치도 군산시 나운동 735-3",
    "lat": "35.973931938895376",
    "lng": "126.69624567031856",
    "region": "전북특별자치도"
  },
  {
    "name": "어린이 19공원",
    "address": "전북특별자치도 군산시 나운동 747-5",
    "lat": "35.97131444333537",
    "lng": "126.69672487104411",
    "region": "전북특별자치도"
  },
  {
    "name": "임피문화마을",
    "address": "전북특별자치도 군산시 임피면 영창리 1228-1",
    "lat": "35.970153262590934",
    "lng": "126.87302225604286",
    "region": "전북특별자치도"
  },
  {
    "name": "나포원주곡마을",
    "address": "전북특별자치도 군산시 나포면 주곡리 1131-7",
    "lat": "36.00735381258167",
    "lng": "126.82366975670195",
    "region": "전북특별자치도"
  },
  {
    "name": "흥덕중학교",
    "address": "전북특별자치도 고창군 흥덕면 흥덕리 436",
    "lat": "35.52345644611566",
    "lng": "126.70160325655971",
    "region": "전북특별자치도"
  },
  {
    "name": "용진중학교 운동장",
    "address": "전북특별자치도 완주군 용진읍 상운리 121-1",
    "lat": "35.882204828703365",
    "lng": "127.1537232398987",
    "region": "전북특별자치도"
  },
  {
    "name": "동화분교 운동장",
    "address": "전북특별자치도 장수군 번암면 동화리 754",
    "lat": "35.567600248249825",
    "lng": "127.55727120766015",
    "region": "전북특별자치도"
  },
  {
    "name": "구평3리 마을회관",
    "address": "경상북도 포항시 남구 구룡포읍 구평리 1072",
    "lat": "35.960691408699574",
    "lng": "129.51760012227638",
    "region": "경상북도"
  },
  {
    "name": "승학초등학교 운동장",
    "address": "인천광역시 미추홀구 관교동 13-4",
    "lat": "37.440328930970004",
    "lng": "126.69608302775929",
    "region": "인천광역시"
  },
  {
    "name": "청원초등학교 운동장",
    "address": "경기도 화성시 마도면 청원리 228-14",
    "lat": "37.18757435590903",
    "lng": "126.76105320453638",
    "region": "경기도"
  },
  {
    "name": "반곡리 마을회관",
    "address": "경상북도 포항시 북구 신광면 반곡리 389-6",
    "lat": "36.17016742783989",
    "lng": "129.27087065119224",
    "region": "경상북도"
  },
  {
    "name": "어린이 49공원",
    "address": "전북특별자치도 군산시 오식도동 806-4",
    "lat": "35.96694103555075",
    "lng": "126.56468525066029",
    "region": "전북특별자치도"
  },
  {
    "name": "나포문화마을",
    "address": "전북특별자치도 군산시 나포면 옥곤리 459-11",
    "lat": "36.02939692409046",
    "lng": "126.83298736810359",
    "region": "전북특별자치도"
  },
  {
    "name": "월곡공원",
    "address": "전북특별자치도 고창군 고창읍 월곡리 756",
    "lat": "35.436163306499964",
    "lng": "126.71403161164811",
    "region": "전북특별자치도"
  },
  {
    "name": "덕산 주차장",
    "address": "전북특별자치도 고창군 고창읍 읍내리 1177",
    "lat": "35.427014217220865",
    "lng": "126.6953873634338",
    "region": "전북특별자치도"
  },
  {
    "name": "전북체육중학교 운동장",
    "address": "전북특별자치도 완주군 소양면 해월리 377-19",
    "lat": "35.86586212793156",
    "lng": "127.24989817046725",
    "region": "전북특별자치도"
  },
  {
    "name": "후동리 마을회관",
    "address": "경상북도 포항시 남구 구룡포읍 후동리 226-1",
    "lat": "35.987104634221396",
    "lng": "129.5320728421219",
    "region": "경상북도"
  },
  {
    "name": "푸른마당근린공원",
    "address": "경기도 의정부시 민락동 887",
    "lat": "37.748052",
    "lng": "127.107700",
    "region": "경기도"
  },
  {
    "name": "어린이 13공원",
    "address": "전북특별자치도 군산시 산북동 3595",
    "lat": "35.96307567309168",
    "lng": "126.67699545621868",
    "region": "전북특별자치도"
  },
  {
    "name": "영덕 룰루랄라 체험캠핑장 앞 ",
    "address": "경상북도 영덕군 창수면 미곡리 583",
    "lat": "36.58575017119692",
    "lng": "129.34173334995344",
    "region": "경상북도"
  },
  {
    "name": "어린이 78공원",
    "address": "전북특별자치도 군산시 수송동 798-6",
    "lat": "35.965255252909984",
    "lng": "126.71364004477398",
    "region": "전북특별자치도"
  },
  {
    "name": "회현구율문화마을",
    "address": "전북특별자치도 군산시 회현면 원우리 558-1",
    "lat": "35.93628477803562",
    "lng": "126.77708510164013",
    "region": "전북특별자치도"
  },
  {
    "name": "용흥중학교(운동장)",
    "address": "전북특별자치도 전주시 완산구 삼천동1가 305-35",
    "lat": "35.791280544022385",
    "lng": "127.11377101576956",
    "region": "전북특별자치도"
  },
  {
    "name": "동상초등학교 운동장",
    "address": "전북특별자치도 완주군 동상면 신월리 286",
    "lat": "35.95755370202637",
    "lng": "127.29368257779475",
    "region": "전북특별자치도"
  },
  {
    "name": "상관중학교 운동장",
    "address": "전북특별자치도 완주군 상관면 신리 603-5",
    "lat": "35.771284701717704",
    "lng": "127.20575939273026",
    "region": "전북특별자치도"
  },
  {
    "name": "삼정2리 마을회관",
    "address": "경상북도 포항시 남구 구룡포읍 삼정리 148-40",
    "lat": "36.005410487947145",
    "lng": "129.57431892174384",
    "region": "경상북도"
  },
  {
    "name": "연일읍행정복지센터",
    "address": "경상북도 포항시 남구 연일읍 괴정리 289-1",
    "lat": "35.99189773493576",
    "lng": "129.3441524409176",
    "region": "경상북도"
  },
  {
    "name": "인천남중학교 운동장",
    "address": "인천광역시 미추홀구 숭의동 41-3",
    "lat": "37.46462106934627",
    "lng": "126.6541392239068",
    "region": "인천광역시"
  },
  {
    "name": "산흥초등학교 운동장",
    "address": "대전광역시 동구 상소동 662-1",
    "lat": "36.22876077937815",
    "lng": "127.44838433135592",
    "region": "대전광역시"
  },
  {
    "name": "문덕1 어린이공원",
    "address": "경상북도 포항시 남구 오천읍 문덕리 219-5",
    "lat": "35.96188695591209",
    "lng": "129.4016439650203",
    "region": "경상북도"
  },
  {
    "name": "공수리 마을회관",
    "address": "경상북도 포항시 남구 대송면 공수리 207",
    "lat": "35.96443492046112",
    "lng": "129.35202537433307",
    "region": "경상북도"
  },
  {
    "name": "마현리 마을회관 ",
    "address": "경상북도 포항시 남구 장기면 마현리 134",
    "lat": "35.89904090998173",
    "lng": "129.50010359287882",
    "region": "경상북도"
  },
  {
    "name": "이���트주차장",
    "address": "경상북도 포항시 남구 인덕동 161-176",
    "lat": "35.99157534090423",
    "lng": "129.39773976802744",
    "region": "경상북도"
  },
  {
    "name": "성모병원 야외주차장",
    "address": "경상북도 포항시 남구 대잠동 733-7",
    "lat": "36.014165895528855",
    "lng": "129.33983892202747",
    "region": "경상북도"
  },
  {
    "name": "포항환경학교 운동장",
    "address": "경상북도 포항시 북구 신광면 만석리 800-68",
    "lat": "36.15888004258278",
    "lng": "129.276700290905",
    "region": "경상북도"
  },
  {
    "name": "금구중학교",
    "address": "전북특별자치도 김제시 금구면 금구리 163-1",
    "lat": "35.77475310592533",
    "lng": "127.01181451259944",
    "region": "전북특별자치도"
  },
  {
    "name": "종정초등학교",
    "address": "전북특별자치도 김제시 백산면 상정리 815-2",
    "lat": "35.85215719231717",
    "lng": "126.9054362502728",
    "region": "전북특별자치도"
  },
  {
    "name": "부춘초등학교 운동장",
    "address": "충청남도 서산시 읍내동 130",
    "lat": "36.77862799999992",
    "lng": "126.4465279999998",
    "region": "충청남도"
  },
  {
    "name": "청명초등학교 운동장",
    "address": "전북특별자치도 완주군 구이면 덕천리 196-1",
    "lat": "35.7513551480589",
    "lng": "127.1251321736206",
    "region": "전북특별자치도"
  },
  {
    "name": "전주예술고등학교 운동장",
    "address": "전북특별자치도 완주군 구이면 항가리 499-3",
    "lat": "35.72039326496593",
    "lng": "127.10957034593032",
    "region": "전북특별자치도"
  },
  {
    "name": "용현중학교 운동장",
    "address": "인천광역시 미추홀구 용현동 627-435",
    "lat": "37.44758850700733",
    "lng": "126.63907956066035",
    "region": "인천광역시"
  },
  {
    "name": "덕성1리 마을회관",
    "address": "경상북도 포항시 북구 흥해읍 덕성리 533",
    "lat": "36.1498781367657",
    "lng": "129.3053107627684",
    "region": "경상북도"
  },
  {
    "name": "덕장1리 마을회관",
    "address": "경상북도 포항시 북구 흥해읍 덕장리 1025-17",
    "lat": "36.134191611375094",
    "lng": "129.33439593436364",
    "region": "경상북도"
  },
  {
    "name": "알로이시오초등학교 운동장",
    "address": "부산광역시 서구 암남동 2-18",
    "lat": "35.08328511092019",
    "lng": "129.01580467602886",
    "region": "부산광역시"
  },
  {
    "name": "배명고등학교운동장",
    "address": "서울특별시 송파구 삼전동 172-1",
    "lat": "37.49831540154208",
    "lng": "127.09582535712562",
    "region": "서울특별시"
  },
  {
    "name": "삼례읍행정복지센터 주차장",
    "address": "전북특별자치도 완주군 삼례읍 삼례리 1691-14",
    "lat": "35.91238857556441",
    "lng": "127.07772921733108",
    "region": "전북특별자치도"
  },
  {
    "name": "완주산업단지 테니스장",
    "address": "전북특별자치도 완주군 봉동읍 용암리 766-1",
    "lat": "35.9520271",
    "lng": "127.14075890000004",
    "region": "전북특별자치도"
  },
  {
    "name": "전주효문초등학교(운동장)",
    "address": "전북특별자치도 전주시 완산구 효자동1가 654-1",
    "lat": "35.802023562444575",
    "lng": "127.11607002959441",
    "region": "전북특별자치도"
  },
  {
    "name": "전주아중중학교(운동장)",
    "address": "전북특별자치도 전주시 덕진구 우아동2가 888-1",
    "lat": "35.83235639625238",
    "lng": "127.17050013070782",
    "region": "전북특별자치도"
  },
  {
    "name": "전주덕일중학교(운동장)",
    "address": "전북특별자치도 전주시 덕진구 덕진동2가 613",
    "lat": "35.848117842581075",
    "lng": "127.11125784246111",
    "region": "전북특별자치도"
  },
  {
    "name": "고창초등학교",
    "address": "전북특별자치도 고창군 고창읍 교촌리 281-1",
    "lat": "35.435757194700734",
    "lng": "126.70352101372293",
    "region": "전북특별자치도"
  },
  {
    "name": "교흥마을광장",
    "address": "전북특별자치도 고창군 무장면 교흥리 101-1",
    "lat": "35.42831584072572",
    "lng": "126.56680142628046",
    "region": "전북특별자치도"
  },
  {
    "name": "복흥중학교 운동장",
    "address": "전북특별자치도 순창군 복흥면 정산리 686",
    "lat": "35.432703159916144",
    "lng": "126.92595005035918",
    "region": "전북특별자치도"
  },
  {
    "name": "영암3리 마을회관",
    "address": "경상북도 포항시 남구 장기면 영암리 375",
    "lat": "35.9116047947347",
    "lng": "129.5239940285774",
    "region": "경상북도"
  },
  {
    "name": "강사1리 마을회관",
    "address": "경상북도 포항시 남구 호미곶면 강사리 169-7",
    "lat": "36.039707426008896",
    "lng": "129.57786290760095",
    "region": "경상북도"
  },
  {
    "name": "현내리 마을회관",
    "address": "경상북도 포항시 북구 죽장면 현내리 247-1",
    "lat": "36.18302383462201",
    "lng": "129.08193379640957",
    "region": "경상북도"
  },
  {
    "name": "창지1리 마을회관",
    "address": "경상북도 포항시 남구 장기면 창지리 183-1",
    "lat": "35.93278703126091",
    "lng": "129.4795954227529",
    "region": "경상북도"
  },
  {
    "name": "경주치즈학교 운동장",
    "address": "경상북도 경주시 내남면 명계리 54-4",
    "lat": "35.73152067077945",
    "lng": "129.23726588487887",
    "region": "경상북도"
  },
  {
    "name": "동국대학교 운동장",
    "address": "경상북도 경주시 석장동 707",
    "lat": "35.86411748214526",
    "lng": "129.19464826584098",
    "region": "경상북도"
  },
  {
    "name": "계남중학교 운동장",
    "address": "전북특별자치도 장수군 계남면 화양리 540-4",
    "lat": "35.703994805199166",
    "lng": "127.57271270648396",
    "region": "전북특별자치도"
  },
  {
    "name": "계북중학교 운동장",
    "address": "전북특별자치도 장수군 계북면 어전리 792",
    "lat": "35.78927758918787",
    "lng": "127.61466427201302",
    "region": "전북특별자치도"
  },
  {
    "name": "달전리 마을회관",
    "address": "경상북도 포항시 남구 연일읍 달전리 128-6",
    "lat": "36.025661570433485",
    "lng": "129.2931443452872",
    "region": "경상북도"
  },
  {
    "name": "발산2리 마을회관",
    "address": "경상북도 포항시 남구 동해면 발산리 산13",
    "lat": "36.04409583789653",
    "lng": "129.5164194703151",
    "region": "경상북도"
  },
  {
    "name": "학곡리 마을회관",
    "address": "경상북도 포항시 남구 장기면 학곡리 495",
    "lat": "35.93167219508187",
    "lng": "129.4910951461333",
    "region": "경상북도"
  },
  {
    "name": "영암1리 마을회관",
    "address": "경상북도 포항시 남구 장기면 영암리 106-7",
    "lat": "35.904044542832764",
    "lng": "129.5269444584897",
    "region": "경상북도"
  },
  {
    "name": "용한1리 마을회관",
    "address": "경상북도 포항시 북구 흥해읍 용한리 535",
    "lat": "36.11154614864205",
    "lng": "129.42564935034102",
    "region": "경상북도"
  },
  {
    "name": "흥안2리 마을회관",
    "address": "경상북도 포항시 북구 흥해읍 흥안리 398-1",
    "lat": "36.123154330944026",
    "lng": "129.37650471926312",
    "region": "경상북도"
  },
  {
    "name": "서정1리 마을회관",
    "address": "경상북도 포항시 북구 청하면 서정리 589-1",
    "lat": "36.19097512887942",
    "lng": "129.31112319231306",
    "region": "경상북도"
  },
  {
    "name": "방흥리 마을회관",
    "address": "경상북도 포항시 북구 죽장면 방흥리 290-1",
    "lat": "36.181523540750824",
    "lng": "129.09437656402343",
    "region": "경상북도"
  },
  {
    "name": "완주군청 공원",
    "address": "전북특별자치도 완주군 용진읍 운곡리 975-78",
    "lat": "35.90409137853282",
    "lng": "127.16242607024421",
    "region": "전북특별자치도"
  },
  {
    "name": "고창북고등학교",
    "address": "전북특별자치도 고창군 흥덕면 흥덕리 157-1",
    "lat": "35.515458225407365",
    "lng": "126.69810412393664",
    "region": "전북특별자치도"
  },
  {
    "name": "고창여자고등학교",
    "address": "전북특별자치도 고창군 고창읍 교촌리 295",
    "lat": "35.439886433086365",
    "lng": "126.69759750366704",
    "region": "전북특별자치도"
  },
  {
    "name": "부안초등학교",
    "address": "전북특별자치도 고창군 부안면 오산리 202-2",
    "lat": "35.512202582003674",
    "lng": "126.66305482148786",
    "region": "전북특별자치도"
  },
  {
    "name": "매산리 공원2",
    "address": "전북특별자치도 고창군 대산면 매산리 198-25",
    "lat": "35.33957527485468",
    "lng": "126.59790305043197",
    "region": "전북특별자치도"
  },
  {
    "name": "외정공원",
    "address": "전북특별자치도 고창군 고창읍 석정리 131-1",
    "lat": "35.43129599332145",
    "lng": "126.74245356764474",
    "region": "전북특별자치도"
  },
  {
    "name": "해오름근린공원",
    "address": "경기도 의정부시 녹양동 399",
    "lat": "37.76251334672471",
    "lng": "127.03559339046481",
    "region": "경기도"
  },
  {
    "name": "충북생명산업고등학교 운동장",
    "address": "충청북도 보은군 보은읍 교사리 123",
    "lat": "36.4927371470732",
    "lng": "127.71696126243104",
    "region": "충청북도"
  },
  {
    "name": "창수중학교 운동장",
    "address": "경상북도 영덕군 창수면 신기리 59-7",
    "lat": "36.54760493262978",
    "lng": "129.34829562103943",
    "region": "경상북도"
  },
  {
    "name": "어린이 51공원",
    "address": "전북특별자치도 군산시 오식도동 634-5",
    "lat": "35.962605564724434",
    "lng": "126.56402374985825",
    "region": "전북특별자치도"
  },
  {
    "name": "선인중학교 운동장",
    "address": "인천광역시 미추홀�� 도화동 20-6",
    "lat": "37.47156881046113",
    "lng": "126.65371926854391",
    "region": "인천광역시"
  },
  {
    "name": "양감초등학교 운동장",
    "address": "경기도 화성시 양감면 신왕리 475-1",
    "lat": "37.08139138466373",
    "lng": "126.95188990467382",
    "region": "경기도"
  },
  {
    "name": "왕배초등학교 운동장",
    "address": "경기도 화성시 목동 446",
    "lat": "37.179842976686736",
    "lng": "127.11377441883086",
    "region": "경기도"
  },
  {
    "name": "유계리 마을회관",
    "address": "경상북도 포항시 북구 청하면 유계리 466-4",
    "lat": "36.193955844387496",
    "lng": "129.30499702692617",
    "region": "경상북도"
  },
  {
    "name": "하대리 마을회관",
    "address": "경상북도 포항시 북구 청하면 하대리 217-6",
    "lat": "36.19024126134168",
    "lng": "129.33268970723276",
    "region": "경상북도"
  },
  {
    "name": "감곡리 마을회관",
    "address": "경상북도 포항시 북구 죽장면 감곡리 328-1",
    "lat": "36.14459167010007",
    "lng": "129.12182092666737",
    "region": "경상북도"
  },
  {
    "name": "용기1리 마을회관",
    "address": "경상북도 포항시 북구 기북면 용기리 358-1",
    "lat": "36.132667114742034",
    "lng": "129.16525930166893",
    "region": "경상북도"
  },
  {
    "name": "송양초등학교",
    "address": "경기도 의정부시 낙양동 753",
    "lat": "37.752796",
    "lng": "127.112066",
    "region": "경기도"
  },
  {
    "name": "창수초등학교 인천분교장 앞 운동장",
    "address": "경상북도 영덕군 창수면 인천리 41",
    "lat": "36.63397017934401",
    "lng": "129.29469809051767",
    "region": "경상북도"
  },
  {
    "name": "어린이 60공원",
    "address": "전북특별자치도 군산시 지곡동 610",
    "lat": "35.95019474588295",
    "lng": "126.71396506852058",
    "region": "전북특별자치도"
  },
  {
    "name": "나운배수펌프장",
    "address": "전북특별자치도 군산시 나운동 135-1",
    "lat": "35.961903341538864",
    "lng": "126.70260250568386",
    "region": "전북특별자치도"
  },
  {
    "name": "나운 우수저류조",
    "address": "전북특별자치도 군산시 나운동 316-25",
    "lat": "35.962550297029324",
    "lng": "126.6990458965301",
    "region": "전북특별자치도"
  },
  {
    "name": "공음초등학교",
    "address": "전북특별자치도 고창군 공음면 칠암리 519",
    "lat": "35.37660271669289",
    "lng": "126.5116131167179",
    "region": "전북특별자치도"
  },
  {
    "name": "대성중학교",
    "address": "전북특별자치도 고창군 대산면 매산리 175-14",
    "lat": "35.33916966014232",
    "lng": "126.60336951574125",
    "region": "전북특별자치도"
  },
  {
    "name": "상하중학교",
    "address": "전북특별자치도 고창군 상하면 장산리 78-6",
    "lat": "35.445004937280956",
    "lng": "126.48792633028944",
    "region": "전북특별자치도"
  },
  {
    "name": "산서중학교 운동장",
    "address": "전북특별자치도 장수군 산서면 동화리 64",
    "lat": "35.58291472636376",
    "lng": "127.39933385186164",
    "region": "전북특별자치도"
  },
  {
    "name": "미장택지 6공원",
    "address": "전북특별자치도 군산시 미장동 529-4",
    "lat": "35.96311040679101",
    "lng": "126.73221471526281",
    "region": "전북특별자치도"
  },
  {
    "name": "금강노인복지관",
    "address": "전북특별자치도 군산시 구암동 307-9",
    "lat": "35.98026774735955",
    "lng": "126.75070782087073",
    "region": "전북특별자치도"
  },
  {
    "name": "전주초포초등학교(운동장)",
    "address": "전북특별자치도 전주시 덕진구 호성동2가 835",
    "lat": "35.87720935077552",
    "lng": "127.13972181514283",
    "region": "전북특별자치도"
  },
  {
    "name": "사정2리 마을회관",
    "address": "경상북도 포항시 북구 신광면 사정리 501-2",
    "lat": "36.14177153017071",
    "lng": "129.2744627594952",
    "region": "경상북도"
  },
  {
    "name": "백제예술대학교 운동장",
    "address": "전북특별자치도 완주군 봉동읍 제내리 1234",
    "lat": "35.994860895759025",
    "lng": "127.12598696847446",
    "region": "전북특별자치도"
  },
  {
    "name": "속곡분교 앞 공터",
    "address": "경상북도 영덕군 지품면 속곡리 117-1",
    "lat": "36.47700553931952",
    "lng": "129.25466797481312",
    "region": "경상북도"
  },
  {
    "name": "어린이 20공원",
    "address": "전북특별자치도 군산시 나운동 816-1",
    "lat": "35.9691015678583",
    "lng": "126.70198103938846",
    "region": "전북특별자치도"
  },
  {
    "name": "은파호수공원 인라인스케이트장",
    "address": "전북특별자치도 군산시 미룡동 59-97",
    "lat": "35.94596025932988",
    "lng": "126.69314147211863",
    "region": "전북특별자치도"
  },
  {
    "name": "전주인후초등학교(운동장)",
    "address": "전북특별자치도 전주시 덕진구 인후동1가 844",
    "lat": "35.83166011204634",
    "lng": "127.16250662253398",
    "region": "전북특별자치도"
  },
  {
    "name": "생활축구경기장",
    "address": "전북특별자치도 고창군 고창읍 월암리 407-2",
    "lat": "35.429748522612",
    "lng": "126.726419964948",
    "region": "전북특별자치도"
  },
  {
    "name": "매산리 공원",
    "address": "전북특별자치도 고창군 대산면 매산리 198-41",
    "lat": "35.339529092830695",
    "lng": "126.59767084105282",
    "region": "전북특별자치도"
  },
  {
    "name": "호리 마을회관",
    "address": "경상북도 포항시 북구 신광면 호리 425",
    "lat": "36.13199122736803",
    "lng": "129.29199099541069",
    "region": "경상북도"
  },
  {
    "name": "신광중학교 운동장",
    "address": "경상북도 포항시 북구 신광면 토성리 344",
    "lat": "36.130463434099156",
    "lng": "129.26392792098375",
    "region": "경상북도"
  },
  {
    "name": "성남서초등학교 운동장",
    "address": "경기도 성남시 수정구 태평동 5090-1",
    "lat": "37.44867207815382",
    "lng": "127.12919701233427",
    "region": "경기도"
  },
  {
    "name": "위례한빛초등학교 운동장",
    "address": "경기도 성남시 수정구 창곡동 570",
    "lat": "37.46556167726204",
    "lng": "127.14697120254982",
    "region": "경기도"
  },
  {
    "name": "인천동수초등학교 운동장",
    "address": "인천광역시 부평구 부개동 442-23",
    "lat": "37.4846",
    "lng": "126.7313",
    "region": "인천광역시"
  },
  {
    "name": "상현근린공원",
    "address": "경기도 용인시 수지구 상현동 57-1",
    "lat": "37.311855297416415",
    "lng": "127.08708419340279",
    "region": "경기도"
  },
  {
    "name": "소공원(역북)",
    "address": "경기도 용인시 처인구 역북동 413-14",
    "lat": "37.2376",
    "lng": "127.1926",
    "region": "경기도"
  },
  {
    "name": "별학어린이공원",
    "address": "경기도 용인시 처인구 김량장동 351",
    "lat": "37.23196745215864",
    "lng": "127.20098709028596",
    "region": "경기도"
  },
  {
    "name": "하남초등학교",
    "address": "경기도 하남시 창우동 520-6",
    "lat": "37.53721597932017",
    "lng": "127.22242905804106",
    "region": "경기도"
  },
  {
    "name": "송린초등학교 운동장",
    "address": "경기도 화성시 새솔동 24",
    "lat": "37.277796387845775",
    "lng": "126.82376861572266",
    "region": "경기도"
  },
  {
    "name": "새봄초등학교 운동장",
    "address": "경기도 화성시 병점동 882",
    "lat": "37.200876971569386",
    "lng": "127.03022360801697",
    "region": "경기도"
  },
  {
    "name": "삼육초등학교 운동장",
    "address": "강원특별자치도 춘천시 동면 장학리 568-1",
    "lat": "37.91100013863669",
    "lng": "127.75332033634184",
    "region": "강원특별자치도"
  },
  {
    "name": "성남중학교 운동장",
    "address": "경기도 성남시 중원구 성남동 2872",
    "lat": "37.43249029890202",
    "lng": "127.14418970871087",
    "region": "경기도"
  },
  {
    "name": "신우초등학교",
    "address": "경기도 하남시 감일동 532",
    "lat": "37.511033614250096",
    "lng": "127.16122165052862",
    "region": "경기도"
  },
  {
    "name": "인천금마초등학교 운동장",
    "address": "인천광역시 부평구 구산동 357",
    "lat": "37.4781",
    "lng": "126.7489",
    "region": "인천광역시"
  },
  {
    "name": "인천부평남초등학교 운동장",
    "address": "인천광역시 부평구 부평동 743-1",
    "lat": "37.4882",
    "lng": "126.7206",
    "region": "인천광역시"
  },
  {
    "name": "인천영선초등학교 운동장",
    "address": "인천광역시 부평구 삼산동 438-7",
    "lat": "37.515",
    "lng": "126.7348",
    "region": "인천광역시"
  },
  {
    "name": "수내중학교 운동장",
    "address": "경기도 성남시 분당구 수내동 78",
    "lat": "37.37042698317528",
    "lng": "127.1263515987821",
    "region": "경기도"
  },
  {
    "name": "부광고등학교 운동장",
    "address": "인천광역시 부평구 산곡동 310-30",
    "lat": "37.488",
    "lng": "126.7034",
    "region": "인천광역시"
  },
  {
    "name": "한밭초등학교",
    "address": "대전광역시 서구 둔산동 1386",
    "lat": "36.35397510659952",
    "lng": "127.39445880926009",
    "region": "대전광역시"
  },
  {
    "name": "토월어린이공원",
    "address": "경기도 용인시 수지구 풍덕천동 721",
    "lat": "37.3231185939112",
    "lng": "127.09710913352701",
    "region": "경기도"
  },
  {
    "name": "상원초등학교 운동장",
    "address": "경기도 성남시 중원구 은행동 421",
    "lat": "37.4539580617721",
    "lng": "127.16292194877639",
    "region": "경기도"
  },
  {
    "name": "내정중학교 운동장",
    "address": "경기도 성남시 분당구 수내동 64",
    "lat": "37.37043993038089",
    "lng": "127.11981257443988",
    "region": "경기도"
  },
  {
    "name": "대전새미래중학교 운동장",
    "address": "대전광역시 유성구 지족동 1045",
    "lat": "36.379337109476886",
    "lng": "127.30580975706714",
    "region": "대전광역시"
  },
  {
    "name": "산곡초등학교",
    "address": "경기도 하남시 하산곡동 431-6",
    "lat": "37.503981537174944",
    "lng": "127.23461099116196",
    "region": "경기도"
  },
  {
    "name": "검단초등학교 운동장",
    "address": "경기도 성남시 중원구 하대원동 123",
    "lat": "37.42937658410834",
    "lng": "127.14381422748625",
    "region": "경기도"
  },
  {
    "name": "윤슬중학교",
    "address": "경기도 하남시 망월동 1045",
    "lat": "37.56322161782331",
    "lng": "127.18166112900198",
    "region": "경기도"
  },
  {
    "name": "대덕초등학교 도룡분교 운동장",
    "address": "대전광역시 유성구 도룡동 4",
    "lat": "36.37844902499827",
    "lng": "127.39126171204191",
    "region": "대전광역시"
  },
  {
    "name": "도마치근린공원",
    "address": "경기도 용인시 수지구 신봉동 980",
    "lat": "37.32732358018128",
    "lng": "127.06208581085326",
    "region": "경기도"
  },
  {
    "name": "강일고등학교운동장",
    "address": "서울특별시 강동구 강일동 685-1",
    "lat": "37.564179223549594",
    "lng": "127.1773878336935",
    "region": "서울특별시"
  },
  {
    "name": "성남여자중학교 운동장",
    "address": "경기도 성남시 수정구 신흥동 47-1",
    "lat": "37.449946697695935",
    "lng": "127.14307418164135",
    "region": "경기도"
  },
  {
    "name": "금광중학교 운동장",
    "address": "경기도 성남시 중원구 금광동 2414",
    "lat": "37.446676992871595",
    "lng": "127.17083775889854",
    "region": "경기도"
  },
  {
    "name": "분당고등학교 운동장",
    "address": "경기도 성남시 분당구 수내동 25",
    "lat": "37.37511852269855",
    "lng": "127.11641438250216",
    "region": "경기도"
  },
  {
    "name": "늘푸른중학교 운동장",
    "address": "경기도 성남시 분당구 정자동 178-6",
    "lat": "37.357371136958164",
    "lng": "127.10531657053964",
    "region": "경기도"
  },
  {
    "name": "야탑중학교 운동장",
    "address": "경기도 성남시 분당구 야탑동 336",
    "lat": "37.41639585471779",
    "lng": "127.13162605707097",
    "region": "경기도"
  },
  {
    "name": "유성중학교 운동장",
    "address": "대전광역시 유성구 상대동 457",
    "lat": "36.34602396926294",
    "lng": "127.33530537888042",
    "region": "대전광역시"
  },
  {
    "name": "정림초등학교",
    "address": "대전광역시 서구 정림동 638",
    "lat": "36.303156433652894",
    "lng": "127.3668542167066",
    "region": "대전광역시"
  },
  {
    "name": "포천체육공원",
    "address": "경기도 포천시 신읍동 104-7",
    "lat": "37.89368349771694",
    "lng": "127.197537922732739",
    "region": "경기도"
  },
  {
    "name": "용재공원",
    "address": "경상남도 창원시 진해구 용원동 1226",
    "lat": "35.1005",
    "lng": "128.8171",
    "region": "경상남도"
  },
  {
    "name": "포담초등학교 운동장",
    "address": "경기도 포천시 영중면 양문리 878-5",
    "lat": "38.00679799291241",
    "lng": "127.24543636502423",
    "region": "경기도"
  },
  {
    "name": "초월중학교 운동장",
    "address": "경기도 광주시 초월읍 쌍동리 149-1",
    "lat": "37.3669",
    "lng": "127.3031",
    "region": "경기도"
  },
  {
    "name": "역북문화공원",
    "address": "경기도 용인시 처인구 역북동 807",
    "lat": "37.23015753932766",
    "lng": "127.18565225601199",
    "region": "경기도"
  },
  {
    "name": "한숲하늘근린공원",
    "address": "경기도 용인시 처인구 남사읍 아곡리 685",
    "lat": "37.15602415944336",
    "lng": "127.16770291328432",
    "region": "경기도"
  },
  {
    "name": "빛고을농촌테마공원",
    "address": "광주광역시 남구 양과동 1290",
    "lat": "35.08413116951499",
    "lng": "126.86681270599364",
    "region": "광주광역시"
  },
  {
    "name": "서현중학교 운동장",
    "address": "경기도 성남시 분당구 서현동 96-1",
    "lat": "37.38047620037097",
    "lng": "127.13350162959294",
    "region": "경기도"
  },
  {
    "name": "부원중학교 운동장",
    "address": "인천광역시 부평구 부평동 70-131",
    "lat": "37.492",
    "lng": "126.7172",
    "region": "인천광역시"
  },
  {
    "name": "수도군수지원단 군용철길",
    "address": "인천광역시 부평구 부개동 372",
    "lat": "37.4861",
    "lng": "126.735",
    "region": "인천광역시"
  },
  {
    "name": "산곡여자중학교 운동장",
    "address": "인천광역시 부평구 산곡동 235-4",
    "lat": "37.497",
    "lng": "126.7053",
    "region": "인천광역시"
  },
  {
    "name": "인천굴포초등학교 운동장",
    "address": "인천광역시 부평구 삼산동 454-1",
    "lat": "37.5105",
    "lng": "126.737",
    "region": "인천광역시"
  },
  {
    "name": "충렬사 정문 밖 진입로",
    "address": "부산광역시 동래구 안락동 421-1",
    "lat": "35.199506844960325",
    "lng": "129.0965419140679",
    "region": "부산광역시"
  },
  {
    "name": "문화공원",
    "address": "경기도 고양시 일산서구 주엽동 77",
    "lat": "37.675082",
    "lng": "126.764529",
    "region": "경기도"
  },
  {
    "name": "중앙공원",
    "address": "경기도 부천시 원미구 중동 1177",
    "lat": "37.500006048894356",
    "lng": "126.76536083221264",
    "region": "경기도"
  },
  {
    "name": "인천산곡고등학교 운동장",
    "address": "인천광역시 부평구 산곡동 137-2",
    "lat": "37.5027",
    "lng": "126.7131",
    "region": "인천광역시"
  },
  {
    "name": "운암고등학교",
    "address": "경기도 오산시 원동 815-6",
    "lat": "37.143359341832195",
    "lng": "127.0751130580906",
    "region": "경기도"
  },
  {
    "name": "인천부평서초등학교 운동장",
    "address": "인천광역시 부평구 부평동 542-18",
    "lat": "37.49492097057707",
    "lng": "126.72128011420462",
    "region": "인천광역시"
  },
  {
    "name": "하남종합운동장",
    "address": "경기도 하남시 망월동 200",
    "lat": "37.567022563963334",
    "lng": "127.19379546488379",
    "region": "경기도"
  },
  {
    "name": "명서2주민운동장",
    "address": "경상남도 창원시 의창구 명서동 300-4",
    "lat": "35.24274946000498",
    "lng": "128.63899916410475",
    "region": "경상남도"
  },
  {
    "name": "제동공원",
    "address": "경상남도 창원시 의창구 대산면 제동리 285-1",
    "lat": "35.33489726727237",
    "lng": "128.7107369128189",
    "region": "경상남도"
  },
  {
    "name": "가야초등학교운동장",
    "address": "부산광역시 부산진구 가야동 280-2",
    "lat": "35.15340711170355",
    "lng": "129.03597146272853",
    "region": "부산광역시"
  },
  {
    "name": "부산진초등학교운동장",
    "address": "부산광역시 부산진구 범천동 890-1",
    "lat": "35.14968768176026",
    "lng": "129.0563803911178",
    "region": "부산광역시"
  },
  {
    "name": "대정서초등학교 운동장",
    "address": "제주특별자치도 서귀포시 대정읍 동일리 2659-2",
    "lat": "33.232060318365015",
    "lng": "126.23917579651224",
    "region": "제주특별자치도"
  },
  {
    "name": "공천포전지훈련센터 주경기장",
    "address": "제주특별자치도 서귀포시 남원읍 신례리 544-2",
    "lat": "33.27685262431079",
    "lng": "126.64127111434622",
    "region": "제주특별자치도"
  },
  {
    "name": "창천초등학교 운동장",
    "address": "제주특별자치도 서귀포시 안덕면 창천리 473",
    "lat": "33.263513781865456",
    "lng": "126.36898398399354",
    "region": "제주특별자치도"
  },
  {
    "name": "안덕중학교 운동장",
    "address": "제주특별자치도 서귀포시 안덕면 화순리 296",
    "lat": "33.24881357908864",
    "lng": "126.33701741695783",
    "region": "제주특별자치도"
  },
  {
    "name": "성읍초등학교 운동장",
    "address": "제주특별자치도 서귀포시 표선면 성읍리 1015",
    "lat": "33.383050995836676",
    "lng": "126.79840028285463",
    "region": "제주특별자치도"
  },
  {
    "name": "가마초등학교 운동장",
    "address": "제주특별자치도 서귀포시 표선면 세화리 1538-3",
    "lat": "33.305299619293486",
    "lng": "126.79992914200055",
    "region": "제주특별자치도"
  },
  {
    "name": "토산초등학교 운동장",
    "address": "제주특별자치도 서귀포시 표선면 토산리 515",
    "lat": "33.312230599286664",
    "lng": "126.77777945995008",
    "region": "제주특별자치도"
  },
  {
    "name": "표선고등학교 운동장",
    "address": "제주특별자치도 서귀포시 표선면 표선리 1804",
    "lat": "33.330178648415135",
    "lng": "126.82792067527257",
    "region": "제주특별자치도"
  },
  {
    "name": "은가람중학교",
    "address": "경기도 하남시 선동 414",
    "lat": "37.5759962220846",
    "lng": "127.17729479600449",
    "region": "경기도"
  },
  {
    "name": "인천대정초등학교 운동장",
    "address": "인천광역시 부평구 산곡동 311-150",
    "lat": "37.4934",
    "lng": "126.7091",
    "region": "인천광역시"
  },
  {
    "name": "예래동 체육공원 축구장",
    "address": "제주특별자치도 서귀포시 하예동 1160-1",
    "lat": "33.244452835845415",
    "lng": "126.38186663389709",
    "region": "제주특별자치도"
  },
  {
    "name": "풍암중학교 운동장",
    "address": "광주광역시 서구 풍암동 1098",
    "lat": "35.12209550675862",
    "lng": "126.8779993057842",
    "region": "광주광역시"
  },
  {
    "name": "상일여자고등학교 운동장",
    "address": "광주광역시 서구 쌍촌동 1353",
    "lat": "35.15823341801885",
    "lng": "126.8644809722852",
    "region": "광주광역시"
  },
  {
    "name": "상무시민공원",
    "address": "광주광역시 서구 치평동 1162",
    "lat": "35.15356098775619",
    "lng": "126.84158205991274",
    "region": "광주광역시"
  },
  {
    "name": "사염공원",
    "address": "인천광역시 서구 청라동 9-92",
    "lat": "37.5419402053184",
    "lng": "126.64618492126459",
    "region": "인천광역시"
  },
  {
    "name": "삼가체육공원",
    "address": "경기도 용인시 처인구 삼가동 268-18",
    "lat": "37.23686472796586",
    "lng": "127.169341836156",
    "region": "경기도"
  },
  {
    "name": "성남정자초등학교 운동장",
    "address": "경기도 성남시 분당구 정자동 6-2",
    "lat": "37.37419670913021",
    "lng": "127.105161349001",
    "region": "경기도"
  },
  {
    "name": "상탑초등학교 운동장",
    "address": "경기도 성남시 분당구 야탑동 161",
    "lat": "37.40605485962031",
    "lng": "127.14572358758714",
    "region": "경기도"
  },
  {
    "name": "도계체육공원",
    "address": "경상남도 창원시 의창구 도계동 378-4",
    "lat": "35.25795987",
    "lng": "128.64213699",
    "region": "경상남도"
  },
  {
    "name": "해빛초등학교 운동장",
    "address": "부산광역시 기장군 일광읍 삼성리 787",
    "lat": "35.264464152315064",
    "lng": "129.22105193138376",
    "region": "부산광역시"
  },
  {
    "name": "봉오재공원",
    "address": "인천광역시 서구 가정동 602-17",
    "lat": "37.53230968799185",
    "lng": "126.66978836059702",
    "region": "인천광역시"
  },
  {
    "name": "루원시티5호어린이공원",
    "address": "인천광역시 서구 가정동 294-58",
    "lat": "37.5255880070558",
    "lng": "126.67846798896997",
    "region": "인천광역시"
  },
  {
    "name": "신석체육공원",
    "address": "인천광역시 서구 석남동 222",
    "lat": "37.50798965032421",
    "lng": "126.6652607917785",
    "region": "인천광역시"
  },
  {
    "name": "석곶체육공원",
    "address": "인천광역시 서구 석남동 115-8",
    "lat": "37.5084492346556",
    "lng": "126.68131113052371",
    "region": "인천광역시"
  },
  {
    "name": "감중공원",
    "address": "인천광역시 서구 가좌동 157",
    "lat": "37.49288136822192",
    "lng": "126.67390823364585",
    "region": "인천광역시"
  },
  {
    "name": "가좌공원",
    "address": "인천광역시 서구 가좌동 339",
    "lat": "37.4877651388389",
    "lng": "126.68405771255676",
    "region": "인천광역시"
  },
  {
    "name": "불로지구1호어린이공원",
    "address": "인천광역시 서구 불로동 766-1",
    "lat": "37.61418042309365",
    "lng": "126.68213725090068",
    "region": "인천광역시"
  },
  {
    "name": "불로지구2호어린이공원",
    "address": "인천광역시 서구 불로동 773-8",
    "lat": "37.61373848806208",
    "lng": "126.68413281440368",
    "region": "인천광역시"
  },
  {
    "name": "불로지구5호어린이공원",
    "address": "인천광역시 서구 ��로동 802-6",
    "lat": "37.612939598842196",
    "lng": "126.68908953666488",
    "region": "인천광역시"
  },
  {
    "name": "대전관평중학교 운동장",
    "address": "대전광역시 유성구 관평동 900",
    "lat": "36.424230628248246",
    "lng": "127.38722562789916",
    "region": "대전광역시"
  },
  {
    "name": "무동3어린이공원",
    "address": "경상남도 창원시 의창구 북면 무동리 121-4",
    "lat": "35.31994070",
    "lng": "128.58207547",
    "region": "경상남도"
  },
  {
    "name": "대촌공원",
    "address": "인천광역시 서구 오류동 1722-11",
    "lat": "37.595463875285525",
    "lng": "126.63333177566027",
    "region": "인천광역시"
  },
  {
    "name": "경인교육대학교 대운동장",
    "address": "인천광역시 계양구 작전동 765-78",
    "lat": "37.53586172408635",
    "lng": "126.71811103820795",
    "region": "인천광역시"
  },
  {
    "name": "태평초등학교 운동장",
    "address": "경기도 성남시 수정구 태평동 3743",
    "lat": "37.44463921590548",
    "lng": "127.13179704493108",
    "region": "경기도"
  },
  {
    "name": "마산조각공원",
    "address": "경상남도 창원시 마산합포구 신포동1가 68-1",
    "lat": "35.19740435661273",
    "lng": "128.5720215039424",
    "region": "경상남도"
  },
  {
    "name": "서빙고근린공원",
    "address": "서울특별시 용산구 용산동5가 24-2",
    "lat": "37.52470853660038",
    "lng": "126.97152954814064",
    "region": "서울특별시"
  },
  {
    "name": "성촌공원",
    "address": "서울특별시 용산구 이촌동 173-1",
    "lat": "37.528139811261504",
    "lng": "126.95304535421837",
    "region": "서울특별시"
  },
  {
    "name": "동화초등학교 운동장",
    "address": "대전광역시 유성구 관평동 1282",
    "lat": "36.42168254814931",
    "lng": "127.38867860621451",
    "region": "대전광역시"
  },
  {
    "name": "봉명중학교 운동장",
    "address": "대전광역시 유성구 봉명동 1022",
    "lat": "36.34957110482883",
    "lng": "127.34488275117542",
    "region": "대전광역시"
  },
  {
    "name": "원신흥중학교 운동장",
    "address": "대전광역시 유성구 원신흥동 526",
    "lat": "36.33275136586079",
    "lng": "127.345313525118",
    "region": "대전광역시"
  },
  {
    "name": "봉암초등학교 운동장",
    "address": "대전광역시 유성구 궁동 80",
    "lat": "36.36362224600124",
    "lng": "127.3479537315654",
    "region": "대전광역시"
  },
  {
    "name": "용산고등학교 운동장",
    "address": "대전광역시 유성구 용산동 658",
    "lat": "36.42070913781521",
    "lng": "127.39661319543178",
    "region": "대전광역시"
  },
  {
    "name": "전민고등학교 운동장",
    "address": "대전광역시 유성구 전민동 460-2",
    "lat": "36.397892140756646",
    "lng": "127.39963394021927",
    "region": "대전광역시"
  },
  {
    "name": "이매고등학교 운동장",
    "address": "경기도 성남시 분당구 이매동 147",
    "lat": "37.392514390340914",
    "lng": "127.12145517704779",
    "region": "경기도"
  },
  {
    "name": "불로지구6호어린이공원",
    "address": "인천광역시 서구 불로동 64-2",
    "lat": "37.616564277327214",
    "lng": "126.68083369731382",
    "region": "인천광역시"
  },
  {
    "name": "전자디자인고등학교 운동장",
    "address": "대전광역시 유성구 화암동 174",
    "lat": "36.41281888562025",
    "lng": "127.3776040628673",
    "region": "대전광역시"
  },
  {
    "name": "한밭대학교 종합운동장",
    "address": "대전광역시 유성구 덕명동 16-1",
    "lat": "36.35360579848788",
    "lng": "127.30140315484604",
    "region": "대전광역시"
  },
  {
    "name": "강원고등학교 운동장",
    "address": "강원특별자치도 춘천시 동면 장학리 산36",
    "lat": "37.895734606076005",
    "lng": "127.75660872459969",
    "region": "강원특별자치도"
  },
  {
    "name": "진영고등학교 운동장",
    "address": "경상남도 김해시 진영읍 진영리 275-21",
    "lat": "35.30454022346869",
    "lng": "128.7305510044128",
    "region": "경상남도"
  },
  {
    "name": "내동중학교 운동장",
    "address": "경상남도 김해시 내동 169",
    "lat": "35.241325558015795",
    "lng": "128.85822415352123",
    "region": "경상남도"
  },
  {
    "name": "삼계초등학교 운동장",
    "address": "경상남도 김해시 삼계동 1424",
    "lat": "35.26746441386483",
    "lng": "128.86407136917725",
    "region": "경상남도"
  },
  {
    "name": "모산공원",
    "address": "경상남도 김해시 장유동 446-1",
    "lat": "35.16819542676387",
    "lng": "128.82280826569172",
    "region": "경상남도"
  },
  {
    "name": "하례초등학교 운동장",
    "address": "제주특별자치도 서귀포시 남원읍 하례리 326",
    "lat": "33.264262856259926",
    "lng": "126.6309767961512",
    "region": "제주특별자치도"
  },
  {
    "name": "16호 어린이공원",
    "address": "제주특별자치도 제주시 일도이동 337",
    "lat": "33.50695011592772",
    "lng": "126.53628624914705",
    "region": "제주특별자치도"
  },
  {
    "name": "운림중학교",
    "address": "광주광역시 동구 운림동 650",
    "lat": "35.132672695782375",
    "lng": "126.94219426399631",
    "region": "광주광역시"
  },
  {
    "name": "산청중학교 운동장",
    "address": "경상남도 산청군 산청읍 옥산리 923",
    "lat": "35.41108828641245",
    "lng": "127.87119627009818",
    "region": "경상남도"
  },
  {
    "name": "덕풍중학교",
    "address": "경기도 하남시 덕풍동 760",
    "lat": "37.553889905690866",
    "lng": "127.19923218763554",
    "region": "경기도"
  },
  {
    "name": "한수중학교 운동장",
    "address": "경기도 고양시 일산서구 주엽동 131",
    "lat": "37.669555",
    "lng": "126.755855",
    "region": "경기도"
  },
  {
    "name": "숯고개공원",
    "address": "경기도 고양시 일산서구 탄현동 1580",
    "lat": "37.690342",
    "lng": "126.765296",
    "region": "경기도"
  },
  {
    "name": "동부청사 주차장",
    "address": "경상북도 포항시 북구 용흥동 340",
    "lat": "36.03714906146947",
    "lng": "129.35076892376443",
    "region": "경상북도"
  },
  {
    "name": "수여어린이공원",
    "address": "경기도 용인시 처인구 김량장동 320",
    "lat": "37.2360840680953",
    "lng": "127.19880160263683",
    "region": "경기도"
  },
  {
    "name": "인천동암초등학교 운동장",
    "address": "인천광역시 부평구 십정동 501",
    "lat": "37.4714",
    "lng": "126.7073",
    "region": "인천광역시"
  },
  {
    "name": "동읍주민운동장",
    "address": "경상남도 창원시 의창구 동읍 용잠리 662",
    "lat": "35.28389161329018",
    "lng": "128.67988944053684",
    "region": "경상남도"
  },
  {
    "name": "사화공원",
    "address": "경상남도 창원시 의창구 중동 794-11",
    "lat": "35.25171818423545",
    "lng": "128.6262969476538",
    "region": "경상남도"
  },
  {
    "name": "서울수암초등학교",
    "address": "서울특별시 노원구 중계동 67",
    "lat": "37.6482",
    "lng": "127.0815",
    "region": "서울특별시"
  },
  {
    "name": "불암고등학교",
    "address": "서울특별시 노원구 중계동 364-10",
    "lat": "37.649",
    "lng": "127.0802",
    "region": "서울특별시"
  },
  {
    "name": "세마고등학교",
    "address": "경기도 오산시 세교동 626",
    "lat": "37.18006950153827",
    "lng": "127.04106509685516",
    "region": "경기도"
  },
  {
    "name": "담방문화근린공원",
    "address": "인천광역시 남동구 만수동 1009",
    "lat": "37.44681287085925",
    "lng": "126.732695805765",
    "region": "인천광역시"
  },
  {
    "name": "새남촌 공영주차장",
    "address": "인천광역시 남동구 남촌동 480-1",
    "lat": "37.43273847882884",
    "lng": "126.71286235971172",
    "region": "인천광역시"
  },
  {
    "name": "능말근린공원",
    "address": "경기도 용인시 처인구 김량장동 448-11",
    "lat": "37.238082187793374",
    "lng": "127.1998253799406",
    "region": "경기도"
  },
  {
    "name": "미르어린이공원",
    "address": "경기도 용인시 처인구 역북동 419",
    "lat": "37.2373",
    "lng": "127.1878",
    "region": "경기도"
  },
  {
    "name": "풍산중학교 운동장",
    "address": "경기도 고양시 일산동구 풍동 1288",
    "lat": "37.664454621375015",
    "lng": "126.79887235164637",
    "region": "경기도"
  },
  {
    "name": "분당초등학교 운동장",
    "address": "경기도 성남시 분당구 서현동 92-1",
    "lat": "37.37848557410396",
    "lng": "127.12984299654448",
    "region": "경기도"
  },
  {
    "name": "의귀초등학교 운동장",
    "address": "제주특별자치도 서귀포시 남원읍 의귀리 1483-3",
    "lat": "33.310060804510066",
    "lng": "126.7141735553784",
    "region": "제주특별자치도"
  },
  {
    "name": "지족고등학교 운동장",
    "address": "대전광역시 유성구 지족동 857",
    "lat": "36.37764640596441",
    "lng": "127.31589658325875",
    "region": "대전광역시"
  },
  {
    "name": "신장고등학교",
    "address": "경기도 하남시 신장동 369",
    "lat": "37.54370112829674",
    "lng": "127.20996379852329",
    "region": "경기도"
  },
  {
    "name": "빛가온중학교 운동장",
    "address": "경기도 광명시 일직동 527",
    "lat": "37.411772977053324",
    "lng": "126.88401001551195",
    "region": "경기도"
  },
  {
    "name": "매송중학교 운동장",
    "address": "경기도 성남시 분당구 이매동 145",
    "lat": "37.39676707027606",
    "lng": "127.12283479653915",
    "region": "경기도"
  },
  {
    "name": "위례중앙중학교 운동장",
    "address": "경기도 성남시 수정구 창곡동 503",
    "lat": "37.47172372636054",
    "lng": "127.13811475397762",
    "region": "경기도"
  },
  {
    "name": "숭신여자중학교 운동장",
    "address": "경기도 성남시 중원구 금광동 2686",
    "lat": "37.44890100809655",
    "lng": "127.16993451118469",
    "region": "경기도"
  },
  {
    "name": "수진초등학교 운동장",
    "address": "경기도 성남시 수정구 태평동 3756",
    "lat": "37.44439821410852",
    "lng": "127.13331857072959",
    "region": "경기도"
  },
  {
    "name": "대덕중학교 운동장",
    "address": "대전광역시 유성구 가정동 38",
    "lat": "36.378627318371166",
    "lng": "127.37768100361943",
    "region": "대전광역시"
  },
  {
    "name": "논현중학교 운동장",
    "address": "인천광역시 남동구 논현동 600-3",
    "lat": "37.408624120754546",
    "lng": "126.73298521437326",
    "region": "인천광역시"
  },
  {
    "name": "중앙공원(주원지구)",
    "address": "인천광역시 남동구 간석동 404",
    "lat": "37.462817224354986",
    "lng": "126.70160998060437",
    "region": "인천광역시"
  },
  {
    "name": "대전교촌초등학교 운동장",
    "address": "대전광역시 유성구 교촌동 618",
    "lat": "36.30586993746051",
    "lng": "127.31635731155696",
    "region": "대전광역시"
  },
  {
    "name": "인천부마초등학교 운동장",
    "address": "인천광역시 부평구 산곡동 100-87",
    "lat": "37.5061",
    "lng": "126.7059",
    "region": "인천광역시"
  },
  {
    "name": "안청공원",
    "address": "광주광역시 광산구 안청동 736-1",
    "lat": "35.21189557523366",
    "lng": "126.80279374122618",
    "region": "광주광역시"
  },
  {
    "name": "서귀포여자중학교 운동장",
    "address": "제주특별자치도 서귀포시 서홍동 1326",
    "lat": "33.25642865569492",
    "lng": "126.54676079750053",
    "region": "제주특별자치도"
  },
  {
    "name": "안말초등학교 운동장",
    "address": "경기도 성남시 분당구 이매동 118",
    "lat": "37.39280380807584",
    "lng": "127.12567785792324",
    "region": "경기도"
  },
  {
    "name": "성남매송초등학교 운동장",
    "address": "경기도 성남시 분당구 이매동 136",
    "lat": "37.40169445095525",
    "lng": "127.12283938580048",
    "region": "경기도"
  },
  {
    "name": "보평중학교 운동장",
    "address": "경기도 성남시 분당구 백현동 543",
    "lat": "37.39390332116975",
    "lng": "127.11601846672883",
    "region": "경기도"
  },
  {
    "name": "위례한빛중학교 운동장",
    "address": "경기도 성남시 수정구 창곡동 568",
    "lat": "37.46793527341807",
    "lng": "127.14859950262411",
    "region": "경기도"
  },
  {
    "name": "대정고등학교 운동장",
    "address": "제주특별자치도 서귀포시 대정읍 상모리 3428",
    "lat": "33.231822501251436",
    "lng": "126.26083731651283",
    "region": "제주특별자치도"
  },
  {
    "name": "순창새솔중학교",
    "address": "전북특별자치도 순창군 순창읍 순화리 514-2",
    "lat": "35.377582411541766",
    "lng": "127.13433623313766",
    "region": "전북특별자치도"
  },
  {
    "name": "다솜초등학교 운동장",
    "address": "경기도 고양시 일산동구 풍동 1232",
    "lat": "37.672132",
    "lng": "126.796631",
    "region": "경기도"
  },
  {
    "name": "하탑초등학교 운동장",
    "address": "경기도 성남시 분당구 야탑동 531",
    "lat": "37.407077444059226",
    "lng": "127.12606158920784",
    "region": "경기도"
  },
  {
    "name": "초동초등학교 운동장",
    "address": "경상남도 밀양시 초동면 신호리 12-2",
    "lat": "35.4122031603189",
    "lng": "128.69144439697263",
    "region": "경상남도"
  },
  {
    "name": "느리울초등학교",
    "address": "대전광역시 서구 관저동 1396",
    "lat": "36.29850353235573",
    "lng": "127.34446617922188",
    "region": "대전광역시"
  },
  {
    "name": "일산동고등학교 운동장",
    "address": "경기도 고양시 일산서구 탄현동 1471",
    "lat": "37.700192",
    "lng": "126.768739",
    "region": "경기도"
  },
  {
    "name": "호곡중학교 운동장",
    "address": "경기도 고양시 일산서구 탄현동 117-69",
    "lat": "37.701232",
    "lng": "126.768340",
    "region": "경기도"
  },
  {
    "name": "동광중학교 운동장",
    "address": "경기도 성남시 중원구 성남동 2876-1",
    "lat": "37.43414549874591",
    "lng": "127.14382637530875",
    "region": "경기도"
  },
  {
    "name": "불곡초등학교 운동장",
    "address": "경기도 성남시 분당구 구미동 241",
    "lat": "37.340876175230484",
    "lng": "127.11924780351595",
    "region": "경기도"
  },
  {
    "name": "세교고등학교",
    "address": "경기도 오산시 금암동 487",
    "lat": "37.1777443839734",
    "lng": "127.05390214920043",
    "region": "경기도"
  },
  {
    "name": "갑천중학교",
    "address": "대전광역시 서구 월평동 306",
    "lat": "36.36144531514849",
    "lng": "127.36910663139109",
    "region": "대전광역시"
  },
  {
    "name": "송전어린이공원",
    "address": "경기도 용인시 처인구 이동읍 송전리 1228",
    "lat": "37.13870171319085",
    "lng": "127.20028945433292",
    "region": "경기도"
  },
  {
    "name": "성일고등학교 운동장",
    "address": "경기도 성남시 중원구 성남동 2876",
    "lat": "37.43388726201154",
    "lng": "127.14519866827658",
    "region": "경기도"
  },
  {
    "name": "위미초등학교 운동장",
    "address": "제주특별자치도 서귀포시 남원읍 위미리 4610-2",
    "lat": "33.27456534146875",
    "lng": "126.65368974209065",
    "region": "제주특별자치도"
  },
  {
    "name": "미사중학교",
    "address": "경기도 하남시 망월동 1181",
    "lat": "37.55830479439929",
    "lng": "127.19959928713419",
    "region": "경기도"
  },
  {
    "name": "감일중학교 운동장",
    "address": "경기도 하남시 감이동 532",
    "lat": "37.500796671802654",
    "lng": "127.16237202016718",
    "region": "경기도"
  },
  {
    "name": "백마고등학교 운동장",
    "address": "경기도 고양시 일산동구 백석동 1138",
    "lat": "37.651587",
    "lng": "126.794430",
    "region": "경기도"
  },
  {
    "name": "오산정보고등학교",
    "address": "경기도 오산시 청학동 52-1",
    "lat": "37.152578102451294",
    "lng": "127.05918073654482",
    "region": "경기도"
  },
  {
    "name": "서연초등학교 운동장",
    "address": "경기도 화성시 장지동 979",
    "lat": "37.15937172941685",
    "lng": "127.11377173662187",
    "region": "경기도"
  },
  {
    "name": "광일초등학교 운동장",
    "address": "부산광역시 중구 대청동4가 95",
    "lat": "35.10375630149279",
    "lng": "129.03017251328424",
    "region": "부산광역시"
  },
  {
    "name": "만년중학교",
    "address": "대전광역시 서구 만년동 246",
    "lat": "36.3665881104285",
    "lng": "127.3759355300539",
    "region": "대전광역시"
  },
  {
    "name": "대전지족중학교 운동장",
    "address": "대전광역시 유성구 지족동 879",
    "lat": "36.37803403851565",
    "lng": "127.32003592264951",
    "region": "대전광역시"
  },
  {
    "name": "운리중학교 운동장",
    "address": "광주광역시 서구 풍암동 897",
    "lat": "35.12141394670408",
    "lng": "126.86297893526624",
    "region": "광주광역시"
  },
  {
    "name": "남원하늘중학교운동장",
    "address": "전북특별자치도 남원시 하정동 36-4",
    "lat": "35.40846345",
    "lng": "127.3809429",
    "region": "전북특별자치도"
  },
  {
    "name": "우산동 공원",
    "address": "경상남도 창원시 마산합포구 우산동 149",
    "lat": "35.1527",
    "lng": "128.5535",
    "region": "경상남도"
  },
  {
    "name": "장수초등학교 운동장",
    "address": "인천광역시 남동구 만수동 1005-2",
    "lat": "37.45025330228237",
    "lng": "126.74189210421882",
    "region": "인천광역시"
  },
  {
    "name": "문시초등학교",
    "address": "경기도 오산시 금암동 518",
    "lat": "37.1742693965715",
    "lng": "127.04632222652437",
    "region": "경기도"
  },
  {
    "name": "수청초등학교",
    "address": "경기도 오산시 수청동 584",
    "lat": "37.17057363875587",
    "lng": "127.05584781189938",
    "region": "경기도"
  },
  {
    "name": "대호중학교",
    "address": "경기도 오산시 궐동 617",
    "lat": "37.161817964635944",
    "lng": "127.057220604517",
    "region": "경기도"
  },
  {
    "name": "오산중학교",
    "address": "경기도 오산시 청학동 26",
    "lat": "37.15338191142726",
    "lng": "127.06160545349121",
    "region": "경기도"
  },
  {
    "name": "세미초등학교",
    "address": "경기도 오산시 내삼미동 896",
    "lat": "37.173777235106996",
    "lng": "127.06452887018519",
    "region": "경기도"
  },
  {
    "name": "매홀중학교",
    "address": "경기도 오산시 수청동 634",
    "lat": "37.16782396687904",
    "lng": "127.06822410503457",
    "region": "경기도"
  },
  {
    "name": "운암제1근린공원",
    "address": "경기도 오산시 오산동 920-1",
    "lat": "37.155700400702706",
    "lng": "127.07621029591816",
    "region": "경기도"
  },
  {
    "name": "운산초등학교",
    "address": "경기도 오산시 오산동 923-1",
    "lat": "37.15241890111402",
    "lng": "127.07742346772137",
    "region": "경기도"
  },
  {
    "name": "다온초등학교",
    "address": "경기도 오산시 부산동 794",
    "lat": "37.15153943803738",
    "lng": "127.09057401006271",
    "region": "경기도"
  },
  {
    "name": "금암초등학교",
    "address": "경기도 오산시 금암동 510",
    "lat": "37.178223090498754",
    "lng": "127.0442408323288",
    "region": "경기도"
  },
  {
    "name": "필봉초등학교",
    "address": "경기도 오산시 금암동 486",
    "lat": "37.1783897822375",
    "lng": "127.05285072326659",
    "region": "경기도"
  },
  {
    "name": "현산중학교 운동장",
    "address": "경기도 고양시 일산서구 일산동 1915",
    "lat": "37.69128365384784",
    "lng": "126.77343153475262",
    "region": "경기도"
  },
  {
    "name": "가정중학교",
    "address": "강원특별자치도 춘천시 남면 가정리 838-1",
    "lat": "37.73714434227068",
    "lng": "127.57721722125927",
    "region": "강원특별자치도"
  },
  {
    "name": "괴정고등학교",
    "address": "대전광역시 서구 괴정동 120",
    "lat": "36.339596704348736",
    "lng": "127.37960402269043",
    "region": "대전광역시"
  },
  {
    "name": "대전덕명중학교 운동장",
    "address": "대전광역시 유성구 덕명동 606",
    "lat": "36.34617539683646",
    "lng": "127.30242828637267",
    "region": "대전광역시"
  },
  {
    "name": "도래울중학교 운동장",
    "address": "경기도 고양시 덕양구 도내동 988",
    "lat": "37.631504",
    "lng": "126.868253",
    "region": "경기도"
  },
  {
    "name": "태성초등학교 운동장",
    "address": "경기도 광주시 태전동 87-64",
    "lat": "37.384514498525455",
    "lng": "127.22882509231569",
    "region": "경기도"
  },
  {
    "name": "강동중학교운동장",
    "address": "서울특별시 강동구 강일동 668",
    "lat": "37.569379705832176",
    "lng": "127.17612609411256",
    "region": "서울특별시"
  },
  {
    "name": "보평초등학교 운동장",
    "address": "경기도 성남시 분당구 삼평동 743",
    "lat": "37.39565117665797",
    "lng": "127.11788163132158",
    "region": "경기도"
  },
  {
    "name": "낙원중학교 운동장",
    "address": "경기도 성남시 분당구 판교동 518",
    "lat": "37.399067268794205",
    "lng": "127.09670530502581",
    "region": "경기도"
  },
  {
    "name": "미사중앙초등학교",
    "address": "경기도 하남시 망월동 1180",
    "lat": "37.55944587132586",
    "lng": "127.19886969236919",
    "region": "경기도"
  },
  {
    "name": "창우초등학교",
    "address": "경기도 하남시 창우동 518-2",
    "lat": "37.5403765010605",
    "lng": "127.22357266077563",
    "region": "경기도"
  },
  {
    "name": "낙생고등학교 운동장",
    "address": "경기도 성남시 분당구 판교동 649",
    "lat": "37.38642846447012",
    "lng": "127.10083738576024",
    "region": "경기도"
  },
  {
    "name": "구미초등학교 운동장",
    "address": "경기도 성남시 분당구 구미동 215",
    "lat": "37.33747461326392",
    "lng": "127.11856569983831",
    "region": "경기도"
  },
  {
    "name": "은행공원",
    "address": "경기도 부천시 원미구 원미동 57",
    "lat": "37.496386336398054",
    "lng": "126.7906191945021",
    "region": "경기도"
  },
  {
    "name": "진잠중학교 운동장",
    "address": "대전광역시 유성구 원내동 404",
    "lat": "36.296648996073685",
    "lng": "127.31774886321159",
    "region": "대전광역시"
  },
  {
    "name": "갈마중학교",
    "address": "대전광역시 서구 갈마동 370-1",
    "lat": "36.34767487694156",
    "lng": "127.36492807154133",
    "region": "대전광역시"
  },
  {
    "name": "언양고등학교(운동장)",
    "address": "울산광역시 울주군 언양읍 어음리 264-3",
    "lat": "35.56172723707493",
    "lng": "129.13332760334626",
    "region": "울산광역시"
  },
  {
    "name": "숲속어린이공원",
    "address": "경기도 용인시 처인구 삼가동 289-16",
    "lat": "37.238686265453524",
    "lng": "127.16368705352448",
    "region": "경기도"
  },
  {
    "name": "수진중학교 운동장",
    "address": "경기도 성남시 수정구 수진동 4674",
    "lat": "37.43726018923748",
    "lng": "127.12383024255048",
    "region": "경기도"
  },
  {
    "name": "삼평중학교 운동장",
    "address": "경기도 성남시 분당구 삼평동 727",
    "lat": "37.40041368812223",
    "lng": "127.11602417604254",
    "region": "경기도"
  },
  {
    "name": "감일초등학교 운동장",
    "address": "경기도 하남시 감이동 533",
    "lat": "37.49989348384753",
    "lng": "127.16218128535579",
    "region": "경기도"
  },
  {
    "name": "상동호수공원",
    "address": "경기도 부천시 원미구 상동 549",
    "lat": "37.50472141350451",
    "lng": "126.74534082412679",
    "region": "경기도"
  },
  {
    "name": "산호공원",
    "address": "경상남도 창원시 마산합포구 산호동 532-12",
    "lat": "35.21384592661219",
    "lng": "128.58202636241936",
    "region": "경상남도"
  },
  {
    "name": "부평여자고등학교 운동장",
    "address": "인천광역시 부평구 부평동 65-147",
    "lat": "37.5004",
    "lng": "126.7196",
    "region": "인천광역시"
  },
  {
    "name": "원일중학교",
    "address": "경기도 오산시 원동 360-8",
    "lat": "37.13948935096989",
    "lng": "127.07269370556129",
    "region": "경기도"
  },
  {
    "name": "한국항공대학교 운동장",
    "address": "경기도 고양시 덕양구 화전동 646-6",
    "lat": "37.5995824298751",
    "lng": "126.86550915241239",
    "region": "경기도"
  },
  {
    "name": "대전어은중학교 운동장",
    "address": "대전광역시 유성구 어은동 96",
    "lat": "36.36550629302789",
    "lng": "127.3524390952356",
    "region": "대전광역시"
  },
  {
    "name": "소원어린이공원",
    "address": "경기도 부천시 원미구 소사동 32",
    "lat": "37.48491317834018",
    "lng": "126.79696798324217",
    "region": "경기도"
  },
  {
    "name": "한신대학교",
    "address": "경기도 오산시 양산동 400",
    "lat": "37.19462977741149",
    "lng": "127.02080368995667",
    "region": "경기도"
  },
  {
    "name": "장학초등학교 운동장",
    "address": "강원특별자치도 춘천시 동면 장학리 990",
    "lat": "37.89513136943705",
    "lng": "127.7529153227806",
    "region": "강원특별자치도"
  },
  {
    "name": "운천중학교",
    "address": "경기도 오산시 오산동 911-1",
    "lat": "37.15785828701905",
    "lng": "127.07810640335529",
    "region": "경기도"
  },
  {
    "name": "위례푸른초등학교 운동장",
    "address": "경기도 성남시 수정구 창곡동 518",
    "lat": "37.4704056751549",
    "lng": "127.15112007607954",
    "region": "경기도"
  },
  {
    "name": "교동초등학교",
    "address": "강원특별자치도 춘천시 교동 113-4",
    "lat": "37.88054587432178",
    "lng": "127.73717055666516",
    "region": "강원특별자치도"
  },
  {
    "name": "춘천교대부설초등학교 운동장",
    "address": "강원특별자치도 춘천시 효자동 420",
    "lat": "37.86899323909248",
    "lng": "127.73136420502445",
    "region": "강원특별자치도"
  },
  {
    "name": "꽃구름어린이공원",
    "address": "경기도 용인시 처인구 고림동 389-1",
    "lat": "37.25130129964529",
    "lng": "127.2260708795507",
    "region": "경기도"
  },
  {
    "name": "가좌고등학교 운동장",
    "address": "경기도 고양시 일산서구 가좌동 1097",
    "lat": "37.687440",
    "lng": "126.719875",
    "region": "경기도"
  },
  {
    "name": "석동체육공원",
    "address": "경상남도 창원시 진해구 석동 182",
    "lat": "35.15303649217639",
    "lng": "128.70436191558875",
    "region": "경상남도"
  },
  {
    "name": "문정중학교",
    "address": "대전광역시 서구 둔산동 1806",
    "lat": "36.355160700799395",
    "lng": "127.40107489285758",
    "region": "대전광역시"
  },
  {
    "name": "신현초등학교",
    "address": "경기도 광주시 신현동 1244",
    "lat": "37.35680343858901",
    "lng": "127.1472805738449",
    "region": "경기도"
  },
  {
    "name": "인천산곡남초등학교 운동장",
    "address": "인천광역시 부평구 산곡동 231-1",
    "lat": "37.4969",
    "lng": "126.7068",
    "region": "인천광역시"
  },
  {
    "name": "대전노은중학교 운동장",
    "address": "대전광역시 유성구 노은동 524",
    "lat": "36.369882161832905",
    "lng": "127.32369307589337",
    "region": "대전광역시"
  },
  {
    "name": "매홀고등학교",
    "address": "경기도 오산시 수청동 632",
    "lat": "37.168703954647185",
    "lng": "127.06893324851464",
    "region": "경기도"
  },
  {
    "name": "은하수초등학교 운동장",
    "address": "경상남도 진주시 가좌동 1988",
    "lat": "35.150779843329275",
    "lng": "128.11086416244507",
    "region": "경상남도"
  },
  {
    "name": "남춘천여자중학교",
    "address": "강원특별자치도 춘천시 온의동 321",
    "lat": "37.85941549623822",
    "lng": "127.72062465595293",
    "region": "강원특별자치도"
  },
  {
    "name": "국은소공원",
    "address": "경기도 용인시 처인구 이동읍 덕성리 1283-2",
    "lat": "37.16813114396972",
    "lng": "127.21003890037538",
    "region": "경기도"
  },
  {
    "name": "전원2단지어린이공원",
    "address": "경기도 부천시 오정구 작동 344",
    "lat": "37.51057690299875",
    "lng": "126.80964410305113",
    "region": "경기도"
  },
  {
    "name": "미사경정공원",
    "address": "경기도 하남시 신장동 281",
    "lat": "37.552198910985524",
    "lng": "127.21464157104494",
    "region": "경기도"
  },
  {
    "name": "제5호 수변공원",
    "address": "경기도 수원시 권선구 서둔동 390",
    "lat": "37.262217",
    "lng": "126.990231",
    "region": "경기도"
  },
  {
    "name": "풍호체육공원",
    "address": "경상남도 창원시 진해구 풍호동 789-33",
    "lat": "35.13584198",
    "lng": "128.71336870",
    "region": "경상남도"
  },
  {
    "name": "봉우중학교",
    "address": "대전광역시 서구 관저동 1150",
    "lat": "36.29815675466112",
    "lng": "127.33290071823124",
    "region": "대전광역시"
  },
  {
    "name": "대전외삼중학교 운동장",
    "address": "대전광역시 유성구 반석동 614",
    "lat": "36.3940292676527",
    "lng": "127.31070923923484",
    "region": "대전광역시"
  },
  {
    "name": "산곡남중학교 운동장",
    "address": "인천광역시 부평구 산곡동 261-4",
    "lat": "37.4995",
    "lng": "126.7076",
    "region": "인천광역시"
  },
  {
    "name": "온샘초등학교",
    "address": "부산광역시 동래구 온천동 1853-12",
    "lat": "35.209511261807734",
    "lng": "129.06866490841065",
    "region": "부산광역시"
  },
  {
    "name": "용산가족공원",
    "address": "서울특별시 용산구 용산동6가 168-6",
    "lat": "37.52259283517481",
    "lng": "126.98239445686342",
    "region": "서울특별시"
  },
  {
    "name": "춘천시청 광장",
    "address": "강원특별자치도 춘천시 옥천동 111-1",
    "lat": "37.88094224178726",
    "lng": "127.72928774357234",
    "region": "강원특별자치도"
  },
  {
    "name": "성룡초등학교",
    "address": "대전광역시 서구 월평동 304",
    "lat": "36.361396640881246",
    "lng": "127.37361663326257",
    "region": "대전광역시"
  },
  {
    "name": "고양초등학교 운동장",
    "address": "경기도 고양시 덕양구 고양동 236",
    "lat": "37.702797",
    "lng": "126.899912",
    "region": "경기도"
  },
  {
    "name": "벚나무쉼터공원",
    "address": "인천광역시 부평구 부평동 929",
    "lat": "37.5038",
    "lng": "126.7168",
    "region": "인천광역시"
  },
  {
    "name": "죽림초등학교",
    "address": "경상남도 통영시 광도면 죽림리 1583-76",
    "lat": "34.876512587430966",
    "lng": "128.41680016191611",
    "region": "경상남도"
  },
  {
    "name": "조치원중학교 운동장",
    "address": "세종특별자치시 세종시 조치원읍 신흥리 231",
    "lat": "36.595442850992654",
    "lng": "127.28671252727507",
    "region": "세종특별자치시"
  },
  {
    "name": "부천송일초등학교",
    "address": "경기도 부천시 소사구 송내동 397",
    "lat": "37.482810216505804",
    "lng": "126.76284661196966",
    "region": "경기도"
  },
  {
    "name": "부천양지초등학교",
    "address": "경기도 부천시 소사구 괴안동 42-17",
    "lat": "37.48052330951916",
    "lng": "126.81599677371975",
    "region": "경기도"
  },
  {
    "name": "부천여월초등학교",
    "address": "경기도 부천시 오정구 여월동 47",
    "lat": "37.51788483902825",
    "lng": "126.79662134644164",
    "region": "경기도"
  },
  {
    "name": "부천초등학교",
    "address": "경기도 부천시 원미구 약대동 30",
    "lat": "37.51455122500929",
    "lng": "126.76521062850948",
    "region": "경기도"
  },
  {
    "name": "상원초등학교",
    "address": "경기도 부천시 원미구 상동 570-7",
    "lat": "37.498001503159735",
    "lng": "126.7533284425735",
    "region": "경기도"
  },
  {
    "name": "중동초등학교",
    "address": "경기도 부천시 원미구 중동 1290",
    "lat": "37.4897869851725",
    "lng": "126.76936268806456",
    "region": "경기도"
  },
  {
    "name": "중흥초등학교",
    "address": "경기도 부천시 원미구 중동 1053",
    "lat": "37.50626618389528",
    "lng": "126.77314460277556",
    "region": "경기도"
  },
  {
    "name": "약대초등학교",
    "address": "경기도 부천시 원미구 약대동 169-1",
    "lat": "37.51315342817232",
    "lng": "126.77305340766905",
    "region": "경기도"
  },
  {
    "name": "창영초등학교",
    "address": "경기도 부천시 소사구 괴안동 238-11",
    "lat": "37.47484244189416",
    "lng": "126.80532246324677",
    "region": "경기도"
  },
  {
    "name": "한림초등학교 운동장",
    "address": "제주특별자치도 제주시 한림읍 한림리 1383",
    "lat": "33.41112149873511",
    "lng": "126.26097313032449",
    "region": "제주특별자치도"
  },
  {
    "name": "금악초등학교 운동장",
    "address": "제주특별자치도 제주시 한림읍 금악리 1915",
    "lat": "33.356743159637986",
    "lng": "126.29596437512441",
    "region": "제주특별자치도"
  },
  {
    "name": "수원초등학교 운동장",
    "address": "제주특별자치도 제주시 한림읍 대림리 1591",
    "lat": "33.42554214656251",
    "lng": "126.27032421918787",
    "region": "제주특별자치도"
  },
  {
    "name": "북촌초등학교 운동장",
    "address": "제주특별자치도 제주시 조천읍 북촌리 1212",
    "lat": "33.547887722277615",
    "lng": "126.69177464258125",
    "region": "제주특별자치도"
  },
  {
    "name": "저청초등학교 운동장",
    "address": "제주특별자치도 제주시 한경면 저지리 1517",
    "lat": "33.32650814974516",
    "lng": "126.25150750003296",
    "region": "제주특별자치도"
  },
  {
    "name": "중앙중학교",
    "address": "경상남도 통영시 무전동 1054-4",
    "lat": "34.861841008582985",
    "lng": "128.42428179644332",
    "region": "경상남도"
  },
  {
    "name": "구봉초등학교운동장",
    "address": "대전광역시 서구 관저동 1133",
    "lat": "36.29949975017651",
    "lng": "127.3299293835194",
    "region": "대전광역시"
  },
  {
    "name": "도안중학교운동장",
    "address": "대전광역시 서구 도안동 1367",
    "lat": "36.317528806490785",
    "lng": "127.34561774366118",
    "region": "대전광역시"
  },
  {
    "name": "관저동공영주차장",
    "address": "대전광역시 서구 관저동 1510",
    "lat": "36.2993142688213",
    "lng": "127.33790521800944",
    "region": "대전광역시"
  },
  {
    "name": "괴정동제2공영주차장",
    "address": "대전광역시 서구 괴정동 88-2",
    "lat": "36.33531554702191",
    "lng": "127.38339495132114",
    "region": "대전광역시"
  },
  {
    "name": "복정초등학교운동장",
    "address": "경기도 성남시 수정구 복정동 665",
    "lat": "37.46217843616614",
    "lng": "127.1295025124304",
    "region": "경기도"
  },
  {
    "name": "한강공원",
    "address": "대구광역시 북구 사수동 809",
    "lat": "35.89946161622657",
    "lng": "128.51286985042427",
    "region": "대구광역시"
  },
  {
    "name": "위례고운초등학교 운동장",
    "address": "경기도 성남시 수정구 창곡동 511",
    "lat": "37.47118566274656",
    "lng": "127.14574201814564",
    "region": "경기도"
  },
  {
    "name": "당촌초등학교 운동장",
    "address": "경기도 성남시 분당구 분당동 36",
    "lat": "37.373602802401145",
    "lng": "127.13128189710397",
    "region": "경기도"
  },
  {
    "name": "탄천초등학교 운동장",
    "address": "경기도 성남시 분당구 정자동 195",
    "lat": "37.36180808115947",
    "lng": "127.1156979047419",
    "region": "경기도"
  },
  {
    "name": "분당구청 잔디광장",
    "address": "경기도 성남시 분당구 수내동 2",
    "lat": "37.38188831033138",
    "lng": "127.12036047357846",
    "region": "경기도"
  },
  {
    "name": "부천대명초등학교",
    "address": "경기도 부천시 오정구 오정동 127-8",
    "lat": "37.52762433791543",
    "lng": "126.79771982202931",
    "region": "경기도"
  },
  {
    "name": "부천원일초등학교",
    "address": "경기도 부천시 오정구 원종동 104-3",
    "lat": "37.53009696875686",
    "lng": "126.80314633121067",
    "region": "경기도"
  },
  {
    "name": "원계근린공원",
    "address": "경상남도 창원시 마산회원구 내서읍 원계리 400-1",
    "lat": "35.23723102525245",
    "lng": "128.50584457953016",
    "region": "경상남도"
  },
  {
    "name": "양덕 가고파공원",
    "address": "경상남도 창원시 마산회원구 양덕동 84-7",
    "lat": "35.22484765152714",
    "lng": "128.5818933766998",
    "region": "경상남도"
  },
  {
    "name": "삼계 더푸른공원",
    "address": "경상남도 창원시 마산회원구 내서읍 삼계리 1",
    "lat": "35.23786104003736",
    "lng": "128.50309256868061",
    "region": "경상남도"
  },
  {
    "name": "통영초등학교",
    "address": "경상남도 통영시 무전동 1054-3",
    "lat": "34.86281318828157",
    "lng": "128.42443891388342",
    "region": "경상남도"
  },
  {
    "name": "호연초등학교 운동장",
    "address": "경기도 화성시 장지동 925",
    "lat": "37.16263365053166",
    "lng": "127.10462272167207",
    "region": "경기도"
  },
  {
    "name": "선유초등학교운동장",
    "address": "대전광역시 서구 관저동 1592",
    "lat": "36.29434166685596",
    "lng": "127.34100538627136",
    "region": "대전광역시"
  },
  {
    "name": "오션중학교 운동장",
    "address": "부산광역시 강서구 명지동 3242-3",
    "lat": "35.079930",
    "lng": "128.909860",
    "region": "부산광역시"
  },
  {
    "name": "경일고등학교 운동장",
    "address": "부산광역시 강서구 명지동 299",
    "lat": "35.111979385319096",
    "lng": "128.92247378825766",
    "region": "부산광역시"
  },
  {
    "name": "경일중학교 운동장",
    "address": "부산광역시 강서구 명지동 3408",
    "lat": "35.09377049360488",
    "lng": "128.91614109277526",
    "region": "부산광역시"
  },
  {
    "name": "명일초등학교 운동장",
    "address": "부산광역시 강서구 명지동 3477-2",
    "lat": "35.10939466385268",
    "lng": "128.92207145691012",
    "region": "부산광역시"
  },
  {
    "name": "덕문고등학교 운동장",
    "address": "부산광역시 강서구 성북동 401",
    "lat": "35.05138364007197",
    "lng": "128.8294923305518",
    "region": "부산광역시"
  },
  {
    "name": "옥천초등학교운동장",
    "address": "부산광역시 사하구 괴정동 472-3",
    "lat": "35.09346128250195",
    "lng": "128.9937553864633",
    "region": "부산광역시"
  },
  {
    "name": "상동초등학교",
    "address": "경기도 부천시 원미구 상동 391-1",
    "lat": "37.496435281360164",
    "lng": "126.75024390220636",
    "region": "경기도"
  },
  {
    "name": "덕문중학교 운동장",
    "address": "부산광역시 강서구 성북동 407-2",
    "lat": "35.05214556399201",
    "lng": "128.83044183254307",
    "region": "부산광역시"
  },
  {
    "name": "명지중학교 운동장",
    "address": "부산광역시 강서구 명지동 3386",
    "lat": "35.10135473451394",
    "lng": "128.92574071884258",
    "region": "부산광역시"
  },
  {
    "name": "송정초등학교 운동장",
    "address": "부산광역시 강서구 신호동 254",
    "lat": "35.08183178084236",
    "lng": "128.87793663067708",
    "region": "부산광역시"
  },
  {
    "name": "신명초등학교 운동장",
    "address": "부산광역시 강서구 명지동 3427",
    "lat": "35.09478224060422",
    "lng": "128.92091602811172",
    "region": "부산광역시"
  },
  {
    "name": "부천삼정초등학교",
    "address": "경기도 부천시 오정구 삼정동 301",
    "lat": "37.51839924949273",
    "lng": "126.77066518757997",
    "region": "경기도"
  },
  {
    "name": "상일초등학교",
    "address": "경기도 부천시 원미구 상동 550-5",
    "lat": "37.50145303360403",
    "lng": "126.75052285194397",
    "region": "경기도"
  },
  {
    "name": "삼각지공원",
    "address": "경상남도 창원시 마산회원구 양덕동 412-8",
    "lat": "35.22047638345626",
    "lng": "128.58863207131202",
    "region": "경상남도"
  },
  {
    "name": "부산소프트웨어마이스터 고등학교 운동장",
    "address": "부산광역시 강서구 봉림동 15",
    "lat": "35.1888726586331",
    "lng": "128.90363873709416",
    "region": "부산광역시"
  },
  {
    "name": "삼괴고등학교 운동장",
    "address": "경기도 화성시 우정읍 조암리 139",
    "lat": "37.08905982664451",
    "lng": "126.82134237216842",
    "region": "경기도"
  },
  {
    "name": "상인초등학교",
    "address": "경기도 부천시 원미구 상동 500-3",
    "lat": "37.51263217303081",
    "lng": "126.75635933876033",
    "region": "경기도"
  },
  {
    "name": "솔안초등학교",
    "address": "경기도 부천시 소사구 송내동 702-1",
    "lat": "37.48556292646696",
    "lng": "126.75105117222407",
    "region": "경기도"
  },
  {
    "name": "안화고등학교 운동장",
    "address": "경기도 화성시 병점동 852",
    "lat": "37.21159641327301",
    "lng": "127.04789954299976",
    "region": "경기도"
  },
  {
    "name": "푸른중학교 운동장",
    "address": "경기도 화성시 능동 1135",
    "lat": "37.20188493474891",
    "lng": "127.0566489088044",
    "region": "경기도"
  },
  {
    "name": "광림초등학교 운동장",
    "address": "광주광역시 서구 동천동 659",
    "lat": "35.169379428257336",
    "lng": "126.8703907728195",
    "region": "광주광역시"
  },
  {
    "name": "수현중학교 운동장",
    "address": "경기도 화성시 봉담읍 수영리 691",
    "lat": "37.22601007866687",
    "lng": "126.95083558559418",
    "region": "경기도"
  },
  {
    "name": "여울초등학교 운동장",
    "address": "경기도 화성시 오산동 987",
    "lat": "37.19484343828042",
    "lng": "127.08930730819704",
    "region": "경기도"
  },
  {
    "name": "일광역 교통광장",
    "address": "부산광역시 기장군 일광읍 삼성리 892",
    "lat": "35.26711402408114",
    "lng": "129.23208117485308",
    "region": "부산광역시"
  },
  {
    "name": "일광중학교 운동장",
    "address": "부산광역시 기장군 일광읍 삼성리 749",
    "lat": "35.264994133601306",
    "lng": "129.22046720981845",
    "region": "부산광역시"
  },
  {
    "name": "반곡중학교 운동장",
    "address": "세종특별자치시 세종시 반곡동 854",
    "lat": "36.49994718915165",
    "lng": "127.31193065643312",
    "region": "세종특별자치시"
  },
  {
    "name": "계남초등학교",
    "address": "경기도 부천시 원미구 중동 1180",
    "lat": "37.49879311363711",
    "lng": "126.77205562591551",
    "region": "경기도"
  },
  {
    "name": "종달초등학교 운동장",
    "address": "제주특별자치도 제주시 구좌읍 종달리 1918",
    "lat": "33.49252631754359",
    "lng": "126.89713306755567",
    "region": "제주특별자치도"
  },
  {
    "name": "고산초등학교 운동장",
    "address": "제주특별자치도 제주시 한경면 고산리 2684-1",
    "lat": "33.304252733344235",
    "lng": "126.17742986801866",
    "region": "제주특별자치도"
  },
  {
    "name": "나성초등학교 운동장",
    "address": "세종특별자치시 세종시 나성동 849",
    "lat": "36.48997236530621",
    "lng": "127.26369917392732",
    "region": "세종특별자치시"
  },
  {
    "name": "해밀초등학교 운동장",
    "address": "세종특별자치시 세종시 해밀동 331",
    "lat": "36.5255058518401",
    "lng": "127.26825892925261",
    "region": "세종특별자치시"
  },
  {
    "name": "빛가람 수변공원",
    "address": "세종특별자치시 세종시 나성동 828",
    "lat": "36.492804600301575",
    "lng": "127.2594272846586",
    "region": "세종특별자치시"
  },
  {
    "name": "6-4생활권 체육공원",
    "address": "세종특별자치시 세종시 해밀동 산10",
    "lat": "36.52655",
    "lng": "127.269415",
    "region": "세종특별자치시"
  },
  {
    "name": "광주한울초등학교 운동장",
    "address": "광주광역시 북구 동림동 235",
    "lat": "35.175904282702646",
    "lng": "126.8663191795349",
    "region": "광주광역시"
  },
  {
    "name": "서연고등학교 운동장",
    "address": "경기도 화성시 장지동 973",
    "lat": "37.16061580767871",
    "lng": "127.11205780506134",
    "region": "경기도"
  },
  {
    "name": "광주오치초등학교 운동장",
    "address": "광주광역시 북구 오치동 1002",
    "lat": "35.18513377716786",
    "lng": "126.8991816043854",
    "region": "광주광역시"
  },
  {
    "name": "한동초등학교 운동장",
    "address": "제주특별자치도 제주시 구좌읍 한동리 1168",
    "lat": "33.53868222455521",
    "lng": "126.8286382961898",
    "region": "제주특별자치도"
  },
  {
    "name": "탄방중학교운동장",
    "address": "대전광역시 서구 둔산동 1512",
    "lat": "36.35088248688848",
    "lng": "127.39438648123961",
    "region": "대전광역시"
  },
  {
    "name": "내리문화공원",
    "address": "경기도 평택시 팽성읍 내리 260",
    "lat": "36.97491539385284",
    "lng": "127.03093171119691",
    "region": "경기도"
  },
  {
    "name": "현화근린공원",
    "address": "경기도 평택시 안중읍 현화리 829",
    "lat": "36.980611313900866",
    "lng": "126.92037711774921",
    "region": "경기도"
  },
  {
    "name": "안중레포츠공원",
    "address": "경기도 평택시 안중읍 학현리 573",
    "lat": "36.9935208446525",
    "lng": "126.91736001766931",
    "region": "경기도"
  },
  {
    "name": "오션초등학교 운동장",
    "address": "부산광역시 강서구 명지동 3241-3",
    "lat": "35.079991529059036",
    "lng": "128.90699744224372",
    "region": "부산광역시"
  },
  {
    "name": "새터근린공원",
    "address": "경기도 평택시 청북읍 옥길리 1142",
    "lat": "37.02108330384475",
    "lng": "126.91884756088257",
    "region": "경기도"
  },
  {
    "name": "진위산업단지근린공원",
    "address": "경기도 평택시 진위면 청호리 342-4",
    "lat": "37.12272478028812",
    "lng": "127.08255630988126",
    "region": "경기도"
  },
  {
    "name": "정현초등학교 운동장",
    "address": "경기도 화성시 산척동 720",
    "lat": "37.17114476343984",
    "lng": "127.1134042739868",
    "region": "경기도"
  },
  {
    "name": "청계중학교 운동장",
    "address": "경기도 화성시 청계동 517",
    "lat": "37.19913105669535",
    "lng": "127.10312890882821",
    "region": "경기도"
  },
  {
    "name": "궁리근린공원",
    "address": "경기도 평택시 고덕면 궁리 524",
    "lat": "37.02147519975692",
    "lng": "127.0364060997963",
    "region": "경기도"
  },
  {
    "name": "신촌새말근린공원",
    "address": "경기도 평택시 칠원동 589",
    "lat": "37.024077080367306",
    "lng": "127.10505455732344",
    "region": "경기도"
  },
  {
    "name": "신장근린공원",
    "address": "경기도 평택시 신장동 370-2",
    "lat": "37.08608881266324",
    "lng": "127.05129392819737",
    "region": "경기도"
  },
  {
    "name": "소사벌레포츠타운",
    "address": "경기도 평택시 합정동 392",
    "lat": "36.98860231254314",
    "lng": "127.10733735677107",
    "region": "경기도"
  },
  {
    "name": "배다리근린공원",
    "address": "경기도 평택시 죽백동 800",
    "lat": "37.00167014843365",
    "lng": "127.12038874626157",
    "region": "경기도"
  },
  {
    "name": "상서재마당근린공원",
    "address": "경기도 평택시 동삭동 843-1",
    "lat": "37.01424728607853",
    "lng": "127.10253596305846",
    "region": "경기도"
  },
  {
    "name": "당진종합운동장",
    "address": "충청남도 당진시 고대면 진관리 349-20",
    "lat": "36.9222",
    "lng": "126.5999",
    "region": "충청남도"
  },
  {
    "name": "무주 등나무 운동장",
    "address": "전북특별자치도 무주군 무주읍 당산리 1118",
    "lat": "36.00248193393364",
    "lng": "127.6614037156105",
    "region": "전북특별자치도"
  },
  {
    "name": "안성면 생활체육공원",
    "address": "전북특별자치도 무주군 안성면 장기리 1682-2",
    "lat": "35.87001229809448",
    "lng": "127.65000700950623",
    "region": "전북특별자치도"
  },
  {
    "name": "초롱꽃 어린이공원",
    "address": "세종특별자치시 세종시 한솔동 945",
    "lat": "36.480219894682605",
    "lng": "127.2598080954913",
    "region": "세종특별자치시"
  },
  {
    "name": "만종초등학교",
    "address": "강원특별자치도 원주시 호저면 만종리 610",
    "lat": "37.35544221259892",
    "lng": "127.90157810340428",
    "region": "강원특별자치도"
  },
  {
    "name": "호저초등학교",
    "address": "강원특별자치도 원주시 호저면 주산리 511",
    "lat": "37.411320875642105",
    "lng": "127.92622932614283",
    "region": "강원특별자치도"
  },
  {
    "name": "귀래초등학교",
    "address": "강원특별자치도 원주시 귀래면 운남리 951",
    "lat": "37.16897031862216",
    "lng": "127.88385326902689",
    "region": "강원특별자치도"
  },
  {
    "name": "신림초등학교",
    "address": "강원특별자치도 원주시 신림면 신림리 512-2",
    "lat": "37.231250528928236",
    "lng": "128.07839882721547",
    "region": "강원특별자치도"
  },
  {
    "name": "명륜초등학교",
    "address": "강원특별자치도 원주시 개운동 389",
    "lat": "37.34217337088772",
    "lng": "127.95848872291546",
    "region": "강원특별자치도"
  },
  {
    "name": "원주고등학교",
    "address": "강원특별자치도 원주시 개운동 127-1",
    "lat": "37.33966952904801",
    "lng": "127.95495989639684",
    "region": "강원특별자치도"
  },
  {
    "name": "치악초등학교",
    "address": "강원특별자치도 원주시 명륜동 709",
    "lat": "37.33207027596079",
    "lng": "127.93947272970524",
    "region": "강원특별자치도"
  },
  {
    "name": "단관근린공원",
    "address": "강원특별자치도 원주시 관설동 1751-3",
    "lat": "37.31903658034265",
    "lng": "127.95900056714689",
    "region": "강원특별자치도"
  },
  {
    "name": "남원주초등학교",
    "address": "강원특별자치도 원주시 단구동 1588-2",
    "lat": "37.32243678337719",
    "lng": "127.95091875305542",
    "region": "강원특별자치도"
  },
  {
    "name": "학성중학교",
    "address": "강원특별자치도 원주시 일산동 250",
    "lat": "37.35011376246393",
    "lng": "127.9407878323141",
    "region": "강원특별자치도"
  },
  {
    "name": "중앙초등학교",
    "address": "강원특별자치도 원주시 학성동 1260",
    "lat": "37.35275864251103",
    "lng": "127.93945814069748",
    "region": "강원특별자치도"
  },
  {
    "name": "북원여자고등학교",
    "address": "강원특별자치도 원주시 단계동 481",
    "lat": "37.354664158253996",
    "lng": "127.93194150369261",
    "region": "강원특별자치도"
  },
  {
    "name": "북원초등학교",
    "address": "강원특별자치도 원주시 단계동 796",
    "lat": "37.34331883478156",
    "lng": "127.93767273362988",
    "region": "강원특별자치도"
  },
  {
    "name": "치악중학교",
    "address": "강원특별자치도 원주시 단계동 481-8",
    "lat": "37.353664567986414",
    "lng": "127.93081438832822",
    "region": "강원특별자치도"
  },
  {
    "name": "평원초등학교",
    "address": "강원특별자치도 원주시 단계동 814",
    "lat": "37.350184781148165",
    "lng": "127.93107169471021",
    "region": "강원특별자치도"
  },
  {
    "name": "학성초등학교",
    "address": "강원특별자치도 원주시 태장동 2815",
    "lat": "37.360517314518205",
    "lng": "127.95889019966123",
    "region": "강원특별자치도"
  },
  {
    "name": "중앙근린공원(원주문화원옆)",
    "address": "강원특별자치도 원주시 무실동 1914",
    "lat": "37.337508367541645",
    "lng": "127.93671369552612",
    "region": "강원특별자치도"
  },
  {
    "name": "무삼공원",
    "address": "강원특별자치도 원주시 무실동 1826",
    "lat": "37.3332639715257",
    "lng": "127.93244442070664",
    "region": "강원특별자치도"
  },
  {
    "name": "박건호공원",
    "address": "강원특별자치도 원주시 무실동 1761-1",
    "lat": "37.33762300325343",
    "lng": "127.9211484677819",
    "region": "강원특별자치도"
  },
  {
    "name": "단관초등학교",
    "address": "강원특별자치도 원주시 관설동 1723",
    "lat": "37.317375099873246",
    "lng": "127.96396332172596",
    "region": "강원특별자치도"
  },
  {
    "name": "반곡중학교",
    "address": "강원특별자치도 원주시 반곡동 1450-12",
    "lat": "37.335972031814386",
    "lng": "127.97333585119364",
    "region": "강원특별자치도"
  },
  {
    "name": "버들중학교",
    "address": "강원특별자치도 원주시 반곡동 1963-5",
    "lat": "37.331152863924345",
    "lng": "127.98986940217317",
    "region": "강원특별자치도"
  },
  {
    "name": "봉대초등학교",
    "address": "강원특별자치도 원주시 반곡동 896",
    "lat": "37.33367146534377",
    "lng": "127.98801601459127",
    "region": "강원특별자치도"
  },
  {
    "name": "원주여자고등학교",
    "address": "강원특별자치도 원주시 반곡동 1816-1",
    "lat": "37.33673753164372",
    "lng": "127.9772634440754",
    "region": "강원특별자치도"
  },
  {
    "name": "무풍면 생활체육공원",
    "address": "전북특별자치도 무주군 무풍면 현내리 617",
    "lat": "35.96680530845194",
    "lng": "127.8451806306839",
    "region": "전북특별자치도"
  },
  {
    "name": "원주종합운동장",
    "address": "강원특별자치도 원주시 명륜동 342",
    "lat": "37.33715958260277",
    "lng": "127.94399830395524",
    "region": "강원특별자치도"
  },
  {
    "name": "서동초등학교 운동장",
    "address": "대구광역시 달성군 다사읍 서재리 928",
    "lat": "35.87198690476433",
    "lng": "128.48891759280707",
    "region": "대구광역시"
  },
  {
    "name": "예슬어린이공원",
    "address": "대구광역시 달성군 화원읍 본리리 95",
    "lat": "35.801437411571584",
    "lng": "128.50840222366512",
    "region": "대구광역시"
  },
  {
    "name": "호원중학교",
    "address": "경기도 의정부시 호원동 284-5",
    "lat": "37.71912074733523",
    "lng": "127.04548537731173",
    "region": "경기도"
  },
  {
    "name": "동암초등학교",
    "address": "경기도 의정부시 장암동 37-52",
    "lat": "37.723337",
    "lng": "127.054119",
    "region": "경기도"
  },
  {
    "name": "동암중학교",
    "address": "경기도 의정부시 장암동 9-24",
    "lat": "37.721765",
    "lng": "127.058703",
    "region": "경기도"
  },
  {
    "name": "새말초등학교",
    "address": "경기도 의정부시 신곡동 799-1",
    "lat": "37.746789",
    "lng": "127.069398",
    "region": "경기도"
  },
  {
    "name": "부용초등학교",
    "address": "경기도 의정부시 민락동 756-6",
    "lat": "37.736030",
    "lng": "127.090955",
    "region": "경기도"
  },
  {
    "name": "민락중학교",
    "address": "경기도 의정부시 민락동 692-10",
    "lat": "37.740962",
    "lng": "127.095812",
    "region": "경기도"
  },
  {
    "name": "송양고등학교",
    "address": "경기도 의정부시 낙양동 759",
    "lat": "37.752825",
    "lng": "127.106755",
    "region": "경기도"
  },
  {
    "name": "솔뫼중학교",
    "address": "경기도 의정부시 용현��� 196",
    "lat": "37.730154",
    "lng": "127.082502",
    "region": "경기도"
  },
  {
    "name": "의정부국토관리사무소",
    "address": "경기도 의정부시 용현동 96-2",
    "lat": "37.72885649422803",
    "lng": "127.08864480257034",
    "region": "경기도"
  },
  {
    "name": "의정부중학교",
    "address": "경기도 의정부시 가능동 652-56",
    "lat": "37.747354917156535",
    "lng": "127.03976154327394",
    "region": "경기도"
  },
  {
    "name": "경기북과학고등학교",
    "address": "경기도 의정부시 녹양동 305",
    "lat": "37.75875583866032",
    "lng": "127.02022969722746",
    "region": "경기도"
  },
  {
    "name": "갈매초등학교 운동장",
    "address": "경기도 구리시 갈매동 336",
    "lat": "37.627989569212424",
    "lng": "127.11592823266983",
    "region": "경기도"
  },
  {
    "name": "갈매중학교 운동장",
    "address": "경기도 구리시 갈매동 576",
    "lat": "37.63048200669825",
    "lng": "127.12006464218203",
    "region": "경기도"
  },
  {
    "name": "동탄목동중학교 운동장",
    "address": "경기도 화성시 목동 484",
    "lat": "37.18821539659733",
    "lng": "127.12628424167634",
    "region": "경기도"
  },
  {
    "name": "민락초등학교",
    "address": "경기도 의정부시 민락동 692-2",
    "lat": "37.741736",
    "lng": "127.094796",
    "region": "경기도"
  },
  {
    "name": "갈매고등학교 운동장",
    "address": "경기도 구리시 갈매동 653",
    "lat": "37.62688019394872",
    "lng": "127.11744203778842",
    "region": "경기도"
  },
  {
    "name": "동구하늘공원",
    "address": "경기도 구리시 인창동 669-1",
    "lat": "37.607027",
    "lng": "127.145930",
    "region": "경기도"
  },
  {
    "name": "장자호수공원",
    "address": "경기도 구리시 교문동 537",
    "lat": "37.582538",
    "lng": "127.1387982",
    "region": "경기도"
  },
  {
    "name": "이문안호수공원",
    "address": "경기도 구리시 교문동 129-5",
    "lat": "37.59532786133846",
    "lng": "127.13178813457489",
    "region": "경기도"
  },
  {
    "name": "갈매중앙공원",
    "address": "경기도 구리시 갈매동 578",
    "lat": "37.63150512660925",
    "lng": "127.11906251114817",
    "region": "경기도"
  },
  {
    "name": "인창중앙공원",
    "address": "경기도 구리시 인창동 309-2",
    "lat": "37.60667142021225",
    "lng": "127.13706672191617",
    "region": "경기도"
  },
  {
    "name": "제일공원",
    "address": "대구광역시 서구 원대동3가 1458",
    "lat": "35.88345136975566",
    "lng": "128.5770391087518",
    "region": "대구광역시"
  },
  {
    "name": "서울일신초등학교 운동장",
    "address": "서울특별시 성북구 종암동 1-79",
    "lat": "37.5991354136843",
    "lng": "127.0401177748276",
    "region": "서울특별시"
  },
  {
    "name": "늘푸른-솔향기 어린이 공원",
    "address": "서울특별시 성북구 길음동 1184-36",
    "lat": "37.60836089531258",
    "lng": "127.02113663974455",
    "region": "서울특별시"
  },
  {
    "name": "한울 어린이 공원",
    "address": "서울특별시 성북구 정릉동 169-16",
    "lat": "37.60586465026133",
    "lng": "127.0139092794551",
    "region": "서울특별시"
  },
  {
    "name": "오동공원 놀이마당",
    "address": "서울특별시 성북구 하월곡동 228-4",
    "lat": "37.60925749679857",
    "lng": "127.03937688066827",
    "region": "서울특별시"
  },
  {
    "name": "설천면 생활체육공원",
    "address": "전북특별자치도 무주군 설천면 소천리 883-1",
    "lat": "36.008852457111885",
    "lng": "127.79112875461578",
    "region": "전북특별자치도"
  },
  {
    "name": "샘마루공원",
    "address": "강원특별자치도 원주시 지정면 가곡리 1526",
    "lat": "37.37847862277828",
    "lng": "127.87467956542969",
    "region": "강원특별자치도"
  },
  {
    "name": "치악고등학교",
    "address": "강원특별자치도 원주시 관설동 1798-1",
    "lat": "37.315342265490486",
    "lng": "127.95871933732221",
    "region": "강원특별자치도"
  },
  {
    "name": "반곡초등학교",
    "address": "강원특별자치도 원주시 반곡동 1450-1",
    "lat": "37.33746639166938",
    "lng": "127.97354661157105",
    "region": "강원특별자치도"
  },
  {
    "name": "공주대학교",
    "address": "충청남도 공주시 신관동 182",
    "lat": "36.46973286489842",
    "lng": "127.14096055032151",
    "region": "충청남도"
  },
  {
    "name": "샛말근린공원",
    "address": "경기도 시흥시 하중동 848",
    "lat": "37.39585176509183",
    "lng": "126.8043279647827",
    "region": "경기도"
  },
  {
    "name": "승지공원",
    "address": "경기도 시흥시 능곡동 552",
    "lat": "37.37172190437244",
    "lng": "126.8131699090222",
    "region": "경기도"
  },
  {
    "name": "금호중학교 운동장",
    "address": "광주광역시 서구 금호동 740-1",
    "lat": "35.13898898685932",
    "lng": "126.86131417751312",
    "region": "광주광역시"
  },
  {
    "name": "시곡중학교 운동장",
    "address": "경기도 안산시 상록구 사동 1342-1",
    "lat": "37.29256570237393",
    "lng": "126.85619452871639",
    "region": "경기도"
  },
  {
    "name": "여술근린공원",
    "address": "경기도 평택시 포승읍 도곡리 1108",
    "lat": "36.99109188205942",
    "lng": "126.84198871618196",
    "region": "경기도"
  },
  {
    "name": "북원중학교",
    "address": "강원특별자치도 원주시 태장동 1359",
    "lat": "37.38623376085753",
    "lng": "127.95289801369138",
    "region": "강원특별자치도"
  },
  {
    "name": "산현공원",
    "address": "경기도 시흥시 조남동 670",
    "lat": "37.374289824817005",
    "lng": "126.85100617356898",
    "region": "경기도"
  },
  {
    "name": "산들공원",
    "address": "경기도 시흥시 거모동 1354",
    "lat": "37.34739846813949",
    "lng": "126.78018934055267",
    "region": "경기도"
  },
  {
    "name": "가래울어린이공원",
    "address": "경기도 시흥시 능곡동 793",
    "lat": "37.36510335039985",
    "lng": "126.81389972384628",
    "region": "경기도"
  },
  {
    "name": "문화근린공원",
    "address": "광주광역시 북구 문흥동 1009-1",
    "lat": "35.184237088806135",
    "lng": "126.91552189347526",
    "region": "광주광역시"
  },
  {
    "name": "첨단체육공원",
    "address": "광주광역시 북구 오룡동 1113",
    "lat": "35.220557718196254",
    "lng": "126.85561995477124",
    "region": "광주광역시"
  },
  {
    "name": "솔숲 어린이 공원",
    "address": "서울특별시 성북구 정릉동 170-62",
    "lat": "37.60493367324814",
    "lng": "127.0151171136659",
    "region": "서울특별시"
  },
  {
    "name": "수질복원센터 야외체육시설",
    "address": "경기도 화성시 방교동 795",
    "lat": "37.174277",
    "lng": "127.086340",
    "region": "경기도"
  },
  {
    "name": "반월체육센터",
    "address": "경기도 화성시 반월동 968",
    "lat": "37.22946559985025",
    "lng": "127.0541167259216",
    "region": "경기도"
  },
  {
    "name": "화성드림파크",
    "address": "경기도 화성시 우정읍 매향리 986",
    "lat": "37.046374646904866",
    "lng": "126.75877332687377",
    "region": "경기도"
  },
  {
    "name": "남양체육공원",
    "address": "경기도 화성시 남양읍 남양리 2236",
    "lat": "37.21080646780018",
    "lng": "126.8272179365158",
    "region": "경기도"
  },
  {
    "name": "기배역사공원",
    "address": "경기도 화성시 기안동 927",
    "lat": "37.21483301032675",
    "lng": "126.98382943868637",
    "region": "경기도"
  },
  {
    "name": "4호어린이공원(풍덩풍덩어린이공원)",
    "address": "경기도 화성시 남양읍 남양리 2234",
    "lat": "37.210105806090944",
    "lng": "126.82824522256851",
    "region": "경기도"
  },
  {
    "name": "제86호 소공원",
    "address": "경기도 화성시 기산동 476-1",
    "lat": "37.21861486452689",
    "lng": "127.05295875122887",
    "region": "경기도"
  },
  {
    "name": "동탄센트럴파크",
    "address": "경기도 화성시 반송동 97",
    "lat": "37.203687",
    "lng": "127.069282",
    "region": "경기도"
  },
  {
    "name": "행복근린공원",
    "address": "경기도 화성시 반월동 875",
    "lat": "37.222607",
    "lng": "127.051630",
    "region": "경기도"
  },
  {
    "name": "소공원 89호",
    "address": "경기도 화성시 반월동 965",
    "lat": "37.226382",
    "lng": "127.066400",
    "region": "경기도"
  },
  {
    "name": "솔빛공원-2",
    "address": "경기도 화성시 영천동 663",
    "lat": "37.207607",
    "lng": "127.102658",
    "region": "경기도"
  },
  {
    "name": "동탄2지구 5호 근린공원",
    "address": "경기도 화성시 영천동 665-1",
    "lat": "37.206208",
    "lng": "127.100272",
    "region": "경기도"
  },
  {
    "name": "영천1호체육공원",
    "address": "경기도 화성시 영천동 670-2",
    "lat": "37.205552",
    "lng": "127.106173",
    "region": "경기도"
  },
  {
    "name": "청계중앙공원",
    "address": "경기도 화성시 청계동 527",
    "lat": "37.200084",
    "lng": "127.106504",
    "region": "경기도"
  },
  {
    "name": "평대초등학교 운동장",
    "address": "제주특별자치도 제주시 구좌읍 평대리 650",
    "lat": "33.5294827662948",
    "lng": "126.84047695620852",
    "region": "제주특별자치도"
  },
  {
    "name": "솔빛초등학교 운동장",
    "address": "세종특별자치시 세종시 반곡동 42-25",
    "lat": "36.495633655811346",
    "lng": "127.31231233617463",
    "region": "세종특별자치시"
  },
  {
    "name": "충의중학교",
    "address": "경기도 의정부시 민락동 735-7",
    "lat": "37.741539",
    "lng": "127.090384",
    "region": "경기도"
  },
  {
    "name": "4호 어린이공원",
    "address": "경기도 화성시 새솔동 15",
    "lat": "37.28554333791566",
    "lng": "126.82085841894147",
    "region": "경기도"
  },
  {
    "name": "안녕일수변공원",
    "address": "경기도 화성시 안녕동 225",
    "lat": "37.201344",
    "lng": "127.008362",
    "region": "경기도"
  },
  {
    "name": "하늘빛공원",
    "address": "경기도 화성시 석우동 50",
    "lat": "37.209752",
    "lng": "127.076970",
    "region": "경기도"
  },
  {
    "name": "동탄호수공원",
    "address": "경기도 화성시 송동 727",
    "lat": "37.16721634775768",
    "lng": "127.10219264030457",
    "region": "경기도"
  },
  {
    "name": "오얏골공원",
    "address": "서울특별시 강북구 번동 228",
    "lat": "37.63404894",
    "lng": "127.03428490",
    "region": "서울특별시"
  },
  {
    "name": "오현어린이공원",
    "address": "서울특별시 강북구 번동 244",
    "lat": "37.62373343",
    "lng": "127.04646886",
    "region": "서울특별시"
  },
  {
    "name": "늘푸른공원",
    "address": "서울특별시 강북구 미아동 797-9",
    "lat": "37.62543759",
    "lng": "127.01968456",
    "region": "서울특별시"
  },
  {
    "name": "구세군길 마을마당",
    "address": "서울특별시 강북구 미아동 791-1343",
    "lat": "37.62675366",
    "lng": "127.01470936",
    "region": "서울특별시"
  },
  {
    "name": "솔샘어린이공원",
    "address": "서울특별시 강북구 미아동 329-11",
    "lat": "37.61815093",
    "lng": "127.02703874",
    "region": "서울특별시"
  },
  {
    "name": "응달마을어린이공원",
    "address": "서울특별시 강북구 미아동 860-116",
    "lat": "37.61821558",
    "lng": "127.02433176",
    "region": "서울특별시"
  },
  {
    "name": "고갯마루공원",
    "address": "서울특별시 강북구 미아동 811-13",
    "lat": "37.61648489",
    "lng": "127.01697356",
    "region": "서울특별시"
  },
  {
    "name": "은모루어린이공원",
    "address": "서울특별시 강북구 수유동 172-209",
    "lat": "37.64239669",
    "lng": "127.02681933",
    "region": "서울특별시"
  },
  {
    "name": "장현 생활체육시설",
    "address": "경기도 남양주시 진접읍 장현리 49-13",
    "lat": "37.73192930736151",
    "lng": "127.19593294503493",
    "region": "경기도"
  },
  {
    "name": "광릉초등학교 운동장",
    "address": "경기도 남양주시 진접읍 팔야리 762",
    "lat": "37.74565283079966",
    "lng": "127.207255223641",
    "region": "경기도"
  },
  {
    "name": "다산초등학교 운동장",
    "address": "경기도 남양주시 다산동 6049",
    "lat": "37.626477061688824",
    "lng": "127.15815961360933",
    "region": "경기도"
  },
  {
    "name": "도곡초등학교 운동장",
    "address": "경기도 남양주시 와부읍 도곡리 산46-7",
    "lat": "37.579465170745394",
    "lng": "127.21827546309648",
    "region": "경기도"
  },
  {
    "name": "동곡초등학교 운동장",
    "address": "경기도 남양주시 금곡동 624",
    "lat": "37.6284836118582",
    "lng": "127.2038986194076",
    "region": "경기도"
  },
  {
    "name": "송라초등학교 운동장",
    "address": "경기도 남양주시 화도읍 마석우리 590",
    "lat": "37.65404384098029",
    "lng": "127.30161500777461",
    "region": "경기도"
  },
  {
    "name": "다산새봄초등학교 운동장",
    "address": "경기도 남양주시 다산동 6128",
    "lat": "37.619734810780365",
    "lng": "127.15880252361202",
    "region": "경기도"
  },
  {
    "name": "마석초등학교 운동장",
    "address": "경기도 남양주시 화도읍 창현리 517-1",
    "lat": "37.64916132584228",
    "lng": "127.30477497405285",
    "region": "경기도"
  },
  {
    "name": "어람초등학교 운동장",
    "address": "경기도 남양주시 오남읍 오남리 358-5",
    "lat": "37.682479256617974",
    "lng": "127.2128402563065",
    "region": "경기도"
  },
  {
    "name": "화도초등학교 운동장",
    "address": "경기도 남양주시 화도읍 마석우리 194-3",
    "lat": "37.6628468306027",
    "lng": "127.30815293147734",
    "region": "경기도"
  },
  {
    "name": "은솔초등학교 운동장",
    "address": "경기도 남양주시 화도읍 녹촌리 569",
    "lat": "37.65009373287768",
    "lng": "127.29477524757384",
    "region": "경기도"
  },
  {
    "name": "하랑초등학교 운동장",
    "address": "경기도 남양주시 호평동 732",
    "lat": "37.64959467232599",
    "lng": "127.25530385971068",
    "region": "경기도"
  },
  {
    "name": "다산중학교 운동장",
    "address": "경기도 남양주시 다산동 6032",
    "lat": "37.6276",
    "lng": "127.1583",
    "region": "경기도"
  },
  {
    "name": "다산한강중학교 운동장",
    "address": "경기도 남양주시 다산동 6241",
    "lat": "37.59894277252185",
    "lng": "127.17548668384553",
    "region": "경기도"
  },
  {
    "name": "도농중학교 운동장",
    "address": "경기도 남양주시 다산동 4002-40",
    "lat": "37.61045788824171",
    "lng": "127.16369032859802",
    "region": "경기도"
  },
  {
    "name": "미사초등학교 운동장",
    "address": "경기도 하남시 망월동 935",
    "lat": "37.571305",
    "lng": "127.193382",
    "region": "경기도"
  },
  {
    "name": "대평초등학교 운동장",
    "address": "세종특별자치시 세종시 대평동 712",
    "lat": "36.469716890602186",
    "lng": "127.2795242071152",
    "region": "세종특별자치시"
  },
  {
    "name": "전주자연초등학교",
    "address": "전북특별자치도 전주시 덕진구 송천동2가 1305",
    "lat": "35.877403462332616",
    "lng": "127.13536884013513",
    "region": "전북특별자치도"
  },
  {
    "name": "광주문���중학교 운동장",
    "address": "광주광역시 북구 문흥동 972-3",
    "lat": "35.188978725198055",
    "lng": "126.92360043525697",
    "region": "광주광역시"
  },
  {
    "name": "내죽도공원",
    "address": "경상남도 통영시 광도면 죽림리 1574-3",
    "lat": "34.881185154140304",
    "lng": "128.42096296627773",
    "region": "경상남도"
  },
  {
    "name": "윤슬초등학교 운동장",
    "address": "경기도 하남시 망월동 1046",
    "lat": "37.563166",
    "lng": "127.183132",
    "region": "경기도"
  },
  {
    "name": "안산석수초등학교 운동장",
    "address": "경기도 안산시 단원구 선부동 1042",
    "lat": "37.344407046764495",
    "lng": "126.80591832186403",
    "region": "경기도"
  },
  {
    "name": "광주금파공업고등학교 운동장",
    "address": "광주광역시 북구 운암동 133",
    "lat": "35.1760618153172",
    "lng": "126.88715472757718",
    "region": "광주광역시"
  },
  {
    "name": "금강수변공원",
    "address": "세종특별자치시 세종시 보람동 623-3",
    "lat": "36.48238461467564",
    "lng": "127.29164591602078",
    "region": "세종특별자치시"
  },
  {
    "name": "동명초등학교 운동장",
    "address": "대전광역시 동구 추동 327",
    "lat": "36.37377601740987",
    "lng": "127.47411990339614",
    "region": "대전광역시"
  },
  {
    "name": "차산초등학교 운동장",
    "address": "경기도 남양주시 화도읍 차산리 79-9",
    "lat": "37.63604982133112",
    "lng": "127.3012424956095",
    "region": "경기도"
  },
  {
    "name": "마석고등학교 운동장",
    "address": "경기도 남양주시 화도읍 녹촌리 69",
    "lat": "37.643811327297115",
    "lng": "127.29939898348978",
    "region": "경기도"
  },
  {
    "name": "중단2리 마을회관 ",
    "address": "경상북도 포항시 남구 연일읍 중단리 381",
    "lat": "35.990729651012344",
    "lng": "129.32368487682376",
    "region": "경상북도"
  },
  {
    "name": "흥해서부초등학교 운동장",
    "address": "경상북도 포항시 북구 흥해읍 매산리 1-6",
    "lat": "36.11556972844018",
    "lng": "129.31449551980654",
    "region": "경상북도"
  },
  {
    "name": "초곡리 마을회관",
    "address": "경상북도 포항시 북구 흥해읍 초곡리 1010-16",
    "lat": "36.086054081059295",
    "lng": "129.31944340468016",
    "region": "경상북도"
  },
  {
    "name": "어린이1공원",
    "address": "전북특별자치도 군산시 삼학동 813-10",
    "lat": "35.97585947009812",
    "lng": "126.70864552259583",
    "region": "전북특별자치도"
  },
  {
    "name": "도계2리 마을회관 앞 공터",
    "address": "경상북도 영덕군 지품면 도계리 383-1",
    "lat": "36.503569986595075",
    "lng": "129.27555205038698",
    "region": "경상북도"
  },
  {
    "name": "대곡리 마을회관 앞 공터",
    "address": "경상북도 영덕군 축산면 대곡리 341-1",
    "lat": "36.48756544036494",
    "lng": "129.35171889081616",
    "region": "경상북도"
  },
  {
    "name": "공설시장옆(구역전부근)",
    "address": "전북특별자치도 군산시 대명동 138-3",
    "lat": "35.98107372723742",
    "lng": "126.72076981665705",
    "region": "전북특별자치도"
  },
  {
    "name": "군산시청",
    "address": "전북특별자치도 군산시 조촌동 888",
    "lat": "35.96716501086269",
    "lng": "126.73684356917266",
    "region": "전북특별자치도"
  },
  {
    "name": "개정통사문화마을",
    "address": "전북특별자치도 군산시 개정면 통사리 581-4",
    "lat": "35.95392234057002",
    "lng": "126.80062919855116",
    "region": "전북특별자치도"
  },
  {
    "name": "전주우전초등학교(운동장)",
    "address": "전북특별자치도 전주시 완산구 효자동2가 188",
    "lat": "35.8056203177793",
    "lng": "127.10701121042901",
    "region": "전북특별자치도"
  },
  {
    "name": "행산마을 광장",
    "address": "전북특별자치도 고창군 해리면 송산리 666",
    "lat": "35.453446",
    "lng": "126.530022",
    "region": "전북특별자치도"
  },
  {
    "name": "동산고등���교 운동장",
    "address": "경상북도 영주시 하망동 595",
    "lat": "36.81861033332346",
    "lng": "128.64540023625273",
    "region": "경상북도"
  },
  {
    "name": "연일근린공원",
    "address": "경상북도 포항시 남구 연일읍 동문리 9-2",
    "lat": "35.9965410591354",
    "lng": "129.35187771204167",
    "region": "경상북도"
  },
  {
    "name": "대전여자고등학교 운동장",
    "address": "대전광역시 동구 대동 16-2",
    "lat": "36.32942784816122",
    "lng": "127.44678121836948",
    "region": "대전광역시"
  },
  {
    "name": "별가람중학교 운동장",
    "address": "경기도 남양주시 별내동 911",
    "lat": "37.65876531416721",
    "lng": "127.12263744392732",
    "region": "경기도"
  },
  {
    "name": "수성리 마을회관",
    "address": "경상북도 포항시 남구 장기면 수성리 460-6",
    "lat": "35.878836313560726",
    "lng": "129.50340807438096",
    "region": "경상북도"
  },
  {
    "name": "세계1리 마을회관",
    "address": "경상북도 포항시 남구 오천읍 세계리 146-1",
    "lat": "35.964206739445544",
    "lng": "129.42842960358286",
    "region": "경상북도"
  },
  {
    "name": "용산1리 마을회관",
    "address": "경상북도 포항시 남구 오천읍 용산리 281-1",
    "lat": "35.93921054667074",
    "lng": "129.40214683984533",
    "region": "경상북도"
  },
  {
    "name": "인천국제공항 화물터미널 북측2번주차장",
    "address": "인천광역시 중구 운서동 2859-4",
    "lat": "37.46658992865039",
    "lng": "126.46050095558148",
    "region": "인천광역시"
  },
  {
    "name": "서진여자고등학교 운동장",
    "address": "전북특별자치도 남원시 월락동 173",
    "lat": "35.42507360421092",
    "lng": "127.4067599841971",
    "region": "전북특별자치도"
  },
  {
    "name": "서신초등학교 운동장",
    "address": "전북특별자치도 정읍시 상평동 695-14",
    "lat": "35.563194007056524",
    "lng": "126.82192430747516",
    "region": "전북특별자치도"
  },
  {
    "name": "송천1리 마을회관 앞 공터",
    "address": "경상북도 영덕군 지품면 송천리 347-5",
    "lat": "36.43769522832334",
    "lng": "129.24374105065016",
    "region": "경상북도"
  },
  {
    "name": "원전출장소 앞 공터",
    "address": "경상북도 영덕군 지품면 원전리 296-10",
    "lat": "36.48485379623772",
    "lng": "129.19169725368548",
    "region": "경상북도"
  },
  {
    "name": "벌영1리 마을회관 앞 공터",
    "address": "경상북도 영덕군 영해면 벌영리 388-1",
    "lat": "36.53695968223604",
    "lng": "129.40161289724313",
    "region": "경상북도"
  },
  {
    "name": "지인이네 농장 앞 공터",
    "address": "경상북도 영덕군 창수면 신리리 414",
    "lat": "36.5776242204727",
    "lng": "129.27149462247095",
    "region": "경상북도"
  },
  {
    "name": "미장택지 5공원",
    "address": "전북특별자치도 군산시 미장동 558-1",
    "lat": "35.96040478804223",
    "lng": "126.73533225119769",
    "region": "전북특별자치도"
  },
  {
    "name": "군산근대역사박물관",
    "address": "전북특별자치도 군산시 장미동 1-67",
    "lat": "35.9904781443841",
    "lng": "126.71209156429292",
    "region": "전북특별자치도"
  },
  {
    "name": "전주솔빛중학교(운동장)",
    "address": "전북특별자치도 전주시 덕진구 송천동1가 128-10",
    "lat": "35.859072403185614",
    "lng": "127.12411776223682",
    "region": "전북특별자치도"
  },
  {
    "name": "전주서신중학교(운동장)",
    "address": "전북특별자치도 전주시 완산구 서신동 833",
    "lat": "35.82904449361714",
    "lng": "127.11690599166673",
    "region": "전북특별자치도"
  },
  {
    "name": "전주아중초등학교(운동장)",
    "address": "전북특별자치도 전주시 덕진구 우아동1가 883-19",
    "lat": "35.82818987938161",
    "lng": "127.17483743074071",
    "region": "전북특별자치도"
  },
  {
    "name": "전주근영여자고등학교(운동장)",
    "address": "전북특별자치도 전주시 완산구 중화산동2가 254-4",
    "lat": "35.81986859247037",
    "lng": "127.1245934161251",
    "region": "전북특별자치도"
  },
  {
    "name": "전주송천초등학교(운동장)",
    "address": "전북특별자치도 전주시 덕진구 송천동1가 397",
    "lat": "35.85772223912064",
    "lng": "127.1199366128929",
    "region": "전북특별자치도"
  },
  {
    "name": "왕제산로마을광장",
    "address": "전북특별자치도 고창군 무장면 무장리 85-2",
    "lat": "35.41416180339457",
    "lng": "126.56002968549424",
    "region": "전북특별자치도"
  },
  {
    "name": "자명1리 마을회관",
    "address": "경상북도 포항시 남구 연일읍 자명리 230-4",
    "lat": "36.017901794157375",
    "lng": "129.30604308843508",
    "region": "경상북도"
  },
  {
    "name": "가오65,66,67호 근린공원",
    "address": "대전광역시 동구 가오동 558",
    "lat": "36.30628391119735",
    "lng": "127.45885246427781",
    "region": "대전광역시"
  },
  {
    "name": "오천읍행정복지센터",
    "address": "경상북도 포항시 남구 오천읍 문덕리 27-2",
    "lat": "35.96298590981468",
    "lng": "129.4147216237343",
    "region": "경상북도"
  },
  {
    "name": "문덕2리 마을회관",
    "address": "경상북도 포항시 남구 오천읍 문덕리 1043-18",
    "lat": "35.941852",
    "lng": "129.391383",
    "region": "경상북도"
  },
  {
    "name": "동신초등학교 운동장",
    "address": "전북특별자치도 정읍시 상동 280",
    "lat": "35.55851252208536",
    "lng": "126.86573629112388",
    "region": "전북특별자치도"
  },
  {
    "name": "군산수송공원(28공원)",
    "address": "전북특별자치도 군산시 수송동 851",
    "lat": "35.96581497103792",
    "lng": "126.72067468325909",
    "region": "전북특별자치도"
  },
  {
    "name": "아미초등학교 운동장",
    "address": "경기도 이천시 부발읍 아미리 761-6",
    "lat": "37.25793974563801",
    "lng": "127.49100702026723",
    "region": "경기도"
  },
  {
    "name": "어린이 5공원",
    "address": "전북특별자치도 군산시 경장동 494-18",
    "lat": "35.97239624313655",
    "lng": "126.73063654350214",
    "region": "전북특별자치도"
  },
  {
    "name": "지품면사무소 주차장",
    "address": "경상북도 영덕군 지품면 신안리 185-1",
    "lat": "36.448296719874854",
    "lng": "129.28165556617918",
    "region": "경상북도"
  },
  {
    "name": "영해중고등학교",
    "address": "경상북도 영덕군 영해면 괴시리 115",
    "lat": "36.54187198307295",
    "lng": "129.4130249443457",
    "region": "경상북도"
  },
  {
    "name": "어린이 16공원",
    "address": "전북특별자치도 군산시 미룡동 860",
    "lat": "35.95669082579494",
    "lng": "126.67720412902696",
    "region": "전북특별자치도"
  },
  {
    "name": "어린이 39공원",
    "address": "전북특별자치도 군산시 조촌동 949-5",
    "lat": "35.97395948031337",
    "lng": "126.74047784198245",
    "region": "전북특별자치도"
  },
  {
    "name": "어린이 52공원",
    "address": "전북특별자치도 군산시 오식도동 677-4",
    "lat": "35.96301535837309",
    "lng": "126.57093527272833",
    "region": "전북특별자치도"
  },
  {
    "name": "미장택지 2공원",
    "address": "전북특별자치도 군산시 미장동 538-5",
    "lat": "35.96266198762941",
    "lng": "126.72790152419691",
    "region": "전북특별자치도"
  },
  {
    "name": "전주동북초등학교(운동장)",
    "address": "전북특별자치도 전주시 덕진구 인후동2가 39-13",
    "lat": "35.8394364110963",
    "lng": "127.14509131665547",
    "region": "전북특별자치도"
  },
  {
    "name": "전주오송초등학교(운동장)",
    "address": "전북특별자치도 전주시 덕진구 송천동2가 179-23",
    "lat": "35.86587725184916",
    "lng": "127.13050949100776",
    "region": "전북특별자치도"
  },
  {
    "name": "남성2리 마을회관",
    "address": "경상북도 포항시 남구 대송면 ��성리 447",
    "lat": "35.97373972556442",
    "lng": "129.35451143824292",
    "region": "경상북도"
  },
  {
    "name": "남성초등학교 운동장",
    "address": "경상북도 포항시 남구 대송면 송동리 795",
    "lat": "35.97006360368426",
    "lng": "129.35950025076136",
    "region": "경상북도"
  },
  {
    "name": "감곡중학교 운동장",
    "address": "전북특별자치도 정읍시 감곡면 방교리 488",
    "lat": "35.71843421591934",
    "lng": "126.92432387702611",
    "region": "전북특별자치도"
  },
  {
    "name": "이평중학교 운동장",
    "address": "전북특별자치도 정읍시 이평면 창동리 473-2",
    "lat": "35.661256631241294",
    "lng": "126.81154147357809",
    "region": "전북특별자치도"
  },
  {
    "name": "학산고등학교 운동장",
    "address": "전북특별자치도 정읍시 상동 84",
    "lat": "35.56089092660743",
    "lng": "126.87395618743153",
    "region": "전북특별자치도"
  },
  {
    "name": "영산초등학교 운동장",
    "address": "전북특별자치도 정읍시 하북동 151-3",
    "lat": "35.59919395137927",
    "lng": "126.86301864772291",
    "region": "전북특별자치도"
  },
  {
    "name": "우곡리 마을회관 앞 공터",
    "address": "경상북도 영덕군 남정면 우곡리 220-2",
    "lat": "36.33212053147595",
    "lng": "129.35616812964184",
    "region": "경상북도"
  },
  {
    "name": "전주대학교(대운동장)",
    "address": "전북특별자치도 전주시 완산구 효자동2가 1080",
    "lat": "35.81393473667119",
    "lng": "127.09067561707867",
    "region": "전북특별자치도"
  },
  {
    "name": "내사마을 광장",
    "address": "전북특별자치도 고창군 흥덕면 사천리 123",
    "lat": "35.50806181267417",
    "lng": "126.69460976852105",
    "region": "전북특별자치도"
  },
  {
    "name": "택전1리 마을회관",
    "address": "경상북도 포항시 남구 연일읍 택전리 383-3",
    "lat": "35.98719326642809",
    "lng": "129.33342063716103",
    "region": "경상북도"
  },
  {
    "name": "장동3리 마을회관",
    "address": "경상북도 포항시 남구 대송면 장동리 398-1",
    "lat": "35.95824946321908",
    "lng": "129.34557348489702",
    "region": "경상북도"
  },
  {
    "name": "무궁화고속관광 주차장",
    "address": "대구광역시 서구 내당동 12-37",
    "lat": "35.862717616294965",
    "lng": "128.56453031301518",
    "region": "대구광역시"
  },
  {
    "name": "계성고등학교",
    "address": "대구광역시 서구 상리동 687",
    "lat": "35.871090358593875",
    "lng": "128.52823734283464",
    "region": "대구광역시"
  },
  {
    "name": "충렬초등학교 운동장",
    "address": "부산광역시 동래구 안락동 467-1",
    "lat": "35.20014824395052",
    "lng": "129.11171610805553",
    "region": "부산광역시"
  },
  {
    "name": "이천세무서 앞 광장",
    "address": "경기도 이천시 중리동 371-6",
    "lat": "37.27157334812192",
    "lng": "127.43628951250656",
    "region": "경기도"
  },
  {
    "name": "사동초등학교 운동장",
    "address": "경기도 이천시 대월면 사동리 518",
    "lat": "37.241588166599136",
    "lng": "127.48686314370053",
    "region": "경기도"
  },
  {
    "name": "설성초등학교 운동장",
    "address": "경기도 이천시 설성면 행죽리 78-1",
    "lat": "37.109868544320335",
    "lng": "127.53723329401404",
    "region": "경기도"
  },
  {
    "name": "이황초등학교 운동장",
    "address": "경기도 이천시 장호원읍 이황리 159",
    "lat": "37.14527198280877",
    "lng": "127.58754784746564",
    "region": "경기도"
  },
  {
    "name": "효자중학교",
    "address": "경기도 의정부시 신곡동 768-2",
    "lat": "37.752444",
    "lng": "127.077776",
    "region": "경기도"
  },
  {
    "name": "효자고등학교",
    "address": "경기도 의정부시 신곡동 768-1",
    "lat": "37.752614",
    "lng": "127.076531",
    "region": "경기도"
  },
  {
    "name": "신하초등학교 운동장",
    "address": "경기도 이천시 부발읍 신하리 374-2",
    "lat": "37.26073675967887",
    "lng": "127.47859845879366",
    "region": "경기도"
  },
  {
    "name": "용덕2리 마을회관 앞공터",
    "address": "경상북도 영덕군 지품면 용덕리 231-9",
    "lat": "36.419157119317894",
    "lng": "129.26075519696877",
    "region": "경상북도"
  },
  {
    "name": "전주생명과학고등학교(운동장)",
    "address": "전북특별자치도 전주시 덕진구 인후동2가 24",
    "lat": "35.838707826744454",
    "lng": "127.14857976925708",
    "region": "전북특별자치도"
  },
  {
    "name": "전주용덕초등학교(운동장)",
    "address": "전북특별자치도 전주시 덕진구 용정동 483",
    "lat": "35.87685127276603",
    "lng": "127.051481359046",
    "region": "전북특별자치도"
  },
  {
    "name": "대덕초등학교 운동장",
    "address": "전북특별자치도 완주군 구이면 계곡리 605-1",
    "lat": "35.660482031656834",
    "lng": "127.11030877045037",
    "region": "전북특별자치도"
  },
  {
    "name": "상굴마을 광장",
    "address": "전북특별자치도 고창군 부안면 상등리 592",
    "lat": "35.505581",
    "lng": "126.664678",
    "region": "전북특별자치도"
  },
  {
    "name": "하길초등학교 운동장",
    "address": "경기도 화성시 향남읍 하길리 1514",
    "lat": "37.11528993683248",
    "lng": "126.90439045429231",
    "region": "경기도"
  },
  {
    "name": "한국폴리텍대학 김제캠퍼스",
    "address": "전북특별자치도 김제시 백학동 84",
    "lat": "35.810186142344634",
    "lng": "126.94035419968354",
    "region": "전북특별자치도"
  },
  {
    "name": "백구초등학교",
    "address": "전북특별자치도 김제시 백구면 석담리 424",
    "lat": "35.88641994480161",
    "lng": "126.9703216410281",
    "region": "전북특별자치도"
  },
  {
    "name": "교암초등학교 운동장",
    "address": "전북특별자치도 정읍시 교암동 323-3",
    "lat": "35.52701152648454",
    "lng": "126.84634163620997",
    "region": "전북특별자치도"
  },
  {
    "name": "한국농수산대학교",
    "address": "전북특별자치도 전주시 덕진구 중동 834",
    "lat": "35.82565393801173",
    "lng": "127.06334527139649",
    "region": "전북특별자치도"
  },
  {
    "name": "대한적십자사 대구경북혈액원 주차장",
    "address": "대구광역시 중구 달성동 147-2",
    "lat": "35.8788",
    "lng": "128.5789",
    "region": "대구광역시"
  },
  {
    "name": "보인고등학교운동장",
    "address": "서울특별시 송파구 오금동 162",
    "lat": "37.49764189717347",
    "lng": "127.13841025751175",
    "region": "서울특별시"
  },
  {
    "name": "인천국제공항 화물터미널 북측4번주차장",
    "address": "인천광역시 중구 운서동 2859-31",
    "lat": "37.47192899722885",
    "lng": "126.46735668182355",
    "region": "인천광역시"
  },
  {
    "name": "인천국제공항 화물터미널 남측2번주차장",
    "address": "인천광역시 중구 운서동 2851-20",
    "lat": "37.4622468643657",
    "lng": "126.46440625190716",
    "region": "인천광역시"
  },
  {
    "name": "인천국제공항 화물터미널 남측4번주차장",
    "address": "인천광역시 중구 운서동 2868",
    "lat": "37.467884283322576",
    "lng": "126.43296003341658",
    "region": "인천광역시"
  },
  {
    "name": "매일1리 마을회관 앞 공터",
    "address": "경상북도 영덕군 달산면 매일리 93-1",
    "lat": "36.37451107613286",
    "lng": "129.30291881126703",
    "region": "경상북도"
  },
  {
    "name": "성덕유니온선교 영덕캠프장 앞 공터",
    "address": "경상북도 영덕군 지품면 오천리 243-2",
    "lat": "36.427162029743975",
    "lng": "129.32601918420144",
    "region": "경상북도"
  },
  {
    "name": "진가초등학교 운동장",
    "address": "경기도 이천시 모가면 진가리 156",
    "lat": "37.17436608713644",
    "lng": "127.47939734952061",
    "region": "경기도"
  },
  {
    "name": "전주동암차돌학교(운동장)",
    "address": "전북특별자치도 전주시 완산구 효자동3가 1215-5",
    "lat": "35.81050969108346",
    "lng": "127.09277895715775",
    "region": "전북특별자치도"
  },
  {
    "name": "전주서천초등학교(운동장)",
    "address": "전북특별자치도 전주시 완산구 서신동 761-3",
    "lat": "35.83217154494299",
    "lng": "127.1082412040477",
    "region": "전북특별자치도"
  },
  {
    "name": "양현고등학교(운동장)",
    "address": "전북특별자치도 전주시 덕진구 장동 1072",
    "lat": "35.84204534074193",
    "lng": "127.05901297311772",
    "region": "전북특별자치도"
  },
  {
    "name": "판정마을광장",
    "address": "전북특별자치도 고창군 성송면 판정리 445-3",
    "lat": "35.36499142043228",
    "lng": "126.63226047495985",
    "region": "전북특별자치도"
  },
  {
    "name": "운암중학교 운동장",
    "address": "전북특별자치도 임실군 운암면 쌍암리 617-5",
    "lat": "35.66373162819717",
    "lng": "127.15722525529544",
    "region": "전북특별자치도"
  },
  {
    "name": "영주초등학교 운동장",
    "address": "경상북도 영주시 영주동 26",
    "lat": "36.828799041033776",
    "lng": "128.62479304065369",
    "region": "경상북도"
  },
  {
    "name": "방교초등학교 운동장",
    "address": "경기도 화성시 송동 689",
    "lat": "37.173006308040065",
    "lng": "127.10148453712465",
    "region": "경기도"
  },
  {
    "name": "동탄초등학교 운동장",
    "address": "경기도 화성시 오산동 1005",
    "lat": "37.18872395167249",
    "lng": "127.09091663360597",
    "region": "경기도"
  },
  {
    "name": "거제고등학교",
    "address": "경상남도 거제시 아주동 295-8",
    "lat": "34.86138298544621",
    "lng": "128.68712223463044",
    "region": "경상남도"
  },
  {
    "name": "도학초등학교 운동장",
    "address": "전북특별자치도 정읍시 덕천면 하학리 243-1",
    "lat": "35.628709041144454",
    "lng": "126.81897014379499",
    "region": "전북특별자치도"
  },
  {
    "name": "정산중학교 운동장",
    "address": "전북특별자치도 정읍시 산내면 능교리 628-1",
    "lat": "35.57009497692999",
    "lng": "127.02006505549323",
    "region": "전북특별자치도"
  },
  {
    "name": "두류초등학교",
    "address": "대구광역시 서구 내당동 211-1",
    "lat": "35.8613",
    "lng": "128.5601",
    "region": "대구광역시"
  },
  {
    "name": "남정초등학교 운동장",
    "address": "경상북도 영덕군 남정면 장사리 210-1",
    "lat": "36.28340029280345",
    "lng": "129.3720927507525",
    "region": "경상북도"
  },
  {
    "name": "전주동암고등학교(운동장)",
    "address": "전북특별자치도 전주시 완산구 효자동2가 1200-2",
    "lat": "35.805984112748256",
    "lng": "127.10119573489945",
    "region": "전북특별자치도"
  },
  {
    "name": "전주제일고등학교(운동장)",
    "address": "전북특별자치도 전주시 완산구 남노송동 180-1",
    "lat": "35.821230498776416",
    "lng": "127.15834670819505",
    "region": "전북특별자치도"
  },
  {
    "name": "송광초등학교 운동장",
    "address": "전북특별자치도 완주군 소양면 대흥리 775-1",
    "lat": "35.88522243802401",
    "lng": "127.24531273365609",
    "region": "전북특별자치도"
  },
  {
    "name": "동양초등학교 운동장",
    "address": "전북특별자치도 완주군 소양면 화심리 543-4",
    "lat": "35.84386858178364",
    "lng": "127.27094613660617",
    "region": "전북특별자치도"
  },
  {
    "name": "진목마을 광장",
    "address": "전북특별자치도 고창군 부안면 사창리 109-1",
    "lat": "35.490949",
    "lng": "126.679512",
    "region": "전북특별자치도"
  },
  {
    "name": "청호중학교 운동장",
    "address": "전라남도 목포시 연산동 1984",
    "lat": "34.816179",
    "lng": "126.390925",
    "region": "전라남도"
  },
  {
    "name": "동국대학교사업대학부속 금산고등학교",
    "address": "전북특별자치도 김제시 금산면 쌍용리 470",
    "lat": "35.71708750564229",
    "lng": "126.99927503264615",
    "region": "전북특별자치도"
  },
  {
    "name": "광활초등학교",
    "address": "전북특별자치도 김제시 광활면 옥포리 672-13",
    "lat": "35.834488195557135",
    "lng": "126.74084286325282",
    "region": "전북특별자치도"
  },
  {
    "name": "정주고등학교 운동장",
    "address": "전북특별자치도 정읍시 금붕동 415",
    "lat": "35.54355400897686",
    "lng": "126.88989879696993",
    "region": "전북특별자치도"
  },
  {
    "name": "기전대학교",
    "address": "전북특별자치도 전주시 완산구 중화산동1가 177",
    "lat": "35.81721583204597",
    "lng": "127.13569444987644",
    "region": "전북특별자치도"
  },
  {
    "name": "덕영주차장",
    "address": "대구광역시 중구 대신동 1250",
    "lat": "35.8644",
    "lng": "128.5742",
    "region": "대구광역시"
  },
  {
    "name": "정신여자고등학교운동장",
    "address": "서울특별시 송파구 잠실동 50-4",
    "lat": "37.50990729060431",
    "lng": "127.07221252728954",
    "region": "서울특별시"
  },
  {
    "name": "대구대학연수원 주차장",
    "address": "경상북도 영덕군 강구면 금진리 85",
    "lat": "36.37977652808352",
    "lng": "129.40317603046253",
    "region": "경상북도"
  },
  {
    "name": "옥산1리 옥산학구경로당 앞 공터",
    "address": "경상북도 영덕군 달산면 옥산리 353-12",
    "lat": "36.357189892297455",
    "lng": "129.28209680833885",
    "region": "경상북도"
  },
  {
    "name": "전주동초등학교(운동장)",
    "address": "전북특별자치도 전주시 완산구 중노송동 399-1",
    "lat": "35.829485361075896",
    "lng": "127.15261216830963",
    "region": "전북특별자치도"
  },
  {
    "name": "전주해성중학교(운동장)",
    "address": "전북특별자치도 전주시 완산구 삼천동2가 555",
    "lat": "35.78783738135423",
    "lng": "127.10264080593583",
    "region": "전북특별자치도"
  },
  {
    "name": "아중체련공원(운동장)",
    "address": "전북특별자치도 전주시 덕진구 우아동1가 1005-2",
    "lat": "35.823121390253654",
    "lng": "127.16935559008256",
    "region": "전북특별자치도"
  },
  {
    "name": "전주동중학교(운동장)",
    "address": "전북특별자치도 전주시 덕진구 인후동2가 24-1",
    "lat": "35.838267",
    "lng": "127.150100",
    "region": "전북특별자치도"
  },
  {
    "name": "고창남중학교",
    "address": "전북특별자치도 고창군 성송면 향산리 79-1",
    "lat": "35.373540386193035",
    "lng": "126.64793957267554",
    "region": "전북특별자치도"
  },
  {
    "name": "월곡2공원",
    "address": "전북특별자치도 고창군 고창읍 월곡리 984",
    "lat": "35.43223984192842",
    "lng": "126.71745389699704",
    "region": "전북특별자치도"
  },
  {
    "name": "매산초등학교",
    "address": "전북특별자치도 고창군 대산면 매산리 196-3",
    "lat": "35.3399694648739",
    "lng": "126.59461846630396",
    "region": "전북특별자치도"
  },
  {
    "name": "대송면행정복지센터",
    "address": "경상북도 포항시 남구 대송면 송동리 782-1",
    "lat": "35.968856884754054",
    "lng": "129.36028387324018",
    "region": "경상북도"
  },
  {
    "name": "용천2리 마을회관",
    "address": "경상북도 포항시 북구 흥해읍 용천리 1053-1",
    "lat": "36.1423941604383",
    "lng": "129.35327576381945",
    "region": "경상북도"
  },
  {
    "name": "외산중학교 운동장",
    "address": "충청남도 부여군 외산면 만수리 34-17",
    "lat": "36.29963934406122",
    "lng": "126.70091310212102",
    "region": "충청남도"
  },
  {
    "name": "영인중학교 운동장",
    "address": "충청남도 아산시 영인면 아산리 35-6",
    "lat": "36.854401",
    "lng": "126.960764",
    "region": "충청남도"
  },
  {
    "name": "안면초 ",
    "address": "충청남도 태안군 안면읍 승언리 846-4",
    "lat": "36.52748942268904",
    "lng": "126.34679595372627",
    "region": "충청남도"
  },
  {
    "name": "신아중학교(운동장)",
    "address": "대구광역시 동구 신암동 28",
    "lat": "35.888522",
    "lng": "128.634912",
    "region": "대구광역시"
  },
  {
    "name": "청구고등학교(운동장)",
    "address": "대구광역시 동구 신천동 850-6",
    "lat": "35.868401",
    "lng": "128.620247",
    "region": "대구광역시"
  },
  {
    "name": "공산중학교(운동장)",
    "address": "대구광역시 동구 백안동 560-5",
    "lat": "35.955099132966424",
    "lng": "128.6896741390232",
    "region": "대구광역시"
  },
  {
    "name": "달구벌고등학교(운동장)",
    "address": "대구광역시 동구 덕곡동 75-5",
    "lat": "35.99409271471869",
    "lng": "128.61075818538689",
    "region": "대구광역시"
  },
  {
    "name": "대구관광고등학교(운동장)",
    "address": "대구광역시 동구 신암동 80",
    "lat": "35.89039732884588",
    "lng": "128.63183498382597",
    "region": "대구광역시"
  },
  {
    "name": "대구선명학교(운동장)",
    "address": "대구광역시 동구 덕곡동 34",
    "lat": "35.996684",
    "lng": "128.612695",
    "region": "대구광역시"
  },
  {
    "name": "대구일마이스터고등학교(운동장)",
    "address": "대구광역시 동구 효목동 212",
    "lat": "35.882505",
    "lng": "128.646484",
    "region": "대구광역시"
  },
  {
    "name": "동촌초등학교(운동장)",
    "address": "대구광역시 동구 방촌동 1047",
    "lat": "35.88207267363207",
    "lng": "128.65912890772378",
    "region": "대구광역시"
  },
  {
    "name": "봉무초등학교(운동장)",
    "address": "대구광역시 동구 봉무동 1527",
    "lat": "35.92549977634474",
    "lng": "128.63728779375376",
    "region": "대구광역시"
  },
  {
    "name": "귀산초등학교 운동장",
    "address": "충청남도 공주시 우성면 귀산리 135",
    "lat": "36.4994927815896",
    "lng": "127.11242881143392",
    "region": "충청남도"
  },
  {
    "name": "공주중학교 운동장",
    "address": "충청남도 공주시 금성동 85",
    "lat": "36.464487",
    "lng": "127.118528",
    "region": "충청남도"
  },
  {
    "name": "공주여자중학교 운동장",
    "address": "충청남도 공주시 교동 3-2",
    "lat": "36.46003318299621",
    "lng": "127.11898702613308",
    "region": "충청남도"
  },
  {
    "name": "신관초등학교 운동장",
    "address": "충청남도 공주시 신관동 318-1",
    "lat": "36.47528007414348",
    "lng": "127.13882483333627",
    "region": "충청남도"
  },
  {
    "name": "합송초등학교 운동장",
    "address": "충청남도 부여군 규암면 합송리 986-1",
    "lat": "36.266409922957884",
    "lng": "126.84578024968376",
    "region": "충청남도"
  },
  {
    "name": "온양용화중학교 운동장",
    "address": "충청남도 아산시 온천동 2716",
    "lat": "36.77486270517949",
    "lng": "127.00668516126291",
    "region": "충청남도"
  },
  {
    "name": "영인초등학교 운동장",
    "address": "충청남도 아산시 영인면 아산리 412-2",
    "lat": "36.854221",
    "lng": "126.953276",
    "region": "충청남도"
  },
  {
    "name": "선도중학교 운동장",
    "address": "충청남도 아산시 선장면 군덕리 413",
    "lat": "36.78944790344835",
    "lng": "126.86359267296001",
    "region": "충청남도"
  },
  {
    "name": "태안초 ",
    "address": "충청남도 태안군 태안읍 남문리 315",
    "lat": "36.758692969983834",
    "lng": "126.29572749137598",
    "region": "충청남도"
  },
  {
    "name": "불로중학교(운동장)",
    "address": "대구광역시 동구 불로동 1010",
    "lat": "35.89800505217806",
    "lng": "128.6336751642755",
    "region": "대구광역시"
  },
  {
    "name": "새론중학교(운동장)",
    "address": "대구광역시 동구 신서동 1137",
    "lat": "35.879089298225715",
    "lng": "128.72483570995746",
    "region": "대구광역시"
  },
  {
    "name": "신성초등학교(운동장)",
    "address": "대구광역시 동구 신암동 134-87",
    "lat": "35.89066718124993",
    "lng": "128.62993995362703",
    "region": "대구광역시"
  },
  {
    "name": "영신고등학교(운동장)",
    "address": "대구광역시 동구 봉무동 524",
    "lat": "35.91930457071278",
    "lng": "128.64642512995005",
    "region": "대구광역시"
  },
  {
    "name": "대구일과학고등학교(운동장)",
    "address": "대구광역시 동구 각산동 1046",
    "lat": "35.886691352494374",
    "lng": "128.72254763520567",
    "region": "대구광역시"
  },
  {
    "name": "입석중학교(운동장)",
    "address": "대구광역시 동구 입석동 951",
    "lat": "35.891184",
    "lng": "128.644383",
    "region": "대구광역시"
  },
  {
    "name": "해서초등학교(운동장)",
    "address": "대구광역시 동구 봉무동 1571",
    "lat": "35.918062",
    "lng": "128.643059",
    "region": "대구광역시"
  },
  {
    "name": "대구선동촌공원",
    "address": "대구광역시 동구 입석동 893-9",
    "lat": "35.890399586211835",
    "lng": "128.6496935419591",
    "region": "대구광역시"
  },
  {
    "name": "동촌유원지",
    "address": "대구광역시 동구 효목동 970",
    "lat": "35.883581671678044",
    "lng": "128.64860157945031",
    "region": "대구광역시"
  },
  {
    "name": "동호근린공원",
    "address": "대구광역시 동구 동호동 360",
    "lat": "35.86569443884926",
    "lng": "128.71909344137214",
    "region": "대구광역시"
  },
  {
    "name": "신서근린공원",
    "address": "대구광역시 동구 신서동 539",
    "lat": "35.866604993675544",
    "lng": "128.72817510319874",
    "region": "대구광역시"
  },
  {
    "name": "율하근린공원",
    "address": "대구광역시 동구 율하동 1105",
    "lat": "35.8673",
    "lng": "128.6902",
    "region": "대구광역시"
  },
  {
    "name": "반계근린공원",
    "address": "대구광역시 동구 율하동 1416",
    "lat": "35.86246981137899",
    "lng": "128.6956125497822",
    "region": "대구광역시"
  },
  {
    "name": "대구선아양공원",
    "address": "대구광역시 동구 신암동 371-1",
    "lat": "35.88273166406017",
    "lng": "128.63414035315094",
    "region": "대구광역시"
  },
  {
    "name": "송호지근린공원",
    "address": "대구광역시 동구 상매동 502",
    "lat": "35.889450513411184",
    "lng": "128.70515291058504",
    "region": "대구광역시"
  },
  {
    "name": "새론근린공원",
    "address": "대구광역시 동구 각산동 1060",
    "lat": "35.885859",
    "lng": "128.717274",
    "region": "대구광역시"
  },
  {
    "name": "동내여울근린공원",
    "address": "대구광역시 동구 동내동 1115-4",
    "lat": "35.880453218707174",
    "lng": "128.7380182743077",
    "region": "대구광역시"
  },
  {
    "name": "복수초등학교 운동장",
    "address": "충청남도 금산군 복수면 곡남리 180",
    "lat": "36.16587521039458",
    "lng": "127.39759639666889",
    "region": "충청남도"
  },
  {
    "name": "충남과학고등학교 운동장",
    "address": "충청남도 공주시 반포면 마암리 702",
    "lat": "36.426466512058376",
    "lng": "127.218434214592",
    "region": "충청남도"
  },
  {
    "name": "신월초등학교 운동장",
    "address": "충청남도 공주시 신관동 1-32",
    "lat": "36.473540933358315",
    "lng": "127.14857596482041",
    "region": "충청남도"
  },
  {
    "name": "부여고등학교 운동장",
    "address": "충청남도 부여군 부여읍 가탑리 259",
    "lat": "36.27252133203821",
    "lng": "126.923511536012",
    "region": "충청남도"
  },
  {
    "name": "돌고래어린이공원",
    "address": "대구광역시 동구 각산동 1043-1",
    "lat": "35.88861416626478",
    "lng": "128.71647816722185",
    "region": "대구광역시"
  },
  {
    "name": "거북이어린이공원",
    "address": "대구광역시 동구 각산동 1164",
    "lat": "35.877480174117",
    "lng": "128.72094869613687",
    "region": "대구광역시"
  },
  {
    "name": "사암리 공영주차장",
    "address": "경상북도 영덕군 남정면 사암리 90-1",
    "lat": "36.32433767692831",
    "lng": "129.32950021587405",
    "region": "경상북도"
  },
  {
    "name": "전주반월초등학교(운동장)",
    "address": "전북특별자치도 전주시 덕진구 반월동 238-6",
    "lat": "35.875562541772574",
    "lng": "127.07381118957362",
    "region": "전북특별자치도"
  },
  {
    "name": "전주만성초등학교(운동장)",
    "address": "전북특별자치도 전주시 덕진구 중동 803",
    "lat": "35.83663568233143",
    "lng": "127.065547229185",
    "region": "전북특별자치도"
  },
  {
    "name": "상관초등학교 운동장",
    "address": "전북특별자치도 완주군 상관면 신리 562",
    "lat": "35.7719737211849",
    "lng": "127.206227138116",
    "region": "전북특별자치도"
  },
  {
    "name": "청해마을 광장",
    "address": "전북특별자치도 고창군 해리면 하련리 628",
    "lat": "35.461118",
    "lng": "126.537790",
    "region": "전북특별자치도"
  },
  {
    "name": "석교마을 광장 주차장",
    "address": "전북특별자치도 고창군 고창읍 석교리 82-4",
    "lat": "35.44194492257526",
    "lng": "126.6895455121958",
    "region": "전북특별자치도"
  },
  {
    "name": "주진마을 광장",
    "address": "전북특별자치도 고창군 아산면 주진리 586",
    "lat": "35.430339",
    "lng": "126.615646",
    "region": "전북특별자치도"
  },
  {
    "name": "대동배2리 마을회관",
    "address": "경상북도 포항시 남구 호미곶면 대동배리 50-1",
    "lat": "36.06575205170338",
    "lng": "129.5402213931153",
    "region": "경상북도"
  },
  {
    "name": "세명고등학교 운동장",
    "address": "경상북도 포항시 남구 대잠동 913-4",
    "lat": "36.017496104094796",
    "lng": "129.34821009636536",
    "region": "경상북도"
  },
  {
    "name": "인상고등학교 운동장",
    "address": "전북특별자치도 정읍시 신태인읍 화호리 251-3",
    "lat": "35.718808483557865",
    "lng": "126.83897137641905",
    "region": "전북특별자치도"
  },
  {
    "name": "입암중학교 운동장",
    "address": "전북특별자치도 정읍시 입암면 단곡리 573-4",
    "lat": "35.51561376877815",
    "lng": "126.79413557052847",
    "region": "전북특별자치도"
  },
  {
    "name": "정읍제일고등학교 운동장",
    "address": "전북특별자치도 정읍시 수성동 443",
    "lat": "35.57075126869388",
    "lng": "126.85416340827938",
    "region": "전북특별자치도"
  },
  {
    "name": "용전리 주왕산탐방로 주차장 앞 공터",
    "address": "경상북도 영덕군 달산면 용전리 181-1",
    "lat": "36.396391",
    "lng": "129.257876",
    "region": "경상북도"
  },
  {
    "name": "전라고등학교(운동장)",
    "address": "전북특별자치도 전주시 덕진구 송천동1가 137-25",
    "lat": "35.859939261865975",
    "lng": "127.12509982686676",
    "region": "전북특별자치도"
  },
  {
    "name": "전주선화학교(운동장)",
    "address": "전북특별자치도 전주시 완산구 효자동3가 1130",
    "lat": "35.82056918340762",
    "lng": "127.09007965281158",
    "region": "전북특별자치도"
  },
  {
    "name": "석병1리경로당",
    "address": "경상북도 포항시 남구 구룡포읍 석병리 881-2",
    "lat": "36.01237804664981",
    "lng": "129.5769215582811",
    "region": "경상북도"
  },
  {
    "name": "정읍호남고등학교 운동장",
    "address": "전북특별자치도 정읍시 시기동 475",
    "lat": "35.55870469369619",
    "lng": "126.85185925654652",
    "region": "전북특별자치도"
  },
  {
    "name": "전주지곡초등학교(운동장)",
    "address": "전북특별자치도 전주시 완산구 평화동2가 897-3",
    "lat": "35.78401619634218",
    "lng": "127.13311887543887",
    "region": "전북특별자치도"
  },
  {
    "name": "우곡중학교 운동장",
    "address": "경상북도 고령군 우곡면 연리 산1-1",
    "lat": "35.64471179233991",
    "lng": "128.35601063767228",
    "region": "경상북도"
  },
  {
    "name": "간중초등학교 운동장",
    "address": "전북특별자치도 완주군 용진읍 간중리 616-1",
    "lat": "35.89064061316141",
    "lng": "127.18150083968975",
    "region": "전북특별자치도"
  },
  {
    "name": "모세미어린이공원",
    "address": "서울특별시 양천구 목동 772-1",
    "lat": "37.5352302437119",
    "lng": "126.86868377845796",
    "region": "서울특별시"
  },
  {
    "name": "복흥초등학교 운동장",
    "address": "전북특별자치도 순창군 복흥면 정산리 302",
    "lat": "35.43037561572132",
    "lng": "126.93225860595929",
    "region": "전북특별자치도"
  },
  {
    "name": "성곡농장경로당",
    "address": "경상북도 포항시 북구 흥해읍 성곡리 169-2",
    "lat": "36.08673253140241",
    "lng": "129.35699701309488",
    "region": "경상북도"
  },
  {
    "name": "성황당어린이공원(뒤뜰어린이공원)",
    "address": "서울특별시 마포구 성산동 147-5",
    "lat": "37.56904484185674",
    "lng": "126.90729741118862",
    "region": "서울특별시"
  },
  {
    "name": "왕신여자고등학교 운동장",
    "address": "전북특별자치도 정읍시 신태인읍 신태인리 86-2",
    "lat": "35.68363580939134",
    "lng": "126.88956856727604",
    "region": "전북특별자치도"
  },
  {
    "name": "예수대학교",
    "address": "전북특별자치도 전주시 완산구 중화산동1가 168-1",
    "lat": "35.8158068259686",
    "lng": "127.13508254077895",
    "region": "전북특별자치도"
  },
  {
    "name": "경운중학교",
    "address": "대구광역시 서구 내당동 352-4",
    "lat": "35.8595",
    "lng": "128.5545",
    "region": "대구광역시"
  },
  {
    "name": "동량초등학교 운동장",
    "address": "충청북도 충주시 동량면 조동리 1426-1",
    "lat": "37.02734268917388",
    "lng": "127.96550720930101",
    "region": "충청북도"
  },
  {
    "name": "전주새연초등학교(운동장)",
    "address": "전북특별자치도 전주시 완산구 효자동2가 1314-5",
    "lat": "35.811435",
    "lng": "127.100531",
    "region": "전북특별자치도"
  },
  {
    "name": "전일고등학교(운동장)",
    "address": "전북특별자치도 전주시 완산구 효자동2가 619",
    "lat": "35.81626159400991",
    "lng": "127.10069152239691",
    "region": "전북특별자치도"
  },
  {
    "name": "전주서일초등학교(운동장)",
    "address": "전북특별자치도 전주시 완산구 서신동 960-4",
    "lat": "35.836328078571796",
    "lng": "127.11508227006232",
    "region": "전북특별자치도"
  },
  {
    "name": "용봉초등학교 운동장",
    "address": "전북특별자치도 완주군 봉동읍 구만리 470-1",
    "lat": "35.90514905300174",
    "lng": "127.15595910997077",
    "region": "전북특별자치도"
  },
  {
    "name": "영락중학교 운동장",
    "address": "서울특별시 은평구 응암동 226-13",
    "lat": "37.596384371302015",
    "lng": "126.92523535688402",
    "region": "서울특별시"
  },
  {
    "name": "대흥초등학교 운동장",
    "address": "전북특별자치도 정읍시 입암면 대흥리 678",
    "lat": "35.52497916519635",
    "lng": "126.8077692389488",
    "region": "전북특별자치도"
  },
  {
    "name": "전북도청 동편(농구장)",
    "address": "전북특별자치도 전주시 완산구 효자동3가 1",
    "lat": "35.82014697091685",
    "lng": "127.11188332174724",
    "region": "전북특별자치도"
  },
  {
    "name": "주덕중학교 운동장",
    "address": "충청북도 충주시 주덕읍 신중리 130-3",
    "lat": "36.97176967808455",
    "lng": "127.78615593910219",
    "region": "충청북도"
  },
  {
    "name": "달천초등학교 매현분교 운동장",
    "address": "충청북도 충주시 대소원면 매현리 480",
    "lat": "36.90831763048118",
    "lng": "127.87070989608763",
    "region": "충청북도"
  },
  {
    "name": "용원초등학교 운동장",
    "address": "충청북도 충주시 신니면 용원리 245-3",
    "lat": "36.995972054503",
    "lng": "127.73537099361423",
    "region": "충청북도"
  },
  {
    "name": "충주교현초등학교 운동장",
    "address": "충청북도 충주시 교현동 339-1",
    "lat": "36.974079691855984",
    "lng": "127.93667614459991",
    "region": "충청북도"
  },
  {
    "name": "충주예성여자중학교 운동장",
    "address": "충청북도 충주시 호암동 532-2",
    "lat": "36.9571151007666",
    "lng": "127.92891919612883",
    "region": "충청북도"
  },
  {
    "name": "부흥리 경로당 앞 공터",
    "address": "경상북도 영덕군 남정면 부흥리 200-6",
    "lat": "36.28983818788368",
    "lng": "129.3736612983003",
    "region": "경상북도"
  },
  {
    "name": "전북대학교(대운동장)",
    "address": "전북특별자치도 전주시 덕진구 금암동 663",
    "lat": "35.84538859758296",
    "lng": "127.13142967780618",
    "region": "전북특별자치도"
  },
  {
    "name": "전주남초등학교(운동장)",
    "address": "전북특별자치도 전주시 완산구 서서학동 277",
    "lat": "35.80347150041398",
    "lng": "127.1507992533688",
    "region": "전북특별자치도"
  },
  {
    "name": "옥천초등학교 운동장",
    "address": "전북특별자치도 순창군 순창읍 남계리 362-2",
    "lat": "35.37274473119698",
    "lng": "127.14615136385103",
    "region": "전북특별자치도"
  },
  {
    "name": "순창중학교 운동장",
    "address": "전북특별자치도 순창군 순창읍 남계리 111",
    "lat": "35.376388327529796",
    "lng": "127.15136826038247",
    "region": "전북특별자치도"
  },
  {
    "name": "순창북중학교 운동장",
    "address": "전북특별자치도 순창군 순창읍 순화리 78",
    "lat": "35.378763356376375",
    "lng": "127.13958799839054",
    "region": "전북특별자치도"
  },
  {
    "name": "순창고등학교 운동장",
    "address": "전북특별자치도 순창군 순창읍 순화리 78",
    "lat": "35.37968623085845",
    "lng": "127.13954508304239",
    "region": "전북특별자치도"
  },
  {
    "name": "충주금릉초등학교 운동장",
    "address": "충청북도 충주시 금릉동 31-5",
    "lat": "36.993945486586995",
    "lng": "127.93042123317717",
    "region": "충청북도"
  },
  {
    "name": "회2리 삼거리 공터",
    "address": "경상북도 영덕군 남정면 회리 40-11",
    "lat": "36.274986582183914",
    "lng": "129.34088172309217",
    "region": "경상북도"
  },
  {
    "name": "전주효림초등학교(운동장)",
    "address": "전북특별자치도 전주시 완산구 효자동1가 659-2",
    "lat": "35.80305837349368",
    "lng": "127.11299158363065",
    "region": "전북특별자치도"
  },
  {
    "name": "전주양지중학교(운동장)",
    "address": "전북특별자치도 전주시 완산구 평화동2가 581-15",
    "lat": "35.792325113525756",
    "lng": "127.12477063237797",
    "region": "전북특별자치도"
  },
  {
    "name": "전주신흥중학교(운동장)",
    "address": "전북특별자치도 전주시 완산구 중화산동1가 188",
    "lat": "35.81542858624764",
    "lng": "127.1363372926299",
    "region": "전북특별자치도"
  },
  {
    "name": "신림초등학교",
    "address": "전북특별자치도 고창군 신림면 법지리 13-1",
    "lat": "35.493989141315815",
    "lng": "126.69994872826886",
    "region": "전북특별자치도"
  },
  {
    "name": "하송1리 마을회관",
    "address": "경상북도 포항시 북구 송라면 하송리 452",
    "lat": "36.2091109298775",
    "lng": "129.34248894453086",
    "region": "경상북도"
  },
  {
    "name": "가안1리 마을회관",
    "address": "경상북도 포항시 북구 기계면 가안리 198",
    "lat": "36.106652084216904",
    "lng": "129.13230568170638",
    "region": "경상북도"
  },
  {
    "name": "죽장초등학교 상옥분교장 운동장",
    "address": "경상북도 포항시 북구 죽장면 상옥리 748-1",
    "lat": "36.2463000878309",
    "lng": "129.21390920877928",
    "region": "경상북도"
  },
  {
    "name": "김제검산초등학교",
    "address": "전북특별자치도 김제시 검산동 912-21",
    "lat": "35.80559482642693",
    "lng": "126.89945938078084",
    "region": "전북특별자치도"
  }
]