[
  {
    "name": "대구광역시청 주차장",
    "address": "대구광역시 중구 동인동2가 2-1",
    "lat": "35.87085562086328",
    "lng": "128.60135436058067",
    "region": "대구광역시"
  },
  {
    "name": "성송초등학교",
    "address": "전북특별자치도 고창군 성송면 암치리 389-1",
    "lat": "35.35602819286949",
    "lng": "126.64402605877869",
    "region": "전북특별자치도"
  },
  {
    "name": "심원중학교",
    "address": "전북특별자치도 고창군 심원면 연화리 664-9",
    "lat": "35.52060601768475",
    "lng": "126.54821605611879",
    "region": "전북특별자치도"
  },
  {
    "name": "심원초등학교",
    "address": "전북특별자치도 고창군 심원면 월산리 774",
    "lat": "35.52544049564489",
    "lng": "126.55238514253766",
    "region": "전북특별자치도"
  },
  {
    "name": "아산초등학교",
    "address": "전북특별자치도 고창군 아산면 반암리 1081",
    "lat": "35.48285289020484",
    "lng": "126.60612225092184",
    "region": "전북특별자치도"
  },
  {
    "name": "광천1리 경로당",
    "address": "경상북도 포항시 북구 송라면 광천리 727-4",
    "lat": "36.23280299604713",
    "lng": "129.34327751398374",
    "region": "경상북도"
  },
  {
    "name": "친환경영농지원센터",
    "address": "경상북도 포항시 북구 죽장면 합덕리 276",
    "lat": "36.202425479061475",
    "lng": "129.0961253643075",
    "region": "경상북도"
  },
  {
    "name": "지평선고등학교",
    "address": "전북특별자치도 김제시 성덕면 묘라리 99-1",
    "lat": "35.82765617715888",
    "lng": "126.83068957978463",
    "region": "전북특별자치도"
  },
  {
    "name": "전주대성초등학교(운동장)",
    "address": "전북특별자치도 전주시 완산구 대성동 45",
    "lat": "35.79759026046074",
    "lng": "127.17782000705603",
    "region": "전북특별자치도"
  },
  {
    "name": "전주상산고등학교(운동장)",
    "address": "전북특별자치도 전주시 완산구 효자동1가 260",
    "lat": "35.804991766217384",
    "lng": "127.11837633297596",
    "region": "전북특별자치도"
  },
  {
    "name": "우석고등학교(운동장)",
    "address": "전북특별자치도 전주시 덕진구 여의동2가 658-90",
    "lat": "35.875159035427444",
    "lng": "127.07669824361805",
    "region": "전북특별자치도"
  },
  {
    "name": "선동초등학교",
    "address": "전북특별자치도 고창군 공음면 선동리 615-1",
    "lat": "35.36768160227852",
    "lng": "126.55618468133969",
    "region": "전북특별자치도"
  },
  {
    "name": "부송마을 광장",
    "address": "전북특별자치도 고창군 신림면 부송리 309-3",
    "lat": "35.472883",
    "lng": "126.692059",
    "region": "전북특별자치도"
  },
  {
    "name": "장암초등학교 운동장",
    "address": "충청남도 부여군 장암면 석동리 39-2",
    "lat": "36.24114351797879",
    "lng": "126.89534701080989",
    "region": "충청남도"
  },
  {
    "name": "아산스마트팩토리마이스트고등학교 운동장",
    "address": "충청남도 아산시 둔포면 둔포리 235",
    "lat": "36.92941310001882",
    "lng": "127.04346808854712",
    "region": "충청남도"
  },
  {
    "name": "온양중학교 운동장",
    "address": "충청남도 아산시 용화동 271-1",
    "lat": "36.77426125661419",
    "lng": "126.99780619511061",
    "region": "충청남도"
  },
  {
    "name": "소가야중학교 운동장",
    "address": "경상남도 고성군 삼산면 삼봉리 산76-2",
    "lat": "34.95392867799968",
    "lng": "128.2499818786087",
    "region": "경상남도"
  },
  {
    "name": "대가면 다목적복지회관",
    "address": "경상남도 고성군 대가면 유흥리 717-1",
    "lat": "35.018863438302354",
    "lng": "128.29762254641187",
    "region": "경상남도"
  },
  {
    "name": "부천시민운동장",
    "address": "경기도 부천시 원미구 중동 788",
    "lat": "37.48898250971157",
    "lng": "126.77065014839171",
    "region": "경기도"
  },
  {
    "name": "의성여자중학교 운동장",
    "address": "경상북도 의성군 의성읍 상리리 670",
    "lat": "36.35229653453101",
    "lng": "128.70260321373243",
    "region": "경상북도"
  },
  {
    "name": "옥산중학교운동장",
    "address": "경상북도 의성군 옥산면 구성리 408-1",
    "lat": "36.39472288347777",
    "lng": "128.81057513392966",
    "region": "경상북도"
  },
  {
    "name": "다인문암파크골프장",
    "address": "경상북도 의성군 다인면 삼분리 1370-2",
    "lat": "36.42717870090898",
    "lng": "128.39988827705392",
    "region": "경상북도"
  },
  {
    "name": "동내향수근린공원",
    "address": "대구광역시 동구 동내동 1119-3",
    "lat": "35.875883",
    "lng": "128.73768",
    "region": "대구광역시"
  },
  {
    "name": "사복노을근린공원",
    "address": "대구광역시 동구 사복동 837-5",
    "lat": "35.877263",
    "lng": "128.749062",
    "region": "대구광역시"
  },
  {
    "name": "숙천꿈마루근린공원",
    "address": "대구광역시 동구 숙천동 391",
    "lat": "35.876010996853815",
    "lng": "128.7536287307744",
    "region": "대구광역시"
  },
  {
    "name": "햇님어린이공원",
    "address": "대구광역시 동구 율하동 1001",
    "lat": "35.869028",
    "lng": "128.695908",
    "region": "대구광역시"
  },
  {
    "name": "달님어린이공원",
    "address": "대구광역시 동구 율하동 929-4",
    "lat": "35.869026",
    "lng": "128.698849",
    "region": "대구광역시"
  },
  {
    "name": "믿음어린이공원",
    "address": "대구광역시 동구 율하동 1022",
    "lat": "35.866551",
    "lng": "128.701184",
    "region": "대구광역시"
  },
  {
    "name": "아라어린이공원",
    "address": "대구광역시 동구 동호동 388",
    "lat": "35.864791434990174",
    "lng": "128.7248091849015",
    "region": "대구광역시"
  },
  {
    "name": "금강어린이공원",
    "address": "대구광역시 동구 신서동 567",
    "lat": "35.864586",
    "lng": "128.729594",
    "region": "대구광역시"
  },
  {
    "name": "바람꽃어린이공원",
    "address": "대구광역시 동구 율하동 1218",
    "lat": "35.86659582454991",
    "lng": "128.6942004809045",
    "region": "대구광역시"
  },
  {
    "name": "금낭화어린이공원",
    "address": "대구광역시 동구 율하동 1315",
    "lat": "35.86171769697778",
    "lng": "128.68806481361423",
    "region": "대구광역시"
  },
  {
    "name": "��부쟁이어린이공원",
    "address": "대구광역시 동구 율하동 1466",
    "lat": "35.864665249009974",
    "lng": "128.69881510734598",
    "region": "대구광역시"
  },
  {
    "name": "다람쥐어린이공원",
    "address": "대구광역시 동구 각산동 1029-1",
    "lat": "35.8855146502512",
    "lng": "128.71409915229",
    "region": "대구광역시"
  },
  {
    "name": "한국치즈과학고등학교 운동장",
    "address": "전북특별자치도 임실군 강진면 갈담리 333",
    "lat": "35.533108745571056",
    "lng": "127.16424464832446",
    "region": "전북특별자치도"
  },
  {
    "name": "경북전문대학교 운동장",
    "address": "경상북도 영주시 휴천동 630",
    "lat": "36.805433925890576",
    "lng": "128.61449482765062",
    "region": "경상북도"
  },
  {
    "name": "농업인회관 주차장",
    "address": "경상북도 영주시 봉현면 대촌리 438",
    "lat": "36.849071243992384",
    "lng": "128.52634370327013",
    "region": "경상북도"
  },
  {
    "name": "성곡3리 새마을복지관",
    "address": "경상북도 포항시 북구 흥해읍 성곡리 349-1",
    "lat": "36.08035032122109",
    "lng": "129.3486307361173",
    "region": "경상북도"
  },
  {
    "name": "성주여자고등학교 운동장",
    "address": "경상북도 성주군 성주읍 경산리 550",
    "lat": "35.9169757899766",
    "lng": "128.2824532535536",
    "region": "경상북도"
  },
  {
    "name": "해리중학교",
    "address": "전북특별자치도 고창군 해리면 하련리 245",
    "lat": "35.46250520056283",
    "lng": "126.53930678250474",
    "region": "전북특별자치도"
  },
  {
    "name": "임실동중학교 운동장",
    "address": "전북특별자치도 임실군 임실읍 이도리 751",
    "lat": "35.614574365492125",
    "lng": "127.27898698394577",
    "region": "전북특별자치도"
  },
  {
    "name": "벽오산어린이공원",
    "address": "서울특별시 강북구 미아동 258-56",
    "lat": "37.627646341017815",
    "lng": "127.03020072082741",
    "region": "서울특별시"
  },
  {
    "name": "시민운동장",
    "address": "경상북도 영주시 가흥동 900",
    "lat": "36.80807017186373",
    "lng": "128.6077332995675",
    "region": "경상북도"
  },
  {
    "name": "공촌초등학교 운동장",
    "address": "인천광역시 서구 공촌동 277-2",
    "lat": "37.54848618991794",
    "lng": "126.68405313695095",
    "region": "인천광역시"
  },
  {
    "name": "능내초등학교 운동장",
    "address": "인천광역시 서구 마전동 267-1",
    "lat": "37.60278457090616",
    "lng": "126.66645733997454",
    "region": "인천광역시"
  },
  {
    "name": "전주대정초등학교(운동장)",
    "address": "전북특별자치도 전주시 완산구 평화동2가 459",
    "lat": "35.78556970252248",
    "lng": "127.12531134241392",
    "region": "전북특별자치도"
  },
  {
    "name": "영주동부초등학교 운동장",
    "address": "경상북도 영주시 휴천동 714",
    "lat": "36.82085509051764",
    "lng": "128.6315367529844",
    "region": "경상북도"
  },
  {
    "name": "당하초등학교 운동장",
    "address": "인천광역시 서구 당하동 1107-1",
    "lat": "37.58969584842242",
    "lng": "126.67791370679474",
    "region": "인천광역시"
  },
  {
    "name": "부안낭주중학교",
    "address": "전북특별자치도 부안군 부안읍 봉덕리 658-2",
    "lat": "35.71459677039573",
    "lng": "126.73431694507235",
    "region": "전북특별자치도"
  },
  {
    "name": "줄포농공단지 주차장",
    "address": "전북특별자치도 부안군 보안면 영전리 298-13",
    "lat": "35.60175381140278",
    "lng": "126.67277634143701",
    "region": "전북특별자치도"
  },
  {
    "name": "전주우림중학교(운동장)",
    "address": "전북특별자치도 전주시 완산구 효자동2가 1199-3",
    "lat": "35.80509196149389",
    "lng": "127.0990765939545",
    "region": "전북특별자치도"
  },
  {
    "name": "전주공업고등학교(운동장)",
    "address": "전북특별자치도 전주시 덕진구 여의동 548-2",
    "lat": "35.86280422784191",
    "lng": "127.07529754840579",
    "region": "전북특별자치도"
  },
  {
    "name": "관촌초등학교",
    "address": "전북특별자치도 임실군 관촌면 관촌리 502",
    "lat": "35.67670286312444",
    "lng": "127.27094657067545",
    "region": "전북특별자치도"
  },
  {
    "name": "마암초등학교",
    "address": "전북특별자치도 임실군 운암면 마암리 700",
    "lat": "35.602708119553654",
    "lng": "127.10456317646087",
    "region": "전북특별자치도"
  },
  {
    "name": "세일어린이공원",
    "address": "서울특별시 강북구 미아동 162-1",
    "lat": "37.63355638412758",
    "lng": "127.02525375946487",
    "region": "서울특별시"
  },
  {
    "name": "갈담초등학교 운동장",
    "address": "경기도 화성시 봉담읍 유리 86",
    "lat": "37.1748232",
    "lng": "126.9331409",
    "region": "경기도"
  },
  {
    "name": "부안자연마당 잔디광장",
    "address": "전북특별자치도 부안군 부안읍 선은리 5-8",
    "lat": "35.7253956443581",
    "lng": "126.74513965845107",
    "region": "전북특별자치도"
  },
  {
    "name": "전주문학초등학교(운동장)",
    "address": "전북특별자치도 전주시 완산구 효자동3가 1614",
    "lat": "35.82826454692479",
    "lng": "127.10258369905601",
    "region": "전북특별자치도"
  },
  {
    "name": "한일고등학교(운동장)",
    "address": "전북특별자치도 전주시 완산구 서신동 71-2",
    "lat": "35.831696549760075",
    "lng": "127.12377617482204",
    "region": "전북특별자치도"
  },
  {
    "name": "송산마을광장",
    "address": "전북특별자치도 고창군 성송면 무송리 258-1",
    "lat": "35.34615639186379",
    "lng": "126.63706162154368",
    "region": "전북특별자치도"
  },
  {
    "name": "청웅초등학교 운동장",
    "address": "전북특별자치도 임실군 청웅면 구고리 111",
    "lat": "35.57134215765147",
    "lng": "127.20458043725733",
    "region": "전북특별자치도"
  },
  {
    "name": "영주중학교 운동장",
    "address": "경상북도 영주시 휴천동 704-7",
    "lat": "36.819722092779706",
    "lng": "128.6320830903754",
    "region": "경상북도"
  },
  {
    "name": "영주서부초등학교 운동장",
    "address": "경상북도 영주시 가흥동 507-6",
    "lat": "36.83201539752735",
    "lng": "128.61224802636045",
    "region": "경상북도"
  },
  {
    "name": "목마공원",
    "address": "서울특별시 양천구 목동 910",
    "lat": "37.53817072046532",
    "lng": "126.88553058092971",
    "region": "서울특별시"
  },
  {
    "name": "초은중학교 운동장",
    "address": "인천광역시 서구 청라동 192-1",
    "lat": "37.52776624495297",
    "lng": "126.6539119266354",
    "region": "인천광역시"
  },
  {
    "name": "가현중학교 운동장",
    "address": "인천광역시 서구 신현동 305-1",
    "lat": "37.52113295458305",
    "lng": "126.66781071318603",
    "region": "인천광역시"
  },
  {
    "name": "남일초중고등학교 운동장",
    "address": "전북특별자치도 정읍시 감곡면 통석리 826",
    "lat": "35.70769477543101",
    "lng": "126.96714656222144",
    "region": "전북특별자치도"
  },
  {
    "name": "부안고등학교",
    "address": "전북특별자치도 부안군 부안읍 봉덕리 726-10",
    "lat": "35.715476588226764",
    "lng": "126.72938168048856",
    "region": "전북특별자치도"
  },
  {
    "name": "남성중학교 운동장",
    "address": "전북특별자치도 익산시 신동 156-4",
    "lat": "35.95689529356908",
    "lng": "126.9660391740244",
    "region": "전북특별자치도"
  },
  {
    "name": "수안보초등학교 운동장",
    "address": "충청북도 충주시 수안보면 안보리 598",
    "lat": "36.84435341664667",
    "lng": "127.99941837787627",
    "region": "충청북도"
  },
  {
    "name": "전주신성초등학교(운동장)",
    "address": "전북특별자치도 전주시 완산구 평화동2가 229",
    "lat": "35.79034856372343",
    "lng": "127.13437969210021",
    "region": "전북특별자치도"
  },
  {
    "name": "전주용와초등학교(운동장)",
    "address": "전북특별자치도 전주시 완산구 삼천동1가 305-43",
    "lat": "35.79118261552704",
    "lng": "127.11505737525324",
    "region": "전북특별자치도"
  },
  {
    "name": "전주기린중학교(운동장)",
    "address": "전북특별자치도 전주시 덕진구 우아동3가 743-10",
    "lat": "35.85424496734448",
    "lng": "127.15722416491732",
    "region": "전북특별자치도"
  },
  {
    "name": "전북여자고등학교(운동장)",
    "address": "전북특별자치도 전주시 덕진구 고랑동 721-1",
    "lat": "35.87351538233767",
    "lng": "127.08469279893161",
    "region": "전북특별자치도"
  },
  {
    "name": "전주영생고등학교(운동장)",
    "address": "전북특별자치도 전주시 완산구 효자동3가 1191-1",
    "lat": "35.816416822407795",
    "lng": "127.09363872437048",
    "region": "전북특별자치도"
  },
  {
    "name": "동지여자고등학교 운동장",
    "address": "경상북도 포항시 북구 용흥동 511",
    "lat": "36.038216167813154",
    "lng": "129.34621453285342",
    "region": "경상북도"
  },
  {
    "name": "해운초등학교 운동장",
    "address": "경기도 화성시 서신면 궁평리 162-4",
    "lat": "37.13921109",
    "lng": "126.70335889",
    "region": "경기도"
  },
  {
    "name": "(구)백련초등학교 운동장",
    "address": "전북특별자치도 부안군 하서면 백련리 555-3",
    "lat": "35.70872961797732",
    "lng": "126.60108625888817",
    "region": "전북특별자치도"
  },
  {
    "name": "창북초등학교 운동장",
    "address": "전북특별자치도 부안군 계화면 창북리 857",
    "lat": "35.76255009046084",
    "lng": "126.69436812400812",
    "region": "전북특별자치도"
  },
  {
    "name": "구월근린공원",
    "address": "인천광역시 남동구 구월동 1246",
    "lat": "37.458350161008816",
    "lng": "126.7189606548957",
    "region": "인천광역시"
  },
  {
    "name": "정읍서초등학교 운동장",
    "address": "전북특별자치도 정읍시 연지동 49-18",
    "lat": "35.56974915130413",
    "lng": "126.84727973790721",
    "region": "전북특별자치도"
  },
  {
    "name": "해리시장 공영주차장",
    "address": "전북특별자치도 고창군 해리면 하련리 189-5",
    "lat": "35.4594330",
    "lng": "126.5414070",
    "region": "전북특별자치도"
  },
  {
    "name": "고현1리 마을회관",
    "address": "경상북도 포항시 북구 청하면 고현리 402",
    "lat": "36.164429420017456",
    "lng": "129.33001935482602",
    "region": "경상북도"
  },
  {
    "name": "화진2리 마을회관",
    "address": "경상북도 포항시 북구 송라면 화진리 63-1",
    "lat": "36.2401586483681",
    "lng": "129.383320212372",
    "region": "경상북도"
  },
  {
    "name": "내단1리 마을회관",
    "address": "경상북도 포항시 북구 기계면 내단리 467-2",
    "lat": "36.06207367674535",
    "lng": "129.23096977215397",
    "region": "경상북도"
  },
  {
    "name": "용산초등학교 운동장",
    "address": "충청북도 충주시 용산동 1671",
    "lat": "36.9623167485098",
    "lng": "127.9440897703171",
    "region": "충청북도"
  },
  {
    "name": "전북유니텍고 운동장",
    "address": "전북특별자치도 장수군 장계면 장계리 272",
    "lat": "35.73356732185805",
    "lng": "127.58223831653054",
    "region": "전북특별자치도"
  },
  {
    "name": "우각2리 마을회관",
    "address": "경상북도 포항시 북구 신광면 우각리 513",
    "lat": "36.115031481358805",
    "lng": "129.2574146389941",
    "region": "경상북도"
  },
  {
    "name": "청계리 마을회관",
    "address": "경상북도 포항시 북구 청하면 청계리 555-2",
    "lat": "36.21198274974401",
    "lng": "129.32595849037693",
    "region": "경상북도"
  },
  {
    "name": "미남리 마을회관",
    "address": "경상북도 포항시 북구 청하면 미남리 525-1",
    "lat": "36.194322942070414",
    "lng": "129.34148135969681",
    "region": "경상북도"
  },
  {
    "name": "호암경로당",
    "address": "경상북도 포항시 북구 청하면 소동리 793-93",
    "lat": "36.1672075498169",
    "lng": "129.344391104181",
    "region": "경상북도"
  },
  {
    "name": "남계리 마을회관",
    "address": "경상북도 포항시 북구 기계면 남계리 131-1",
    "lat": "36.10324329683601",
    "lng": "129.12512809038486",
    "region": "경상북도"
  },
  {
    "name": "성계2리 마을회관",
    "address": "경상북도 포항시 북구 기계면 성계리 655",
    "lat": "36.058140608129726",
    "lng": "129.2111045732559",
    "region": "경상북도"
  },
  {
    "name": "율산1리 마을회관",
    "address": "경상북도 포항시 북구 기북면 율산리 1152-6",
    "lat": "36.12433293014986",
    "lng": "129.17518347502096",
    "region": "경상북도"
  },
  {
    "name": "율산2리 마을회관",
    "address": "경상북도 포항시 북구 기북면 율산리 775",
    "lat": "36.13125805026178",
    "lng": "129.17736084470852",
    "region": "경상북도"
  },
  {
    "name": "수곡리 경로당",
    "address": "경상북도 포항시 북구 기북면 대곡리 335",
    "lat": "36.11623223368288",
    "lng": "129.1717027471345",
    "region": "경상북도"
  },
  {
    "name": "양학생활체육운동장",
    "address": "경상북도 포항시 북구 득량동 219",
    "lat": "36.03615389204863",
    "lng": "129.34083095772428",
    "region": "경상북도"
  },
  {
    "name": "죽도빗물펌프장",
    "address": "경상북도 포항시 북구 죽도동 45-1",
    "lat": "36.03352686504367",
    "lng": "129.3637213110967",
    "region": "경상북도"
  },
  {
    "name": "죽도초등학교 운동장",
    "address": "경상북도 포항시 북구 죽도동 633-5",
    "lat": "36.0216826852999",
    "lng": "129.35596494306762",
    "region": "경상북도"
  },
  {
    "name": "대흥중학교 운동장",
    "address": "경상북도 포항시 북구 용흥동 418-9",
    "lat": "36.044692238773855",
    "lng": "129.35370326042846",
    "region": "경상북도"
  },
  {
    "name": "포항남부초등학교 운동장",
    "address": "경상북도 포항시 북구 용흥동 615-6",
    "lat": "36.02812671701441",
    "lng": "129.35606393757928",
    "region": "경상북도"
  },
  {
    "name": "두호초등학교 운동장",
    "address": "경상북도 포항시 북구 창포동 614",
    "lat": "36.06418663760746",
    "lng": "129.36878800392404",
    "region": "경상북도"
  },
  {
    "name": "창포6공원",
    "address": "경상북도 포항시 북구 두호동 1097-1",
    "lat": "36.06735661578134",
    "lng": "129.3724887176342",
    "region": "경상북도"
  },
  {
    "name": "장성15어린이공원",
    "address": "경상북도 포항시 북구 장성동 1566-8",
    "lat": "36.0763242699383",
    "lng": "129.38430711063086",
    "region": "경상북도"
  },
  {
    "name": "장성고등학교 운동장",
    "address": "경상북도 포항시 북구 장성동 1498-1",
    "lat": "36.085809125213956",
    "lng": "129.38518006782968",
    "region": "경상북도"
  },
  {
    "name": "항구초등학교 운동장",
    "address": "경상북도 포항시 북구 환호동 504",
    "lat": "36.07034639561582",
    "lng": "129.40048625668422",
    "region": "경상북도"
  },
  {
    "name": "구만2리 마을회관",
    "address": "경상북도 포항시 남구 호미곶면 구만리 576-16",
    "lat": "36.08036341543685",
    "lng": "129.55060482709965",
    "region": "경상북도"
  },
  {
    "name": "구암근린공원",
    "address": "전북특별자치도 군산시 구암동 613",
    "lat": "35.98807926067105",
    "lng": "126.74303539651328",
    "region": "전북특별자치도"
  },
  {
    "name": "고현2리 마을회관 ",
    "address": "경상북도 포항시 북구 청하면 고현리 395-3",
    "lat": "36.16605130227513",
    "lng": "129.32992815971338",
    "region": "경상북도"
  },
  {
    "name": "보경사 주차장",
    "address": "경상북도 포항시 북구 송라면 중산리 544-32",
    "lat": "36.24382107880664",
    "lng": "129.3205348150398",
    "region": "경상북도"
  },
  {
    "name": "대잠초등학교 운동장",
    "address": "경상북도 포항시 북구 죽도동 652-1",
    "lat": "36.0197262525527",
    "lng": "129.35369501856948",
    "region": "경상북도"
  },
  {
    "name": "계룡초등학교",
    "address": "경상남도 거제시 고현동 164",
    "lat": "34.8807205",
    "lng": "128.62533050000002",
    "region": "경상남도"
  },
  {
    "name": "정남초등학교 운동장",
    "address": "전북특별자치도 정읍시 정우면 대산리 68",
    "lat": "35.62228978878161",
    "lng": "126.86509305176438",
    "region": "전북특별자치도"
  },
  {
    "name": "정우중학교 운동장",
    "address": "전북특별자치도 정읍시 정우면 수금리 8-1",
    "lat": "35.64656910553783",
    "lng": "126.88339223108376",
    "region": "전북특별자치도"
  },
  {
    "name": "백룡초등학교 운동장",
    "address": "전북특별자치도 부안군 백산면 용계리 74-2",
    "lat": "35.718233578230645",
    "lng": "126.81072771549223",
    "region": "전북특별자치도"
  },
  {
    "name": "부안여자고등학교",
    "address": "전북특별자치도 부안군 부안읍 봉덕리 658-8",
    "lat": "35.71492779210139",
    "lng": "126.73535227775025",
    "region": "전북특별자치도"
  },
  {
    "name": "광혜원중학교운동장",
    "address": "충청북도 진천군 광혜원면 광혜원리 520",
    "lat": "36.9911592269821",
    "lng": "127.44014319893827",
    "region": "충청북도"
  },
  {
    "name": "영덕여자고등학교",
    "address": "경상북도 영덕군 영덕읍 덕곡리 106-1",
    "lat": "36.41300539895088",
    "lng": "129.37521696402513",
    "region": "경상북도"
  },
  {
    "name": "수성동 근린공원",
    "address": "전북특별자치도 정읍시 수성동 931",
    "lat": "35.58171139458452",
    "lng": "126.8535679578781",
    "region": "전북특별자치도"
  },
  {
    "name": "정읍남초등학교 운동장",
    "address": "전북특별자치도 정읍시 시기동 506-19",
    "lat": "35.560973538062285",
    "lng": "126.84959894185158",
    "region": "전북특별자치도"
  },
  {
    "name": "정읍시제2청사 공터주차장",
    "address": "전북특별자치도 정읍시 정우면 우산리 661",
    "lat": "35.62181604426909",
    "lng": "126.89643152528393",
    "region": "전북특별자치도"
  },
  {
    "name": "(구)지경리검문소",
    "address": "경상북도 포항시 북구 송라면 지경리 199-1",
    "lat": "36.26326615892588",
    "lng": "129.37435627567297",
    "region": "경상북도"
  },
  {
    "name": "중산1리 마을회관",
    "address": "경상북도 포항시 북구 송라면 중산리 494-2",
    "lat": "36.236790278184564",
    "lng": "129.32860046625797",
    "region": "경상북도"
  },
  {
    "name": "포항중학교 운동장",
    "address": "경상북도 포항시 북구 학산동 203-1",
    "lat": "36.04976254812878",
    "lng": "129.36742812395912",
    "region": "경상북도"
  },
  {
    "name": "죽도2어린이공원",
    "address": "경상북도 포항시 북구 죽도동 195-6",
    "lat": "36.02948341363661",
    "lng": "129.35976098816926",
    "region": "경상북도"
  },
  {
    "name": "포항여자전자고등학교 운동장",
    "address": "경상북도 포항시 북구 용흥동 430",
    "lat": "36.04998808039653",
    "lng": "129.349561929701",
    "region": "경상북도"
  },
  {
    "name": "경북과학고등학교 운동장",
    "address": "경상북도 포항시 북구 용흥동 418-1",
    "lat": "36.04709089552274",
    "lng": "129.35262408761596",
    "region": "경상북도"
  },
  {
    "name": "동북지방통계청",
    "address": "경상북도 포항시 북구 용흥동 101-4",
    "lat": "36.03466030818611",
    "lng": "129.35645417995832",
    "region": "경상북도"
  },
  {
    "name": "창포초등학교 운동장",
    "address": "경상북도 포항시 북구 창포동 646",
    "lat": "36.06665225598889",
    "lng": "129.3687611438872",
    "region": "경상북도"
  },
  {
    "name": "두호1어린이공원",
    "address": "경상북도 포항시 북구 두호동 1084-2",
    "lat": "36.06453057716729",
    "lng": "129.38123441890417",
    "region": "경상북도"
  },
  {
    "name": "두호고등학교 운동장",
    "address": "경상북도 포항시 북구 두호동 1106",
    "lat": "36.06223143717822",
    "lng": "129.37325068331606",
    "region": "경상북도"
  },
  {
    "name": "양덕축구장",
    "address": "경상북도 포항시 북구 양덕동 502",
    "lat": "36.07764920301813",
    "lng": "129.3994092323627",
    "region": "경상북도"
  },
  {
    "name": "남원종합스포츠타운",
    "address": "전북특별자치도 남원시 월락동 248",
    "lat": "35.430139579315174",
    "lng": "127.40473508834839",
    "region": "전북특별자치도"
  },
  {
    "name": "태인고등학교 운동장",
    "address": "전북특별자치도 정읍시 태인면 태성리 627-5",
    "lat": "35.65273816581765",
    "lng": "126.93820272213459",
    "region": "전북특별자치도"
  },
  {
    "name": "신태인 축구장",
    "address": "전북특별자치도 정읍시 정우면 대사리 1714",
    "lat": "35.67907363884862",
    "lng": "126.88815236091612",
    "region": "전북특별자치도"
  },
  {
    "name": "정우초등학교 운동장",
    "address": "전북특별자치도 정읍시 정우면 수금리 116",
    "lat": "35.6518987829345",
    "lng": "126.87972176503068",
    "region": "전북특별자치도"
  },
  {
    "name": "정읍고등학교 운동장",
    "address": "전북특별자치도 정읍시 시기동 37-1",
    "lat": "35.55519925984407",
    "lng": "126.86630290285798",
    "region": "전북특별자치도"
  },
  {
    "name": "능교초등학교 운동장",
    "address": "전북특별자치도 정읍시 산내면 능교리 507-1",
    "lat": "35.56824682935208",
    "lng": "127.03147549049918",
    "region": "전북특별자치도"
  },
  {
    "name": "푸른꿈고등학교 운동장",
    "address": "전북특별자치도 무주군 안성면 진도리 865",
    "lat": "35.86422181898383",
    "lng": "127.61967658996583",
    "region": "전북특별자치도"
  },
  {
    "name": "적상중학교 운동장",
    "address": "전북특별자치도 무주군 적상면 사산리 1210-1",
    "lat": "35.93507892352123",
    "lng": "127.65709162391192",
    "region": "전북특별자치도"
  },
  {
    "name": "구룡포JC회관",
    "address": "경상북도 포항시 남구 구룡포읍 눌태리 46-2",
    "lat": "35.986359914566805",
    "lng": "129.54754249449596",
    "region": "경상북도"
  },
  {
    "name": "(구)구남분교장(구룡포초교) 운동장",
    "address": "경상북도 포항시 남구 구룡포읍 구평리 739-1",
    "lat": "35.9493150977824",
    "lng": "129.53691661404795",
    "region": "경상북도"
  },
  {
    "name": "냉수1리 마을회관",
    "address": "경상북도 포항시 북구 신광면 냉수리 192-9",
    "lat": "36.08995996740186",
    "lng": "129.2561405897144",
    "region": "경상북도"
  },
  {
    "name": "필화1리 마을회관",
    "address": "경상북도 포항시 북구 청하면 필화리 508-11",
    "lat": "36.19779479785102",
    "lng": "129.350791675954",
    "region": "경상북도"
  },
  {
    "name": "포항학생야영장",
    "address": "경상북도 포항시 북구 죽장면 하옥리 446-1",
    "lat": "36.30263645148226",
    "lng": "129.24857139587743",
    "region": "경상북도"
  },
  {
    "name": "선린요양병원 주차장",
    "address": "경상북도 포항시 북구 대신동 74-1",
    "lat": "36.04666575129749",
    "lng": "129.36737716198473",
    "region": "경상북도"
  },
  {
    "name": "수곡초등학교 운동장",
    "address": "전북특별자치도 정읍시 칠보면 반곡리 1050",
    "lat": "35.568418875901976",
    "lng": "126.95927879935523",
    "region": "전북특별자치도"
  },
  {
    "name": "태인초등학교 운동장",
    "address": "전북특별자치도 정읍시 태인면 태성리 429",
    "lat": "35.654304512905746",
    "lng": "126.94691987564532",
    "region": "전북특별자치도"
  },
  {
    "name": "침곡리 마을회관",
    "address": "경상북도 포항시 북구 죽장면 침곡리 375-1",
    "lat": "36.166244020367984",
    "lng": "129.1278585791567",
    "region": "경상북도"
  },
  {
    "name": "한솔초등학교 운동장",
    "address": "전북특별자치도 정읍시 상동 164-1",
    "lat": "35.56131900750592",
    "lng": "126.87254049339259",
    "region": "전북특별자치도"
  },
  {
    "name": "곡강초등학교 운동장",
    "address": "경상북도 포항시 북구 흥해읍 용천리 1203",
    "lat": "36.13027115438986",
    "lng": "129.34867680073594",
    "region": "경상북도"
  },
  {
    "name": "청진2리 마을회관",
    "address": "경상북도 포항시 북구 청하면 청진리 262",
    "lat": "36.174896357833006",
    "lng": "129.39437896013632",
    "region": "경상북도"
  },
  {
    "name": "방석보건진료소",
    "address": "경상북도 포항시 북구 송라면 방석리 270-4",
    "lat": "36.23080819693788",
    "lng": "129.36932444572574",
    "region": "경상북도"
  },
  {
    "name": "봉계2리 마을회관",
    "address": "경상북도 포항시 북구 기계면 봉계리 1319-3",
    "lat": "36.080212229594856",
    "lng": "129.16058689355629",
    "region": "경상북도"
  },
  {
    "name": "유성여자고등학교 운동��",
    "address": "경상북도 포항시 북구 우현동 205-2",
    "lat": "36.05710068950023",
    "lng": "129.36055362224766",
    "region": "경상북도"
  },
  {
    "name": "해원고등학교 운동장",
    "address": "인천광역시 서구 청라동 103-5",
    "lat": "37.52772754831561",
    "lng": "126.62736625164155",
    "region": "인천광역시"
  },
  {
    "name": "도담초등학교 운동장",
    "address": "세종특별자치시 세종시 도담동 854",
    "lat": "36.511775443393596",
    "lng": "127.26308897148556",
    "region": "세종특별자치시"
  },
  {
    "name": "광주소프트웨어마이스터고등학교 운동장",
    "address": "광주광역시 광산구 송정동 710-3",
    "lat": "35.142978954961855",
    "lng": "126.80029605433953",
    "region": "광주광역시"
  },
  {
    "name": "봉동읍행정복지센터 주차장",
    "address": "전북특별자치도 완주군 봉동읍 장기리 412",
    "lat": "35.941512214167545",
    "lng": "127.16619835718991",
    "region": "전북특별자치도"
  },
  {
    "name": "고산면행정복지센터 공원",
    "address": "전북특별자치도 완주군 고산면 읍내리 890",
    "lat": "35.97514099268387",
    "lng": "127.20383763313292",
    "region": "전북특별자치도"
  },
  {
    "name": "근로자종합복지관 주차장",
    "address": "전북특별자치도 완주군 봉동읍 둔산리 881",
    "lat": "35.96312422977094",
    "lng": "127.12726384606576",
    "region": "전북특별자치도"
  },
  {
    "name": "경천생활체육공원 운동장",
    "address": "전북특별자치도 완주군 경천면 경천리 680-3",
    "lat": "36.02061574186386",
    "lng": "127.25316882133484",
    "region": "전북특별자치도"
  },
  {
    "name": "신태인고등학교 운동장",
    "address": "전북특별자치도 정읍시 신태인읍 신태인리 9",
    "lat": "35.69239677792921",
    "lng": "126.89275392519403",
    "region": "전북특별자치도"
  },
  {
    "name": "영덕읍교회",
    "address": "경상북도 영덕군 영덕�� 우곡리 601",
    "lat": "36.40519366579505",
    "lng": "129.37439443548934",
    "region": "경상북도"
  },
  {
    "name": "전주중학교(운동장)",
    "address": "전북특별자치도 전주시 덕진구 송천동1가 395-26",
    "lat": "35.85779554958084",
    "lng": "127.12310415638633",
    "region": "전북특별자치도"
  },
  {
    "name": "성송주차장",
    "address": "전북특별자치도 고창군 성송면 계당리 545-7",
    "lat": "35.36479350580507",
    "lng": "126.64671022957911",
    "region": "전북특별자치도"
  },
  {
    "name": "칠암광장",
    "address": "전북특별자치도 고창군 공음면 칠암리 301",
    "lat": "35.3731430",
    "lng": "126.5203210",
    "region": "전북특별자치도"
  },
  {
    "name": "두암마을광장",
    "address": "전북특별자치도 고창군 공음면 두암리 713-1",
    "lat": "35.4145700",
    "lng": "126.5036330",
    "region": "전북특별자치도"
  },
  {
    "name": "홈플러스 옆 공터",
    "address": "경상북도 경주시 용강동 800-19",
    "lat": "35.8729830",
    "lng": "129.2255820",
    "region": "경상북도"
  },
  {
    "name": "해원중학교 운동장",
    "address": "인천광역시 서구 청라동 103-25",
    "lat": "37.52669367928871",
    "lng": "126.62779959503403",
    "region": "인천광역시"
  },
  {
    "name": "화진3리 마을회관 ",
    "address": "경상북도 포항시 북구 송라면 화진리 610",
    "lat": "36.24461778398524",
    "lng": "129.3714888534793",
    "region": "경상북도"
  },
  {
    "name": "운주면행정복지센터 주차장",
    "address": "전북특별자치도 완주군 운주면 장선리 573-7",
    "lat": "36.092524258831766",
    "lng": "127.27759695678765",
    "region": "전북특별자치도"
  },
  {
    "name": "비봉생활체육공원 운동장",
    "address": "전북특별자치도 완주군 비봉면 소농리 430",
    "lat": "35.99300396772022",
    "lng": "127.13876613358583",
    "region": "전북특별자치도"
  },
  {
    "name": "구 야성초등학교",
    "address": "경상북도 영덕군 영덕읍 남석리 34-80",
    "lat": "36.40721326931279",
    "lng": "129.36825515690222",
    "region": "경상북도"
  },
  {
    "name": "소성초등학교 운동장",
    "address": "전북특별자치도 정읍시 소성면 보화리 178-6",
    "lat": "35.555072852165225",
    "lng": "126.7779812468638",
    "region": "전북특별자치도"
  },
  {
    "name": "삼계리 마을회관",
    "address": "경상북도 영덕군 영덕읍 삼계리 273",
    "lat": "36.42899622460966",
    "lng": "129.4016039565317",
    "region": "경상북도"
  },
  {
    "name": "줄포중학교 운동장",
    "address": "전북특별자치도 부안군 줄포면 줄포리 272",
    "lat": "35.59290557978794",
    "lng": "126.67569458484739",
    "region": "전북특별자치도"
  },
  {
    "name": "송산마을광장",
    "address": "전북특별자치도 고창군 공음면 건동리 1514",
    "lat": "35.37232262327265",
    "lng": "126.56424611807222",
    "region": "전북특별자치도"
  },
  {
    "name": "전촌1리마을회관 앞 공터",
    "address": "경상북도 경주시 감포읍 전촌리 532-1",
    "lat": "35.7928870",
    "lng": "129.4882940",
    "region": "경상북도"
  },
  {
    "name": "삼성생활예술고등학교 운동장",
    "address": "경상북도 경주시 내남면 이조리 575",
    "lat": "35.751388380976174",
    "lng": "129.19959962368247",
    "region": "경상북도"
  },
  {
    "name": "경주 탈해왕릉 주차장",
    "address": "경상북도 경주시 동천동 510-1",
    "lat": "35.8509040",
    "lng": "129.2320360",
    "region": "경상북도"
  },
  {
    "name": "낙산마을광장",
    "address": "전북특별자치도 고창군 성내면 산림리 298-5",
    "lat": "35.52473904048034",
    "lng": "126.7592588067069",
    "region": "전북특별자치도"
  },
  {
    "name": "장길리 마을회관",
    "address": "경상북도 포항시 남구 구룡포읍 장길리 159-1",
    "lat": "35.953270971923324",
    "lng": "129.5440569520023",
    "region": "경상북도"
  },
  {
    "name": "장흥중학교 운동장",
    "address": "경상북도 포항시 북구 장성동 1372-1",
    "lat": "36.08554469755193",
    "lng": "129.3864744901698",
    "region": "경상북도"
  },
  {
    "name": "도담초등학교 운동장",
    "address": "인천광역시 서구 청라동 178-8",
    "lat": "37.52746232117328",
    "lng": "126.64359553787982",
    "region": "인천광역시"
  },
  {
    "name": "경명초등학교 운동장",
    "address": "인천광역시 서구 청라동 139-2",
    "lat": "37.53640794124221",
    "lng": "126.63699235613231",
    "region": "인천광역시"
  },
  {
    "name": "소양면행정복지센터 주차장",
    "address": "전북특별자치도 완주군 소양면 황운리 883-6",
    "lat": "35.85391354545755",
    "lng": "127.22546964883806",
    "region": "전북특별자치도"
  },
  {
    "name": "부안초등학교 운동장",
    "address": "전북특별자치도 부안군 부안읍 동중리 173-3",
    "lat": "35.72833954805151",
    "lng": "126.73365980386728",
    "region": "전북특별자치도"
  },
  {
    "name": "(구)하서초등학교 운동장",
    "address": "전북특별자치도 부안군 하서면 청호리 598-1",
    "lat": "35.71994957123808",
    "lng": "126.649677157402",
    "region": "전북특별자치도"
  },
  {
    "name": "무주중앙초등학교 운동장",
    "address": "전북특별자치도 무주군 무주읍 읍내리 416",
    "lat": "36.012421716113224",
    "lng": "127.66426840559326",
    "region": "전북특별자치도"
  },
  {
    "name": "부당초등학교 운동장",
    "address": "전북특별자치도 무주군 부남면 가당리 448-2",
    "lat": "36.01519089696222",
    "lng": "127.58005463430857",
    "region": "전북특별자치도"
  },
  {
    "name": "용전1리 마을회관",
    "address": "경상북도 포항시 북구 흥해읍 용전리 797-21",
    "lat": "36.1207234141903",
    "lng": "129.32972967625207",
    "region": "경상북도"
  },
  {
    "name": "필화2리 마을회관",
    "address": "경상북도 포항시 북구 청하면 필화리 399-8",
    "lat": "36.19933469887501",
    "lng": "129.35852050781136",
    "region": "경상북도"
  },
  {
    "name": "일신여자상업고등학교운동장",
    "address": "서울특별시 송파구 송파동 179",
    "lat": "37.50121386775296",
    "lng": "127.11396458952281",
    "region": "서울특별시"
  },
  {
    "name": "화산면행정복지센터 주차장",
    "address": "전북특별자치도 완주군 화산면 화평리 585-1",
    "lat": "36.035502727651675",
    "lng": "127.20336983312137",
    "region": "전북특별자치도"
  },
  {
    "name": "삼남중학교 운동장",
    "address": "전북특별자치도 부안군 부안읍 선은리 135",
    "lat": "35.729382517415104",
    "lng": "126.74170643091202",
    "region": "전북특별자치도"
  },
  {
    "name": "영전초등학교 운동장",
    "address": "전북특별자치도 부안군 보안면 영전리 515",
    "lat": "35.61173279714446",
    "lng": "126.66902929544243",
    "region": "전북특별자치도"
  },
  {
    "name": "공음주차장",
    "address": "전북특별자치도 고창군 공음면 칠암리 604-23",
    "lat": "35.37851277927309",
    "lng": "126.51253805719385",
    "region": "전북특별자치도"
  },
  {
    "name": "포항시립구룡포도서관 운동장",
    "address": "경상북도 포항시 남구 구룡포읍 병포리 139-1",
    "lat": "35.98259460644593",
    "lng": "129.55090463162657",
    "region": "경상북도"
  },
  {
    "name": "삼도초등학교 운동장",
    "address": "광주광역시 광산구 도덕동 327",
    "lat": "35.163805700443206",
    "lng": "126.700649857521",
    "region": "광주광역시"
  },
  {
    "name": "전북푸른학교 주차장",
    "address": "전북특별자치도 완주군 고산면 삼기리 18-1",
    "lat": "35.99019836940552",
    "lng": "127.23881042644392",
    "region": "전북특별자치도"
  },
  {
    "name": "완주군 국민체육센터 주차장",
    "address": "전북특별자치도 완주군 용진읍 신지리 287",
    "lat": "35.937984362091186",
    "lng": "127.17435995953896",
    "region": "전북특별자치도"
  },
  {
    "name": "국민체육센터 축구장",
    "address": "전북특별자치도 정읍시 상평동 산19-6",
    "lat": "35.56180693535444",
    "lng": "126.83889889386133",
    "region": "전북특별자치도"
  },
  {
    "name": "구평1리 마을회관",
    "address": "경상북도 포항시 남구 구룡포읍 구평리 177-3",
    "lat": "35.942084345160836",
    "lng": "129.53403982761807",
    "region": "경상북도"
  },
  {
    "name": "관교중학교 운동장",
    "address": "인천광역시 미추홀구 관교동 482",
    "lat": "37.44421761951954",
    "lng": "126.69170432901441",
    "region": "인천광역시"
  },
  {
    "name": "휘문중학교 운동장",
    "address": "서울특별시 강남구 대치동 952-1",
    "lat": "37.50557156035168",
    "lng": "127.06289793798368",
    "region": "서울특별시"
  },
  {
    "name": "두루중학교 운동장",
    "address": "세종특별자치시 세종시 고운동 1385",
    "lat": "36.517970200591606",
    "lng": "127.23892092704773",
    "region": "세종특별자치시"
  },
  {
    "name": "도산초등학교 운동장",
    "address": "광주광역시 광산구 도산동 659-1",
    "lat": "35.1259152819952",
    "lng": "126.79213464260098",
    "region": "광주광역시"
  },
  {
    "name": "운주생활체육공원 운동장",
    "address": "전북특별자치도 완주군 운주면 장선리 199",
    "lat": "36.087059480650844",
    "lng": "127.28005647282362",
    "region": "전북특별자치도"
  },
  {
    "name": "정천1리 마을회관",
    "address": "경상북도 포항시 남구 장기면 정천리 492",
    "lat": "35.94877638190996",
    "lng": "129.44793194532988",
    "region": "경상북도"
  },
  {
    "name": "포항제철초등학교 운동장",
    "address": "경상북도 포항시 남구 지곡동 166-25",
    "lat": "36.01363976825206",
    "lng": "129.3273735283257",
    "region": "경상북도"
  },
  {
    "name": "안덕2리 마을회관",
    "address": "경상북도 포항시 북구 신광면 안덕리 562-4",
    "lat": "36.15808288295389",
    "lng": "129.266741598537",
    "region": "경상북도"
  },
  {
    "name": "상읍1리 마을회관",
    "address": "경상북도 포항시 북구 신광면 상읍리 245-1",
    "lat": "36.1337285927797",
    "lng": "129.2580717802076",
    "region": "경상북도"
  },
  {
    "name": "죽성1리 마을회관",
    "address": "경상북도 포항시 북구 신광면 죽성리 672",
    "lat": "36.121928049014876",
    "lng": "129.2453151941334",
    "region": "경상북도"
  },
  {
    "name": "제산초등학교",
    "address": "경상남도 거제시 양정동 818",
    "lat": "34.88711731884932",
    "lng": "128.64252304236422",
    "region": "경상남도"
  },
  {
    "name": "우덕초등학교 운동장",
    "address": "전북특별자치도 부안군 상서면 가오리 546-3",
    "lat": "35.68326108506342",
    "lng": "126.67652606964106",
    "region": "전북특별자치도"
  },
  {
    "name": "줄포초등학교 운동장",
    "address": "전북특별자치도 부안군 줄포면 줄포리 200",
    "lat": "35.59120866639297",
    "lng": "126.68107509612538",
    "region": "전북특별자치도"
  },
  {
    "name": "줄포만 노을빛 정원",
    "address": "전북특별자치도 부안군 줄포면 우포리 723",
    "lat": "35.58215639985611",
    "lng": "126.67425155639944",
    "region": "전북특별자치도"
  },
  {
    "name": "성산중학교 운동장",
    "address": "경상북도 고령군 성산면 어곡리 122-1",
    "lat": "35.750852892998985",
    "lng": "128.36243391036993",
    "region": "경상북도"
  },
  {
    "name": "흥덕면장미주택 앞 주차장",
    "address": "전북특별자치도 고창군 흥덕면 흥덕리 272-2",
    "lat": "35.52003570437836",
    "lng": "126.70224633445278",
    "region": "전북특별자치도"
  },
  {
    "name": "장기면행정복지센터",
    "address": "경상북도 포항시 남구 장기면 읍내리 106",
    "lat": "35.89571439456225",
    "lng": "129.49252635240867",
    "region": "경상북도"
  },
  {
    "name": "대해초등학교 운동장",
    "address": "경상북도 포항시 남구 대도동 13-1",
    "lat": "36.02317983019715",
    "lng": "129.36688752205382",
    "region": "경상북도"
  },
  {
    "name": "효자초등학교 운동장",
    "address": "경상북도 포항시 남구 효자동 595-11",
    "lat": "36.00529405393957",
    "lng": "129.337443709377",
    "region": "경상북도"
  },
  {
    "name": "칠포1리 마을회관",
    "address": "경상북도 포항시 북구 흥해읍 칠포리 143-1",
    "lat": "36.14381408403891",
    "lng": "129.39545184374612",
    "region": "경상북도"
  },
  {
    "name": "덕성2리 마을회관",
    "address": "경상북도 포항시 북구 흥해읍 덕성리 254-1",
    "lat": "36.14493172620747",
    "lng": "129.32120293378927",
    "region": "경상북도"
  },
  {
    "name": "신영장 뒤 주차장",
    "address": "전북특별자치도 고창군 고창읍 읍내리 647",
    "lat": "35.43542837732061",
    "lng": "126.69778257608208",
    "region": "전북특별자치도"
  },
  {
    "name": "중현초등학교 운동장",
    "address": "서울특별시 노원구 하계동 272-2",
    "lat": "37.63207658445672",
    "lng": "127.06657826900484",
    "region": "서울특별시"
  },
  {
    "name": "연지초등학교 운동장",
    "address": "서울특별시 노원구 월계동 320-8",
    "lat": "37.63329266444235",
    "lng": "127.05978972857507",
    "region": "서울특별시"
  },
  {
    "name": "노원중학교 운동장",
    "address": "서울특별시 노원구 상계동 743",
    "lat": "37.64901288663338",
    "lng": "127.05980010030338",
    "region": "서울특별시"
  },
  {
    "name": "녹천초등학교 운동장",
    "address": "서울특별시 노원구 월계동 322-2",
    "lat": "37.6284006158796",
    "lng": "127.06350876300989",
    "region": "서울특별시"
  },
  {
    "name": "중원초등학교 운동장",
    "address": "서울특별시 노원구 중계동 502",
    "lat": "37.6434733502224",
    "lng": "127.0628123416613",
    "region": "서울특별시"
  },
  {
    "name": "대전 서대전초등학교 운동장",
    "address": "대전광역시 중구 용두동 27-13",
    "lat": "36.32640613398365",
    "lng": "127.41057865859622",
    "region": "대전광역시"
  },
  {
    "name": "대전 유평초등학교 운동장",
    "address": "대전광역시 중구 태평동 343-3",
    "lat": "36.33008797321627",
    "lng": "127.39770965888357",
    "region": "대전광역시"
  },
  {
    "name": "대전 문화초등학교 운동장",
    "address": "대전광역시 중구 문화동 674-1",
    "lat": "36.31107264440773",
    "lng": "127.39816011196727",
    "region": "대전광역시"
  },
  {
    "name": "대전 오류초등학교 운동장",
    "address": "대전광역시 중구 오류동 175-2",
    "lat": "36.32487795306576",
    "lng": "127.4046580932483",
    "region": "대전광역시"
  },
  {
    "name": "대전 중촌초등학교 운동장",
    "address": "대전광역시 중구 중촌동 83",
    "lat": "36.341132833656765",
    "lng": "127.41136541997766",
    "region": "대전광역시"
  },
  {
    "name": "대전 문화여자중학교 운동장",
    "address": "대전광역시 중구 문화동 204-4",
    "lat": "36.31323550392028",
    "lng": "127.40981389700393",
    "region": "대전광역시"
  },
  {
    "name": "계상초등학교 운동장",
    "address": "서울특별시 노원구 상계동 447-1",
    "lat": "37.66305720583161",
    "lng": "127.06760391550615",
    "region": "서울특별시"
  },
  {
    "name": "상원초등학교 운동장",
    "address": "서울특별시 노원구 상계동 645",
    "lat": "37.667605986127725",
    "lng": "127.06021677071303",
    "region": "서울특별시"
  },
  {
    "name": "용동초등학교 운동장",
    "address": "서울특별시 노원구 중계동 510-1",
    "lat": "37.64147191957271",
    "lng": "127.06948504743434",
    "region": "서울특별시"
  },
  {
    "name": "하계중학교 운동장",
    "address": "서울특별시 노원구 하계동 231-4",
    "lat": "37.64076189743592",
    "lng": "127.07150291216927",
    "region": "서울특별시"
  },
  {
    "name": "덕암초등학교 운동장",
    "address": "서울특별시 노원구 상계동 1274",
    "lat": "37.66635114632026",
    "lng": "127.08083498986873",
    "region": "서울특별시"
  },
  {
    "name": "중평초등학교 운동장",
    "address": "서울특별시 노원구 하계동 271",
    "lat": "37.63728486649749",
    "lng": "127.06420183181764",
    "region": "서울특별시"
  },
  {
    "name": "공릉초등학교 운동장",
    "address": "서울특별시 노원구 공릉동 610-1",
    "lat": "37.61906702956365",
    "lng": "127.074244022375",
    "region": "서울특별시"
  },
  {
    "name": "공릉중학교 운동장",
    "address": "서울특별시 노원구 공릉동 250",
    "lat": "37.62187006188596",
    "lng": "127.08416415493643",
    "region": "서울특별시"
  },
  {
    "name": "용원초등���교 운동장",
    "address": "서울특별시 노원구 공릉동 709",
    "lat": "37.6289487190749",
    "lng": "127.06910635661126",
    "region": "서울특별시"
  },
  {
    "name": "상계중학교 운동장",
    "address": "서울특별시 노원구 상계동 195-5",
    "lat": "37.652212",
    "lng": "127.06896",
    "region": "서울특별시"
  },
  {
    "name": "신상중학교 운동장",
    "address": "서울특별시 노원구 상계동 754-4",
    "lat": "37.65111482641163",
    "lng": "127.0635644424437",
    "region": "서울특별시"
  },
  {
    "name": "상경중학교 운동장",
    "address": "서울특별시 노원구 상계동 653",
    "lat": "37.66646173550957",
    "lng": "127.05359879591492",
    "region": "서울특별시"
  },
  {
    "name": "당현초등학교 운동장",
    "address": "서울특별시 노원구 상계동 742",
    "lat": "37.648569692983244",
    "lng": "127.05832046732756",
    "region": "서울특별시"
  },
  {
    "name": "상계제일중학교 운동장",
    "address": "서울특별시 노원구 중계동 132",
    "lat": "37.66116",
    "lng": "127.077744",
    "region": "서울특별시"
  },
  {
    "name": "상곡초등학교 운동장",
    "address": "서울특별시 노원구 상계동 678",
    "lat": "37.66233750007332",
    "lng": "127.06238201170909",
    "region": "서울특별시"
  },
  {
    "name": "대전 문창초등학교 운동장",
    "address": "대전광역시 중구 부사동 94-15",
    "lat": "36.31763093624874",
    "lng": "127.43348265579014",
    "region": "대전광역시"
  },
  {
    "name": "대전 대전중학교 운동장",
    "address": "대전광역시 중구 대흥동 361-2",
    "lat": "36.32098140740522",
    "lng": "127.42538641369143",
    "region": "대전광역시"
  },
  {
    "name": "덕양중학교 운동장",
    "address": "경기도 고양시 덕양구 화전동 274-3",
    "lat": "37.604515502004894",
    "lng": "126.87109211349559",
    "region": "경기도"
  },
  {
    "name": "경기물류고등학교 운동장",
    "address": "경기도 평택시 안중읍 안중리 293-46",
    "lat": "36.98680636144861",
    "lng": "126.92981312171673",
    "region": "경기도"
  },
  {
    "name": "평택초등학교 운동장",
    "address": "경기도 평택시 평택동 110-2",
    "lat": "36.989201",
    "lng": "127.081336",
    "region": "경기도"
  },
  {
    "name": "진위고등학교 운동장",
    "address": "경기도 평택시 진위면 가곡리 505",
    "lat": "37.111007",
    "lng": "127.069069",
    "region": "경기도"
  },
  {
    "name": "청담중학교 운동장",
    "address": "경기도 평택시 팽성읍 송화리 810",
    "lat": "36.962932",
    "lng": "127.062823",
    "region": "경기도"
  },
  {
    "name": "서탄초등학교 운동장",
    "address": "경기도 평택시 서탄면 금암리 233-1",
    "lat": "37.107127",
    "lng": "127.036131",
    "region": "경기도"
  },
  {
    "name": "송탄고등학교 운동장",
    "address": "경기도 평택시 고덕동 2397-3",
    "lat": "37.052698750147016",
    "lng": "127.0399938465653",
    "region": "경기도"
  },
  {
    "name": "장당중학교 운동장",
    "address": "경기도 평택시 장당동 640",
    "lat": "37.051436",
    "lng": "127.063001",
    "region": "경기도"
  },
  {
    "name": "중앙초등학교 운동장",
    "address": "경기도 평택시 세교동 186-1",
    "lat": "37.002131",
    "lng": "127.077966",
    "region": "경기도"
  },
  {
    "name": "평택지산초등학교 운동장",
    "address": "경기도 평택시 지산동 1090",
    "lat": "37.077129",
    "lng": "127.062284",
    "region": "경기도"
  },
  {
    "name": "복창초등학교 운동장",
    "address": "경기도 평택시 서정동 559-4",
    "lat": "37.070952",
    "lng": "127.050079",
    "region": "경기도"
  },
  {
    "name": "송북초등학교 운동장",
    "address": "경기도 평택시 지산동 642",
    "lat": "37.080429",
    "lng": "127.065447",
    "region": "경기도"
  },
  {
    "name": "평일초등학교 운동장",
    "address": "경기도 평택시 합정동 368-6",
    "lat": "36.989960",
    "lng": "127.107303",
    "region": "경기도"
  },
  {
    "name": "반지초등학교 운동장",
    "address": "경기도 평택시 이충동 683",
    "lat": "37.057719",
    "lng": "127.069694",
    "region": "경기도"
  },
  {
    "name": "달산초등학교 운동장",
    "address": "부산광역시 기장군 정관읍 달산리 1204",
    "lat": "35.319082159099196",
    "lng": "129.18779253959883",
    "region": "부산광역시"
  },
  {
    "name": "안중고등학교 운동장",
    "address": "경기도 평택시 안중읍 현화리 315",
    "lat": "36.987141",
    "lng": "126.922645",
    "region": "경기도"
  },
  {
    "name": "포승중학교 운동장",
    "address": "경기도 평택시 포승읍 방림리 55-2",
    "lat": "36.981567",
    "lng": "126.881722",
    "region": "경기도"
  },
  {
    "name": "라온중학교 운동장",
    "address": "경기도 평택시 서정동 2-73",
    "lat": "37.069311",
    "lng": "127.066459",
    "region": "경기도"
  },
  {
    "name": "송탄초등학교 운동장",
    "address": "경기도 평택시 가재동 200-3",
    "lat": "37.042399",
    "lng": "127.086996",
    "region": "경기도"
  },
  {
    "name": "이충고등학교 운동장",
    "address": "경기도 평택시 이충동 657",
    "lat": "37.057281",
    "lng": "127.064933",
    "region": "경기도"
  },
  {
    "name": "합정초등학교 운동장",
    "address": "경기도 평택시 합정동 838",
    "lat": "36.989265",
    "lng": "127.098080",
    "region": "경기도"
  },
  {
    "name": "갈곶초등학교 운동장",
    "address": "경기도 평택시 진위면 갈곶리 240-6",
    "lat": "37.125445",
    "lng": "127.072150",
    "region": "경기도"
  },
  {
    "name": "현덕초등학교 운동장",
    "address": "경기도 평택시 현덕면 인광리 405-2",
    "lat": "36.965617",
    "lng": "126.921336",
    "region": "경기도"
  },
  {
    "name": "효명중학교 운동장",
    "address": "경기도 평택시 장당동 470",
    "lat": "37.049088",
    "lng": "127.055198",
    "region": "경기도"
  },
  {
    "name": "가동초등학교 운동장",
    "address": "부산광역시 기장군 정관읍 용수리 1305",
    "lat": "35.326160838750745",
    "lng": "129.1788792223259",
    "region": "부산광역시"
  },
  {
    "name": "기장초등학교 운동장",
    "address": "부산광역시 기장군 기장읍 동부리 320",
    "lat": "35.24590824255422",
    "lng": "129.21207189560178",
    "region": "부산광역시"
  },
  {
    "name": "내리초등학교 운동장",
    "address": "부산광역시 기장군 기장읍 내리 772",
    "lat": "35.20539671001736",
    "lng": "129.20572598186428",
    "region": "부산광역시"
  },
  {
    "name": "대청초등학교 운동장",
    "address": "부산광역시 기장군 기장읍 대라리 229-1",
    "lat": "35.23510291432484",
    "lng": "129.21045451863827",
    "region": "부산광역시"
  },
  {
    "name": "모전초등학교 운동장",
    "address": "부산광역시 기장군 정관읍 모전리 719",
    "lat": "35.33886847360807",
    "lng": "129.16212916374417",
    "region": "부산광역시"
  },
  {
    "name": "방곡초등학교 운동장",
    "address": "부산광역시 기장군 정관읍 방곡리 412",
    "lat": "35.32240428740922",
    "lng": "129.18686985969768",
    "region": "부산광역시"
  },
  {
    "name": "신정초등학교 운동장",
    "address": "부산광역시 기장군 정관읍 용수리 1358",
    "lat": "35.3281684470175",
    "lng": "129.1680085659048",
    "region": "부산광역시"
  },
  {
    "name": "신진초등학교 운동장",
    "address": "부산광역시 기장군 철마면 고촌리 655",
    "lat": "35.2403024237315",
    "lng": "129.1715500824738",
    "region": "부산광역시"
  },
  {
    "name": "월내초등학교 운동장",
    "address": "부산광역시 기장군 장안읍 길천리 191-1",
    "lat": "35.327888360869295",
    "lng": "129.28293349891305",
    "region": "부산광역시"
  },
  {
    "name": "월평초등학교 운동장",
    "address": "부산광역시 기장군 정관읍 월평리 125-2",
    "lat": "35.35975679349503",
    "lng": "129.13884758949476",
    "region": "부산광역시"
  },
  {
    "name": "일광초등학교 운동장",
    "address": "부산광역시 기장군 일광읍 삼성리 774",
    "lat": "35.26779290290193",
    "lng": "129.2228436470057",
    "region": "부산광역시"
  },
  {
    "name": "장안초등학교 운동장",
    "address": "부산광역시 기장군 장안읍 기룡리 301-1",
    "lat": "35.346307329964795",
    "lng": "129.25380975008287",
    "region": "부산광역시"
  },
  {
    "name": "정관초등학교 운동장",
    "address": "부산광역시 기장군 정관읍 용수리 1393",
    "lat": "35.32277194539474",
    "lng": "129.17188704014038",
    "region": "부산광역시"
  },
  {
    "name": "정원초등학�� 운동장",
    "address": "부산광역시 기장군 정관읍 모전리 754",
    "lat": "35.33232608983632",
    "lng": "129.1677832603476",
    "region": "부산광역시"
  },
  {
    "name": "좌천초등학교 운동장",
    "address": "부산광역시 기장군 장안읍 좌천리 115",
    "lat": "35.31178329511181",
    "lng": "129.24039725054553",
    "region": "부산광역시"
  },
  {
    "name": "죽성초등학교 운동장",
    "address": "부산광역시 기장군 기장읍 죽성리 86",
    "lat": "35.242416488238725",
    "lng": "129.2439204454449",
    "region": "부산광역시"
  },
  {
    "name": "용암초등학교 운동장",
    "address": "부산광역시 기장군 기장읍 대변리 444",
    "lat": "35.22489290313934",
    "lng": "129.2270963692962",
    "region": "부산광역시"
  },
  {
    "name": "칠암초등학교 운동장",
    "address": "부산광역시 기장군 일광읍 칠암리 134",
    "lat": "35.29852920178402",
    "lng": "129.25552368164338",
    "region": "부산광역시"
  },
  {
    "name": "철마초등학교 운동장",
    "address": "부산광역시 기장군 철마면 와여리 481-2",
    "lat": "35.27493504056844",
    "lng": "129.15051529818817",
    "region": "부산광역시"
  },
  {
    "name": "기장중학교 운동장",
    "address": "부산광역시 기장군 기장읍 대라리 40",
    "lat": "35.244287246074975",
    "lng": "129.21770989895114",
    "region": "부산광역시"
  },
  {
    "name": "대청중학교 운동장",
    "address": "부산광역시 기장군 기장읍 청강리 711",
    "lat": "35.233947154684564",
    "lng": "129.2122328281427",
    "region": "부산광역시"
  },
  {
    "name": "모전중학교 운동장",
    "address": "부산광역시 기장군 정관읍 모전리 720",
    "lat": "35.337507526366174",
    "lng": "129.1621506214163",
    "region": "부산광역시"
  },
  {
    "name": "부산중앙중학교 운동장",
    "address": "부산광역시 기장군 정관읍 방곡리 409",
    "lat": "35.3223",
    "lng": "129.1880",
    "region": "부산광역시"
  },
  {
    "name": "신정중학교 운동장",
    "address": "부산광역시 기장군 정관읍 용수리 1363",
    "lat": "35.3291400416451",
    "lng": "129.16942477226473",
    "region": "부산광역시"
  },
  {
    "name": "장안제일고등학교(장안중학교) 운동장",
    "address": "부산광역시 기장군 장안읍 좌천리 323",
    "lat": "35.31486474164489",
    "lng": "129.24141258001598",
    "region": "부산광역시"
  },
  {
    "name": "기장고등학교 운동장",
    "address": "부산광역시 기장군 기장읍 대라리 374-1",
    "lat": "35.23951519106481",
    "lng": "129.2096626409875",
    "region": "부산광역시"
  },
  {
    "name": "부산장안고등학교 운동장",
    "address": "부산광역시 기장군 장안읍 좌천리 425",
    "lat": "35.3185656631235",
    "lng": "129.2369842529323",
    "region": "부산광역시"
  },
  {
    "name": "신정고등학교 운동장",
    "address": "부산광역시 기장군 정관읍 용수리 1357",
    "lat": "35.32774391777097",
    "lng": "129.16696786880703",
    "region": "부산광역시"
  },
  {
    "name": "홍원초등학교 운동장",
    "address": "경기도 평택시 포승읍 홍원리 58-4",
    "lat": "37.014156",
    "lng": "126.889470",
    "region": "경기도"
  },
  {
    "name": "도곡중학교 운동장",
    "address": "경기도 평택시 포승읍 도곡리 1112",
    "lat": "36.989201",
    "lng": "126.848975",
    "region": "경기도"
  },
  {
    "name": "가사초등학교 운동장",
    "address": "경기도 평택시 현덕면 권관리 2-43",
    "lat": "36.938073",
    "lng": "126.916957",
    "region": "경기도"
  },
  {
    "name": "동삭초등학교 운동장",
    "address": "경기도 평택시 동삭동 332-10",
    "lat": "37.018609",
    "lng": "127.097521",
    "region": "경기도"
  },
  {
    "name": "부용초등학교 운동장",
    "address": "경기도 평택시 팽성읍 객사리 160-1",
    "lat": "36.965084",
    "lng": "127.059331",
    "region": "경기도"
  },
  {
    "name": "비전초등학교 운동장",
    "address": "경기도 평택시 비전동 428-5",
    "lat": "37.001104",
    "lng": "127.093481",
    "region": "경기도"
  },
  {
    "name": "오성초등학교 운동장",
    "address": "경기도 평택시 오성면 죽리 70",
    "lat": "37.007917",
    "lng": "126.978951",
    "region": "경기도"
  },
  {
    "name": "진위초등학교 운동장",
    "address": "경기도 평택시 진위면 봉남리 233",
    "lat": "37.100502",
    "lng": "127.090038",
    "region": "경기도"
  },
  {
    "name": "성동고등학교 운동장",
    "address": "서울특별시 중구 신당동 161",
    "lat": "37.56378233441912",
    "lng": "127.02244606283494",
    "region": "서울특별시"
  },
  {
    "name": "신천초등학교 운동장",
    "address": "경기도 시흥시 신천동 203",
    "lat": "37.43495624524565",
    "lng": "126.78282717964456",
    "region": "경기도"
  },
  {
    "name": "대전 대문초등학교 운동장",
    "address": "대전광역시 중구 문화동 583-1",
    "lat": "36.30689083474616",
    "lng": "127.40065429055976",
    "region": "대전광역시"
  },
  {
    "name": "버드내 조폐공원",
    "address": "대전광역시 중구 태평동 421-5",
    "lat": "36.320875325568785",
    "lng": "127.38733484489698",
    "region": "대전광역시"
  },
  {
    "name": "대전 산성초등학교 운동장",
    "address": "대전광역시 중구 사정동 416-1",
    "lat": "36.29906534693385",
    "lng": "127.38541816945215",
    "region": "대전광역시"
  },
  {
    "name": "대전 목동초등학교 운동장",
    "address": "대전광역시 중구 목동 26-1",
    "lat": "36.33448827983118",
    "lng": "127.4085109910257",
    "region": "대전광역시"
  },
  {
    "name": "대전 옥계초등학교 운동장",
    "address": "대전광역시 중구 옥계동 65",
    "lat": "36.301365426573646",
    "lng": "127.44841065350013",
    "region": "대전광역시"
  },
  {
    "name": "서대전시민공원",
    "address": "대전광역시 중구 문화동 1-39",
    "lat": "36.320946694562934",
    "lng": "127.41160641928283",
    "region": "대전광역시"
  },
  {
    "name": "익산종합운동장 야구장(보조구장)",
    "address": "전북특별자치도 익산시 부송동 180",
    "lat": "35.96678021724294",
    "lng": "127.0074310273685",
    "region": "전북특별자치도"
  },
  {
    "name": "대전 보운초등학교 운동장",
    "address": "대전광역시 중구 부사동 135-1",
    "lat": "36.31446128664741",
    "lng": "127.4321410119369",
    "region": "대전광역시"
  },
  {
    "name": "다솔어린이공원",
    "address": "인천광역시 미추홀구 주안동 1619",
    "lat": "37.46083481792662",
    "lng": "126.69499254660751",
    "region": "인천광역시"
  },
  {
    "name": "대전 원평초등학교 운동장",
    "address": "대전광역시 중구 유천동 10-10",
    "lat": "36.3214422218877",
    "lng": "127.3995369672775",
    "region": "대전광역시"
  },
  {
    "name": "서귀동 어린이공원",
    "address": "제주특별자치도 서귀포시 서귀동 304-4",
    "lat": "33.25121148408754",
    "lng": "126.55836227162764",
    "region": "제주특별자치도"
  },
  {
    "name": "서귀포축구공원",
    "address": "제주특별자치도 서귀포시 신효동 910",
    "lat": "33.2588801206099",
    "lng": "126.61044680028265",
    "region": "제주특별자치도"
  },
  {
    "name": "배산체육공원 공터",
    "address": "전북특별자치도 익산시 현영동 169",
    "lat": "35.96101225724602",
    "lng": "126.94054650964743",
    "region": "전북특별자치도"
  },
  {
    "name": "중앙체육공원 공터",
    "address": "전북특별자치도 익산시 어양동 52",
    "lat": "35.94925572259241",
    "lng": "126.98690080489374",
    "region": "전북특별자치도"
  },
  {
    "name": "금마 축구공원 공터",
    "address": "전북특별자치도 익산시 금마면 기양리 396",
    "lat": "36.00808315471913",
    "lng": "127.01475220899471",
    "region": "전북특별자치도"
  },
  {
    "name": "아사달공원 축구장",
    "address": "전북특별자치도 익산시 함열읍 와리 154-7",
    "lat": "36.07296221260437",
    "lng": "126.96150956525268",
    "region": "전북특별자치도"
  },
  {
    "name": "문경시민정구장 주차장",
    "address": "경상북도 문경시 모전동 505",
    "lat": "36.5952",
    "lng": "128.1879",
    "region": "경상북도"
  },
  {
    "name": "(구)금천초등학교 운동장 ",
    "address": "경상북도 청도군 금천면 동곡리 905",
    "lat": "35.68994178030015",
    "lng": "128.89439258121547",
    "region": "경상북도"
  },
  {
    "name": "대전장동초등학교 운동장",
    "address": "대전광역시 대덕구 장동 376",
    "lat": "36.41463243039782",
    "lng": "127.43602573871611",
    "region": "대전광역시"
  },
  {
    "name": "한국도로공사 대전지사 공터",
    "address": "대전광역시 대덕구 송촌동 579-1",
    "lat": "36.362770435613285",
    "lng": "127.44870185852267",
    "region": "대전광역시"
  },
  {
    "name": "평은다목적광장",
    "address": "경상북도 영주시 평은면 평은리 678",
    "lat": "36.75801176987997",
    "lng": "128.68583589792289",
    "region": "경상북도"
  },
  {
    "name": "대전송촌초등학교 운동장",
    "address": "대전광역시 대덕구 송촌동 495-9",
    "lat": "36.364450840818364",
    "lng": "127.44404554367087",
    "region": "대전광역시"
  },
  {
    "name": "송도고등학교",
    "address": "인천광역시 연수구 옥련동 175",
    "lat": "37.42890005642145",
    "lng": "126.6445718731101",
    "region": "인천광역시"
  },
  {
    "name": "푸른송도배수지",
    "address": "인천광역시 연수구 동춘동 559-22",
    "lat": "37.400718583223714",
    "lng": "126.66334733645255",
    "region": "인천광역시"
  },
  {
    "name": "동막초등학교",
    "address": "인천광역시 연수구 동춘동 928-1",
    "lat": "37.40279627300865",
    "lng": "126.67409163280729",
    "region": "인천광역시"
  },
  {
    "name": "근덕초등학교 노곡분교 ",
    "address": "강원특별자치도 삼척시 노곡면 하월산리 162-3",
    "lat": "37.34804028182434",
    "lng": "129.16349281947433",
    "region": "강원특별자치도"
  },
  {
    "name": "전라남도인재개발원",
    "address": "전라남도 강진군 도암면 만덕리 368",
    "lat": "34.575739150794114",
    "lng": "126.74616158008574",
    "region": "전라남도"
  },
  {
    "name": "해양과학고등학교",
    "address": "인천광역시 연수구 옥련동 194-86",
    "lat": "37.425700234706184",
    "lng": "126.64148193077412",
    "region": "인천광역시"
  },
  {
    "name": "진주2호공영주차장",
    "address": "인천광역시 남동구 만수동 896-15",
    "lat": "37.45898514237743",
    "lng": "126.72605037689205",
    "region": "인천광역시"
  },
  {
    "name": "새골어린이공원",
    "address": "인천광역시 남동구 만수동 1005-1",
    "lat": "37.450097718437384",
    "lng": "126.73916637897489",
    "region": "인천광역시"
  },
  {
    "name": "동부초교1호어린이공원",
    "address": "인천광역시 남동구 만수동 111-185",
    "lat": "37.46221054186734",
    "lng": "126.72660776053016",
    "region": "인천광역시"
  },
  {
    "name": "어린이대공원",
    "address": "서울특별시 광진구 능동 18",
    "lat": "37.549085721668305",
    "lng": "127.08121776581005",
    "region": "서울특별시"
  },
  {
    "name": "대부동 복지체육센터 운동장 ",
    "address": "경기도 안산시 단원구 대부동동 2123",
    "lat": "37.25483256173542",
    "lng": "126.60211622714988",
    "region": "경기도"
  },
  {
    "name": "수원고등학교",
    "address": "경기도 수원시 팔달구 매교동 251",
    "lat": "37.26671024666115",
    "lng": "127.01855063438418",
    "region": "경기도"
  },
  {
    "name": "매산초등학교",
    "address": "경기도 수원시 팔달구 매산로3가 13",
    "lat": "37.27166228658376",
    "lng": "127.01086074113846",
    "region": "경기도"
  },
  {
    "name": "팔달초등학교",
    "address": "경기도 수원시 팔달구 우만동 601",
    "lat": "37.27953792048158",
    "lng": "127.03608691692351",
    "region": "경기도"
  },
  {
    "name": "이목중학교",
    "address": "경기도 수원시 장안구 이목동 241",
    "lat": "37.318123014026426",
    "lng": "126.98242664337157",
    "region": "경기도"
  },
  {
    "name": "세류초등학교",
    "address": "경기도 수원시 권선구 세류동 63",
    "lat": "37.26609975712156",
    "lng": "127.00985491275787",
    "region": "경기도"
  },
  {
    "name": "신길중학교 운동장",
    "address": "서울특별시 영등포구 신길동 4948",
    "lat": "37.5018913793201",
    "lng": "126.91607952117921",
    "region": "서울특별시"
  },
  {
    "name": "영원초등학교",
    "address": "전북특별자치도 정읍시 영원면 은선리 713-2",
    "lat": "35.65531084129533",
    "lng": "126.78410142660137",
    "region": "전북특별자치도"
  },
  {
    "name": "옥계어린이공원",
    "address": "서울특별시 금천구 독산동 1067-9",
    "lat": "37.46009890879494",
    "lng": "126.90045955591813",
    "region": "서울특별시"
  },
  {
    "name": "중앙어린이공원",
    "address": "서울특별시 금천구 시흥동 1026",
    "lat": "37.44715861061972",
    "lng": "126.90139930669125",
    "region": "서울특별시"
  },
  {
    "name": "동천고등학교 운동장",
    "address": "부산광역시 남구 대연동 1676-1",
    "lat": "35.14438212306462",
    "lng": "129.08749922372857",
    "region": "부산광역시"
  },
  {
    "name": "오륙도초등학교 운동장",
    "address": "부산광역시 남구 용호동 946",
    "lat": "35.10375038587459",
    "lng": "129.11622568281993",
    "region": "부산광역시"
  },
  {
    "name": "문현초등학교 운동장",
    "address": "부산광역시 남구 문현동 12-1",
    "lat": "35.14494250499048",
    "lng": "129.07281561889712",
    "region": "부산광역시"
  },
  {
    "name": "성동초등학교 운동장",
    "address": "부산광역시 남구 문현동 497",
    "lat": "35.14297347869605",
    "lng": "129.06897409945685",
    "region": "부산광역시"
  },
  {
    "name": "서영여자고등학교 운동장",
    "address": "전북특별자치도 정읍시 수성동 310",
    "lat": "35.580249840256",
    "lng": "126.8523073196411",
    "region": "전북특별자치도"
  },
  {
    "name": "대전회덕중학교 운동장",
    "address": "대전광역시 대덕구 와동 55",
    "lat": "36.4006636062442",
    "lng": "127.42523789405894",
    "region": "대전광역시"
  },
  {
    "name": "새싹공원",
    "address": "인천광역시 연수구 옥련동 238-1",
    "lat": "37.42602917217428",
    "lng": "126.64930681005112",
    "region": "인천광역시"
  },
  {
    "name": "부경대학교 운동장",
    "address": "부산광역시 남구 대연동 599-1",
    "lat": "35.132755451181346",
    "lng": "129.10618528019316",
    "region": "부산광역시"
  },
  {
    "name": "석포여자중학교 운동장",
    "address": "부산광역시 남구 용당동 596-1",
    "lat": "35.12269519455158",
    "lng": "129.09478291134224",
    "region": "부산광역시"
  },
  {
    "name": "대부도공원 운동장",
    "address": "경기도 안산시 단원구 대부북동 1984",
    "lat": "37.28972593259243",
    "lng": "126.5799558162688",
    "region": "경기도"
  },
  {
    "name": "천일초등학교",
    "address": "경기도 수원시 장안구 천천동 570",
    "lat": "37.3006934693748",
    "lng": "126.97830140590668",
    "region": "경기도"
  },
  {
    "name": "새나루뜰 근린공원",
    "address": "세종특별자치시 세종시 집현동 785-97",
    "lat": "36.4907346580019",
    "lng": "127.32421362932163",
    "region": "세종특별자치시"
  },
  {
    "name": "경기도 청소년수련원 운동장",
    "address": "경기도 안산시 단원구 선감동 37-11",
    "lat": "37.21494408431618",
    "lng": "126.64201140403739",
    "region": "경기도"
  },
  {
    "name": "옥산전원마을",
    "address": "전북특별자치도 군산시 옥산면 남내리 790-1",
    "lat": "35.93676566989783",
    "lng": "126.76725715398445",
    "region": "전북특별자치도"
  },
  {
    "name": "대전중리중학교 운동장",
    "address": "대전광역시 대덕구 중리동 371-4",
    "lat": "36.36614848839806",
    "lng": "127.4273809790641",
    "region": "대전광역시"
  },
  {
    "name": "숙지초등학교",
    "address": "경기도 수원시 팔달구 화서동 651",
    "lat": "37.2829355005114",
    "lng": "126.99198067188264",
    "region": "경기도"
  },
  {
    "name": "만월쉼터",
    "address": "인천광역시 남동구 만수동 산6-2",
    "lat": "37.464856991092155",
    "lng": "126.72712057828898",
    "region": "인천광역시"
  },
  {
    "name": "대전양지초등학교 운동장",
    "address": "대전광역시 대덕구 법동 196-2",
    "lat": "36.36599082039792",
    "lng": "127.43366271257067",
    "region": "대전광역시"
  },
  {
    "name": "한일초등학교",
    "address": "경기도 수원시 장안구 조원동 882",
    "lat": "37.306727066425196",
    "lng": "127.00552582740782",
    "region": "경기도"
  },
  {
    "name": "옥련초등학교",
    "address": "인천광역시 연수구 옥련동 232",
    "lat": "37.42498074595509",
    "lng": "126.64875965799477",
    "region": "인천광역시"
  },
  {
    "name": "대전이문고등학교 운동장",
    "address": "대전광역시 대덕구 석봉동 311-1",
    "lat": "36.447576900097275",
    "lng": "127.4226871132866",
    "region": "대전광역시"
  },
  {
    "name": "경일관광경영고등학교 운동장",
    "address": "경기도 안산시 단원구 선부동 1053",
    "lat": "37.34761816173788",
    "lng": "126.80501461029051",
    "region": "경기도"
  },
  {
    "name": "달님뜰 근린공원",
    "address": "세종특별자치시 세종시 다정동 927",
    "lat": "36.494518849718624",
    "lng": "127.25225237566325",
    "region": "세종특별자치시"
  },
  {
    "name": "항동중학교 운동장",
    "address": "서울특별시 구로구 항동 235-31",
    "lat": "37.482452742850995",
    "lng": "126.82048559188841",
    "region": "서울특별시"
  },
  {
    "name": "창용초등학교",
    "address": "경기도 수원시 장안구 연무동 5-2",
    "lat": "37.29921699920621",
    "lng": "127.03125894069673",
    "region": "경기도"
  },
  {
    "name": "용광어린이공원",
    "address": "인천광역시 남동구 간석동 33-4",
    "lat": "37.460869249808326",
    "lng": "126.71502397051974",
    "region": "인천광역시"
  },
  {
    "name": "하늘어린이공원",
    "address": "인천광역시 남동구 간석동 939-5",
    "lat": "37.45709540617549",
    "lng": "126.7100350618271",
    "region": "인천광역시"
  },
  {
    "name": "전농중학교 운동장",
    "address": "서울특별시 동대문구 전농동 54-6",
    "lat": "37.5804136993109",
    "lng": "127.06017315387176",
    "region": "서울특별시"
  },
  {
    "name": "서울문화고등학교 운동장",
    "address": "서울특별시 도봉구 방학동 723",
    "lat": "37.663702989166104",
    "lng": "127.04715907574244",
    "region": "서울특별시"
  },
  {
    "name": "민속운동장/풋살구장",
    "address": "경기도 안산시 단원구 고잔동 779",
    "lat": "37.306398516672616",
    "lng": "126.83905184268947",
    "region": "경기도"
  },
  {
    "name": "풍림어린이공원",
    "address": "서울특별시 금천구 시흥동 1026",
    "lat": "37.44832746687213",
    "lng": "126.90143688552507",
    "region": "서울특별시"
  },
  {
    "name": "대전법동중학교 운동장",
    "address": "대전광역시 대덕구 법동 196-1",
    "lat": "36.367103128913726",
    "lng": "127.43343472480386",
    "region": "대전광역시"
  },
  {
    "name": "진주4호공영주차장",
    "address": "인천광역시 남동구 만수동 895-4",
    "lat": "37.45824633832658",
    "lng": "126.72594040632244",
    "region": "인천광역시"
  },
  {
    "name": "상록초등학교 운동장",
    "address": "경기도 안산시 상록구 본오동 872-1",
    "lat": "37.29882440688451",
    "lng": "126.86584174633028",
    "region": "경기도"
  },
  {
    "name": "광덕중학교 운동장",
    "address": "경기도 안산시 상록구 월피동 274",
    "lat": "37.33725885741611",
    "lng": "126.84617042541498",
    "region": "경기도"
  },
  {
    "name": "경기창작캠퍼스 운동장",
    "address": "경기도 안산시 단원구 선감동 435",
    "lat": "37.226898534340556",
    "lng": "126.6310438513755",
    "region": "경기도"
  },
  {
    "name": "꿈나무어린이공원",
    "address": "서울특별시 금천구 독산동 378-434",
    "lat": "37.46357482623536",
    "lng": "126.90501730871239",
    "region": "서울특별시"
  },
  {
    "name": "신암중학교 운동장",
    "address": "서울특별시 강동구 암사동 444",
    "lat": "37.55546081547117",
    "lng": "127.13317215442659",
    "region": "서울특별시"
  },
  {
    "name": "대전석봉초등학교 운동장 운동장",
    "address": "대전광역시 대덕구 신탄진동 163-2",
    "lat": "36.44670307893105",
    "lng": "127.43497699498943",
    "region": "대전광역시"
  },
  {
    "name": "지동초등학교",
    "address": "경기도 수원시 팔달구 지동 119-1",
    "lat": "37.27668656661632",
    "lng": "127.02446222305298",
    "region": "경기도"
  },
  {
    "name": "하촌어린이공원",
    "address": "인천광역시 남동구 만수동 969",
    "lat": "37.45153010310459",
    "lng": "126.73282377982481",
    "region": "인천광역시"
  },
  {
    "name": "별빛공원",
    "address": "인천광역시 연수구 선학동 210-4",
    "lat": "37.42973299355623",
    "lng": "126.69800678635829",
    "region": "인천광역시"
  },
  {
    "name": "운산초등학교 운동장",
    "address": "부산광역시 남구 용호동 776",
    "lat": "35.1098431300954",
    "lng": "129.11505445151266",
    "region": "부산광역시"
  },
  {
    "name": "한남대학교 종합운동장",
    "address": "대전광역시 대덕구 오정동 133",
    "lat": "36.35338066577173",
    "lng": "127.4201980233139",
    "region": "대전광역시"
  },
  {
    "name": "반송공원",
    "address": "경상남도 창원시 성산구 반송동 산45-4",
    "lat": "35.240877",
    "lng": "128.673571",
    "region": "경상남도"
  },
  {
    "name": "동춘천초등학교",
    "address": "강원특별자치도 춘천시 효자동 44-3",
    "lat": "37.87730679259288",
    "lng": "127.74241047392293",
    "region": "강원특별자치도"
  },
  {
    "name": "대전동화중학교 운동장",
    "address": "대전광역시 유성구 관평동 1281",
    "lat": "36.42298963126898",
    "lng": "127.38918637492252",
    "region": "대전광역시"
  },
  {
    "name": "화정중앙공원",
    "address": "경기도 고양시 덕양구 화정동 985",
    "lat": "37.631257",
    "lng": "126.831977",
    "region": "경기도"
  },
  {
    "name": "먹적골어린이공원",
    "address": "경기도 부천시 원미구 심곡동 324",
    "lat": "37.490680836633025",
    "lng": "126.77335917949418",
    "region": "경기도"
  },
  {
    "name": "인천하정초등학교운동장",
    "address": "인천광역시 부평구 십정동 393",
    "lat": "37.4751",
    "lng": "126.7006",
    "region": "인천광역시"
  },
  {
    "name": "삼랑진고등학교",
    "address": "경상남도 밀양시 삼랑진읍 송지리 173-1",
    "lat": "35.401547",
    "lng": "128.843061",
    "region": "경상남도"
  },
  {
    "name": "대정문화체육센터 운동장",
    "address": "제주특별자치도 서귀포시 대정읍 동일리 3171",
    "lat": "33.26337024591995",
    "lng": "126.23544216155898",
    "region": "제주특별자치도"
  },
  {
    "name": "논현고등학교 운동장",
    "address": "인천광역시 남동구 논현동 604-2",
    "lat": "37.40407409420096",
    "lng": "126.72743006132616",
    "region": "인천광역시"
  },
  {
    "name": "오남고등학교 운동장",
    "address": "경기도 남양주시 오남읍 양지리 80-4",
    "lat": "37.69789686085771",
    "lng": "127.2066018720672",
    "region": "경기도"
  },
  {
    "name": "삼육중학교",
    "address": "대전광역시 서구 도마동 163-11",
    "lat": "36.31175676594022",
    "lng": "127.37337058575267",
    "region": "대전광역시"
  },
  {
    "name": "얄미공원",
    "address": "경기도 고양시 일산동구 백석동 1350",
    "lat": "37.646091",
    "lng": "126.783361",
    "region": "경기도"
  },
  {
    "name": "사대부설고등학교 운동장",
    "address": "강원특별자치도 춘천시 후평동 480-64",
    "lat": "37.87242279477366",
    "lng": "127.74855136870968",
    "region": "강원특별자치도"
  },
  {
    "name": "한별중학교 운동장",
    "address": "경기도 남양주시 별내동 1055",
    "lat": "37.64858537628253",
    "lng": "127.11917325675871",
    "region": "경기도"
  },
  {
    "name": "루원시티3호어린이공원",
    "address": "인천광역시 서구 가정동 284-19",
    "lat": "37.52786408710266",
    "lng": "126.67957305908573",
    "region": "인천광역시"
  },
  {
    "name": "진주체육공원",
    "address": "인천광역시 서구 가좌동 30-130",
    "lat": "37.49150231926159",
    "lng": "126.6809034347495",
    "region": "인천광역시"
  },
  {
    "name": "대전상대초등학교 운동장",
    "address": "대전광역시 유성구 상대동 138-14",
    "lat": "36.34781196162119",
    "lng": "127.33581735973215",
    "region": "대전광역시"
  },
  {
    "name": "고양중학교 운동장",
    "address": "경기도 고양시 덕양구 삼송동 322",
    "lat": "37.649220",
    "lng": "126.884760",
    "region": "경기도"
  },
  {
    "name": "서현고등학교 운동장",
    "address": "경기도 성남시 분당구 서현동 91-1",
    "lat": "37.381551503377175",
    "lng": "127.12412210355437",
    "region": "경기도"
  },
  {
    "name": "둔원초등학교",
    "address": "대전광역시 서구 갈마동 1417",
    "lat": "36.342826474951224",
    "lng": "127.37557784184413",
    "region": "대전광역시"
  },
  {
    "name": "충남대학교 운동장",
    "address": "대전광역시 유성구 궁동 220",
    "lat": "36.37320650385382",
    "lng": "127.34247565269469",
    "region": "대전광역시"
  },
  {
    "name": "금상초등학교 운동장",
    "address": "경기도 성남시 중원구 금광동 1645",
    "lat": "37.443222949000415",
    "lng": "127.1663006072409",
    "region": "경기도"
  },
  {
    "name": "인천진산과학고등학교 운동장",
    "address": "인천광역시 부평구 삼산동 456-6",
    "lat": "37.5132",
    "lng": "126.7433",
    "region": "인천광역시"
  },
  {
    "name": "중원초등학교 운동장",
    "address": "경기도 성남시 중원구 상대원동 153",
    "lat": "37.43828467858679",
    "lng": "127.16760656955275",
    "region": "경기도"
  },
  {
    "name": "남한고등학교 운동장",
    "address": "경기도 하남시 덕풍동 450",
    "lat": "37.53638069004431",
    "lng": "127.20325827598275",
    "region": "경기도"
  },
  {
    "name": "효성고등학교 운동장",
    "address": "경기도 성남시 수정구 심곡동 321",
    "lat": "37.45006577801859",
    "lng": "127.10467904806137",
    "region": "경기도"
  },
  {
    "name": "미사강변고등학교",
    "address": "경기도 하남시 선동 418",
    "lat": "37.57758866253115",
    "lng": "127.18384444713074",
    "region": "경기도"
  },
  {
    "name": "부영공원 족구장",
    "address": "인천광역시 부평구 산곡동 산20-6",
    "lat": "37.4973",
    "lng": "126.7105",
    "region": "인천광역시"
  },
  {
    "name": "나루초등학교 운동장",
    "address": "세종특별자치시 세종시 집현동 927-1",
    "lat": "36.49538040590907",
    "lng": "127.32326835393906",
    "region": "세종특별자치시"
  },
  {
    "name": "대롱꽃 어린이공원",
    "address": "세종특별자치시 세종시 고운동 1623",
    "lat": "36.508185498023416",
    "lng": "127.23334812492418",
    "region": "세종특별자치시"
  },
  {
    "name": "남양열린운동장",
    "address": "경상남도 창원시 성산구 남양동 37-1",
    "lat": "35.20594854046287",
    "lng": "128.70597437024153",
    "region": "경상남도"
  },
  {
    "name": "내동중학교",
    "address": "대전광역시 서구 변동 254-440",
    "lat": "36.332106321562414",
    "lng": "127.36964424207312",
    "region": "대전광역시"
  },
  {
    "name": "버드내중학교",
    "address": "대전광역시 서구 도마동 135-1",
    "lat": "36.316342415804996",
    "lng": "127.38359735054706",
    "region": "대전광역시"
  },
  {
    "name": "삼풍동어린이공원",
    "address": "경기도 용인시 수지구 풍덕천동 663-2",
    "lat": "37.331186637872484",
    "lng": "127.09518977276552",
    "region": "경기도"
  },
  {
    "name": "돌마고등학교 운동장",
    "address": "경기도 성남시 분당구 이매동 265",
    "lat": "37.39335189647516",
    "lng": "127.13180798681465",
    "region": "경기도"
  },
  {
    "name": "장안중학교 운동장",
    "address": "경기도 성남시 분당구 분당동 114",
    "lat": "37.37128599216503",
    "lng": "127.14660492593566",
    "region": "경기도"
  },
  {
    "name": "산들역사문화공원",
    "address": "경기도 부천시 소사구 옥길동 773",
    "lat": "37.46325175265586",
    "lng": "126.81488513946404",
    "region": "경기도"
  },
  {
    "name": "낙산(어린이)공원",
    "address": "서울특별시 종로구 창신동 611-48",
    "lat": "37.579567687502504",
    "lng": "127.01044499874118",
    "region": "서울특별시"
  },
  {
    "name": "대전대양초등학교 운동장",
    "address": "대전광역시 대덕구 송촌동 491",
    "lat": "36.36113535356397",
    "lng": "127.43961721658947",
    "region": "대전광역시"
  },
  {
    "name": "대전매봉초등학교 운동장",
    "address": "대전광역시 대덕구 송촌동 442",
    "lat": "36.369709972189234",
    "lng": "127.43743389845415",
    "region": "대전광역시"
  },
  {
    "name": "대전매봉중학교 운동장",
    "address": "대전광역시 대덕구 송촌동 441",
    "lat": "36.36980931991415",
    "lng": "127.43598282337253",
    "region": "대전광역시"
  },
  {
    "name": "갈마초등학교",
    "address": "대전광역시 서구 갈마동 114-26",
    "lat": "36.35622619652984",
    "lng": "127.36923941770607",
    "region": "대전광역시"
  },
  {
    "name": "문정초등학교",
    "address": "대전광역시 서구 둔산동 1813",
    "lat": "36.35087214398192",
    "lng": "127.39610575054107",
    "region": "대전광역시"
  },
  {
    "name": "대전장대중학교 운동장",
    "address": "대전광역시 유성구 장대동 361",
    "lat": "36.35996892659977",
    "lng": "127.33900106481703",
    "region": "대전광역시"
  },
  {
    "name": "한밭고등학교",
    "address": "대전광역시 서구 갈마동 370-1",
    "lat": "36.34704271163111",
    "lng": "127.36502404106115",
    "region": "대전광역시"
  },
  {
    "name": "도장골어린이공원",
    "address": "경기도 용인시 수지구 풍덕천동 692-2",
    "lat": "37.32702997441019",
    "lng": "127.09239082578718",
    "region": "경기도"
  },
  {
    "name": "인천진산초등학교운동장",
    "address": "인천광역시 부평구 삼산동 456-1",
    "lat": "37.513",
    "lng": "126.7415",
    "region": "인천광역시"
  },
  {
    "name": "전민중학교 운동장",
    "address": "대전광역시 유성구 전민동 466-1",
    "lat": "36.40080209869041",
    "lng": "127.40591328965924",
    "region": "대전광역시"
  },
  {
    "name": "죽동초등학교 운동장",
    "address": "대전광역시 유성구 죽동 689",
    "lat": "36.37034885500038",
    "lng": "127.33508806866996",
    "region": "대전광역시"
  },
  {
    "name": "산밑말근린공원",
    "address": "인천광역시 남동구 만수동 1124",
    "lat": "37.467605653112116",
    "lng": "126.7355072416464",
    "region": "인천광역시"
  },
  {
    "name": "송촌고등학교 운동장",
    "address": "대전광역시 대덕구 송촌동 507",
    "lat": "36.36305986531532",
    "lng": "127.44657754898209",
    "region": "대전광역시"
  },
  {
    "name": "사파주민운동장",
    "address": "경상남도 창원시 성산구 사파동 110",
    "lat": "35.220604",
    "lng": "128.698562",
    "region": "경상남도"
  },
  {
    "name": "효제초등학교",
    "address": "강원특별자치도 춘천시 효자동 161-2",
    "lat": "37.87072220470279",
    "lng": "127.7380335914646",
    "region": "강원특별자치도"
  },
  {
    "name": "신정문화공원",
    "address": "경기도 용인시 수지구 풍덕천동 1088",
    "lat": "37.32005068108076",
    "lng": "127.09426499847945",
    "region": "경기도"
  },
  {
    "name": "성사고등학교 운동장",
    "address": "경기도 고양시 덕양구 성사동 624-3",
    "lat": "37.662508",
    "lng": "126.842207",
    "region": "경기도"
  },
  {
    "name": "도래울바람물공원",
    "address": "경기도 고양시 덕양구 도내동 980",
    "lat": "37.62918765725774",
    "lng": "126.8749666213989",
    "region": "경기도"
  },
  {
    "name": "위미중학교 운동장",
    "address": "제주특별자치도 서귀포시 남원읍 위미리 2065-1",
    "lat": "33.280552513791946",
    "lng": "126.66352272034115",
    "region": "제주특별자치도"
  },
  {
    "name": "덕암축구센터축구장(B구장)",
    "address": "대전광역시 대덕구 덕암동 347",
    "lat": "36.43911444525379",
    "lng": "127.41612106561927",
    "region": "대전광역시"
  },
  {
    "name": "도솔초등학교",
    "address": "대전광역시 서구 도안동 1563",
    "lat": "36.3106937093299",
    "lng": "127.34779119232377",
    "region": "대전광역시"
  },
  {
    "name": "성남신흥초등학교 운동장",
    "address": "경기도 성남시 수정구 신흥동 47-3",
    "lat": "37.45035658632993",
    "lng": "127.14390711676832",
    "region": "경기도"
  },
  {
    "name": "늘푸른초등학교 운동장",
    "address": "경기도 성남시 분당구 정자동 178-5",
    "lat": "37.35810539683153",
    "lng": "127.10528747935248",
    "region": "경기도"
  },
  {
    "name": "용북중학교",
    "address": "전북특별자치도 남원시 사매면 오신리 387-2",
    "lat": "35.49203607698051",
    "lng": "127.36440539360046",
    "region": "전북특별자치도"
  },
  {
    "name": "대전대청중학교 운동장",
    "address": "대전광역시 대덕구 신탄진동 149-5",
    "lat": "36.449611462836074",
    "lng": "127.43736147881081",
    "region": "대전광역시"
  },
  {
    "name": "신탄진고등학교 운동장",
    "address": "대전광역시 대덕구 신탄진동 149-5",
    "lat": "36.4494",
    "lng": "127.4367",
    "region": "대전광역시"
  },
  {
    "name": "둔천초등학교",
    "address": "대전광역시 서구 만년동 8",
    "lat": "36.36811133555472",
    "lng": "127.37437704231331",
    "region": "대전광역시"
  },
  {
    "name": "쌍령초등학교 운동장",
    "address": "경기도 광주시 쌍령동 353-95",
    "lat": "37.39860186",
    "lng": "127.2814607",
    "region": "경기도"
  },
  {
    "name": "강명중학교운동장",
    "address": "서울특별시 강동구 상일동 537",
    "lat": "37.55533323388482",
    "lng": "127.1750843524933",
    "region": "서울특별시"
  },
  {
    "name": "분당중학교 운동장",
    "address": "경기도 성남시 분당구 정자동 153",
    "lat": "37.36053929989096",
    "lng": "127.11053418708599",
    "region": "경기도"
  },
  {
    "name": "부원여자중학교 운동장",
    "address": "인천광역시 부평구 부평동 70-128",
    "lat": "37.4927",
    "lng": "126.7172",
    "region": "인천광역시"
  },
  {
    "name": "이화여자외국어고등학교, 이화여자고등학교 운동장 및 노천극장",
    "address": "서울특별시 중구 순화동 1-1",
    "lat": "37.56488565530923",
    "lng": "126.96974873564615",
    "region": "서울특별시"
  },
  {
    "name": "길치문화공원",
    "address": "대전광역시 대덕구 비래동 산28-6",
    "lat": "36.35738339079279",
    "lng": "127.4594897031811",
    "region": "대전광역시"
  },
  {
    "name": "대전용전중학교 운동장",
    "address": "대전광역시 대덕구 중리동 234-7",
    "lat": "36.357249465921356",
    "lng": "127.42519497871338",
    "region": "대전광역시"
  },
  {
    "name": "다산고등학교 운동장",
    "address": "경기도 남양주시 다산동 6050",
    "lat": "37.6254",
    "lng": "127.1582",
    "region": "경기도"
  },
  {
    "name": "세스페데스공원",
    "address": "경상남도 창원시 진해구 남문동 1257",
    "lat": "35.104745",
    "lng": "128.750320",
    "region": "경상남도"
  },
  {
    "name": "새마을근린공원",
    "address": "경기도 용인시 수지구 풍덕천동 689",
    "lat": "37.32881688975744",
    "lng": "127.09498955810932",
    "region": "경기도"
  },
  {
    "name": "방아고개공원",
    "address": "경기도 고양시 일산동구 식사동 1569",
    "lat": "37.67449688637624",
    "lng": "126.81157529354094",
    "region": "경기도"
  },
  {
    "name": "낙민공원",
    "address": "경기도 고양시 일산동구 장항동 873",
    "lat": "37.650872",
    "lng": "126.774601",
    "region": "경기도"
  },
  {
    "name": "한수초등학교 운동장",
    "address": "경기도 고양시 일산서구 주엽동 116",
    "lat": "37.668890",
    "lng": "126.757445",
    "region": "경기도"
  },
  {
    "name": "영성중학교 운동장",
    "address": "경기도 성남시 중원구 하대원동 150",
    "lat": "37.42746702767895",
    "lng": "127.14661044653676",
    "region": "경기도"
  },
  {
    "name": "영천시청 주차장",
    "address": "경상북도 영천시 문외동 27",
    "lat": "35.972850937962214",
    "lng": "128.9385160803776",
    "region": "경상북도"
  },
  {
    "name": "광주송정초등학교 운동장",
    "address": "경기도 광주시 송정동 638",
    "lat": "37.422824154325916",
    "lng": "127.25470840930939",
    "region": "경기도"
  },
  {
    "name": "유방어린이공원",
    "address": "경기도 용인시 처인구 유방동 287-4",
    "lat": "37.259315038364164",
    "lng": "127.21681599573068",
    "region": "경기도"
  },
  {
    "name": "성남서중학교 운동장",
    "address": "경기도 성남시 수정구 단대동 189",
    "lat": "37.44869913816907",
    "lng": "127.15476278330465",
    "region": "경기도"
  },
  {
    "name": "서귀포초등학교 운동장",
    "address": "제주특별자치도 서귀포시 서귀동 558-3",
    "lat": "33.24415224162399",
    "lng": "126.5655040740994",
    "region": "제주특별자치도"
  },
  {
    "name": "도안고등학교 운동장",
    "address": "대전광역시 유성구 원신흥동 561",
    "lat": "36.336785618159325",
    "lng": "127.33777116250681",
    "region": "대전광역시"
  },
  {
    "name": "가흥안뜰공원",
    "address": "경상북도 영주시 가흥동 1909",
    "lat": "36.811694123812735",
    "lng": "128.6061286926272",
    "region": "경상북도"
  },
  {
    "name": "\t 한다사중학교 운동장",
    "address": "경상남도 하동군 양보면 장암리 583",
    "lat": "35.06987201149406",
    "lng": "127.83008515834808",
    "region": "경상남도"
  },
  {
    "name": "송도초등학교",
    "address": "인천광역시 연수구 옥련동 314-2",
    "lat": "37.42644571331947",
    "lng": "126.65833393371479",
    "region": "인천광역시"
  },
  {
    "name": "송도누리공원",
    "address": "인천광역시 연수구 송도동 190-1",
    "lat": "37.378653920930134",
    "lng": "126.65534839302953",
    "region": "인천광역시"
  },
  {
    "name": "대전문지중학교 운동장",
    "address": "대전광역시 유성구 전민동 460-3",
    "lat": "36.39723974985925",
    "lng": "127.40009135263959",
    "region": "대전광역시"
  },
  {
    "name": "동산꽃맞이공원",
    "address": "경기도 고양시 덕양구 동산동 363",
    "lat": "37.64548313522803",
    "lng": "126.8882703781128",
    "region": "경기도"
  },
  {
    "name": "서정초등학교 운동장",
    "address": "경기도 고양시 덕양구 행신동 1097",
    "lat": "37.613910",
    "lng": "126.848437",
    "region": "경기도"
  },
  {
    "name": "서두물공원",
    "address": "경기도 고양시 덕양구 행신동 1092-1",
    "lat": "37.616868",
    "lng": "126.850420",
    "region": "경기도"
  },
  {
    "name": "백마공원",
    "address": "경기도 고양시 일산동구 마두동 725",
    "lat": "37.657053",
    "lng": "126.791366",
    "region": "경기도"
  },
  {
    "name": "호미걸이공원",
    "address": "경기도 고양시 일산서구 대화동 750-16",
    "lat": "37.671874988435995",
    "lng": "126.73472464084618",
    "region": "경기도"
  },
  {
    "name": "상탄초등학교 운동장",
    "address": "경기도 고양시 일산서구 탄현동 1483",
    "lat": "37.694668",
    "lng": "126.766719",
    "region": "경기도"
  },
  {
    "name": "성남미금초등학교 운동장",
    "address": "경기도 성남시 분당구 구미동 68",
    "lat": "37.34706803288721",
    "lng": "127.1152013540268",
    "region": "경기도"
  },
  {
    "name": "하남경영고등학교",
    "address": "경기도 하남시 창우동 521-2",
    "lat": "37.53855435248682",
    "lng": "127.22578346729485",
    "region": "경기도"
  },
  {
    "name": "무릉초등학교 운동장",
    "address": "제주특별자치도 서귀포시 대정읍 무릉리 2802",
    "lat": "33.27253813090418",
    "lng": "126.20145320892298",
    "region": "제주특별자치도"
  },
  {
    "name": "신계역사공원",
    "address": "서울특별시 용산구 신계동 55",
    "lat": "37.53505818147313",
    "lng": "126.96628342204383",
    "region": "서울특별시"
  },
  {
    "name": "아시아드 선수촌 근린공원",
    "address": "인천광역시 남동구 구월동 1531",
    "lat": "37.44157241800754",
    "lng": "126.71139575965404",
    "region": "인천광역시"
  },
  {
    "name": "관저중학교",
    "address": "대전광역시 서구 관저동 993",
    "lat": "36.305140167255075",
    "lng": "127.3399487660745",
    "region": "대전광역시"
  },
  {
    "name": "목암중학교 운동장",
    "address": "경기도 고양시 덕양구 고양동 723",
    "lat": "37.713840",
    "lng": "126.906110",
    "region": "경기도"
  },
  {
    "name": "일산동중학교 운동장",
    "address": "경기도 고양시 일산서구 탄현동 1482",
    "lat": "37.694951",
    "lng": "126.768345",
    "region": "경기도"
  },
  {
    "name": "금계초등학교 운동장",
    "address": "경기도 고양시 일산동구 백석동 1192",
    "lat": "37.650009",
    "lng": "126.784026",
    "region": "경기도"
  },
  {
    "name": "성남중앙초등학교 운동장",
    "address": "경기도 성남시 중원구 성남동 2580",
    "lat": "37.43601734368632",
    "lng": "127.143566203034",
    "region": "경기도"
  },
  {
    "name": "운중초등학교 운동장",
    "address": "경기도 성남시 분당구 운중동 893",
    "lat": "37.39200820070071",
    "lng": "127.0688758828483",
    "region": "경기도"
  },
  {
    "name": "진주3호공영주차장",
    "address": "인천광역시 남동구 만수동 883-23",
    "lat": "37.45584251325612",
    "lng": "126.73021584749216",
    "region": "인천광역시"
  },
  {
    "name": "뗏마루어린이공원",
    "address": "인천광역시 남동구 만수동 881",
    "lat": "37.45623215533918",
    "lng": "126.72875940799709",
    "region": "인천광역시"
  },
  {
    "name": "새말소공원",
    "address": "인천광역시 남동구 간석동 1-873",
    "lat": "37.46620672724414",
    "lng": "126.72077178955074",
    "region": "인천광역시"
  },
  {
    "name": "산호2호 공영주차장",
    "address": "인천광역시 남동구 만수동 844-184",
    "lat": "37.462851502156866",
    "lng": "126.72361493110651",
    "region": "인천광역시"
  },
  {
    "name": "만수천어린이공원",
    "address": "인천광역시 남동구 만수동 929",
    "lat": "37.45067570857635",
    "lng": "126.72675863478524",
    "region": "인천광역시"
  },
  {
    "name": "동부초교3호어린이공원",
    "address": "인천광역시 남동구 만수동 111-218",
    "lat": "37.460545762098604",
    "lng": "126.72658413648601",
    "region": "인천광역시"
  },
  {
    "name": "동부초교2호어린이공원",
    "address": "인천광역시 남동구 만수동 111-452",
    "lat": "37.46286853413653",
    "lng": "126.7269730567932",
    "region": "인천광역시"
  },
  {
    "name": "목암초등학교 운동장",
    "address": "경기도 고양시 덕양구 고양동 722",
    "lat": "37.713730",
    "lng": "126.904349",
    "region": "경기도"
  },
  {
    "name": "조관공원",
    "address": "경기도 고양시 덕양구 신원동 607",
    "lat": "37.666779",
    "lng": "126.886048",
    "region": "경기도"
  },
  {
    "name": "모당공원",
    "address": "경기도 고양시 일산동구 중산동 1833",
    "lat": "37.677874433732015",
    "lng": "126.7811724543571",
    "region": "경기도"
  },
  {
    "name": "양영중학교 운동장",
    "address": "경기도 성남시 분당구 서현동 293",
    "lat": "37.376310681012804",
    "lng": "127.13619906484554",
    "region": "경기도"
  },
  {
    "name": "위례중앙초등학교 운동장",
    "address": "경기도 성남시 수정구 창곡동 502",
    "lat": "37.47169045067953",
    "lng": "127.13602696001617",
    "region": "경기도"
  },
  {
    "name": "내촌공원",
    "address": "경기도 부천시 오정구 내동 294",
    "lat": "37.52234030920192",
    "lng": "126.78543963136067",
    "region": "경기도"
  },
  {
    "name": "서광서리 마을운동장",
    "address": "제주특별자치도 서귀포시 안덕면 서광리 1401-7",
    "lat": "33.29438646841321",
    "lng": "126.29669845104179",
    "region": "제주특별자치도"
  },
  {
    "name": "토평동 시민축구장",
    "address": "제주특별자치도 서귀포시 토평동 1128-1",
    "lat": "33.26243277095713",
    "lng": "126.58941328526039",
    "region": "제주특별자치도"
  },
  {
    "name": "주촌초등학교 운동장",
    "address": "경상남도 김해시 주촌면 천곡리 1373-11",
    "lat": "35.232641405336835",
    "lng": "128.8383865356424",
    "region": "경상남도"
  },
  {
    "name": "인화여자고등학교 운동장",
    "address": "인천광역시 미추홀구 도화동 193-12",
    "lat": "37.4692",
    "lng": "126.6528",
    "region": "인천광역시"
  },
  {
    "name": "선사고등학교 운동장",
    "address": "서울특별시 강동구 암사동 448",
    "lat": "37.55594562350729",
    "lng": "127.13584899902345",
    "region": "서울특별시"
  },
  {
    "name": "호평중학교 운동장",
    "address": "경기도 남양주시 호평동 667",
    "lat": "37.655628500673444",
    "lng": "127.24911814830247",
    "region": "경기도"
  },
  {
    "name": "웅남 운동장",
    "address": "경상남도 창원시 성산구 양곡동 451-1",
    "lat": "35.197746455208424",
    "lng": "128.63108932971983",
    "region": "경상남도"
  },
  {
    "name": "우석중학교 운동장",
    "address": "강원특별자치도 춘천시 석사동 723",
    "lat": "37.865825051058906",
    "lng": "127.75520324706511",
    "region": "강원특별자치도"
  },
  {
    "name": "꽃내음어린이공원",
    "address": "경기도 용인시 처인구 남사읍 완장리 945-2",
    "lat": "37.16009637543015",
    "lng": "127.17540353536604",
    "region": "경기도"
  },
  {
    "name": "처인어린이공원",
    "address": "경기도 용인시 처인구 김량장동 340",
    "lat": "37.23429836540573",
    "lng": "127.20265209674835",
    "region": "경기도"
  },
  {
    "name": "덕이고등학교 운동장",
    "address": "경기도 고양시 일산서구 덕이동 381-35",
    "lat": "37.69516099223395",
    "lng": "126.75495117902756",
    "region": "경기도"
  },
  {
    "name": "황룡초등학교 운동장",
    "address": "경기도 고양시 일산서구 탄현동 1474",
    "lat": "37.698007",
    "lng": "126.767996",
    "region": "경기도"
  },
  {
    "name": "신백현중학교 운동장",
    "address": "경기도 성남시 분당구 백현동 566",
    "lat": "37.38587763349911",
    "lng": "127.1103320695032",
    "region": "경기도"
  },
  {
    "name": "분당중앙고등학교 운동장",
    "address": "경기도 성남시 분당구 정자동 220",
    "lat": "37.36051228681907",
    "lng": "127.1242606416635",
    "region": "경기도"
  },
  {
    "name": "미사고등학교",
    "address": "경기도 하남시 망월동 933",
    "lat": "37.570375468575506",
    "lng": "127.19387903629229",
    "region": "경기도"
  },
  {
    "name": "가원숲공원",
    "address": "인천광역시 서구 원창동 512",
    "lat": "37.52310338434044",
    "lng": "126.66043281555255",
    "region": "인천광역시"
  },
  {
    "name": "기계공업고등학교 운동장",
    "address": "강원특별자치도 춘천시 후평동 257-4",
    "lat": "37.89128958856642",
    "lng": "127.74819731711972",
    "region": "강원특별자치도"
  },
  {
    "name": "중앙초등학교 운동장",
    "address": "강원특별자치도 춘천시 낙원동 82-1",
    "lat": "37.87892269503312",
    "lng": "127.72404069025495",
    "region": "강원특별자치도"
  },
  {
    "name": "둔산초등학교",
    "address": "대전광역시 서구 둔산동 1205",
    "lat": "36.34949547711695",
    "lng": "127.38133858604301",
    "region": "대전광역시"
  },
  {
    "name": "수미초등학교",
    "address": "대전광역시 서구 괴곡동 361-2",
    "lat": "36.29483698644179",
    "lng": "127.36137173624566",
    "region": "대전광역시"
  },
  {
    "name": "하남풍산초등학교",
    "address": "경기도 하남시 덕풍동 730",
    "lat": "37.554076766320506",
    "lng": "127.2012127408097",
    "region": "경기도"
  },
  {
    "name": "덕수근린공원",
    "address": "경기도 고양시 덕양구 삼송동 341",
    "lat": "37.645554",
    "lng": "126.878979",
    "region": "경기도"
  },
  {
    "name": "마두공원",
    "address": "경기도 고양시 일산동구 마두동 780",
    "lat": "37.654964",
    "lng": "126.785818",
    "region": "경기도"
  },
  {
    "name": "성호중학교",
    "address": "경기도 오산시 원동 607-2",
    "lat": "37.139527838041516",
    "lng": "127.08158791064778",
    "region": "경기도"
  },
  {
    "name": "신탄중앙중학교 운동장",
    "address": "대전광역시 대덕구 덕암동 19-1",
    "lat": "36.44188717681519",
    "lng": "127.42307335138517",
    "region": "대전광역시"
  },
  {
    "name": "강일중학교 운동장",
    "address": "서울특별시 강동구 암사동 414-17",
    "lat": "37.554971751537295",
    "lng": "127.13825225830077",
    "region": "서울특별시"
  },
  {
    "name": "팔룡어울림운동장",
    "address": "경상남도 창원시 의창구 팔용동 42-2",
    "lat": "35.25073599142891",
    "lng": "128.61919105052974",
    "region": "경상남도"
  },
  {
    "name": "큰골근린공원",
    "address": "강원특별자치도 춘천시 동내면 거두리 1115",
    "lat": "37.85558380753598",
    "lng": "127.7588482163185",
    "region": "강원특별자치도"
  },
  {
    "name": "삼천초등학교",
    "address": "대전광역시 서구 둔산동 1807",
    "lat": "36.353775014219224",
    "lng": "127.40080012600329",
    "region": "대전광역시"
  },
  {
    "name": "서원초등학교",
    "address": "대전광역시 서구 둔산동 910",
    "lat": "36.35916844448018",
    "lng": "127.39437129998984",
    "region": "대전광역시"
  },
  {
    "name": "울주군민체육관 주차장",
    "address": "울산광역시 울주군 언양읍 반천리 107",
    "lat": "35.55516366669353",
    "lng": "129.1832649707835",
    "region": "울산광역시"
  },
  {
    "name": "수북중학교 운동장",
    "address": "전라남도 담양군 수북면 수북리 198",
    "lat": "35.2996",
    "lng": "126.9329",
    "region": "전라남도"
  },
  {
    "name": "동대전고등학교 운동장",
    "address": "대전광역시 대덕구 중리동 234-3",
    "lat": "36.35725594616171",
    "lng": "127.42427498101786",
    "region": "대전광역시"
  },
  {
    "name": "인천여자중학교",
    "address": "인천광역시 연수구 동춘동 932-1",
    "lat": "37.404178852112",
    "lng": "126.67403798853275",
    "region": "인천광역시"
  },
  {
    "name": "8호 어린이공원",
    "address": "강원특별자치도 강릉시 포남동 1159",
    "lat": "37.7670153485495",
    "lng": "128.907222700796",
    "region": "강원특별자치도"
  },
  {
    "name": "중앙체육공원",
    "address": "경���남도 창원시 성산구 상남동 68",
    "lat": "35.216347",
    "lng": "128.675333",
    "region": "경���남도"
  },
  {
    "name": "구산중학교 구남분교 운동장",
    "address": "경상남도 창원시 마산합포구 구산면 반동리 383",
    "lat": "35.086935",
    "lng": "128.587176",
    "region": "경상남도"
  },
  {
    "name": "남원생활체육관 운동장",
    "address": "제주특별자치도 서귀포시 남원읍 남원리 2337-1",
    "lat": "33.27770473396217",
    "lng": "126.70430302619958",
    "region": "제주특별자치도"
  },
  {
    "name": "봉황초등학교 운동장",
    "address": "경상남도 김해시 전하동 518",
    "lat": "35.22232174083827",
    "lng": "128.87011706829594",
    "region": "경상남도"
  },
  {
    "name": "토월초등학교 운동장",
    "address": "경상남도 창원시 성산구 사파동 13",
    "lat": "35.227104",
    "lng": "128.699125",
    "region": "경상남도"
  },
  {
    "name": "새터어린이공원",
    "address": "경기도 용인시 수지구 죽전동 1167",
    "lat": "37.33365123266685",
    "lng": "127.11935794597012",
    "region": "경기도"
  },
  {
    "name": "고양일고등학교 운동장",
    "address": "경기도 고양시 덕양구 고양동 248-17",
    "lat": "37.699351",
    "lng": "126.901024",
    "region": "경기도"
  },
  {
    "name": "식사중앙공원",
    "address": "경기도 고양시 일산동구 식사동 1535",
    "lat": "37.67836905849525",
    "lng": "126.81402683258054",
    "region": "경기도"
  },
  {
    "name": "안곡중학교 운동장",
    "address": "경기도 고양시 일산동구 중산동 1709",
    "lat": "37.680628",
    "lng": "126.786655",
    "region": "경기도"
  },
  {
    "name": "아지랑이어린이공원",
    "address": "경기도 고양시 일산서구 덕이동 산142-4",
    "lat": "37.699608",
    "lng": "126.752354",
    "region": "경기도"
  },
  {
    "name": "미사강변초등학교",
    "address": "경기도 하남시 선동 424",
    "lat": "37.5757137482454",
    "lng": "127.18592047691214",
    "region": "경기도"
  },
  {
    "name": "대전도시과학고등학교 운동장",
    "address": "대전광역시 유성구 원내동 403",
    "lat": "36.29649089175903",
    "lng": "127.31946215195289",
    "region": "대전광역시"
  },
  {
    "name": "파랑새공원",
    "address": "부산광역시 수영구 광안동 180-1",
    "lat": "35.1518129",
    "lng": "129.112781",
    "region": "부산광역시"
  },
  {
    "name": "반림중학교 운동장",
    "address": "경상남도 창원시 성산구 반림동 2",
    "lat": "35.239215",
    "lng": "128.677807",
    "region": "경상남도"
  },
  {
    "name": "보라매근린공원",
    "address": "대전광역시 서구 탄방동 589",
    "lat": "36.348239934354055",
    "lng": "127.38484685012635",
    "region": "대전광역시"
  },
  {
    "name": "호수초등학교",
    "address": "대전광역시 서구 도안동 2359",
    "lat": "36.32073182700976",
    "lng": "127.34983059158806",
    "region": "대전광역시"
  },
  {
    "name": "금나래중앙공원",
    "address": "서울특별시 금천구 독산동 1151",
    "lat": "37.4576",
    "lng": "126.8948",
    "region": "서울특별시"
  },
  {
    "name": "햇살공원",
    "address": "부산광역시 수영구 망미동 824-8",
    "lat": "35.1726593880821",
    "lng": "129.09920932204898",
    "region": "부산광역시"
  },
  {
    "name": "충남고등학교",
    "address": "대전광역시 서구 둔산동 1513",
    "lat": "36.34944861457521",
    "lng": "127.39440044157605",
    "region": "대전광역시"
  },
  {
    "name": "한아람초등학교 운동장",
    "address": "경기도 광주시 태전동 702-30",
    "lat": "37.379906645729065",
    "lng": "127.23001599311831",
    "region": "경기도"
  },
  {
    "name": "무지개어린이공원",
    "address": "경기도 용인시 처인구 남사읍 완장리 949-2",
    "lat": "37.15720843805089",
    "lng": "127.17260867357254",
    "region": "경기도"
  },
  {
    "name": "월평중학교",
    "address": "대전광역시 서구 월평동 663",
    "lat": "36.35726532470382",
    "lng": "127.36761880163465",
    "region": "대전광역시"
  },
  {
    "name": "후동공원",
    "address": "경기도 고양시 일산서구 일산동 1400",
    "lat": "37.68029",
    "lng": "126.768240",
    "region": "경기도"
  },
  {
    "name": "남선중학교",
    "address": "대전광역시 서구 월평동 220",
    "lat": "36.362645088583584",
    "lng": "127.37203164250492",
    "region": "대전광역시"
  },
  {
    "name": "둔산여자고등학교",
    "address": "대전광역시 서구 갈마동 823",
    "lat": "36.35370089963899",
    "lng": "127.37362968843024",
    "region": "대전광역시"
  },
  {
    "name": "죽전어린이공원",
    "address": "경기도 용인시 수지구 죽전동 1484",
    "lat": "37.32981751067731",
    "lng": "127.11680399113665",
    "region": "경기도"
  },
  {
    "name": "용인중앙공원",
    "address": "경기도 용인시 처인구 김량장동 산37-16",
    "lat": "37.23178391910707",
    "lng": "127.20688787980123",
    "region": "경기도"
  },
  {
    "name": "성수초등학교 운동장",
    "address": "경기도 성남시 수정구 수진동 4786",
    "lat": "37.43430067591094",
    "lng": "127.12738833406746",
    "region": "경기도"
  },
  {
    "name": "와부고등학교 운동장",
    "address": "경기도 남양주시 와부읍 덕소리 33",
    "lat": "37.594492793490595",
    "lng": "127.22283822041965",
    "region": "경기도"
  },
  {
    "name": "서일여자고등학교",
    "address": "대전광역시 서구 관저동 1980",
    "lat": "36.29416635559738",
    "lng": "127.32400799952127",
    "region": "대전광역시"
  },
  {
    "name": "삼리초등학교 운동장",
    "address": "경기도 광주시 곤지암읍 삼리 133",
    "lat": "37.3578852",
    "lng": "127.3242631",
    "region": "경기도"
  },
  {
    "name": "수지근린공원",
    "address": "경기도 용인시 수지구 풍덕천동 696",
    "lat": "37.3240529666021",
    "lng": "127.090916759753",
    "region": "경기도"
  },
  {
    "name": "어침이공원",
    "address": "경기도 고양시 일산동구 식사동 1478",
    "lat": "37.68522977945875",
    "lng": "126.81168794631957",
    "region": "경기도"
  },
  {
    "name": "만년고등학교",
    "address": "대전광역시 서구 만년동 9",
    "lat": "36.36727470544636",
    "lng": "127.3733436972981",
    "region": "대전광역시"
  },
  {
    "name": "역동근린공원",
    "address": "경기도 용인시 처인구 역북동 810",
    "lat": "37.23259209071737",
    "lng": "127.18316316604614",
    "region": "경기도"
  },
  {
    "name": "언양중학교(운동장)",
    "address": "울산광역시 울주군 언양읍 동부리 15-1",
    "lat": "35.57236134930489",
    "lng": "129.12778615952254",
    "region": "울산광역시"
  },
  {
    "name": "신언중학교 운동장",
    "address": "울산광역시 울주군 언양읍 서부리 291-26",
    "lat": "35.5673302854036",
    "lng": "129.11447972059972",
    "region": "울산광역시"
  },
  {
    "name": "대방체육공원 운동장",
    "address": "경상남도 창원시 성산구 대방동 250-1",
    "lat": "35.216175329833014",
    "lng": "128.71106699111849",
    "region": "경상남도"
  },
  {
    "name": "이동운동장",
    "address": "경상남도 창원시 진해구 이동 606",
    "lat": "35.15026407",
    "lng": "128.69130577",
    "region": "경상남도"
  },
  {
    "name": "약사천수변공원",
    "address": "강원특별자치도 춘천시 효자동 679-21",
    "lat": "37.87245878854236",
    "lng": "127.72629708051501",
    "region": "강원특별자치도"
  },
  {
    "name": "석사초등학교",
    "address": "강원특별자치도 춘천시 석사동 326-1",
    "lat": "37.857530498948904",
    "lng": "127.74941287923048",
    "region": "강원특별자치도"
  },
  {
    "name": "구봉중학교",
    "address": "대전광역시 서구 관저동 1132",
    "lat": "36.30043904734532",
    "lng": "127.32948158355869",
    "region": "대전광역시"
  },
  {
    "name": "먹골구장",
    "address": "경기도 남양주시 진건읍 진관리 41",
    "lat": "37.64958093666673",
    "lng": "127.17595213131953",
    "region": "경기도"
  },
  {
    "name": "동패초등학교 운동장",
    "address": "경기도 파주시 동패동 1782",
    "lat": "37.71209341191789",
    "lng": "126.7346441745758",
    "region": "경기도"
  },
  {
    "name": "샘머리물순환테마공원",
    "address": "대전광역시 서구 둔산동 1379",
    "lat": "36.35680088229813",
    "lng": "127.3848069782795",
    "region": "대전광역시"
  },
  {
    "name": "광주푸른초등학교 운동장",
    "address": "경기도 광주시 쌍령동 504",
    "lat": "37.3991",
    "lng": "127.2714",
    "region": "경기도"
  },
  {
    "name": "대원중학교 운동장",
    "address": "경기도 성남시 중원구 금광동 2422",
    "lat": "37.44708500320426",
    "lng": "127.17231294562077",
    "region": "경기도"
  },
  {
    "name": "크낙새 축구장",
    "address": "경기도 남양주시 진접읍 부평리 517-1",
    "lat": "37.74635175811427",
    "lng": "127.19748609303969",
    "region": "경기도"
  },
  {
    "name": "꽃우물공원",
    "address": "경기도 고양시 덕양구 화정동 950",
    "lat": "37.628603",
    "lng": "126.827740",
    "region": "경기도"
  },
  {
    "name": "금빛초등학교 운동장",
    "address": "경기도 성남시 수정구 태평동 7289",
    "lat": "37.447263489363266",
    "lng": "127.13989042348499",
    "region": "경기도"
  },
  {
    "name": "풍생고등학교 운동장",
    "address": "경기도 성남시 수정구 수진동 4511-1",
    "lat": "37.43500812316848",
    "lng": "127.13125033214013",
    "region": "경기도"
  },
  {
    "name": "불정초등학교 운동장",
    "address": "경기도 성남시 분당구 정자동 203",
    "lat": "37.3615722623746",
    "lng": "127.12014498689356",
    "region": "경기도"
  },
  {
    "name": "봉산초등학교",
    "address": "대전광역시 서구 갈마동 389",
    "lat": "36.345756921907345",
    "lng": "127.36595582772098",
    "region": "대전광역시"
  },
  {
    "name": "경안초등학교 운동장",
    "address": "경기도 광주시 경안동 152-101",
    "lat": "37.4115",
    "lng": "127.2478",
    "region": "경기도"
  },
  {
    "name": "상원여자중학교 운동장",
    "address": "경기도 성남시 수정구 단대동 57",
    "lat": "37.45673424789614",
    "lng": "127.15836056856864",
    "region": "경기도"
  },
  {
    "name": "성남여수초등학교 운동장",
    "address": "경기도 성남시 중원구 여수동 577",
    "lat": "37.419337781087414",
    "lng": "127.13326022541975",
    "region": "경기도"
  },
  {
    "name": "도촌중학교 운동장",
    "address": "경기도 성남시 중원구 도촌동 637",
    "lat": "37.41665678213723",
    "lng": "127.15449665278281",
    "region": "경기도"
  },
  {
    "name": "가조초등학교",
    "address": "경상남도 거창군 가조면 마상리 336-4",
    "lat": "35.71088574868208",
    "lng": "128.01373600959775",
    "region": "경상남도"
  },
  {
    "name": "서정중학교 운동장",
    "address": "경기도 고양시 덕양구 행신동 1070",
    "lat": "37.618110",
    "lng": "126.849613",
    "region": "경기도"
  },
  {
    "name": "꽃향기공원",
    "address": "경기도 고양시 덕양구 향동동 424",
    "lat": "37.606764915571055",
    "lng": "126.89379572868346",
    "region": "경기도"
  },
  {
    "name": "도래울초등학교 운동장",
    "address": "경기도 고양시 덕양구 도내동 1012",
    "lat": "37.631305",
    "lng": "126.869988",
    "region": "경기도"
  },
  {
    "name": "밤가시공원",
    "address": "경기도 고양시 일산동구 정발산동 1299",
    "lat": "37.669044933097204",
    "lng": "126.78275763988495",
    "region": "경기도"
  },
  {
    "name": "해오름어린이공원",
    "address": "경기도 광명시 소하동 1351",
    "lat": "37.44296015502213",
    "lng": "126.89385823944548",
    "region": "경기도"
  },
  {
    "name": "강동초등학교",
    "address": "강원특별자치도 강릉시 강동면 모전리 384",
    "lat": "37.72451337393249",
    "lng": "128.9634515795258",
    "region": "강원특별자치도"
  },
  {
    "name": "동명초등학교",
    "address": "강원특별자치도 강릉시 송정동 168-1",
    "lat": "37.7751925978103",
    "lng": "128.928850368428",
    "region": "강원특별자치도"
  },
  {
    "name": "삼정자중학교 운동장",
    "address": "경상남도 창원시 성산구 성주동 105",
    "lat": "35.201066",
    "lng": "128.711962",
    "region": "경상남도"
  },
  {
    "name": "고양백석초등학교 운동장",
    "address": "경기도 고양시 일산동구 백석동 1188",
    "lat": "37.651721",
    "lng": "126.789369",
    "region": "경기도"
  },
  {
    "name": "이매중학교 운동장",
    "address": "경기도 성남시 분당구 이매동 102",
    "lat": "37.401614815098974",
    "lng": "127.12611353790241",
    "region": "경기도"
  },
  {
    "name": "예봉중학교 운동장",
    "address": "경기도 남양주시 와부읍 덕소리 259",
    "lat": "37.59526317896238",
    "lng": "127.22074998860379",
    "region": "경기도"
  },
  {
    "name": "송강이야기공원",
    "address": "경기도 고양시 덕양구 신원동 596",
    "lat": "37.667044",
    "lng": "126.881320",
    "region": "경기도"
  },
  {
    "name": "태원고등학교 운동장",
    "address": "경기도 성남시 분당구 이매동 128-2",
    "lat": "37.40386936455849",
    "lng": "127.12878573988102",
    "region": "경기도"
  },
  {
    "name": "성남화랑초등학교 운동장",
    "address": "경기도 성남시 분당구 백현동 547",
    "lat": "37.389993149817606",
    "lng": "127.11615721626904",
    "region": "경기도"
  },
  {
    "name": "꽃물공원",
    "address": "경기도 고양시 덕양구 화정동 867",
    "lat": "37.641145",
    "lng": "126.830543",
    "region": "경기도"
  },
  {
    "name": "신일중학교 운동장",
    "address": "경기도 고양시 일산서구 일산동 1096",
    "lat": "37.676837",
    "lng": "126.774747",
    "region": "경기도"
  },
  {
    "name": "하남중학교",
    "address": "경기도 하남시 창우동 521-5",
    "lat": "37.53615571306551",
    "lng": "127.22282555895343",
    "region": "경기도"
  },
  {
    "name": "반천초등학교(운동장)",
    "address": "울산광역시 울주군 언양읍 반천리 438",
    "lat": "35.555761567367284",
    "lng": "129.18332397937752",
    "region": "울산광역시"
  },
  {
    "name": "가운고등학교 운동장",
    "address": "경기도 남양주시 다산동 684",
    "lat": "37.59895339810419",
    "lng": "127.16109931468968",
    "region": "경기도"
  },
  {
    "name": "까치공원",
    "address": "서울특별시 금천구 시흥동 959-2",
    "lat": "37.4396",
    "lng": "126.905",
    "region": "서울특별시"
  },
  {
    "name": "샘머리초등학교",
    "address": "대전광역시 서구 둔산동 907-1",
    "lat": "36.362934525993595",
    "lng": "127.39342134397799",
    "region": "대전광역시"
  },
  {
    "name": "양지근린공원",
    "address": "경기도 용인시 처인구 양지면 양지리 산32-6",
    "lat": "37.235724608986494",
    "lng": "127.28721410700744",
    "region": "경기도"
  },
  {
    "name": "태평중학교 운동장",
    "address": "��기도 성남시 수정구 태평동 5140",
    "lat": "37.446339941631656",
    "lng": "127.12868609508858",
    "region": "��기도"
  },
  {
    "name": "대전송강중학교 운동장",
    "address": "대전광역시 유성구 송강동 8-1",
    "lat": "36.4375",
    "lng": "127.3817",
    "region": "대전광역시"
  },
  {
    "name": "신촌초등학교 운동장",
    "address": "경기도 고양시 일산서구 일산동 1068",
    "lat": "37.681214",
    "lng": "126.765785",
    "region": "경기도"
  },
  {
    "name": "은행중학교 운동장",
    "address": "경기도 성남시 중원구 은행동 550-6",
    "lat": "37.45734948254903",
    "lng": "127.1721209718299",
    "region": "경기도"
  },
  {
    "name": "서당초등학교 운동장",
    "address": "경기도 성남시 분당구 서현동 303",
    "lat": "37.37448119244168",
    "lng": "127.13468723721789",
    "region": "경기도"
  },
  {
    "name": "운중중학교 운동장",
    "address": "경기도 성남시 분당구 운중동 950",
    "lat": "37.39114020872273",
    "lng": "127.07344727336285",
    "region": "경기도"
  },
  {
    "name": "구정초등학교",
    "address": "강원특별자치도 강릉시 구정면 학산리 317",
    "lat": "37.7175835666904",
    "lng": "128.891387595211",
    "region": "강원특별자치도"
  },
  {
    "name": "관저고등학교",
    "address": "대전광역시 서구 관저동 983",
    "lat": "36.310509436250925",
    "lng": "127.33804772778102",
    "region": "대전광역시"
  },
  {
    "name": "단샘초등학교",
    "address": "경기도 하남시 감이동 455",
    "lat": "37.50672150293384",
    "lng": "127.15850963909051",
    "region": "경기도"
  },
  {
    "name": "정림중학교",
    "address": "대전광역시 서구 괴곡동 361-2",
    "lat": "36.29425348413542",
    "lng": "127.36098211565901",
    "region": "대전광역시"
  },
  {
    "name": "개나리공원",
    "address": "경기도 고양시 일산동구 중산동 1736",
    "lat": "37.683847",
    "lng": "126.789802",
    "region": "경기도"
  },
  {
    "name": "주엽공원",
    "address": "경기도 고양시 일산서구 주엽동 118",
    "lat": "37.667642",
    "lng": "126.759499",
    "region": "경기도"
  },
  {
    "name": "백현초등학교 운동장",
    "address": "경기도 성남시 분당구 정자동 76",
    "lat": "37.371892258720614",
    "lng": "127.11155766613113",
    "region": "경기도"
  },
  {
    "name": "대전하기중학교 운동장",
    "address": "대전광역시 유성구 하기동 520",
    "lat": "36.385807872999834",
    "lng": "127.32291697904034",
    "region": "대전광역시"
  },
  {
    "name": "성사중학교 운동장",
    "address": "경기도 고양시 덕양구 성사동 549-4",
    "lat": "37.663323",
    "lng": "126.843047",
    "region": "경기도"
  },
  {
    "name": "고양어울림누리 별무리경기장",
    "address": "경기도 고양시 덕양구 성사동 826",
    "lat": "37.64883716562591",
    "lng": "126.83326259986052",
    "region": "경기도"
  },
  {
    "name": "달빛공원",
    "address": "경기도 고양시 덕양구 화정동 859",
    "lat": "37.645267",
    "lng": "126.831125",
    "region": "경기도"
  },
  {
    "name": "안곡고등학교 운동장",
    "address": "경기도 고양시 일산동구 중산동 1718",
    "lat": "37.681784",
    "lng": "126.787605",
    "region": "경기도"
  },
  {
    "name": "샛별중학교 운동장",
    "address": "경기도 성남시 분당구 수내동 164-3",
    "lat": "37.368181449495",
    "lng": "127.12974712926234",
    "region": "경기도"
  },
  {
    "name": "정자중학교 운동장",
    "address": "경기도 성남시 분당구 정자동 123",
    "lat": "37.36524127405729",
    "lng": "127.11070920210744",
    "region": "경기도"
  },
  {
    "name": "판교초등학교 운동장",
    "address": "경기도 성남시 분당구 판교동 636",
    "lat": "37.38674017613702",
    "lng": "127.09129035484231",
    "region": "경기도"
  },
  {
    "name": "성산초등학교",
    "address": "강원특별자치도 강릉시 성산면 구산리 154",
    "lat": "37.7189451143586",
    "lng": "128.833173174842",
    "region": "강원특별자치도"
  },
  {
    "name": "대원레포츠 공원",
    "address": "경상남도 창원시 성산구 대원동 109",
    "lat": "35.23128889551646",
    "lng": "128.6488974094394",
    "region": "경상남도"
  },
  {
    "name": "구미중학교 운동장",
    "address": "경기도 성남시 분당구 구미동 299-1",
    "lat": "37.345832968121876",
    "lng": "127.12385765605165",
    "region": "경기도"
  },
  {
    "name": "한재중학교 운동장",
    "address": "전라남도 담양군 대전면 대치리 891-2",
    "lat": "35.2745",
    "lng": "126.8908",
    "region": "전라남도"
  },
  {
    "name": "불곡중학교 운동장",
    "address": "경기도 성남시 분당구 구미동 92",
    "lat": "37.346938557974454",
    "lng": "127.11927866767039",
    "region": "경기도"
  },
  {
    "name": "고양동운동장(축구장)",
    "address": "경기도 고양시 덕양구 대자동 472",
    "lat": "37.693947",
    "lng": "126.896182",
    "region": "경기도"
  },
  {
    "name": "느티나무공원",
    "address": "경기도 고양시 일산동구 풍동 1259",
    "lat": "37.670341",
    "lng": "126.798429",
    "region": "경기도"
  },
  {
    "name": "망미공원",
    "address": "부산광역시 수영구 망미동 640-13",
    "lat": "35.17392882537521",
    "lng": "129.10457669168812",
    "region": "부산광역시"
  },
  {
    "name": "남한중학교",
    "address": "경기도 하남시 신장동 367-5",
    "lat": "37.542344285522645",
    "lng": "127.2096848487833",
    "region": "경기도"
  },
  {
    "name": "미사호수공원",
    "address": "경기도 하남시 망월동 1072",
    "lat": "37.56235340647558",
    "lng": "127.18816758909759",
    "region": "경기도"
  },
  {
    "name": "신장중학교",
    "address": "경기도 하남시 신장동 527-1",
    "lat": "37.54280791169379",
    "lng": "127.21877217292634",
    "region": "경기도"
  },
  {
    "name": "감일고등학교 운동장",
    "address": "경기도 하남시 감이동 450",
    "lat": "37.5094662473463",
    "lng": "127.1602202925918",
    "region": "경기도"
  },
  {
    "name": "서항근린공원",
    "address": "경상남도 창원시 마산합포구 해운동 54",
    "lat": "35.176493",
    "lng": "128.565791",
    "region": "경상남도"
  },
  {
    "name": "구항공원",
    "address": "경상남도 창원시 마산합포구 오동동 323",
    "lat": "35.20050174254222",
    "lng": "128.57769803344755",
    "region": "경상남도"
  },
  {
    "name": "동암중학교 운동장",
    "address": "인천광역시 부평구 십정동 589",
    "lat": "37.47374266102085",
    "lng": "126.70585870742734",
    "region": "인천광역시"
  },
  {
    "name": "부영공원",
    "address": "인천광역시 부평구 산곡동 산20",
    "lat": "37.4954",
    "lng": "126.7108",
    "region": "인천광역시"
  },
  {
    "name": "인평자동차고등학교 운동장",
    "address": "인천광역시 부평구 산곡동 371-146",
    "lat": "37.4925",
    "lng": "126.7022",
    "region": "인천광역시"
  },
  {
    "name": "둔원고등학교",
    "address": "대전광역시 서구 갈마동 1243",
    "lat": "36.34251171504398",
    "lng": "127.3737822200719",
    "region": "대전광역시"
  },
  {
    "name": "물방울어린이공원",
    "address": "경기도 용인시 처인구 삼가동 187-11",
    "lat": "37.240797376959385",
    "lng": "127.1671672142818",
    "region": "경기도"
  },
  {
    "name": "반곡초등학교(운동장)",
    "address": "울산광역시 울주군 언양읍 반곡리 709",
    "lat": "35.602969726611704",
    "lng": "129.1411401916877",
    "region": "울산광역시"
  },
  {
    "name": "인천예림학교 운동장",
    "address": "인천광역시 부평구 부평동 633",
    "lat": "37.4862",
    "lng": "126.7283",
    "region": "인천광역시"
  },
  {
    "name": "인천부곡초등학교 운동장",
    "address": "인천광역시 부평구 산곡동 148-5",
    "lat": "37.5031",
    "lng": "126.7069",
    "region": "인천광역시"
  },
  {
    "name": "인천산곡북초등학교 운동장",
    "address": "인천광역시 부평구 산곡동 39-1",
    "lat": "37.5108",
    "lng": "126.702",
    "region": "인천광역시"
  },
  {
    "name": "인천삼산중학교 운동장",
    "address": "인천광역시 부평구 삼산동 445-1",
    "lat": "37.5161",
    "lng": "126.736",
    "region": "인천광역시"
  },
  {
    "name": "복수고등학교",
    "address": "대전광역시 서구 복수동 376-2",
    "lat": "36.303628893447524",
    "lng": "127.37287981630274",
    "region": "대전광역시"
  },
  {
    "name": "두리소공원",
    "address": "경기도 용인시 수지구 풍덕천동 1199",
    "lat": "37.327597699883555",
    "lng": "127.09950506687166",
    "region": "경기도"
  },
  {
    "name": "나룰초등학교 운동장",
    "address": "경기도 하남시 덕풍동 803",
    "lat": "37.548469223101826",
    "lng": "127.20926137067337",
    "region": "경기도"
  },
  {
    "name": "신평중학교",
    "address": "경기도 하남시 신장동 214-3",
    "lat": "37.54412524702475",
    "lng": "127.21405326853659",
    "region": "경기도"
  },
  {
    "name": "세솔공원",
    "address": "경기도 고양시 덕양구 삼송동 319",
    "lat": "37.648906600363986",
    "lng": "126.88694000244142",
    "region": "경기도"
  },
  {
    "name": "지도공원",
    "address": "경기도 고양시 덕양구 토당동 3-39",
    "lat": "37.625005",
    "lng": "126.827611",
    "region": "경기도"
  },
  {
    "name": "언양초등학교(운동장)",
    "address": "울산광역시 울주군 언양읍 동부리 407-4",
    "lat": "35.57197955805022",
    "lng": "129.1264182329251",
    "region": "울산광역시"
  },
  {
    "name": "덕풍초등학교",
    "address": "경기도 하남시 덕풍동 360-21",
    "lat": "37.54103846054087",
    "lng": "127.1977382898359",
    "region": "경기도"
  },
  {
    "name": "세마초등학교",
    "address": "경기도 오산시 지곶동 578",
    "lat": "37.1695",
    "lng": "127.0277",
    "region": "경기도"
  },
  {
    "name": "삼미초등학교",
    "address": "경기도 오산시 외삼미동 661",
    "lat": "37.19095044239452",
    "lng": "127.06063985824585",
    "region": "경기도"
  },
  {
    "name": "문시중학교",
    "address": "경기도 오산시 금암동 519",
    "lat": "37.17457715098404",
    "lng": "127.04795837402344",
    "region": "경기도"
  },
  {
    "name": "올림픽공원",
    "address": "경상남도 창원시 성산구 중앙동 119",
    "lat": "35.225533904485204",
    "lng": "128.65962803363828",
    "region": "경상남도"
  },
  {
    "name": "한뫼공원",
    "address": "경기도 고양시 일산서구 일산동 1558",
    "lat": "37.692818",
    "lng": "126.776397",
    "region": "경기도"
  },
  {
    "name": "포천고등학교",
    "address": "경기도 포천시 신읍동 345",
    "lat": "37.8923184728299",
    "lng": "127.19189886684693",
    "region": "경기도"
  },
  {
    "name": "위례숲초등학교",
    "address": "경기도 하남시 학암동 643",
    "lat": "37.484882369787016",
    "lng": "127.15818777411931",
    "region": "경기도"
  },
  {
    "name": "도마초등학교",
    "address": "대전광역��� 서구 도마동 27",
    "lat": "36.32464867062439",
    "lng": "127.37161161284963",
    "region": "대전광역���"
  },
  {
    "name": "대전제일고등학교",
    "address": "대전광역시 서구 도마동 155-20",
    "lat": "36.313443207036016",
    "lng": "127.37244951347853",
    "region": "대전광역시"
  },
  {
    "name": "의장대공원",
    "address": "경기도 고양시 덕양구 도내동 1101",
    "lat": "37.6280357994218",
    "lng": "126.87260084701848",
    "region": "경기도"
  },
  {
    "name": "부산전자공업고등학교",
    "address": "부산광역시 동래구 온천동 386-1",
    "lat": "35.215024880339946",
    "lng": "129.07397568226014",
    "region": "부산광역시"
  },
  {
    "name": "왕산초등학교",
    "address": "강원특별자치도 강릉시 왕산면 도마리 595",
    "lat": "37.6734165886603",
    "lng": "128.836145008418",
    "region": "강원특별자치도"
  },
  {
    "name": "42호 어린이공원",
    "address": "강원특별자치도 강릉시 노암동 722-4",
    "lat": "37.7482009001257",
    "lng": "128.89615679191",
    "region": "강원특별자치도"
  },
  {
    "name": "너울숲공원",
    "address": "강원특별자치도 춘천시 동면 장학리 1000",
    "lat": "37.894013961221255",
    "lng": "127.75298224134603",
    "region": "강원특별자치도"
  },
  {
    "name": "서대전여자고등학교",
    "address": "대전광역시 서구 도마동 420",
    "lat": "36.32632389011258",
    "lng": "127.36889322353008",
    "region": "대전광역시"
  },
  {
    "name": "판교중학교 운동장",
    "address": "경기도 성남시 분당구 판교동 633",
    "lat": "37.387185754448744",
    "lng": "127.08739778802843",
    "region": "경기도"
  },
  {
    "name": "감계3호근린공원",
    "address": "경상남도 창원시 의창구 북면 감계리 237-1",
    "lat": "35.30069424",
    "lng": "128.59397589",
    "region": "경상남도"
  },
  {
    "name": "개림중학교운동장",
    "address": "부산광역시 부산진구 개금동 445-1",
    "lat": "35.157012340239234",
    "lng": "129.01828229427753",
    "region": "부산광역시"
  },
  {
    "name": "한국국제고등학교 제2운동장",
    "address": "제주특별자치도 서귀포시 대정읍 구억리 1133",
    "lat": "33.28767828326269",
    "lng": "126.28344297408675",
    "region": "제주특별자치도"
  },
  {
    "name": "신흥2리 체육공원",
    "address": "제주특별자치도 서귀포시 남원읍 신흥리 1760-10",
    "lat": "33.320263749530945",
    "lng": "126.74397289752959",
    "region": "제주특별자치도"
  },
  {
    "name": "사천초등학교",
    "address": "강원특별자치도 강릉시 사천면 미노리 406",
    "lat": "37.8219235118247",
    "lng": "128.850647022792",
    "region": "강원특별자치도"
  },
  {
    "name": "한마음공원",
    "address": "대구광역시 달서구 유천동 608",
    "lat": "35.81709796070224",
    "lng": "128.51494542374115",
    "region": "대구광역시"
  },
  {
    "name": "흥산초등학교 운동장",
    "address": "제주특별자치도 서귀포시 남원읍 신흥리 174-1",
    "lat": "33.29983424727165",
    "lng": "126.7654895782478",
    "region": "제주특별자치도"
  },
  {
    "name": "구 대평분교장 운동장",
    "address": "제주특별자치도 서귀포시 안덕면 창천리 850",
    "lat": "33.23677165614502",
    "lng": "126.36572241782602",
    "region": "제주특별자치도"
  },
  {
    "name": "덕수초등학교 운동장",
    "address": "제주특별자치도 서귀포시 안덕면 덕수리 2379-3",
    "lat": "33.25160846779005",
    "lng": "126.30485236644824",
    "region": "제주특별자치도"
  },
  {
    "name": "보목초등학교 운동장",
    "address": "제주특별자치도 서귀포시 보목동 891",
    "lat": "33.244632294591554",
    "lng": "126.60005092620689",
    "region": "제주특별자치도"
  },
  {
    "name": "태평근린공원",
    "address": "제주특별자치도 서귀포시 동홍동 426-1",
    "lat": "33.251245092453594",
    "lng": "126.5699565410643",
    "region": "제주특별자치도"
  },
  {
    "name": "문부공원",
    "address": "제주특별자치도 서귀포시 동홍동 646-1",
    "lat": "33.2542103705158",
    "lng": "126.56991362572002",
    "region": "제주특별자치도"
  },
  {
    "name": "서귀서초등학교 운동장",
    "address": "제주특별자치도 서귀포시 서홍동 368-2",
    "lat": "33.25426868813338",
    "lng": "126.55645698308932",
    "region": "제주특별자치도"
  },
  {
    "name": "구)기상청주차장",
    "address": "강원특별자치도 강릉시 용강동 63-2",
    "lat": "37.751803587019",
    "lng": "128.890913710748",
    "region": "강원특별자치도"
  },
  {
    "name": "동내대룡공원",
    "address": "강원특별자치도 춘천시 동내면 거두리 993",
    "lat": "37.85184447384779",
    "lng": "127.75471657124446",
    "region": "강원특별자치도"
  },
  {
    "name": "동방고등학교",
    "address": "대전광역시 서구 관저동 7-1",
    "lat": "36.30090187588148",
    "lng": "127.34622229481822",
    "region": "대전광역시"
  },
  {
    "name": "지영체육공원",
    "address": "경기도 고양시 일산동구 지영동 865",
    "lat": "37.72392831683045",
    "lng": "126.83475494384761",
    "region": "경기도"
  },
  {
    "name": "동수녹지",
    "address": "인천광역시 부평구 부평동 634-5",
    "lat": "37.4864",
    "lng": "126.7296",
    "region": "인천광역시"
  },
  {
    "name": "연일공원",
    "address": "인천광역시 서구 청라동 116-1",
    "lat": "37.54074071222956",
    "lng": "126.65571749210028",
    "region": "인천광역시"
  },
  {
    "name": "갯들공원",
    "address": "인천광역시 서구 청라동 172-8",
    "lat": "37.52763010076624",
    "lng": "126.66188120842337",
    "region": "인천광역시"
  },
  {
    "name": "망월초등학교",
    "address": "경기도 하남시 망월동 1025",
    "lat": "37.57096244606031",
    "lng": "127.18050071172371",
    "region": "경기도"
  },
  {
    "name": "한가람어린이공원",
    "address": "인천광역시 부평구 부평동 962",
    "lat": "37.49222207849638",
    "lng": "126.73507381684179",
    "region": "인천광역시"
  },
  {
    "name": "수내고등학교 운동장",
    "address": "경기도 성남시 분당구 수내동 120",
    "lat": "37.3661148647604",
    "lng": "127.129863931689",
    "region": "경기도"
  },
  {
    "name": "분당영덕여자고등학교 운동장",
    "address": "경기도 성남시 분당구 야탑동 455",
    "lat": "37.40592174080859",
    "lng": "127.13827371597287",
    "region": "경기도"
  },
  {
    "name": "대덕소프트웨어마이스터고등학교 운동장",
    "address": "대전광역시 유성구 장동 23-9",
    "lat": "36.39138885036492",
    "lng": "127.36272199347621",
    "region": "대전광역시"
  },
  {
    "name": "노은고등학교 운동장",
    "address": "대전광역시 유성구 노은동 541",
    "lat": "36.36896831122439",
    "lng": "127.31994131735604",
    "region": "대전광역시"
  },
  {
    "name": "반석고등학교 운동장",
    "address": "대전광역시 유성구 지족동 993",
    "lat": "36.386415489084705",
    "lng": "127.31347244364105",
    "region": "대전광역시"
  },
  {
    "name": "유성고등학교 운동장",
    "address": "대전광역시 유성구 구암동 613-9",
    "lat": "36.35016773360051",
    "lng": "127.3353276979331",
    "region": "대전광역시"
  },
  {
    "name": "유성생명과학고등학교 운동장",
    "address": "대전광역시 유성구 상대동 553",
    "lat": "36.34762355250817",
    "lng": "127.32948303222659",
    "region": "대전광역시"
  },
  {
    "name": "한밭대학교 인조잔디 운동장",
    "address": "대전광역시 유성구 덕명동 16-1",
    "lat": "36.34720569747373",
    "lng": "127.30255110299748",
    "region": "대전광역시"
  },
  {
    "name": "신평초등학교",
    "address": "경기도 하남시 신장동 216",
    "lat": "37.54384007638405",
    "lng": "127.21531372148714",
    "region": "경기도"
  },
  {
    "name": "하탑중학교 운동장",
    "address": "경기도 성남시 분당구 야탑동 520",
    "lat": "37.40890643156104",
    "lng": "127.1373839644424",
    "region": "경기도"
  },
  {
    "name": "신례초등학교 운동장",
    "address": "제주특별자치도 서귀포시 남원읍 신례리 822-1",
    "lat": "33.28428812188347",
    "lng": "126.63223743438685",
    "region": "제주특별자치도"
  },
  {
    "name": "춘천고등학교 운동장",
    "address": "강원특별자치도 춘천시 소양로3가 149-1",
    "lat": "37.8804172148986",
    "lng": "127.72265195846559",
    "region": "강원특별자치도"
  },
  {
    "name": "봉의고등학교 운동장",
    "address": "강원특별자치도 춘천시 후평동 891-15",
    "lat": "37.87255830064272",
    "lng": "127.75442004203346",
    "region": "강원특별자치도"
  },
  {
    "name": "생명과학고등학교 운동장",
    "address": "강원특별자치도 춘천시 사농동 122",
    "lat": "37.9088648900248",
    "lng": "127.72433638572693",
    "region": "강원특별자치도"
  },
  {
    "name": "내동초등학교 운동장",
    "address": "경상남도 김해시 내동 168",
    "lat": "35.242534781001474",
    "lng": "128.85955452919472",
    "region": "경상남도"
  },
  {
    "name": "칠산초등학교 운동장",
    "address": "경상남도 김해시 화목동 773-1",
    "lat": "35.209708496274494",
    "lng": "128.85207116603544",
    "region": "경상남도"
  },
  {
    "name": "신어초등학교 운동장",
    "address": "경상남도 김해시 삼방동 200",
    "lat": "35.243901707004355",
    "lng": "128.91192197799612",
    "region": "경상남도"
  },
  {
    "name": "제주중앙고등학교",
    "address": "제주특별자치도 제주시 월평동 1236",
    "lat": "33.47446475275952",
    "lng": "126.57223083152755",
    "region": "제주특별자치도"
  },
  {
    "name": "망미공원",
    "address": "부산광역시 수영구 망미동 640-11",
    "lat": "35.174217682591326",
    "lng": "129.10696968455386",
    "region": "부산광역시"
  },
  {
    "name": "벌원초등학교 운동장",
    "address": "경기도 광주시 탄벌동 527-23",
    "lat": "37.4092",
    "lng": "127.2368",
    "region": "경기도"
  },
  {
    "name": "소나무공원",
    "address": "경기도 고양시 일산동구 풍동 1287",
    "lat": "37.664611",
    "lng": "126.797825",
    "region": "경기도"
  },
  {
    "name": "홀트학교(운동장)",
    "address": "경기도 고양시 일산서구 탄현동 41-1",
    "lat": "37.6955196409024",
    "lng": "126.77284520707057",
    "region": "경기도"
  },
  {
    "name": "성남장안초등학교 운동장",
    "address": "경기도 성남시 분당구 분당동 91",
    "lat": "37.37216451926664",
    "lng": "127.14406941788151",
    "region": "경기도"
  },
  {
    "name": "백현중학교 운동장",
    "address": "경기도 성남시 분당구 정자동 77",
    "lat": "37.37096711505861",
    "lng": "127.1106962346277",
    "region": "경기도"
  },
  {
    "name": "희망공원",
    "address": "인천광역시 부평구 부평동 768-350",
    "lat": "37.4826",
    "lng": "126.7124",
    "region": "인천광역시"
  },
  {
    "name": "세마중학교",
    "address": "경기도 오산시 세교동 625",
    "lat": "37.180522549203424",
    "lng": "127.04244375228882",
    "region": "경기도"
  },
  {
    "name": "서귀북초등학교 운동장",
    "address": "제주특별자치도 서귀포시 서홍동 308-1",
    "lat": "33.26012716773227",
    "lng": "126.55868589878074",
    "region": "제주특별자치도"
  },
  {
    "name": "제주중앙여자중학교",
    "address": "제주특별자치도 제주시 삼도이동 594-13",
    "lat": "33.50493077923566",
    "lng": "126.5210125584756",
    "region": "제주특별자치도"
  },
  {
    "name": "시민복지타운광장",
    "address": "제주특별자치도 제주시 도남동 582",
    "lat": "33.49189829086582",
    "lng": "126.52277089558586",
    "region": "제주특별자치도"
  },
  {
    "name": "장위3동 마을공원",
    "address": "서울특별시 성북구 장위동 77-79",
    "lat": "37.617001946353355",
    "lng": "127.05336570739529",
    "region": "서울특별시"
  },
  {
    "name": "쇄판어린이공원 ",
    "address": "인천광역시 남동구 만수동 845-1",
    "lat": "37.46233616523245",
    "lng": "126.72319449916795",
    "region": "인천광역시"
  },
  {
    "name": "별내고등학교 운동장",
    "address": "경기도 남양주시 별내동 1051",
    "lat": "37.65136213382047",
    "lng": "127.11684642826276",
    "region": "경기도"
  },
  {
    "name": "수영사적공원",
    "address": "부산광역시 수영구 수영동 229-1",
    "lat": "35.170846950042296",
    "lng": "129.11429500437148",
    "region": "부산광역시"
  },
  {
    "name": "성주주민운동장",
    "address": "경상남도 창원시 성산구 천선동 1216-1",
    "lat": "35.184008",
    "lng": "128.697222",
    "region": "경상남도"
  },
  {
    "name": "성서어린이공원",
    "address": "경기도 용인시 수지구 성복동 283",
    "lat": "37.31597698836977",
    "lng": "127.06877596840485",
    "region": "경기도"
  },
  {
    "name": "송포공원",
    "address": "경기도 고양시 일산서구 대화동 1495-1",
    "lat": "37.67037611285506",
    "lng": "126.73031508922573",
    "region": "경기도"
  },
  {
    "name": "서인공원",
    "address": "인천광역시 서구 가정동 554",
    "lat": "37.520656971192864",
    "lng": "126.68120384215817",
    "region": "인천광역시"
  },
  {
    "name": "남동문화근린공원",
    "address": "인천광역시 남동구 구월동 620-13",
    "lat": "37.44794265616167",
    "lng": "126.72658004307193",
    "region": "인천광역시"
  },
  {
    "name": "석촌근린공원",
    "address": "인천광역시 남동구 간석동 943",
    "lat": "37.471686320566334",
    "lng": "126.71029508113855",
    "region": "인천광역시"
  },
  {
    "name": "도농고등학교 운동장",
    "address": "경기도 남양주시 다산동 4330-3",
    "lat": "37.61116756394094",
    "lng": "127.15138435363768",
    "region": "경기도"
  },
  {
    "name": "용지공원",
    "address": "경상남도 창원시 성산구 신월동 98",
    "lat": "35.23017444569361",
    "lng": "128.68702143430747",
    "region": "경상남도"
  },
  {
    "name": "대전배울초등학교 운동장",
    "address": "대전광역시 유성구 관평동 663",
    "lat": "36.42170302686385",
    "lng": "127.38466379453376",
    "region": "대전광역시"
  },
  {
    "name": "잎새어린이공원",
    "address": "경기도 고양시 일산서구 덕이동 582-2",
    "lat": "37.698780",
    "lng": "126.752546",
    "region": "경기도"
  },
  {
    "name": "창성중학교 운동장",
    "address": "경기도 성남시 수정구 산성동 3",
    "lat": "37.4607386234547",
    "lng": "127.153509907201",
    "region": "경기도"
  },
  {
    "name": "판교대장초등학교 운동장",
    "address": "경기도 성남시 분당구 대장동 629",
    "lat": "37.36797435878155",
    "lng": "127.0698130130768",
    "region": "경기도"
  },
  {
    "name": "제주여자고등학교(중학교)",
    "address": "제주특별자치도 제주시 아라일동 2360",
    "lat": "33.48275551403681",
    "lng": "126.54063142787223",
    "region": "제주특별자치도"
  },
  {
    "name": "동방여자중학교",
    "address": "대전광역시 서구 복수동 276",
    "lat": "36.30665094526229",
    "lng": "127.37447600457985",
    "region": "대전광역시"
  },
  {
    "name": "운중고등학교 운동장",
    "address": "경기도 성남시 분당구 운중동 957",
    "lat": "37.3927545674111",
    "lng": "127.073729306757",
    "region": "경기도"
  },
  {
    "name": "불암초등학교",
    "address": "서울특별시 노원구 중계동 366-2",
    "lat": "37.651",
    "lng": "127.0804",
    "region": "서울특별시"
  },
  {
    "name": "영���여자고등학교",
    "address": "서울특별시 노원구 중계동 118",
    "lat": "37.6522",
    "lng": "127.0829",
    "region": "서울특별시"
  },
  {
    "name": "만수어린이공원",
    "address": "인천광역시 남동구 만수동 922",
    "lat": "37.45370725313979",
    "lng": "126.72766815380078",
    "region": "인천광역시"
  },
  {
    "name": "상인천중학교 운동장",
    "address": "인천광역시 남동구 간석동 11-1",
    "lat": "37.46161795274949",
    "lng": "126.71702905045494",
    "region": "인천광역시"
  },
  {
    "name": "반디어린이공원",
    "address": "경기도 용인시 처인구 김량장동 291-1",
    "lat": "37.23574890179085",
    "lng": "127.19525344656559",
    "region": "경기도"
  },
  {
    "name": "호곡초등학교 운동장",
    "address": "경기도 고양시 일산서구 탄현동 117-1",
    "lat": "37.700865",
    "lng": "126.767158",
    "region": "경기도"
  },
  {
    "name": "까투렴공원",
    "address": "인천광역시 서구 청라동 8-129",
    "lat": "37.544515912292844",
    "lng": "126.6216643436584",
    "region": "인천광역시"
  },
  {
    "name": "팔룡미관공원",
    "address": "경상남도 창원시 의창구 팔용동 147",
    "lat": "35.2541",
    "lng": "128.6079",
    "region": "경상남도"
  },
  {
    "name": "영화초등학교 운동장",
    "address": "울산광역시 울주군 언양읍 서부리 300",
    "lat": "35.56665392574785",
    "lng": "129.11604881286257",
    "region": "울산광역시"
  },
  {
    "name": "사림운동장",
    "address": "경상남도 창원시 의창구 사림동 120",
    "lat": "35.24837472367702",
    "lng": "128.68178039789237",
    "region": "경상남도"
  },
  {
    "name": "소래초등학교 운동장",
    "address": "인천광역시 남동구 논현동 109-85",
    "lat": "37.40438659188103",
    "lng": "126.73457665837336",
    "region": "인천광역시"
  },
  {
    "name": "은봉초등학교 운동장",
    "address": "인천광역시 남동구 논현동 605-1",
    "lat": "37.40532881173047",
    "lng": "126.72520084746638",
    "region": "인천광역시"
  },
  {
    "name": "만성중학교 운동장",
    "address": "인천광역시 남동구 만수동 1005-6",
    "lat": "37.44873856045002",
    "lng": "126.73734231399897",
    "region": "인천광역시"
  },
  {
    "name": "희망의 숲",
    "address": "인천광역시 남동구 간석동 366",
    "lat": "37.46503327218135",
    "lng": "126.70152653406629",
    "region": "인천광역시"
  },
  {
    "name": "별가람고등학교 운동장",
    "address": "경기도 남양주시 별내동 909",
    "lat": "37.66129854267264",
    "lng": "127.12200735228109",
    "region": "경기도"
  },
  {
    "name": "신봉체육공원",
    "address": "경기도 용인시 수지구 신봉동 963",
    "lat": "37.3292",
    "lng": "127.0664",
    "region": "경기도"
  },
  {
    "name": "신원체육공원",
    "address": "경기도 고양시 덕양구 신원동 279-1",
    "lat": "37.675809",
    "lng": "126.876870",
    "region": "경기도"
  },
  {
    "name": "풍동고등학교 운동장",
    "address": "경기도 고양시 일산동구 풍동 1231",
    "lat": "37.671619",
    "lng": "126.795602",
    "region": "경기도"
  },
  {
    "name": "석남녹지도시숲",
    "address": "인천광역시 서구 석남동 223-494",
    "lat": "37.5026106011848",
    "lng": "126.66725635528748",
    "region": "인천광역시"
  },
  {
    "name": "불로지구3호어린이공원",
    "address": "인천광역시 서구 불로동 785-10",
    "lat": "37.61208970727724",
    "lng": "126.68533444404393",
    "region": "인천광역시"
  },
  {
    "name": "파리15구공원",
    "address": "서울특별시 서초구 반포동 68-2",
    "lat": "37.499516585817844",
    "lng": "126.99916466383058",
    "region": "서울특별시"
  },
  {
    "name": "옥빛중학교 운동장",
    "address": "경기도 양주시 옥정동 1082",
    "lat": "37.81459268343494",
    "lng": "127.09587795222824",
    "region": "경기도"
  },
  {
    "name": "서호초등학교",
    "address": "제주특별자치도 서귀포시 호근동 1421-5",
    "lat": "33.25375728612664",
    "lng": "126.52929425239549",
    "region": "제주특별자치도"
  },
  {
    "name": "탑동초등학교 운동장",
    "address": "충청남도 당진시 채운동 488-1",
    "lat": "36.89725023987655",
    "lng": "126.62319839000695",
    "region": "충청남도"
  },
  {
    "name": "해누리이음학교",
    "address": "서울특별시 송파구 가락동 909",
    "lat": "37.49842414529374",
    "lng": "127.10214651084036",
    "region": "서울특별시"
  },
  {
    "name": "미도어린이공원",
    "address": "서울특별시 서초구 반포동 53-1",
    "lat": "37.50171070992293",
    "lng": "127.01075776747153",
    "region": "서울특별시"
  },
  {
    "name": "사송중학교 운동장",
    "address": "경상남도 양산시 동면 내송리 885",
    "lat": "35.31965159347661",
    "lng": "129.06896329533862",
    "region": "경상남도"
  },
  {
    "name": "강현초등학교",
    "address": "강원특별자치도 양양군 강현면 정암리 510-1",
    "lat": "38.149161562792436",
    "lng": "128.60413339075512",
    "region": "강원특별자치도"
  },
  {
    "name": "옥정고등학교 운동장",
    "address": "경기도 양주시 옥정동 948",
    "lat": "37.827583010259325",
    "lng": "127.08879692024277",
    "region": "경기도"
  },
  {
    "name": "신당근린공원",
    "address": "경기도 평택시 포승읍 만호리 589",
    "lat": "36.97104108776865",
    "lng": "126.84806942939757",
    "region": "경기도"
  },
  {
    "name": "죽곡초등학교",
    "address": "전라남도 곡성군 죽곡면 태평리 614",
    "lat": "35.15332689275576",
    "lng": "127.31824614857496",
    "region": "전라남도"
  },
  {
    "name": "여량중고등학교",
    "address": "강원특별자치도 정선군 여량면 여량리 87",
    "lat": "37.469242480082606",
    "lng": "128.72678518295334",
    "region": "강원특별자치도"
  },
  {
    "name": "서울교육대학교 부설초등학교 운동장",
    "address": "서울특별시 서초구 서초동 1650",
    "lat": "37.490249069611416",
    "lng": "127.01694836191024",
    "region": "서울특별시"
  },
  {
    "name": "강일초등학교운동장",
    "address": "서울특별시 강동구 강일동 685",
    "lat": "37.56497795320228",
    "lng": "127.17731808504132",
    "region": "서울특별시"
  },
  {
    "name": "대전예술고등학교 운동장",
    "address": "대전광역시 유성구 상대동 234-1",
    "lat": "36.34629060668423",
    "lng": "127.33288675546645",
    "region": "대전광역시"
  },
  {
    "name": "신촌초등학교 운동장",
    "address": "경기도 남양주시 평내동 600",
    "lat": "37.645351460340784",
    "lng": "127.2397631406784",
    "region": "경기도"
  },
  {
    "name": "부산교육역사관  버스전용주차장",
    "address": "부산광역시 사하구 감천동 10-2",
    "lat": "35.09714219818317",
    "lng": "129.0108602212753",
    "region": "부산광역시"
  },
  {
    "name": "예미초등학교",
    "address": "강원특별자치도 정선군 신동읍 예미리 616-5",
    "lat": "37.22100804874227",
    "lng": "128.64555180072813",
    "region": "강원특별자치도"
  },
  {
    "name": "서강대학교 대운동장",
    "address": "서울특별시 마포구 대흥동 22-60",
    "lat": "37.55108100041597",
    "lng": "126.94217288606333",
    "region": "서울특별시"
  },
  {
    "name": "성지초등학교 학교운동장",
    "address": "대구광역시 달서구 용산동 412-4",
    "lat": "35.85266423014147",
    "lng": "128.51876109841228",
    "region": "대구광역시"
  },
  {
    "name": "군산동산중학교",
    "address": "전북특별자치도 군산시 지곡동 616",
    "lat": "35.9511583293387",
    "lng": "126.70614570379253",
    "region": "전북특별자치도"
  },
  {
    "name": "문곡중학교",
    "address": "강원특별자치도 정선군 남면 문곡리 313",
    "lat": "37.26577743372471",
    "lng": "128.73979121446655",
    "region": "강원특별자치도"
  },
  {
    "name": "대청초등학교",
    "address": "대구광역시 수성구 만촌동 873",
    "lat": "35.85095254934361",
    "lng": "128.65044414997132",
    "region": "대구광역시"
  },
  {
    "name": "가락초등학교",
    "address": "서울특별시 송파구 가락동 477",
    "lat": "37.499908138511714",
    "lng": "127.10779095722266",
    "region": "서울특별시"
  },
  {
    "name": "연푸른초등학교",
    "address": "경기도 양주시 옥정동 940",
    "lat": "37.81471040234064",
    "lng": "127.08711010871488",
    "region": "경기도"
  },
  {
    "name": "아름어린이공원",
    "address": "서울특별시 성북구 길음동 1287-3",
    "lat": "37.607553246764375",
    "lng": "127.01596766710281",
    "region": "서울특별시"
  },
  {
    "name": "청산초등학교 운동장",
    "address": "충청북도 옥천군 청산면 지전리 34",
    "lat": "36.34654769201468",
    "lng": "127.79337376356125",
    "region": "충청북도"
  },
  {
    "name": "오름소공원",
    "address": "부산광역시 중구 동광동5가 14-1",
    "lat": "35.10855362787045",
    "lng": "129.03285218447053",
    "region": "부산광역시"
  },
  {
    "name": "화동초등학교",
    "address": "강원특별자치도 정선군 화암면 화암리 380",
    "lat": "37.33869619497842",
    "lng": "128.78748357296047",
    "region": "강원특별자치도"
  },
  {
    "name": "잠원흥동소공원",
    "address": "서울특별시 서초구 잠원동 162-1",
    "lat": "37.50774569619525",
    "lng": "127.00042595417143",
    "region": "서울특별시"
  },
  {
    "name": "성산초등학교 운동장",
    "address": "전북특별자치도 군산시 성산면 고봉리 328",
    "lat": "35.990639645651136",
    "lng": "126.78565541880941",
    "region": "전북특별자치도"
  },
  {
    "name": "한국침례신학대학교 운동장",
    "address": "대전광역시 유성구 하기동 363-4",
    "lat": "36.38630576169449",
    "lng": "127.32729703187943",
    "region": "대전광역시"
  },
  {
    "name": "제6호 수변공원",
    "address": "경기도 수원시 권선구 서둔동 393",
    "lat": "37.26129037800236",
    "lng": "126.99057787656784",
    "region": "경기도"
  },
  {
    "name": "가득뜰근린공원",
    "address": "세종특별자치시 세종시 새롬동 571",
    "lat": "36.48652088469602",
    "lng": "127.25411114649579",
    "region": "세종특별자치시"
  },
  {
    "name": "어곡초등학교 운동장",
    "address": "경상남도 양산시 어곡동 11",
    "lat": "35.379978275552084",
    "lng": "129.02941047046778",
    "region": "경상남도"
  },
  {
    "name": "새싹어린이공원",
    "address": "서울특별시 서초구 서초동 1686-10",
    "lat": "37.497541405199364",
    "lng": "127.01827158507066",
    "region": "서울특별시"
  },
  {
    "name": "훈련원공원",
    "address": "서울특별시 중구 을지로5가 40-3",
    "lat": "37.567369594623415",
    "lng": "127.00389236211778",
    "region": "서울특별시"
  },
  {
    "name": "군산금광초등학교 운동장",
    "address": "전북특별자치도 군산시 금광동 168",
    "lat": "35.98202161045195",
    "lng": "126.70719444751735",
    "region": "전북특별자치도"
  },
  {
    "name": "남선초등학교",
    "address": "강원특별자치도 정선군 남면 문곡리 100-1",
    "lat": "37.26860999013641",
    "lng": "128.74122083187152",
    "region": "강원특별자치도"
  },
  {
    "name": "팔봉중학교 운동장",
    "address": "충청남도 서산시 팔봉면 진장리 913",
    "lat": "36.78214018530901",
    "lng": "126.36171519756292",
    "region": "충청남도"
  },
  {
    "name": "송현초등학교 운동장",
    "address": "인천광역시 동구 송현동 66-21",
    "lat": "37.481618389929494",
    "lng": "126.63326203823081",
    "region": "인천광역시"
  },
  {
    "name": "안녕초등학교 운동장",
    "address": "경기도 화성시 안녕동 50-8",
    "lat": "37.205504347724265",
    "lng": "127.00900197029117",
    "region": "경기도"
  },
  {
    "name": "부석초등학교 운동장",
    "address": "충청남도 서산시 부석면 취평리 387-2",
    "lat": "36.716384773318126",
    "lng": "126.39283418655369",
    "region": "충청남도"
  },
  {
    "name": "효령어린이공원",
    "address": "서울특별시 서초구 방배동 906-14",
    "lat": "37.48316265641281",
    "lng": "126.99754937784083",
    "region": "서울특별시"
  },
  {
    "name": "우면수변공원",
    "address": "서울특별시 서초구 우면동 749",
    "lat": "37.45583969678499",
    "lng": "127.01359858095016",
    "region": "서울특별시"
  },
  {
    "name": "서산고등학교 운동장",
    "address": "충청남도 서산시 해미면 읍내리 426",
    "lat": "36.71516352306818",
    "lng": "126.54671788215627",
    "region": "충청남도"
  },
  {
    "name": "정일초등학교 운동장",
    "address": "전북특별자치도 정읍시 용계동 332",
    "lat": "35.589934867146",
    "lng": "126.82074308395386",
    "region": "전북특별자치도"
  },
  {
    "name": "북평초등학교",
    "address": "강원특별자치도 정선군 북평면 북평리 63",
    "lat": "37.454607568651014",
    "lng": "128.67396712303196",
    "region": "강원특별자치도"
  },
  {
    "name": "법전면 생활체육공원",
    "address": "경상북도 봉화군 법전면 법전리 130",
    "lat": "36.90794235827695",
    "lng": "128.87724714716632",
    "region": "경상북도"
  },
  {
    "name": "초당초등학교",
    "address": "강원특별자치도 강릉시 초당동 산16",
    "lat": "37.781573609927875",
    "lng": "128.9139175415048",
    "region": "강원특별자치도"
  },
  {
    "name": "감천문화마을 노외공영주차장",
    "address": "부산광역시 사하구 감천동 17-46",
    "lat": "35.091480849677566",
    "lng": "129.00727467572258",
    "region": "부산광역시"
  },
  {
    "name": "고덕중학교 운동장",
    "address": "서울특별시 강동구 고덕동 223",
    "lat": "37.56019819039517",
    "lng": "127.16131389141083",
    "region": "서울특별시"
  },
  {
    "name": "사북초등학교",
    "address": "강원특별자치도 정선군 사북읍 사북리 268-1",
    "lat": "37.228487477040886",
    "lng": "128.8364553451545",
    "region": "강원특별자치도"
  },
  {
    "name": "정선정보공업고등학교",
    "address": "강원특별자치도 정선군 정선읍 북실리 762-4",
    "lat": "37.380205035149814",
    "lng": "128.64892333745988",
    "region": "강원특별자치도"
  },
  {
    "name": "고한초등학교",
    "address": "강원특별자치도 정선군 고한읍 고한리 74",
    "lat": "37.20288946642045",
    "lng": "128.85310649871897",
    "region": "강원특별자치도"
  },
  {
    "name": "임계초등학교",
    "address": "강원특별자치도 정선군 임계면 송계리 746-2",
    "lat": "37.496069257399604",
    "lng": "128.84820878505778",
    "region": "강원특별자치도"
  },
  {
    "name": "시흥도원초등학교 운동장",
    "address": "경기도 시흥시 신천동 438-1",
    "lat": "37.439765346383076",
    "lng": "126.77772849798201",
    "region": "경기도"
  },
  {
    "name": "함백중고등학교",
    "address": "강원특별자치도 정선군 신동읍 조동리 185",
    "lat": "37.21566392524531",
    "lng": "128.67448747158085",
    "region": "강원특별자치도"
  },
  {
    "name": "중일고등학교 운동장",
    "address": "대전광역시 유성구 관평동 671",
    "lat": "36.420306885006205",
    "lng": "127.38943576812744",
    "region": "대전광역시"
  },
  {
    "name": "일신어린이공원",
    "address": "서울특별시 성북구 종암동 134-8",
    "lat": "37.600001073072384",
    "lng": "127.0395764708519",
    "region": "서울특별시"
  },
  {
    "name": "성북동길 공영주차",
    "address": "서울특별시 성북구 성북동 230-20",
    "lat": "37.594847560098486",
    "lng": "126.99373215436938",
    "region": "서울특별시"
  },
  {
    "name": "성북동 우리마을 공동 제9호 주차장",
    "address": "서울특별시 성북구 성북동 348-19",
    "lat": "37.59535973962962",
    "lng": "126.9894701242447",
    "region": "서울특별시"
  },
  {
    "name": "새롬뜰근린공원",
    "address": "세종특별자치시 세종시 새롬동 559",
    "lat": "36.48943757841489",
    "lng": "127.25265383720398",
    "region": "세종특별자치시"
  },
  {
    "name": "오산 영만초등학교 운동장",
    "address": "전북특별자치도 익산시 오산면 장신리 1129",
    "lat": "35.94739538406395",
    "lng": "126.9314056634903",
    "region": "전북특별자치도"
  },
  {
    "name": "동면초등학교 운동장",
    "address": "경상남도 양산시 동면 내송리 884",
    "lat": "35.32043327363",
    "lng": "129.06889962131112",
    "region": "경상남도"
  },
  {
    "name": "사송초등학교 운동장",
    "address": "경상남도 양산시 동면 사송리 340-3",
    "lat": "35.312512467099",
    "lng": "129.07343024767306",
    "region": "경상남도"
  },
  {
    "name": "북서울꿈의숲",
    "address": "서울특별시 강북구 번동 90",
    "lat": "37.621556950735304",
    "lng": "127.04089879989624",
    "region": "서울특별시"
  },
  {
    "name": "미단시티8호근린공원",
    "address": "인천광역시 중구 운북동 1265-5",
    "lat": "37.529136109054754",
    "lng": "126.51444554328909",
    "region": "인천광역시"
  },
  {
    "name": "물금동아중학교 운동장",
    "address": "경상남도 양산시 물금읍 물금리 95",
    "lat": "35.30779436934641",
    "lng": "128.99328971954586",
    "region": "경상남도"
  },
  {
    "name": "누리숲어린이공원",
    "address": "서울특별시 서초구 서초동 1301-25",
    "lat": "37.502051171664824",
    "lng": "127.02119454107283",
    "region": "서울특별시"
  },
  {
    "name": "서래상상어린이공원",
    "address": "서울특별시 서초구 반포동 71-6",
    "lat": "37.498288569307874",
    "lng": "127.00033058648194",
    "region": "서울특별시"
  },
  {
    "name": "햇님어린이공원",
    "address": "서울특별시 서초구 방배동 424-29",
    "lat": "37.482956022104354",
    "lng": "126.98513140166159",
    "region": "서울특별시"
  },
  {
    "name": "이수중학교 운동장",
    "address": "서울특별시 서초구 방배동 974-22",
    "lat": "37.48081588952908",
    "lng": "126.99038904370737",
    "region": "서울특별시"
  },
  {
    "name": "서울특별시교육청 교육연수원",
    "address": "서울특별시 서초구 방배동 645",
    "lat": "37.47166357779152",
    "lng": "126.99724539416387",
    "region": "서울특별시"
  },
  {
    "name": "청계산수변공원",
    "address": "서울특별시 서초구 신원동 296",
    "lat": "37.45193133462738",
    "lng": "127.05331911730738",
    "region": "서울특별시"
  },
  {
    "name": "정일중학교 운동장",
    "address": "전북특별자치도 정읍시 공평동 348",
    "lat": "35.581602324286955",
    "lng": "126.83035612106322",
    "region": "전북특별자치도"
  },
  {
    "name": "배영고등학교 운동장",
    "address": "전북특별자치도 정읍시 흑암동 520",
    "lat": "35.60121513756891",
    "lng": "126.81331872940059",
    "region": "전북특별자치도"
  },
  {
    "name": "정읍북초등학교 운동장",
    "address": "전북특별자치도 정읍시 농소동 14-1",
    "lat": "35.5793074507843",
    "lng": "126.8495553731918",
    "region": "전북특별자치도"
  },
  {
    "name": "용두산 공영주차장",
    "address": "부산광역시 중구 대청동1가 43-1",
    "lat": "35.102404099254684",
    "lng": "129.0330332335778",
    "region": "부산광역시"
  },
  {
    "name": "용두희망어린이공원",
    "address": "서울특별시 동대문구 용두동 716-1",
    "lat": "37.58007775102964",
    "lng": "127.02644335586035",
    "region": "서울특별시"
  },
  {
    "name": "용연초등학교 운동장",
    "address": "경상남도 양산시 하북면 백록리 1245-1",
    "lat": "35.44921699027765",
    "lng": "129.0750616634685",
    "region": "경상남도"
  },
  {
    "name": "탑리여자중학교",
    "address": "경상북도 의성군 금성면 탑리리 712",
    "lat": "36.25548261452813",
    "lng": "128.6832439347252",
    "region": "경상북도"
  },
  {
    "name": "서울지방조달청 테니스장",
    "address": "서울특별시 서초구 반포동 520-3",
    "lat": "37.49930053915296",
    "lng": "127.00245251192823",
    "region": "서울특별시"
  },
  {
    "name": "누에소공원",
    "address": "서울특별시 서초구 잠원동 160-3",
    "lat": "37.50923035629753",
    "lng": "127.0084487394236",
    "region": "서울특별시"
  },
  {
    "name": "농업기술센터",
    "address": "경상북도 포항시 북구 흥해읍 매산리 16-1",
    "lat": "36.11353285143884",
    "lng": "129.30520280666585",
    "region": "경상북도"
  },
  {
    "name": "남정리 승강장 앞 공터",
    "address": "경상북도 영덕군 남정면 남정리 532-23",
    "lat": "36.3464351327802",
    "lng": "129.36163504720255",
    "region": "경상북도"
  },
  {
    "name": "기쁨의 수양원 운동장",
    "address": "경상북도 영덕군 남정면 도천리 97-1",
    "lat": "36.306936907410986",
    "lng": "129.3546169228912",
    "region": "경상북도"
  },
  {
    "name": "달산면 행복센터",
    "address": "경상북도 영덕군 달산면 대지리 463",
    "lat": "36.39973096666338",
    "lng": "129.302752017978",
    "region": "경상북도"
  },
  {
    "name": "온천공원",
    "address": "경기도 이천시 갈산동 792",
    "lat": "37.28186416959646",
    "lng": "127.45329380035399",
    "region": "경기도"
  },
  {
    "name": "어린이 24공원",
    "address": "전북특별자치도 군산시 나운동 791-5",
    "lat": "35.96624908155881",
    "lng": "126.69400485793194",
    "region": "전북특별자치도"
  },
  {
    "name": "전주서문초등학교",
    "address": "전북특별자치도 전주시 완산구 서신동 820",
    "lat": "35.829634477978644",
    "lng": "127.11237853091657",
    "region": "전북특별자치도"
  },
  {
    "name": "전주여울초등학교",
    "address": "전북특별자치도 전주시 완산구 서신동 923",
    "lat": "35.83727529224364",
    "lng": "127.11157354198807",
    "region": "전북특별자치도"
  },
  {
    "name": "대야면 행정복지센터",
    "address": "전북특별자치도 군산시 대야면 지경리 731-6",
    "lat": "35.946487842351736",
    "lng": "126.81134069930089",
    "region": "전북특별자치도"
  },
  {
    "name": "전주하가초등학교(운동장)",
    "address": "전북특별자치도 전주시 덕진구 덕진동2가 685",
    "lat": "35.84358738106876",
    "lng": "127.10720140312638",
    "region": "전북특별자치도"
  },
  {
    "name": "전주북초등학교(운동장)",
    "address": "전북특별자치도 전주시 덕진구 호성동1가 736",
    "lat": "35.85671073544044",
    "lng": "127.15133792529089",
    "region": "전북특별자치도"
  },
  {
    "name": "수락마을 광장",
    "address": "전북특별자치도 고창군 해리면 평지리 산1",
    "lat": "35.458788",
    "lng": "126.550433",
    "region": "전북특별자치도"
  },
  {
    "name": "대전대룡초등학교 운동장",
    "address": "대전광역시 동구 용운동 158-1",
    "lat": "36.33000408832579",
    "lng": "127.45550554286226",
    "region": "대전광역시"
  },
  {
    "name": "대전대암초등학교 운동장",
    "address": "대전광역시 동구 판암동 235",
    "lat": "36.32328954290586",
    "lng": "127.45756479588783",
    "region": "대전광역시"
  },
  {
    "name": "가운중학교 운동장",
    "address": "경기도 남양주시 다산동 678",
    "lat": "37.59908940542421",
    "lng": "127.15685874223709",
    "region": "경기도"
  },
  {
    "name": "진전리 경로당",
    "address": "경상북도 포항시 남구 오천읍 진전리 158",
    "lat": "35.88430844806439",
    "lng": "129.39947515726433",
    "region": "경상북도"
  },
  {
    "name": "계룡중학교",
    "address": "경상남도 거제시 고현동 293-3",
    "lat": "34.8855954",
    "lng": "128.6286166",
    "region": "경상남도"
  },
  {
    "name": "대성마을회관 앞 공���",
    "address": "경상북도 경주시 암곡동 1337-1",
    "lat": "35.8543310",
    "lng": "129.3039280",
    "region": "경상북도"
  },
  {
    "name": "소양서초등학교 운동장",
    "address": "전북특별자치도 완주군 소양면 명덕리 1002",
    "lat": "35.8590440070302",
    "lng": "127.21045432389666",
    "region": "전북특별자치도"
  },
  {
    "name": "벽량초등학교",
    "address": "전북특별자치도 김제시 부량면 대평리 66",
    "lat": "35.73053430948261",
    "lng": "126.84769077212071",
    "region": "전북특별자치도"
  },
  {
    "name": "전라북도립여성중고등학교(운동장)",
    "address": "전북특별자치도 전주시 덕진구 송천동1가 283-1",
    "lat": "35.85364776075307",
    "lng": "127.12049124783448",
    "region": "전북특별자치도"
  },
  {
    "name": "효행초등학교 운동장",
    "address": "경기도 화성시 봉담읍 와우리 592",
    "lat": "37.21557617",
    "lng": "126.9682108",
    "region": "경기도"
  },
  {
    "name": "아인초등학교 운동장",
    "address": "경기도 화성시 청계동 515",
    "lat": "37.20056019",
    "lng": "127.10585432",
    "region": "경기도"
  },
  {
    "name": "중리초등학교",
    "address": "대구광역시 서구 이현동 48-60",
    "lat": "35.8694",
    "lng": "128.5452",
    "region": "대구광역시"
  },
  {
    "name": "달서초등학교",
    "address": "대구광역시 서구 중리동 65-2",
    "lat": "35.8663",
    "lng": "128.5505",
    "region": "대구광역시"
  },
  {
    "name": "의정부효자초등학교",
    "address": "경기도 의정부시 신곡동 784-1",
    "lat": "37.749929",
    "lng": "127.077851",
    "region": "경기도"
  },
  {
    "name": "선부초등학교 운동장",
    "address": "경기도 안산시 단원구 선부동 1086-1",
    "lat": "37.337891",
    "lng": "126.813909",
    "region": "경기도"
  },
  {
    "name": "전주기전중. 여자고등학교(운동장)",
    "address": "전북특별자치도 전주시 완산구 효자동3가 393",
    "lat": "35.82701866069537",
    "lng": "127.1001159330344",
    "region": "전북특별자치도"
  },
  {
    "name": "서대구공단완충녹지",
    "address": "대구광역시 서구 중리동 342-46",
    "lat": "35.865778160502416",
    "lng": "128.54634895921285",
    "region": "대구광역시"
  },
  {
    "name": "월곡근린공원",
    "address": "전북특별자치도 고창군 고창읍 월곡리 587",
    "lat": "35.4380889069709",
    "lng": "126.71182061758958",
    "region": "전북특별자치도"
  },
  {
    "name": "월곡공원",
    "address": "전북특별자치도 고창군 고창읍 교촌리 459",
    "lat": "35.43638119821828",
    "lng": "126.70982301235237",
    "region": "전북특별자치도"
  },
  {
    "name": "상하초등학교",
    "address": "전북특별자치도 고창군 상하면 장산리 78",
    "lat": "35.44398817940673",
    "lng": "126.48761361389633",
    "region": "전북특별자치도"
  },
  {
    "name": "완주중학교 운동장",
    "address": "전북특별자치도 완주군 봉동읍 낙평리 889",
    "lat": "35.934548116191145",
    "lng": "127.15913009028536",
    "region": "전북특별자치도"
  },
  {
    "name": "고산중학교 운동장",
    "address": "전북특별자치도 완주군 고산면 읍내리 744-1",
    "lat": "35.97803498236348",
    "lng": "127.20885525468275",
    "region": "전북특별자치도"
  },
  {
    "name": "대양초등학교 운동장",
    "address": "경기도 화성시 남양읍 남양리 2311",
    "lat": "37.20015912602784",
    "lng": "126.8221968412399",
    "region": "경기도"
  },
  {
    "name": "한백초등학교 운동장",
    "address": "경기도 화성시 영천동 715",
    "lat": "37.20833851153371",
    "lng": "127.11464818306038",
    "region": "경기도"
  },
  {
    "name": "청일초등학교 운동장",
    "address": "인천광역시 서구 청라동 173-2",
    "lat": "37.52880524399607",
    "lng": "126.63706703104991",
    "region": "인천광역시"
  },
  {
    "name": "칠보중학교 운동장",
    "address": "전북특별자치도 정읍시 칠보면 와우리 711-1",
    "lat": "35.61254638422477",
    "lng": "126.99395766826318",
    "region": "전북특별자치도"
  },
  {
    "name": "경운초등학교",
    "address": "대구광역시 서구 내당동 296",
    "lat": "35.8615",
    "lng": "128.5529",
    "region": "대구광역시"
  },
  {
    "name": "평리초등학교",
    "address": "대구광역시 서구 평리동 1070-37",
    "lat": "35.8727",
    "lng": "128.5599",
    "region": "대구광역시"
  },
  {
    "name": "안평중학교 신평분교(신평면 다목적구장)",
    "address": "경상북도 의성군 신평면 중율리 550",
    "lat": "36.49803684894714",
    "lng": "128.50663483142867",
    "region": "경상북도"
  },
  {
    "name": "와동구판장 앞 공터",
    "address": "경상북도 경주시 암곡동 610-2",
    "lat": "35.8621700",
    "lng": "129.3145560",
    "region": "경상북도"
  },
  {
    "name": "구이중학교 운동장",
    "address": "전북특별자치도 완주군 구이면 두현리 554-1",
    "lat": "35.734412554321224",
    "lng": "127.11920353601464",
    "region": "전북특별자치도"
  },
  {
    "name": "전주예술중학교 운동장",
    "address": "전북특별자치도 완주군 구이면 항가리 499-3",
    "lat": "35.72041897635335",
    "lng": "127.109430247314",
    "region": "전북특별자치도"
  },
  {
    "name": "전북체육고등학교 운동장",
    "address": "전북특별자치도 완주군 소양면 해월리 377-19",
    "lat": "35.86540375750887",
    "lng": "127.24941971517173",
    "region": "전북특별자치도"
  },
  {
    "name": "목4동 소공원",
    "address": "서울특별시 양천구 목동 904-5",
    "lat": "37.53264593582882",
    "lng": "126.86884009162503",
    "region": "서울특별시"
  },
  {
    "name": "의정부시상설야외무대",
    "address": "경기도 의정부시 의정부동 477-1",
    "lat": "37.73966609641024",
    "lng": "127.0357994110328",
    "region": "경기도"
  },
  {
    "name": "경덕여자고등학교",
    "address": "대구광역시 서구 중리동 100-1",
    "lat": "35.8643",
    "lng": "128.5494",
    "region": "대구광역시"
  },
  {
    "name": "인지초등학교",
    "address": "대구광역시 서구 비산동 1025-10",
    "lat": "35.8868",
    "lng": "128.5666",
    "region": "대구광역시"
  },
  {
    "name": "구현마을 광장",
    "address": "전북특별자치도 고창군 부안면 상등리 278-7",
    "lat": "35.504160",
    "lng": "126.669520",
    "region": "전북특별자치도"
  },
  {
    "name": "진마마을 광장",
    "address": "전북특별자치도 고창군 부안면 선운리 514",
    "lat": "35.536500",
    "lng": "126.608262",
    "region": "전북특별자치도"
  },
  {
    "name": "용반마을 광장",
    "address": "전북특별자치도 고창군 해리면 왕촌리 1272-2",
    "lat": "35.472428",
    "lng": "126.499292",
    "region": "전북특별자치도"
  },
  {
    "name": "흥덕면사무소 광장",
    "address": "전북특별자치도 고창군 흥덕면 동사리 437-57",
    "lat": "35.518026",
    "lng": "126.703920",
    "region": "전북특별자치도"
  },
  {
    "name": "전북하이텍고등학교 운동장",
    "address": "전북특별자치도 완주군 삼례읍 후정리 69-3",
    "lat": "35.90641241762846",
    "lng": "127.06860300298958",
    "region": "전북특별자치도"
  },
  {
    "name": "해원초등학교 운동장",
    "address": "인천광역시 서구 청라동 103-3",
    "lat": "37.52731536388553",
    "lng": "126.62572975699636",
    "region": "인천광역시"
  },
  {
    "name": "청람초등학교 운동장",
    "address": "인천광역시 서구 청라동 149-1",
    "lat": "37.538233064926885",
    "lng": "126.64494827523636",
    "region": "인천광역시"
  },
  {
    "name": "경서초등학교 운동장",
    "address": "인천광역시 서구 경서동 741",
    "lat": "37.55623237890773",
    "lng": "126.65155956469945",
    "region": "인천광역시"
  },
  {
    "name": "변산서중학교 운동장",
    "address": "전북특별자치도 부안군 변산면 운산리 525-4",
    "lat": "35.66319769280164",
    "lng": "126.52103304862959",
    "region": "전북특별자치도"
  },
  {
    "name": "활기체육공원",
    "address": "경기도 의정부시 민락동 888",
    "lat": "37.749554",
    "lng": "127.108859",
    "region": "경기도"
  },
  {
    "name": "고산초등학교",
    "address": "전북특별자치도 완주군 고산면 읍내리 132",
    "lat": "35.974951545581305",
    "lng": "127.2140350758636",
    "region": "전북특별자치도"
  },
  {
    "name": "봉서중학교 운동장",
    "address": "전북특별자치도 완주군 봉동읍 둔산리 857-2",
    "lat": "35.96552184326908",
    "lng": "127.12532111162844",
    "region": "전북특별자치도"
  },
  {
    "name": "동명초등학교 운동장",
    "address": "인천광역시 동구 송림동 114",
    "lat": "37.474431087926526",
    "lng": "126.6425287069402",
    "region": "인천광역시"
  },
  {
    "name": "한국전통문화고등학교(운동장)",
    "address": "전북특별자치도 전주시 완산구 중인동 676-1",
    "lat": "35.77218165971073",
    "lng": "127.09782609278479",
    "region": "전북특별자치도"
  },
  {
    "name": "전주우전중학교(운동장)",
    "address": "전북특별자치도 전주시 완산구 효자동2가 188",
    "lat": "35.805285342516356",
    "lng": "127.10599456980309",
    "region": "전북특별자치도"
  },
  {
    "name": "남부공원",
    "address": "전북특별자치도 고창군 고창읍 덕산리 3-3",
    "lat": "35.42763906600804",
    "lng": "126.69872087672024",
    "region": "전북특별자치도"
  },
  {
    "name": "양남초등학교 상계분교 운동장",
    "address": "경상북도 경주시 양남면 상계리 73-2",
    "lat": "35.6693590",
    "lng": "129.4248190",
    "region": "경상북도"
  },
  {
    "name": "삼우초등학교 운동장",
    "address": "전북특별자치도 완주군 고산면 어우리 168-7",
    "lat": "35.967106456572786",
    "lng": "127.17999463563213",
    "region": "전북특별자치도"
  },
  {
    "name": "초은초등학교 운동장",
    "address": "인천광역시 서구 청라동 192-3",
    "lat": "37.527744414019296",
    "lng": "126.65587800442844",
    "region": "인천광역시"
  },
  {
    "name": "검단고등학교 운동장",
    "address": "인천광역시 서구 마전동 249-16",
    "lat": "37.604000164221254",
    "lng": "126.66512533082353",
    "region": "인천광역시"
  },
  {
    "name": "산외중학교 운동장",
    "address": "전북특별자치도 정읍시 산외면 정량리 1175-1",
    "lat": "35.61940264976699",
    "lng": "127.04477746980217",
    "region": "전북특별자치도"
  },
  {
    "name": "보안중학교 운동장",
    "address": "전북특별자치도 부안군 보안면 영전리 398-1",
    "lat": "35.60966775515778",
    "lng": "126.67315185069884",
    "region": "전북특별자치도"
  },
  {
    "name": "도동초등학교 운동장",
    "address": "경상남도 진주시 하대동 343-3",
    "lat": "35.189244",
    "lng": "128.117592",
    "region": "경상남도"
  },
  {
    "name": "다정초등학교 운동장",
    "address": "세종특별자치시 세종시 다정동 959",
    "lat": "36.49361226831283",
    "lng": "127.24461793899535",
    "region": "세종특별자치시"
  },
  {
    "name": "아침뜰 근린공원(1)",
    "address": "세종특별자치시 세종시 한솔동 963",
    "lat": "36.47927693870312",
    "lng": "127.25168366355884",
    "region": "세종특별자치시"
  },
  {
    "name": "아울뜰 근린공원",
    "address": "세종특별자치시 세종시 보람동 733",
    "lat": "36.474508",
    "lng": "127.282675",
    "region": "세종특별자치시"
  },
  {
    "name": "조치원청사 주차장",
    "address": "세종특별자치시 세종시 조치원읍 신흥리 123-2",
    "lat": "36.59307175522388",
    "lng": "127.29307083954194",
    "region": "세종특별자치시"
  },
  {
    "name": "제1호 어린이공원",
    "address": "세종특별자치시 세종시 조치원읍 교리 20-1",
    "lat": "36.6031569135994",
    "lng": "127.30008531891414",
    "region": "세종특별자치시"
  },
  {
    "name": "대평전통시장 주차장",
    "address": "세종특별자치시 세종시 금남면 용포리 135-17",
    "lat": "36.465460517921876",
    "lng": "127.28144920218746",
    "region": "세종특별자치시"
  },
  {
    "name": "소양초등학교 운동장",
    "address": "인천광역시 계양구 박촌동 71-2",
    "lat": "37.555758504989896",
    "lng": "126.74231261014938",
    "region": "인천광역시"
  },
  {
    "name": "화랑초등학교 운동장",
    "address": "부산광역시 서구 동대신동1가 348",
    "lat": "35.108414708129246",
    "lng": "129.02119420455415",
    "region": "부산광역시"
  },
  {
    "name": "한홀초등학교 운동장",
    "address": "경기도 하남시 풍산동 483",
    "lat": "37.556009",
    "lng": "127.184954",
    "region": "경기도"
  },
  {
    "name": "광주동명중학교 운동장",
    "address": "광주광역시 서구 쌍촌동 1320-1",
    "lat": "35.15924469485101",
    "lng": "126.85643792152402",
    "region": "광주광역시"
  },
  {
    "name": "금당초등학교 운동장",
    "address": "광주광역시 서구 풍암동 1141",
    "lat": "35.126656766369074",
    "lng": "126.88343167304993",
    "region": "광주광역시"
  },
  {
    "name": "나리꽃 어린이공원",
    "address": "세종특별자치시 세종시 한솔동 985",
    "lat": "36.47563558707428",
    "lng": "127.25118079127907",
    "region": "세종특별자치시"
  },
  {
    "name": "광주신광중학교 운동장",
    "address": "광주광역시 북구 두암동 576-5",
    "lat": "35.1787631265127",
    "lng": "126.93148612976077",
    "region": "광주광역시"
  },
  {
    "name": "인천경연초중학교 운동장",
    "address": "인천광역시 서구 청라동 84-2",
    "lat": "37.538346643753584",
    "lng": "126.62540180051849",
    "region": "인천광역시"
  },
  {
    "name": "숲바람 수변공원",
    "address": "세종특별자치시 세종시 소담동 547",
    "lat": "36.486033",
    "lng": "127.295344",
    "region": "세종특별자치시"
  },
  {
    "name": "대덕초등학교",
    "address": "충청남도 당진시 대덕동 1882",
    "lat": "36.88333152045308",
    "lng": "126.63971195808662",
    "region": "충청남도"
  },
  {
    "name": "단촌고운마을주차장",
    "address": "경상북도 의성군 단촌면 구계리 678-1",
    "lat": "36.45957531188443",
    "lng": "128.72474349087054",
    "region": "경상북도"
  },
  {
    "name": "대평뜰 근린공원",
    "address": "세종특별자치시 세종시 대평동 268-6",
    "lat": "36.46913385526345",
    "lng": "127.27531126336407",
    "region": "세종특별자치시"
  },
  {
    "name": "고강초등학교",
    "address": "경기도 부천시 오정구 고강동 384",
    "lat": "37.52680909620036",
    "lng": "126.8196268110812",
    "region": "경기도"
  },
  {
    "name": "도원초등학교",
    "address": "경기도 부천시 소사구 심곡본동 802",
    "lat": "37.47731702611481",
    "lng": "126.77321917426848",
    "region": "경기도"
  },
  {
    "name": "부광초등학교",
    "address": "경기도 부천시 원미구 중동 1029-3",
    "lat": "37.50676407828404",
    "lng": "126.76195442676543",
    "region": "경기도"
  },
  {
    "name": "부천남초등학교",
    "address": "경기도 부천시 소사구 심곡본동 731",
    "lat": "37.48164322600625",
    "lng": "126.78263178180502",
    "region": "경기도"
  },
  {
    "name": "부천부흥초등학교",
    "address": "경기도 부천시 원미구 중동 1038-2",
    "lat": "37.50717686000311",
    "lng": "126.76632642745969",
    "region": "경기도"
  },
  {
    "name": "송당초등학교 운동장",
    "address": "제주특별자치도 제주시 구좌읍 송당리 1366",
    "lat": "33.47081078867102",
    "lng": "126.78083717823027",
    "region": "제주특별자치도"
  },
  {
    "name": "산짓물공원",
    "address": "제주특별자치도 제주시 건입동 1342-1",
    "lat": "33.5156122837264",
    "lng": "126.52881413698185",
    "region": "제주특별자치도"
  },
  {
    "name": "세화공원",
    "address": "제주특별자치도 제주시 구좌읍 상도리 471-31",
    "lat": "33.52242587704319",
    "lng": "126.8633311986923",
    "region": "제주특별자치도"
  },
  {
    "name": "용현여자중학교 운동장",
    "address": "인천광역시 미추홀구 용현동 627-38",
    "lat": "37.448871",
    "lng": "126.640424",
    "region": "인천광역시"
  },
  {
    "name": "학산초등학교 운동장",
    "address": "인천광역시 미추홀구 학익동 721-7",
    "lat": "37.439954807719495",
    "lng": "126.65832145732942",
    "region": "인천광역시"
  },
  {
    "name": "제물포여자중학교 운동장",
    "address": "인천광역시 미추홀구 주안동 1529",
    "lat": "37.44922257507714",
    "lng": "126.68820111399138",
    "region": "인천광역시"
  },
  {
    "name": "노형제2근린공원",
    "address": "제주특별자치도 제주시 노형동 2582-1",
    "lat": "33.48951799108436",
    "lng": "126.47202104329534",
    "region": "제주특별자치도"
  },
  {
    "name": "해안초등학교 운동장",
    "address": "제주특별자치도 제주시 해안동 1948",
    "lat": "33.456593",
    "lng": "126.454275",
    "region": "제주특별자치도"
  },
  {
    "name": "삼화제6근린공원",
    "address": "제주특별자치도 제주시 도련일동 1912",
    "lat": "33.51383965291832",
    "lng": "126.58326863428192",
    "region": "제주특별자치도"
  },
  {
    "name": "광령초등학교운동장",
    "address": "제주특별자치도 제주시 애월읍 광령리 1223",
    "lat": "33.45995444371658",
    "lng": "126.43674837153503",
    "region": "제주특별자치도"
  },
  {
    "name": "하귀초등학교 운동장",
    "address": "제주특별자치도 제주시 애월읍 하귀2리 1908-2",
    "lat": "33.479506580507525",
    "lng": "126.40203619417761",
    "region": "제주특별자치도"
  },
  {
    "name": "탐라문화광장",
    "address": "제주특별자치도 제주시 일도일동 1478-12",
    "lat": "33.51332233076283",
    "lng": "126.52713507413851",
    "region": "제주특별자치도"
  },
  {
    "name": "월랑초등학교 운동장",
    "address": "제주특별자치도 제주시 노형동 1094-4",
    "lat": "33.49310147377436",
    "lng": "126.47808551788316",
    "region": "제주특별자치도"
  },
  {
    "name": "삼도1동 1호 어린이공원",
    "address": "제주특별자치도 제주시 삼도일동 785-1",
    "lat": "33.50607368147487",
    "lng": "126.51904199142066",
    "region": "제주특별자치도"
  },
  {
    "name": "삼무공원",
    "address": "제주특별자치도 제주시 연동 270-5",
    "lat": "33.49139176657955",
    "lng": "126.49146712993046",
    "region": "제주특별자치도"
  },
  {
    "name": "신제주초등학교 운동장",
    "address": "제주특별자치도 제주시 연동 316",
    "lat": "33.48291879087327",
    "lng": "126.49772674912619",
    "region": "제주특별자치도"
  },
  {
    "name": "제주중앙중학교 운동장",
    "address": "제주특별자치도 제주시 연동 323-14",
    "lat": "33.48623891831813",
    "lng": "126.50055687155928",
    "region": "제주특별자치도"
  },
  {
    "name": "한경축구장",
    "address": "제주특별자치도 제주시 한경면 고산리 1881-2",
    "lat": "33.30129605431293",
    "lng": "126.18451608978162",
    "region": "제주특별자치도"
  },
  {
    "name": "43호 어린이공원",
    "address": "제주특별자치도 제주시 도두일동 2620",
    "lat": "33.50401998556208",
    "lng": "126.4648207495811",
    "region": "제주특별자치도"
  },
  {
    "name": "구엄초등학교 운동장",
    "address": "제주특별자치도 제주시 애월읍 구엄리 1065",
    "lat": "33.4733153217708",
    "lng": "126.3748735664481",
    "region": "제주특별자치도"
  },
  {
    "name": "도평초등학교 운동장",
    "address": "제주특별자치도 제주시 도평동 866",
    "lat": "33.48052285590538",
    "lng": "126.44720030757954",
    "region": "제주특별자치도"
  },
  {
    "name": "삼화초등학교 운동장",
    "address": "제주특별자치도 제주시 화북일동 1012-2",
    "lat": "33.51520936435685",
    "lng": "126.57693931889506",
    "region": "제주특별자치도"
  },
  {
    "name": "동화초등학교 운동장",
    "address": "제주특별자치도 제주시 화북일동 12-2",
    "lat": "33.518986602666864",
    "lng": "126.57590533408562",
    "region": "제주특별자치도"
  },
  {
    "name": "제주대학교교육대학부설초등학교 운동장",
    "address": "제주특별자치도 제주시 화북일동 4810",
    "lat": "33.51552284289133",
    "lng": "126.55129368069947",
    "region": "제주특별자치도"
  },
  {
    "name": "표선 생활체육 인조잔디구장",
    "address": "제주특별자치도 서귀포시 표선면 하천리 1832-1",
    "lat": "33.35444056599063",
    "lng": "126.81459939424316",
    "region": "제주특별자치도"
  }
]