[
  {
    "name": "한벌초등학교 운동장",
    "address": "충청북도 청주시 서원구 사직동 560",
    "lat": "36.63644443309886",
    "lng": "127.47493654489516",
    "region": "충청북도"
  },
  {
    "name": "제주중학교 운동장",
    "address": "제주특별자치도 제주시 용담일동 298-1",
    "lat": "33.51150351975947",
    "lng": "126.515913639469",
    "region": "제주특별자치도"
  },
  {
    "name": "밀성중학교 운동장",
    "address": "경상남도 밀양시 내이동 602-7",
    "lat": "35.501376111755455",
    "lng": "128.75162603667343",
    "region": "경상남도"
  },
  {
    "name": "노형초등학교 운동장",
    "address": "제주특별자치도 제주시 노형동 2610-1",
    "lat": "33.48474853085729",
    "lng": "126.47615635053972",
    "region": "제주특별자치도"
  },
  {
    "name": "도리초등학교 운동장",
    "address": "제주특별자치도 제주시 도두일동 2430-1",
    "lat": "33.50174835052793",
    "lng": "126.46471601415924",
    "region": "제주특별자치도"
  },
  {
    "name": "마산삼진중학교운동장",
    "address": "경상남도 창원시 마산합포구 진동면 진동리 241-1",
    "lat": "35.11421839247865",
    "lng": "128.4888441546134",
    "region": "경상남도"
  },
  {
    "name": "신둔초등학교 운동장",
    "address": "경기도 이천시 신둔면 수광리 262-1",
    "lat": "37.31024527977572",
    "lng": "127.40344410319517",
    "region": "경기도"
  },
  {
    "name": "반여초등학교운동장",
    "address": "부산광역시 해운대구 반여동 1600-12",
    "lat": "35.202726104472234",
    "lng": "129.12854254246167",
    "region": "부산광역시"
  },
  {
    "name": "백사초등학교 운동장",
    "address": "경기도 이천시 백사면 현방리 87-8",
    "lat": "37.338896262674105",
    "lng": "127.4905858288404",
    "region": "경기도"
  },
  {
    "name": "부흥고등학교운동장",
    "address": "부산광역시 해운대구 좌동 1306",
    "lat": "35.173545222376326",
    "lng": "129.17976737022826",
    "region": "부산광역시"
  },
  {
    "name": "삼어초등학교운동장",
    "address": "부산광역시 해운대구 반여동 1132-2",
    "lat": "35.208213885378754",
    "lng": "129.11626338958496",
    "region": "부산광역시"
  },
  {
    "name": "상당초등학교운동장",
    "address": "부산광역시 해운대구 좌동 1405",
    "lat": "35.17966156322418",
    "lng": "129.17642906689287",
    "region": "부산광역시"
  },
  {
    "name": "송정초등학교운동장",
    "address": "부산광역시 해운대구 송정동 935",
    "lat": "35.189042294643805",
    "lng": "129.2046797275525",
    "region": "부산광역시"
  },
  {
    "name": "율면초등학교 운동장",
    "address": "경기도 이천시 율면 고당리 545",
    "lat": "37.08787660027576",
    "lng": "127.5425254833632",
    "region": "경기도"
  },
  {
    "name": "밀양고등학교 운동장",
    "address": "경상남도 밀양시 내이동 1025",
    "lat": "35.49336523482348",
    "lng": "128.7462599798753",
    "region": "경상남도"
  },
  {
    "name": "광주교육대학교 ��설초등학교 운동장",
    "address": "광주광역시 북구 풍향동 1-1",
    "lat": "35.16423985975892",
    "lng": "126.9254243373871",
    "region": "광주광역시"
  },
  {
    "name": "교동초등학교 운동장",
    "address": "경상남도 창원시 마산회원구 회원동 639-2",
    "lat": "35.22098997538307",
    "lng": "128.56227118638708",
    "region": "경상남도"
  },
  {
    "name": "경남혜림학교 운동장",
    "address": "경상남도 창원시 마산회원구 합성동 599",
    "lat": "35.24338826902354",
    "lng": "128.5803762273991",
    "region": "경상남도"
  },
  {
    "name": "창원예술학교 운동장",
    "address": "경상남도 창원시 마산회원구 구암동 1333",
    "lat": "35.25657622011293",
    "lng": "128.59776092515077",
    "region": "경상남도"
  },
  {
    "name": "봉덕초등학교 운동장",
    "address": "경상남도 창원시 마산회원구 봉암동 435-3",
    "lat": "35.22208284077472",
    "lng": "128.59470102441855",
    "region": "경상남도"
  },
  {
    "name": "밀양공설화장시설 앞 공원",
    "address": "경상남도 밀양시 교동 477-3",
    "lat": "35.49898191879872",
    "lng": "128.75894885329677",
    "region": "경상남도"
  },
  {
    "name": "미리벌초등학교 운동장",
    "address": "경상남도 밀양시 삼문동 586-1",
    "lat": "35.47996512800062",
    "lng": "128.74923625393882",
    "region": "경상남도"
  },
  {
    "name": "밀주초등학교 운동장",
    "address": "경상남도 밀양시 가곡동 728-4",
    "lat": "35.47668916618067",
    "lng": "128.7624961173659",
    "region": "경상남도"
  },
  {
    "name": "창원초교운동장",
    "address": "경상남도 창원시 의창구 서상동 513",
    "lat": "35.265521314648105",
    "lng": "128.6191864456974",
    "region": "경상남도"
  },
  {
    "name": "명서초등학교운동장",
    "address": "경상남도 창원시 의창구 명서동 28-2",
    "lat": "35.25045343147065",
    "lng": "128.64321291446717",
    "region": "경상남도"
  },
  {
    "name": "운송초등학교운동장",
    "address": "부산광역시 해운대구 반송동 683-1",
    "lat": "35.228737177074066",
    "lng": "129.14649724960464",
    "region": "부산광역시"
  },
  {
    "name": "인지중학교운동장",
    "address": "부산광역시 해운대구 반여동 1621",
    "lat": "35.20342743899613",
    "lng": "129.12531852721986",
    "region": "부산광역시"
  },
  {
    "name": "인지초등학교운동장",
    "address": "부산광역시 해운대구 반여동 1625",
    "lat": "35.20264915358925",
    "lng": "129.12495709449033",
    "region": "부산광역시"
  },
  {
    "name": "장산중학교운동장",
    "address": "부산광역시 해운대구 반여동 1411-8",
    "lat": "35.19897386190298",
    "lng": "129.11684274673905",
    "region": "부산광역시"
  },
  {
    "name": "좌동초등학교운동장",
    "address": "부산광역시 해운대구 좌동 1292",
    "lat": "35.175825356143726",
    "lng": "129.17449951172267",
    "region": "부산광역시"
  },
  {
    "name": "해림초등학교운동장",
    "address": "부산광역시 해운대구 우동 1025-11",
    "lat": "35.164441589561385",
    "lng": "129.14403498172413",
    "region": "부산광역시"
  },
  {
    "name": "해운대여자고등학교운동장",
    "address": "부산광역시 해운대구 우동 산100-2",
    "lat": "35.16980917267782",
    "lng": "129.1536587476804",
    "region": "부산광역시"
  },
  {
    "name": "북평여자고등학교��동장",
    "address": "강원특별자치도 동해시 천곡동 320",
    "lat": "37.51789668922589",
    "lng": "129.1095323336945",
    "region": "강원특별자치도"
  },
  {
    "name": "석수초등학교 운동장",
    "address": "경기도 안양시 만안구 석수동 655-75",
    "lat": "37.40627705409087",
    "lng": "126.90098260490917",
    "region": "경기도"
  },
  {
    "name": "비산초등학교  운동장",
    "address": "경기도 안양시 동안구 비산동 315-1",
    "lat": "37.40488199217091",
    "lng": "126.94416761398314",
    "region": "경기도"
  },
  {
    "name": "북평고등학교운동장",
    "address": "강원특별자치도 동해시 동회동 169",
    "lat": "37.49075428977057",
    "lng": "129.10732515636926",
    "region": "강원특별자치도"
  },
  {
    "name": "목련초등학교 운동장",
    "address": "광주광역시 광산구 운남동 794-5",
    "lat": "35.17227358154242",
    "lng": "126.81521773338318",
    "region": "광주광역시"
  },
  {
    "name": "그린달님공원",
    "address": "부산광역시 북구 화명동 306",
    "lat": "35.245136537141434",
    "lng": "129.0238530846302",
    "region": "부산광역시"
  },
  {
    "name": "격동초등학교운동장",
    "address": "울산광역시 남구 옥동 259",
    "lat": "35.53377947371692",
    "lng": "129.29002178714393",
    "region": "울산광역시"
  },
  {
    "name": "신라중학교 운동장",
    "address": "부산광역시 사상구 덕포동 65",
    "lat": "35.169906912105034",
    "lng": "128.99360383542017",
    "region": "부산광역시"
  },
  {
    "name": "김포신곡중학교 운동장",
    "address": "경기도 김포시 고촌읍 신곡리 836-3",
    "lat": "37.59928529468041",
    "lng": "126.76534260359979",
    "region": "경기도"
  },
  {
    "name": "사상고등학교 운동장",
    "address": "부산광역시 사상구 덕포동 150-1",
    "lat": "35.16856915861036",
    "lng": "128.98557152142965",
    "region": "부산광역시"
  },
  {
    "name": "감전당산공원",
    "address": "부산광역시 사상구 감전동 920-8",
    "lat": "35.154659479812885",
    "lng": "128.97954144691852",
    "region": "부산광역시"
  },
  {
    "name": "거제초등학교 운동장",
    "address": "부산광역시 연제구 거제동 676-152",
    "lat": "35.177816036018385",
    "lng": "129.06715750694428",
    "region": "부산광역시"
  },
  {
    "name": "장생포초등학교 운동장",
    "address": "울산광역시 남구 장생포동 329-1",
    "lat": "35.50341833328551",
    "lng": "129.3683919000567",
    "region": "울산광역시"
  },
  {
    "name": "남산초등학교운동장",
    "address": "경상남도 창원시 진해구 제황산동 28-13",
    "lat": "35.14764656026749",
    "lng": "128.66316540834342",
    "region": "경상남도"
  },
  {
    "name": "문수중학교운동장",
    "address": "울산광역시 남구 무거동 488-17",
    "lat": "35.537964605063344",
    "lng": "129.2576046674871",
    "region": "울산광역시"
  },
  {
    "name": "풍호초등학교운동장",
    "address": "경상남도 창원시 진해구 풍호동 83-107",
    "lat": "35.13945",
    "lng": "128.7106",
    "region": "경상남도"
  },
  {
    "name": "세정고등학교운동장",
    "address": "부산광역시 부산진구 양정동 16-185",
    "lat": "35.17008283298478",
    "lng": "129.0787680070306",
    "region": "부산광역시"
  },
  {
    "name": "진해종합운동장",
    "address": "경상남도 창원시 진해구 도만동 1",
    "lat": "35.14857534045638",
    "lng": "128.6549310206695",
    "region": "경상남도"
  },
  {
    "name": "시청등대광장",
    "address": "부산광역시 연제구 연산동 1000",
    "lat": "35.179918336090694",
    "lng": "129.07464269413285",
    "region": "부산광역시"
  },
  {
    "name": "사성공원",
    "address": "경기도 광명시 철산동 15",
    "lat": "37.49145526286831",
    "lng": "126.86867137883463",
    "region": "경기도"
  },
  {
    "name": "연서어린이공원",
    "address": "경기도 광명시 철산동 185",
    "lat": "37.48160042984257",
    "lng": "126.86324595314181",
    "region": "경기도"
  },
  {
    "name": "철산중학교 운동장",
    "address": "경기도 광명시 철산동 558",
    "lat": "37.47008002717063",
    "lng": "126.87611841420602",
    "region": "경기도"
  },
  {
    "name": "연서초등학교 운동장",
    "address": "경기도 광명시 하안동 25-1",
    "lat": "37.46613537034694",
    "lng": "126.88184445089496",
    "region": "경기도"
  },
  {
    "name": "진성고등학교 운동장",
    "address": "경기도 광명시 하안동 23-1",
    "lat": "37.46925265811778",
    "lng": "126.87750725097186",
    "region": "경기도"
  },
  {
    "name": "한내근린공원",
    "address": "경기도 광명시 소하동 1308-1",
    "lat": "37.45068654050193",
    "lng": "126.88665840577696",
    "region": "경기도"
  },
  {
    "name": "운동장(대청)",
    "address": "인천광역시 옹진군 대청면 대청리 1254-1",
    "lat": "37.81446476200714",
    "lng": "124.68863624764818",
    "region": "인천광역시"
  },
  {
    "name": "새터어린이공원",
    "address": "경기도 광명시 소하동 1363-3",
    "lat": "37.44872112795167",
    "lng": "126.89168897432599",
    "region": "경기도"
  },
  {
    "name": "영당말근린공원",
    "address": "경기도 광명시 소하동 1378-1",
    "lat": "37.43381208535965",
    "lng": "126.8826331856318",
    "region": "경기도"
  },
  {
    "name": "일산해수욕장 공용주차장",
    "address": "울산광역시 동구 일산동 948-4",
    "lat": "35.49812747359604",
    "lng": "129.43063972467732",
    "region": "울산광역시"
  },
  {
    "name": "효자초등학교 운동장",
    "address": "경기도 용인시 수지구 성복동 732",
    "lat": "37.317058678978604",
    "lng": "127.06755169431793",
    "region": "경기도"
  },
  {
    "name": "구갈중학교 운동장",
    "address": "경기도 용인시 기흥구 신갈동 163",
    "lat": "37.284467280603046",
    "lng": "127.108540822338",
    "region": "경기도"
  },
  {
    "name": "남부민초등학교 운동장",
    "address": "부산광역시 서구 남부민동 76",
    "lat": "35.089697184169026",
    "lng": "129.02284741401527",
    "region": "부산광역시"
  },
  {
    "name": "동평초등학교운동장",
    "address": "부산광역시 부산진구 당감동 705-1",
    "lat": "35.167111006163374",
    "lng": "129.03520793225897",
    "region": "부산광역시"
  },
  {
    "name": "동평중학교운동장",
    "address": "부산광역시 부산진구 부암동 452-17",
    "lat": "35.17103560526412",
    "lng": "129.0416587338325",
    "region": "부산광역시"
  },
  {
    "name": "부암초등학교운동장",
    "address": "부산광역시 부산진구 부암동 275",
    "lat": "35.164770495774455",
    "lng": "129.0486770868316",
    "region": "부산광역시"
  },
  {
    "name": "가야고등학교운동장",
    "address": "부산광역시 부산진구 가야동 산34",
    "lat": "35.14597685464247",
    "lng": "129.03141975402966",
    "region": "부산광역시"
  },
  {
    "name": "진안중학교",
    "address": "전북특별자치도 진안군 진안읍 군상리 1053-4",
    "lat": "35.79999607208949",
    "lng": "127.41871763613103",
    "region": "전북특별자치도"
  },
  {
    "name": "대진초등학교 운동장",
    "address": "강원특별자치도 고성군 현내면 대진리 148",
    "lat": "38.49660732828902",
    "lng": "128.42367057170668",
    "region": "강원특별자치도"
  },
  {
    "name": "보길동초등학교",
    "address": "전라남도 완도군 보길면 중통리 379-1",
    "lat": "34.16347759247198",
    "lng": "126.5914925335031",
    "region": "전라남도"
  },
  {
    "name": "설봉중학교 운동장",
    "address": "경기도 이천시 창전동 501-2",
    "lat": "37.28455599432715",
    "lng": "127.45124176962928",
    "region": "경기도"
  },
  {
    "name": "이천고등학교 운동장",
    "address": "경기도 이천시 증포동 402",
    "lat": "37.28825052140818",
    "lng": "127.44793766148013",
    "region": "경기도"
  },
  {
    "name": "부흥중학교 운동장",
    "address": "경기도 안양시 동안구 비산동 1102-1",
    "lat": "37.39386369616222",
    "lng": "126.9457361918633",
    "region": "경기도"
  },
  {
    "name": "부흥고등학교 운동장",
    "address": "경기도 안양시 동안구 비산동 1102-2",
    "lat": "37.39308715477374",
    "lng": "126.94477914881101",
    "region": "경기도"
  },
  {
    "name": "성사초등학교 운동장",
    "address": "경기도 고양시 덕양구 성사동 716",
    "lat": "37.65761377508445",
    "lng": "126.8440122461941",
    "region": "경기도"
  },
  {
    "name": "민백초등학교 운동장",
    "address": "경기도 안양시 동안구 평촌동 933-1",
    "lat": "37.386271774384234",
    "lng": "126.96998509748121",
    "region": "경기도"
  },
  {
    "name": "연제고등학교 운동장",
    "address": "부산광역시 연제구 연산동 2143",
    "lat": "35.17732494771447",
    "lng": "129.09142076969312",
    "region": "부산광역시"
  },
  {
    "name": "둔전초등학교 운동장",
    "address": "경기도 용인시 처인구 포곡읍 둔전리 108-10",
    "lat": "37.268524869007756",
    "lng": "127.22527300202793",
    "region": "경기도"
  },
  {
    "name": "왕산초등학교 운동장",
    "address": "경기도 용인시 처인구 모현읍 왕산리 808-2",
    "lat": "37.33521696950802",
    "lng": "127.25053627985271",
    "region": "경기도"
  },
  {
    "name": "용화초등학교 운동장",
    "address": "충청북도 영동군 용화면 용화리 760",
    "lat": "36.02319522968476",
    "lng": "127.7659836960761",
    "region": "충청북도"
  },
  {
    "name": "태화강 둔치",
    "address": "울산광역시 중구 성남동 212",
    "lat": "35.55236613060085",
    "lng": "129.31516528129907",
    "region": "울산광역시"
  },
  {
    "name": "상동초등학교 운동장",
    "address": "경상남도 밀양시 상동면 금산리 887-3",
    "lat": "35.553337550805026",
    "lng": "128.76182988100996",
    "region": "경상남도"
  },
  {
    "name": "광주우산초등학교 운동장",
    "address": "광주광역시 북구 우산동 168-6",
    "lat": "35.17545703117147",
    "lng": "126.92025303840637",
    "region": "광주광역시"
  },
  {
    "name": "과정공원",
    "address": "부산광역시 연제구 연산동 407",
    "lat": "35.18739259647632",
    "lng": "129.10197043197044",
    "region": "부산광역시"
  },
  {
    "name": "굴포공원",
    "address": "인천광역시 부평구 갈산동 373-1",
    "lat": "37.509218423489095",
    "lng": "126.72437533688306",
    "region": "인천광역시"
  },
  {
    "name": "후정공원",
    "address": "인천광역시 부평구 삼산동 386",
    "lat": "37.523568482555945",
    "lng": "126.74376041865108",
    "region": "인천광역시"
  },
  {
    "name": "괴산북중학교 운동장",
    "address": "충청북도 괴산군 괴산읍 서부리 725",
    "lat": "36.81545720225895",
    "lng": "127.78055279967674",
    "region": "충청북도"
  },
  {
    "name": "송포초등학교 운동장",
    "address": "경기도 고양시 일산서구 가좌동 355-1",
    "lat": "37.68568923953692",
    "lng": "126.72101817645978",
    "region": "경기도"
  },
  {
    "name": "동래사적공원(읍성광장)",
    "address": "부산광역시 동래구 복천동 1-2",
    "lat": "35.209266779849735",
    "lng": "129.08917753164636",
    "region": "부산광역시"
  },
  {
    "name": "명정초등학교운동장",
    "address": "울산광역시 중구 태화동 733",
    "lat": "35.55241206531402",
    "lng": "129.28923071143478",
    "region": "울산광역시"
  },
  {
    "name": "제일중학교운동장",
    "address": "울산광역시 중구 태화동 871",
    "lat": "35.55434600390453",
    "lng": "129.28467078705262",
    "region": "울산광역시"
  },
  {
    "name": "울산중앙고등학교운동장",
    "address": "울산광역시 중구 태화동 359",
    "lat": "35.55563064059099",
    "lng": "129.28514599800414",
    "region": "울산광역시"
  },
  {
    "name": "아시아공원",
    "address": "서울특별시 송파구 잠실동 84",
    "lat": "37.51028544660867",
    "lng": "127.07789283120307",
    "region": "서울특별시"
  },
  {
    "name": "남외초등학교운동장",
    "address": "울산광역시 중구 남외동 502-2",
    "lat": "35.56571754582615",
    "lng": "129.34841216480012",
    "region": "울산광역시"
  },
  {
    "name": "보은읍사무소 공터",
    "address": "충청북도 보은군 보은읍 삼산리 130",
    "lat": "36.483316",
    "lng": "127.717098",
    "region": "충청북도"
  },
  {
    "name": "사직여자고등학교 운동장",
    "address": "부산광역시 동래구 사직동 981-1",
    "lat": "35.196590773036014",
    "lng": "129.05206343929794",
    "region": "부산광역시"
  },
  {
    "name": "동인고등학교 운동장",
    "address": "부산광역시 동래구 사직동 981-90",
    "lat": "35.197797845077844",
    "lng": "129.0507012432404",
    "region": "부산광역시"
  },
  {
    "name": "밀양동명고등학교 운동장",
    "address": "경상남도 밀양시 하남읍 수산리 466",
    "lat": "35.37318603218474",
    "lng": "128.71290249869952",
    "region": "경상남도"
  },
  {
    "name": "초평면사무소",
    "address": "충청북도 진천군 초평면 용정리 584-8",
    "lat": "36.845882043219326",
    "lng": "127.52652579631902",
    "region": "충청북도"
  },
  {
    "name": "태룡초등학교 운동장",
    "address": "경상남도 밀양시 단장면 태룡리 416-4",
    "lat": "35.5138736891164",
    "lng": "128.876500285083",
    "region": "경상남도"
  },
  {
    "name": "경남중학교 운동장",
    "address": "부산광역시 서구 토성동3가 12",
    "lat": "35.10016096560021",
    "lng": "129.0203797817221",
    "region": "부산광역시"
  },
  {
    "name": "샘터공원",
    "address": "인천광역시 부평구 십정동 420",
    "lat": "37.47087936601247",
    "lng": "126.69991361486635",
    "region": "인천광역시"
  },
  {
    "name": "갈월공원(갈산9공원)",
    "address": "인천광역시 부평구 갈산동 180-7",
    "lat": "37.514540004273606",
    "lng": "126.72246320327825",
    "region": "인천광역시"
  },
  {
    "name": "무안초등학교 운동장",
    "address": "경상남도 밀양시 무안면 무안리 927-1",
    "lat": "35.47289458484529",
    "lng": "128.65098595619233",
    "region": "경상남도"
  },
  {
    "name": "동주초등학교  운동장 ",
    "address": "부산광역시 사상구 주례동 531",
    "lat": "35.14681793046613",
    "lng": "129.00534840260374",
    "region": "부산광역시"
  },
  {
    "name": "부산솔빛학교 운동장",
    "address": "부산광역시 사상구 삼락동 365-8",
    "lat": "35.182152392361544",
    "lng": "128.97882699966542",
    "region": "부산광역시"
  },
  {
    "name": "가락초등학교 운동장",
    "address": "부산광역시 강서구 죽림동 623-2",
    "lat": "35.19590207620028",
    "lng": "128.8959894266949",
    "region": "부산광역시"
  },
  {
    "name": "동원초등학교운동장",
    "address": "부산광역시 부산진구 당감동 786-2",
    "lat": "35.17306045874873",
    "lng": "129.03118969056064",
    "region": "부산광역시"
  },
  {
    "name": "부산진고등학교운동장",
    "address": "부산광역시 부산진구 초읍동 541-1",
    "lat": "35.17913468748067",
    "lng": "129.05515094787637",
    "region": "부산광역시"
  },
  {
    "name": "양성초등학교운동장",
    "address": "부산광역시 부산진구 양정동 445-386",
    "lat": "35.17011555554654",
    "lng": "129.0661262145565",
    "region": "부산광역시"
  },
  {
    "name": "한빛누리중학교 운동장",
    "address": "경기도 동두천시 생연동 522-1",
    "lat": "37.91120200987751",
    "lng": "127.06114112867098",
    "region": "경기도"
  },
  {
    "name": "대안중학교 운동장",
    "address": "경기도 안양시 동안구 호계동 1224",
    "lat": "37.377891595625016",
    "lng": "126.96602984387023",
    "region": "경기도"
  },
  {
    "name": "광이 제2어린이공원",
    "address": "경기도 광명시 광명동 98-11",
    "lat": "37.48238676119902",
    "lng": "126.85417950153345",
    "region": "경기도"
  },
  {
    "name": "우리또래어린이공원",
    "address": "경기도 광명시 광명동 745",
    "lat": "37.467268106273856",
    "lng": "126.85013608041763",
    "region": "경기도"
  },
  {
    "name": "소하고등학교 운동장",
    "address": "경기도 광명시 소하동 1330",
    "lat": "37.44695412898992",
    "lng": "126.88750354697734",
    "region": "경기도"
  },
  {
    "name": "충현중학교 운동장",
    "address": "경기도 광명시 소하동 1388",
    "lat": "37.430066305958995",
    "lng": "126.88176221970815",
    "region": "경기도"
  },
  {
    "name": "자경2어린이공원",
    "address": "경기도 광명시 일직동 505-10",
    "lat": "37.42119394309046",
    "lng": "126.89128925894575",
    "region": "경기도"
  },
  {
    "name": "동명초등학교 운동장",
    "address": "부산광역시 연제구 연산동 1784-19",
    "lat": "35.17804370428456",
    "lng": "129.09079255978057",
    "region": "부산광역시"
  },
  {
    "name": "남정초등학교 운동장",
    "address": "경상남도 창원시 성산구 가음동 11",
    "lat": "35.21093607448188",
    "lng": "128.6919950717686",
    "region": "경상남도"
  },
  {
    "name": "금계중학교 운동장",
    "address": "경상북도 영주시 풍기읍 금계리 279-2",
    "lat": "36.88564218178213",
    "lng": "128.52407002025535",
    "region": "경상북도"
  },
  {
    "name": "안민초등학교 운동장",
    "address": "경상남도 창원시 성산구 안민동 190",
    "lat": "35.18728377397998",
    "lng": "128.68806489454383",
    "region": "경상남도"
  },
  {
    "name": "일신초등학교 운동장",
    "address": "인천광역시 부평구 일신동 112-3",
    "lat": "37.483280510322025",
    "lng": "126.74259189808653",
    "region": "인천광역시"
  },
  {
    "name": "상정초등학교 운동장",
    "address": "인천광역시 부평구 십정동 198",
    "lat": "37.47950826749269",
    "lng": "126.69858926942072",
    "region": "인천광역시"
  },
  {
    "name": "한들공원",
    "address": "부산광역시 연제구 연산동 2314",
    "lat": "35.19024980281841",
    "lng": "129.09563551958462",
    "region": "부산광역시"
  },
  {
    "name": "모현초등학교 운동장",
    "address": "경기도 용인시 처���구 모현읍 매산리 224-1",
    "lat": "37.34338809104664",
    "lng": "127.2286654548615",
    "region": "경기도"
  },
  {
    "name": "오마초등학교 운동장",
    "address": "경기도 고양시 일산서구 주엽동 33",
    "lat": "37.6768064151329",
    "lng": "126.76272091497634",
    "region": "경기도"
  },
  {
    "name": "함월초등학교운동장",
    "address": "울산광역시 중구 복산동 504",
    "lat": "35.55903466716957",
    "lng": "129.3299281597172",
    "region": "울산광역시"
  },
  {
    "name": "연천중학교 운동장 ",
    "address": "부산광역시 연제구 연산동 272",
    "lat": "35.184682192085305",
    "lng": "129.10164535045794",
    "region": "부산광역시"
  },
  {
    "name": "내산초등학교 운동장",
    "address": "부산광역시 동래구 온천동 700-1",
    "lat": "35.20714844697403",
    "lng": "129.07649385129477",
    "region": "부산광역시"
  },
  {
    "name": "내북면사무소 공터",
    "address": "충청북도 보은군 내북면 창리 63-1",
    "lat": "36.577803",
    "lng": "127.663886",
    "region": "충청북도"
  },
  {
    "name": "공근초등학교 운동장",
    "address": "강원특별자치도 횡성군 공근면 학담리 113",
    "lat": "37.533334256490704",
    "lng": "127.96087811926016",
    "region": "강원특별자치도"
  },
  {
    "name": "진만초등학교 운동장",
    "address": "광주광역시 광산구 신가동 1005",
    "lat": "35.18292843981856",
    "lng": "126.83420240879056",
    "region": "광주광역시"
  },
  {
    "name": "동천강 둔치",
    "address": "울산광역시 중구 남외동 634-1",
    "lat": "35.56684714765437",
    "lng": "129.35154554809236",
    "region": "울산광역시"
  },
  {
    "name": "수산초등학교 운동장",
    "address": "경상남도 밀양시 하남읍 수산리 468-5",
    "lat": "35.375766126082205",
    "lng": "128.7118824024455",
    "region": "경상남도"
  },
  {
    "name": "예림초등학교 운동장",
    "address": "경상남도 밀양시 상남면 예림리 936",
    "lat": "35.46754566363653",
    "lng": "128.76191032301242",
    "region": "경상남도"
  },
  {
    "name": "용촌1리 마을회관 공터",
    "address": "충청북도 보은군 회인면 용촌리 97-3",
    "lat": "36.500374098465336",
    "lng": "127.59696096181871",
    "region": "충청북도"
  },
  {
    "name": "약산공원",
    "address": "인천광역시 부평구 십정동 587-5",
    "lat": "37.4733337153078",
    "lng": "126.70737125152584",
    "region": "인천광역시"
  },
  {
    "name": "유림초등학교 운동장",
    "address": "경상북도 경주시 황성동 539-1",
    "lat": "35.86844729338176",
    "lng": "129.21308471019864",
    "region": "경상북도"
  },
  {
    "name": "남면초등학교 운동장",
    "address": "경기도 양주시 남면 신산리 286-2",
    "lat": "37.89401202585078",
    "lng": "126.97502289680818",
    "region": "경기도"
  },
  {
    "name": "봉담초등학교 운동장",
    "address": "경기도 화성시 봉담읍 상리 39-10",
    "lat": "37.222580015008894",
    "lng": "126.94706682967679",
    "region": "경기도"
  },
  {
    "name": "수기초등학교 운동장",
    "address": "경기도 화성시 봉담읍 수기리 34-4",
    "lat": "37.20173391879008",
    "lng": "126.98008048834323",
    "region": "경기도"
  },
  {
    "name": "수영초등학교 운동장",
    "address": "경기도 화성시 봉담읍 수영리 143-1",
    "lat": "37.236122228853255",
    "lng": "126.95417275761378",
    "region": "경기도"
  },
  {
    "name": "남산초등학교 운동장",
    "address": "강원특별자치도 홍천군 홍천읍 연봉리 158-1",
    "lat": "37.683034927237905",
    "lng": "127.87795454263686",
    "region": "강원특별자치도"
  },
  {
    "name": "주봉초등학교 운동장",
    "address": "강원특별자치도 홍천군 홍천읍 결운리 281",
    "lat": "37.70869926710014",
    "lng": "127.91400395251144",
    "region": "강원특별자치도"
  },
  {
    "name": "홍천초등학교 운동장",
    "address": "강원특별자치도 홍천군 홍천읍 희망리 313",
    "lat": "37.692529782624206",
    "lng": "127.88443426609382",
    "region": "강원특별자치도"
  },
  {
    "name": "화촌중학교 운동장",
    "address": "강원특별자치도 홍천군 화촌면 내삼포리 349",
    "lat": "37.7551168961125",
    "lng": "127.96282768249512",
    "region": "강원특별자치도"
  },
  {
    "name": "두촌중학교 운동장",
    "address": "강원특별자치도 홍천군 두촌면 자은리 568",
    "lat": "37.87164363115811",
    "lng": "128.026017844677",
    "region": "강원특별자치도"
  },
  {
    "name": "내촌초등학교 운동장",
    "address": "강원특별자치도 홍천군 내촌면 도관리 443-1",
    "lat": "37.81571055923723",
    "lng": "128.08604680850027",
    "region": "강원특별자치도"
  },
  {
    "name": "삼생초등학교 운동장",
    "address": "강원특별자치도 홍천군 서석면 생곡리 683-1",
    "lat": "37.70035219853715",
    "lng": "128.2259067843743",
    "region": "강원특별자치도"
  },
  {
    "name": "속초초등학교 운동장",
    "address": "강원특별자치도 홍천군 영귀미면 속초리 707",
    "lat": "37.67877239813593",
    "lng": "127.93920010328291",
    "region": "강원특별자치도"
  },
  {
    "name": "매산초등학교 운동장",
    "address": "강원특별자치도 홍천군 남면 유치리 1520",
    "lat": "37.59085484297975",
    "lng": "127.84594436304808",
    "region": "강원특별자치도"
  },
  {
    "name": "한서초등학교 운동장",
    "address": "강원특별자치도 홍천군 서면 모곡리 492-1",
    "lat": "37.69307892252973",
    "lng": "127.60231196880342",
    "region": "강원특별자치도"
  },
  {
    "name": "화계초등학교 운동장",
    "address": "강원특별자치도 홍천군 북방면 능평리 74-2",
    "lat": "37.71086852885969",
    "lng": "127.84858921591096",
    "region": "강원특별자치도"
  },
  {
    "name": "심도중학교운동장",
    "address": "인천광역시 강화군 화도면 상방리 869",
    "lat": "37.63129913421069",
    "lng": "126.42130047082881",
    "region": "인천광역시"
  },
  {
    "name": "양명여자고등학교 운동장",
    "address": "경기도 안양시 만안구 안양동 산21-10",
    "lat": "37.4072971729647",
    "lng": "126.92188667146313",
    "region": "경기도"
  },
  {
    "name": "양명고등학교 운동장",
    "address": "경기도 안양시 만안구 안양동 64",
    "lat": "37.4080778948653",
    "lng": "126.92032277584076",
    "region": "경기도"
  },
  {
    "name": "안양서초등학교 운동장",
    "address": "경기도 안양시 만안구 안양동 931",
    "lat": "37.396849021528894",
    "lng": "126.91165387630464",
    "region": "경기도"
  },
  {
    "name": "안양공업고등학교 운동장",
    "address": "경기도 안양시 만안구 안양동 881-3",
    "lat": "37.399069361062416",
    "lng": "126.91529631614685",
    "region": "경기도"
  },
  {
    "name": "안양초등학교 운동장",
    "address": "경기도 안양시 만안구 안양동 378-1",
    "lat": "37.394837447924886",
    "lng": "126.9280046224594",
    "region": "경기도"
  },
  {
    "name": "명학초등학교 운동장",
    "address": "경기도 안양시 만안구 안양동 349-13",
    "lat": "37.380528999462626",
    "lng": "126.93457067012788",
    "region": "경기도"
  },
  {
    "name": "양지초등학교 운동장",
    "address": "경기도 안양시 만안구 안양동 977-1",
    "lat": "37.391913751054",
    "lng": "126.90476059913634",
    "region": "경기도"
  },
  {
    "name": "연현중학교 운동장",
    "address": "경기도 안양시 만안구 석수동 442-5",
    "lat": "37.42914530580465",
    "lng": "126.89952411914152",
    "region": "경기도"
  },
  {
    "name": "안양중학교 운동장",
    "address": "경기도 안양시 만안구 석수동 752",
    "lat": "37.40882916411051",
    "lng": "126.8965955204639",
    "region": "경기도"
  },
  {
    "name": "충훈고등학교 운동장",
    "address": "경기도 안양시 만안구 석수동 595-3",
    "lat": "37.41094556883174",
    "lng": "126.89244925975802",
    "region": "경기도"
  },
  {
    "name": "임곡중학교 운동장",
    "address": "경기도 안양시 동안구 비산동 511-129",
    "lat": "37.40810346153718",
    "lng": "126.93146467208864",
    "region": "경기도"
  },
  {
    "name": "안양동초등학교 운동장",
    "address": "경기도 안양시 동안구 비산동 511-85",
    "lat": "37.40705095966432",
    "lng": "126.93525195121764",
    "region": "경기도"
  },
  {
    "name": "샘모루초등학교 운동장",
    "address": "경기도 안양시 동안구 비산동 405",
    "lat": "37.39925261071489",
    "lng": "126.94094359874727",
    "region": "경기도"
  },
  {
    "name": "비산중학교 운동장",
    "address": "경기도 안양시 동안구 비산동 121-1",
    "lat": "37.40929098137845",
    "lng": "126.9482960361184",
    "region": "경기도"
  },
  {
    "name": "달안초등학교 운동장",
    "address": "경기도 안양시 동안구 비산동 1109-1",
    "lat": "37.39430382167512",
    "lng": "126.95011625849499",
    "region": "경기도"
  },
  {
    "name": "희성초등학교 운동장",
    "address": "경기도 안양시 동안구 비산동 1101-1",
    "lat": "37.39810143775205",
    "lng": "126.94887252590483",
    "region": "경기도"
  },
  {
    "name": "관양초등학교 운동장",
    "address": "경기도 안양시 동안구 관양동 1407",
    "lat": "37.40640673993318",
    "lng": "126.95990751773533",
    "region": "경기도"
  },
  {
    "name": "해오름초등학교 운동장",
    "address": "경기도 안양시 동안구 관양동 1671",
    "lat": "37.410793145308666",
    "lng": "126.96921595514135",
    "region": "경기도"
  },
  {
    "name": "관양고등학교 운동장",
    "address": "경기도 안양시 동안구 관양동 523-4",
    "lat": "37.40859021284298",
    "lng": "126.96008068982206",
    "region": "경기도"
  },
  {
    "name": "인덕원고등학교 운동장",
    "address": "경기도 안양시 동안구 관양동 193-3",
    "lat": "37.39959197751086",
    "lng": "126.98110245999833",
    "region": "경기도"
  },
  {
    "name": "동안초등학교 운동장",
    "address": "경기도 안양시 동안구 평촌동 898-1",
    "lat": "37.38950873160158",
    "lng": "126.96458277884567",
    "region": "경기도"
  },
  {
    "name": "동안고등학교 운동장",
    "address": "경기도 안양시 동안구 평촌동 898-3",
    "lat": "37.39004040584165",
    "lng": "126.9661438546068",
    "region": "경기도"
  },
  {
    "name": "귀인중학교 운동장",
    "address": "경기도 안양시 동안구 평촌동 914",
    "lat": "37.38358438419071",
    "lng": "126.96359259031433",
    "region": "경기도"
  },
  {
    "name": "귀인초등학교 운동장",
    "address": "경기도 안양시 동안구 평촌동 932-1",
    "lat": "37.386514553526915",
    "lng": "126.9661852619344",
    "region": "경기도"
  },
  {
    "name": "호원초등학교 운동장",
    "address": "경기도 안양시 동안구 호계동 338",
    "lat": "37.37542174389446",
    "lng": "126.95292955946178",
    "region": "경기도"
  },
  {
    "name": "호계초등학교 운동장",
    "address": "경기도 안양시 동안구 호계동 923-17",
    "lat": "37.38399008108442",
    "lng": "126.9504466914624",
    "region": "경기도"
  },
  {
    "name": "호계중학교 운동장",
    "address": "경기도 안양시 동안구 호계동 316",
    "lat": "37.3787407842532",
    "lng": "126.95167511701587",
    "region": "경기도"
  },
  {
    "name": "범계중학교 운동장",
    "address": "경기도 안양시 동안구 호계동 1054-5",
    "lat": "37.38448423033574",
    "lng": "126.9553970438113",
    "region": "경기도"
  },
  {
    "name": "평촌고등학교 운동장",
    "address": "경기도 안양시 동안구 호계동 1054",
    "lat": "37.386168591327184",
    "lng": "126.95471295811627",
    "region": "경기도"
  },
  {
    "name": "고지대그린테마공원(쌈지공원)",
    "address": "부산광역시 동구 수정동 771-1",
    "lat": "35.130616499365615",
    "lng": "129.04013545857973",
    "region": "부산광역시"
  },
  {
    "name": "부산고등학교 운동장",
    "address": "부산광역시 동구 초량동 806-177",
    "lat": "35.12089874063561",
    "lng": "129.03647417448727",
    "region": "부산광역시"
  },
  {
    "name": "경동대학교 운동장",
    "address": "경기도 양주시 고암동 417-8",
    "lat": "37.810054478896966",
    "lng": "127.07029179991048",
    "region": "경기도"
  },
  {
    "name": "율정초등학교 운동장",
    "address": "경기도 양주시 옥정동 1028",
    "lat": "37.82788420601925",
    "lng": "127.09609716441818",
    "region": "경기도"
  },
  {
    "name": "영남알프스복합문화공간 운동장",
    "address": "울산광역시 울주군 상북면 이천리 377",
    "lat": "35.54188868699665",
    "lng": "129.01330411434492",
    "region": "울산광역시"
  },
  {
    "name": "전동초등학교 운동장",
    "address": "세종특별자치시 세종시 전동면 노장리 595",
    "lat": "36.65612304552167",
    "lng": "127.26564642328174",
    "region": "세종특별자치시"
  },
  {
    "name": "부강초등학교 운동장",
    "address": "세종특별자치시 세종시 부강면 부강리 488-1",
    "lat": "36.527046761764524",
    "lng": "127.36678034614741",
    "region": "세종특별자치시"
  },
  {
    "name": "새롬중학교 운동장",
    "address": "세종특별자치시 세종시 새롬동 602",
    "lat": "36.48099263145853",
    "lng": "127.24951028823853",
    "region": "세종특별자치시"
  },
  {
    "name": "온산운동장",
    "address": "울산광역시 울주군 온산읍 덕신��� 985",
    "lat": "35.433566410366105",
    "lng": "129.30057406426278",
    "region": "울산광역시"
  },
  {
    "name": "두동면행정복지센터 앞 공터",
    "address": "울산광역시 울주군 두동면 구미리 647-6",
    "lat": "35.65433228564699",
    "lng": "129.20137256383916",
    "region": "울산광역시"
  },
  {
    "name": "미르초등학교 운동장",
    "address": "세종특별자치시 세종시 한솔동 981",
    "lat": "36.471908325975946",
    "lng": "127.25409150123599",
    "region": "세종특별자치시"
  },
  {
    "name": "연서중학교 운동장",
    "address": "세종특별자치시 세종시 연서면 신대리 88",
    "lat": "36.58046866540265",
    "lng": "127.25767113601673",
    "region": "세종특별자치시"
  },
  {
    "name": "어진중학교 운동장",
    "address": "세종특별자치시 세종시 어진동 678",
    "lat": "36.49766670608732",
    "lng": "127.25478842859957",
    "region": "세종특별자치시"
  },
  {
    "name": "소정초등학교 운동장",
    "address": "세종특별자치시 세종시 소정면 소정리 40",
    "lat": "36.720788600675526",
    "lng": "127.15906289481461",
    "region": "세종특별자치시"
  },
  {
    "name": "은봉초등학교 운동장",
    "address": "경기도 양주시 백석읍 복지리 303-8",
    "lat": "37.781524687102866",
    "lng": "126.9834857002853",
    "region": "경기도"
  },
  {
    "name": "연남초등학교 운동장",
    "address": "세종특별자치시 세종시 연기면 연기리 397",
    "lat": "36.54342930059266",
    "lng": "127.27800158457957",
    "region": "세종특별자치시"
  },
  {
    "name": "큰나무놀이터 공터 및 주차장",
    "address": "울산광역시 울주군 상북면 길천리 401",
    "lat": "35.58531499368143",
    "lng": "129.08471792936797",
    "region": "울산광역시"
  },
  {
    "name": "상북초등학교 소호분교 운동장",
    "address": "울산광역시 울주군 상북면 소호리 376-3",
    "lat": "35.670382582739734",
    "lng": "129.08636426517765",
    "region": "울산광역시"
  },
  {
    "name": "상북면민 운동장",
    "address": "울산광역시 울주군 상북면 거리 1161-4",
    "lat": "35.5936864096078",
    "lng": "129.08116400241715",
    "region": "울산광역시"
  },
  {
    "name": "두동초등학교  운동장 ",
    "address": "울산광역시 울주군 두동면 구미리 650-1",
    "lat": "35.654473948118536",
    "lng": "129.2023515701322",
    "region": "울산광역시"
  },
  {
    "name": "참샘초등학교 운동장",
    "address": "세종특별자치시 세종시 한솔동 952",
    "lat": "36.47895279895838",
    "lng": "127.25895805586721",
    "region": "세종특별자치시"
  },
  {
    "name": "장기초등학교 운동장",
    "address": "세종특별자치시 세종시 장군면 도계리 164-1",
    "lat": "36.49648256303185",
    "lng": "127.20683621972805",
    "region": "세종특별자치시"
  },
  {
    "name": "연세초등학교 운동장",
    "address": "세종특별자치시 세종시 어진동 606",
    "lat": "36.50535453320616",
    "lng": "127.27124154567717",
    "region": "세종특별자치시"
  },
  {
    "name": "두광중학교 운동장",
    "address": "울산광역시 울주군 두서면 인보리 97-1",
    "lat": "35.6555434816529",
    "lng": "129.16953077003245",
    "region": "울산광역시"
  },
  {
    "name": "정토마을수련원 공터",
    "address": "울산광역시 울주군 두서면 활천리 329-1",
    "lat": "35.706799940437854",
    "lng": "129.1912338137614",
    "region": "울산광역시"
  },
  {
    "name": "청량초등학교 운동장",
    "address": "울산광역시 울주군 청량읍 덕하리 412-2",
    "lat": "35.48637718101416",
    "lng": "129.29748522848007",
    "region": "울산광역시"
  },
  {
    "name": "충북상업정보고등학교운동장",
    "address": "충청북도 청주시 청원구 율량동 1496",
    "lat": "36.66377242280564",
    "lng": "127.47921380308772",
    "region": "충청북도"
  },
  {
    "name": "조치원대동초등학교 운동장",
    "address": "세종특별자치시 세종시 조치원읍 신흥리 49-3",
    "lat": "36.59604581504514",
    "lng": "127.29378283023834",
    "region": "세종특별자치시"
  },
  {
    "name": "전의초등학교 운동장",
    "address": "세종특별자치시 세종시 전의면 읍내리 192-1",
    "lat": "36.6803596248965",
    "lng": "127.20295731022635",
    "region": "세종특별자치시"
  },
  {
    "name": "장기중학교 운동장",
    "address": "세종특별자치시 세종시 장군면 하봉리 37-1",
    "lat": "36.494423029099885",
    "lng": "127.20113396644594",
    "region": "세종특별자치시"
  },
  {
    "name": "아름중학교 운동장",
    "address": "세종특별자치시 세종시 아름동 1321",
    "lat": "36.51413311677826",
    "lng": "127.24468767642976",
    "region": "세종특별자치시"
  },
  {
    "name": "삼남중학교 운동장",
    "address": "울산광역시 울주군 삼남읍 가천리 664-35",
    "lat": "35.52383467197502",
    "lng": "129.09687270612315",
    "region": "울산광역시"
  },
  {
    "name": "한솔그린빌주차장",
    "address": "울산광역시 울주군 웅촌면 대복리 244-4",
    "lat": "35.490808747017475",
    "lng": "129.21261906623866",
    "region": "울산광역시"
  },
  {
    "name": "논공축구장",
    "address": "대구광역시 달성군 논공읍 남리 775-1",
    "lat": "35.72311274607728",
    "lng": "128.45620123107125",
    "region": "대구광역시"
  },
  {
    "name": "내곡초등학교 운동장",
    "address": "충청북도 청주시 흥덕구 송절동 849",
    "lat": "36.666381276064264",
    "lng": "127.45717436924276",
    "region": "충청북도"
  },
  {
    "name": "효촌초등학교 운동장",
    "address": "경기도 양주시 광적면 덕도리 755",
    "lat": "37.85801423442689",
    "lng": "126.96340745128308",
    "region": "경기도"
  },
  {
    "name": "의성초등학교운동장",
    "address": "경상북도 의성군 의성읍 후죽리 520",
    "lat": "36.35231612918435",
    "lng": "128.69534860732202",
    "region": "경상북도"
  },
  {
    "name": "마천중학교 운동장",
    "address": "경상남도 함양군 마천면 덕전리 88-1",
    "lat": "35.38708184338229",
    "lng": "127.65955104612186",
    "region": "경상남도"
  },
  {
    "name": "수동중학교 운동장",
    "address": "경상남도 함양군 수동면 화산리 1010",
    "lat": "35.523600380236296",
    "lng": "127.78929247981387",
    "region": "경상남도"
  },
  {
    "name": "안의중학교 운동장",
    "address": "경상남도 함양군 안의면 석천리 73",
    "lat": "35.62986074808811",
    "lng": "127.81873121463025",
    "region": "경상남도"
  },
  {
    "name": "포항이동중학교 운동장",
    "address": "경상북도 포항시 남구 이동 664",
    "lat": "36.02984026163945",
    "lng": "129.33995765870063",
    "region": "경상북도"
  },
  {
    "name": "문남공원",
    "address": "인천광역시 연수구 연수동 541-2",
    "lat": "37.42158014402831",
    "lng": "126.67856454849735",
    "region": "인천광역시"
  },
  {
    "name": "삼다체육공원",
    "address": "제주특별자치도 서귀포시 서호동 1602",
    "lat": "33.252038715036214",
    "lng": "126.51667714671612",
    "region": "제주특별자치도"
  },
  {
    "name": "센트럴 파크",
    "address": "인천광역시 연수구 송도동 24-5",
    "lat": "37.39220568246817",
    "lng": "126.63921242620313",
    "region": "인천광역시"
  },
  {
    "name": "서귀포여자고등학교 운동장",
    "address": "제주특별자치도 서귀포시 호근동 1561",
    "lat": "33.24370091953228",
    "lng": "126.53156507194544",
    "region": "제주특별자치도"
  },
  {
    "name": "학익초등학교운동장",
    "address": "인천광역시 미추홀구 학익동 330-1",
    "lat": "37.446357758352256",
    "lng": "126.65893883776664",
    "region": "인천광역시"
  },
  {
    "name": "인천남부초등학교운동장",
    "address": "인천광역시 미추홀구 주안동 1444",
    "lat": "37.45044365456351",
    "lng": "126.67637861522864",
    "region": "인천광역시"
  },
  {
    "name": "관교초등학교운동장",
    "address": "인천광역시 미추홀구 관교동 334",
    "lat": "37.44602115238427",
    "lng": "126.69298785489448",
    "region": "인천광역시"
  },
  {
    "name": "서귀포중학교 운동장",
    "address": "제주특별자치도 서귀포시 서귀동 231",
    "lat": "33.2475113527029",
    "lng": "126.57021187272582",
    "region": "제주특별자치도"
  },
  {
    "name": "호암초등학교 운동장",
    "address": "경상남도 함안군 칠원읍 오곡리 97",
    "lat": "35.274435637312116",
    "lng": "128.52050663862488",
    "region": "경상남도"
  },
  {
    "name": "화도진중학교 운동장",
    "address": "인천광역시 동구 화수동 2-5",
    "lat": "37.48441187418094",
    "lng": "126.63231340469136",
    "region": "인천광역시"
  },
  {
    "name": "대전대화초등학교  운동장",
    "address": "대전광역시 대덕구 대화동 244-5",
    "lat": "36.36288608197898",
    "lng": "127.41129499847817",
    "region": "대전광역시"
  },
  {
    "name": "대성초등학교 운동장",
    "address": "경상남도 고성군 고성읍 성내리 2-9",
    "lat": "34.97556625825349",
    "lng": "128.32271535901592",
    "region": "경상남도"
  },
  {
    "name": "철성초등학교 운동장",
    "address": "경상남도 고성군 고성읍 월평리 953",
    "lat": "34.95738420136218",
    "lng": "128.34198229605627",
    "region": "경상남도"
  },
  {
    "name": "변동중학교운동장",
    "address": "대전광역시 서구 변동 54-1",
    "lat": "36.324061910176106",
    "lng": "127.37589512664064",
    "region": "대전광역시"
  },
  {
    "name": "상리초등학교 운동장 ",
    "address": "경상남도 고성군 상리면 척번정리 390",
    "lat": "34.998596534536745",
    "lng": "128.1859092575189",
    "region": "경상남도"
  },
  {
    "name": "왕곡초등학교 운동장",
    "address": "전라남도 나주시 왕곡면 월천리 206",
    "lat": "34.96279878062741",
    "lng": "126.65489296417631",
    "region": "전라남도"
  },
  {
    "name": "단성초등학교 운동장",
    "address": "경상남도 산청군 단성면 성내리 596-2",
    "lat": "35.2971191861301",
    "lng": "127.95615717181603",
    "region": "경상남도"
  },
  {
    "name": "충장중학교  운동장",
    "address": "광주광역시 동구 산수동 552-6",
    "lat": "35.15640709405756",
    "lng": "126.9291204214096",
    "region": "광주광역시"
  },
  {
    "name": "다대중학교운동장",
    "address": "부산광역시 사하구 다대동 945",
    "lat": "35.05712300105225",
    "lng": "128.968510973632",
    "region": "부산광역시"
  },
  {
    "name": "적성초등학교 운동장",
    "address": "전북특별자치도 순창군 적성면 고원리 616",
    "lat": "35.39819616348482",
    "lng": "127.21009522676624",
    "region": "전북특별자치도"
  },
  {
    "name": "와동체육공원 운동장",
    "address": "경기도 안산시 단원구 와동 813-1",
    "lat": "37.33992553184561",
    "lng": "126.82042088493998",
    "region": "경기도"
  },
  {
    "name": "고잔초등학교 운동장",
    "address": "경기도 안산시 단원구 고잔동 581",
    "lat": "37.32429883031145",
    "lng": "126.82722984908258",
    "region": "경기도"
  },
  {
    "name": "고성중학교 삼산분교 운동장(폐교부지)",
    "address": "경상남도 고성군 삼산면 미룡리 285",
    "lat": "34.938483406729304",
    "lng": "128.27412221502047",
    "region": "경상남도"
  },
  {
    "name": "공산초등학교 운동장",
    "address": "전라남도 나주시 공산면 금곡리 780",
    "lat": "34.9408700795633",
    "lng": "126.61310763193804",
    "region": "전라남도"
  },
  {
    "name": "장흥실내체육관 공설운동장",
    "address": "전라남도 장흥군 장흥읍 충열리 200",
    "lat": "34.66898461336491",
    "lng": "126.89156994840172",
    "region": "전라남도"
  },
  {
    "name": "해남군축구전용구장2",
    "address": "전라남도 해남군 해남읍 해리 4-8",
    "lat": "34.5686432964053",
    "lng": "126.61895553634847",
    "region": "전라남도"
  },
  {
    "name": "강릉초등학교 운동장",
    "address": "강원특별자치도 강릉시 홍제동 38",
    "lat": "37.75394214262838",
    "lng": "128.88871984016572",
    "region": "강원특별자치도"
  },
  {
    "name": "광성초등학교",
    "address": "경기도 오산시 세교동 623",
    "lat": "37.18351857903886",
    "lng": "127.04024970531465",
    "region": "경기도"
  },
  {
    "name": "대송초등학교 운동장",
    "address": "경상북도 포항시 남구 대송면 제내리 974",
    "lat": "35.98435236183901",
    "lng": "129.3624241236016",
    "region": "경상북도"
  },
  {
    "name": "포항여자중학교 운동장",
    "address": "경상북도 포항시 북구 우현동 56",
    "lat": "36.053609519620665",
    "lng": "129.36332702636594",
    "region": "경상북도"
  },
  {
    "name": "강정초등학교 운동장",
    "address": "제주특별자치도 서귀포시 강정동 4550",
    "lat": "33.234772038018",
    "lng": "126.47893623146149",
    "region": "제주특별자치도"
  },
  {
    "name": "도순초등학교 운동장",
    "address": "제주특별자치도 서귀포시 도순동 353-1",
    "lat": "33.247109561829305",
    "lng": "126.47730907933796",
    "region": "제주특별자치도"
  },
  {
    "name": "정석항공과학고등학교운동장",
    "address": "인천광역시 미추홀구 용현동 253",
    "lat": "37.449743785911",
    "lng": "126.65453121905193",
    "region": "인천광역시"
  },
  {
    "name": "인하대학교대운동장",
    "address": "인천광역시 미추홀구 용현동 253",
    "lat": "37.449743785911",
    "lng": "126.65453121905193",
    "region": "인천광역시"
  },
  {
    "name": "신산초등학교 운동장",
    "address": "제주특별자치도 서귀포시 성산읍 신산리 963",
    "lat": "33.38164208787841",
    "lng": "126.87561286636578",
    "region": "제주특별자치도"
  },
  {
    "name": "수산초등학교 운동장",
    "address": "제주특별자치도 서귀포시 성산읍 수산리 580",
    "lat": "33.44730066628371",
    "lng": "126.88579763499305",
    "region": "제주특별자치도"
  },
  {
    "name": "동남초등학교 운동장",
    "address": "제주특별자치도 서귀포시 성산읍 고성리 1128-1",
    "lat": "33.448798689755506",
    "lng": "126.91380692336773",
    "region": "제주특별자치도"
  },
  {
    "name": "팔곡초등학교 운동장",
    "address": "경기도 안산시 상록구 팔곡이동 385",
    "lat": "37.29725159745201",
    "lng": "126.8829771918729",
    "region": "경기도"
  },
  {
    "name": "당하지구3호어린이공원",
    "address": "인천광역시 서구 당하동 1099-4",
    "lat": "37.59094727457465",
    "lng": "126.67869774063497",
    "region": "인천광역시"
  },
  {
    "name": "청천중학교 운동장",
    "address": "인천광역시 부평구 청천동 190-58",
    "lat": "37.51115284026732",
    "lng": "126.70494824696885",
    "region": "인천광역시"
  },
  {
    "name": "안산중앙초등학교 운동장",
    "address": "경기도 안산시 단원구 고잔동 673-1",
    "lat": "37.32133300181759",
    "lng": "126.83809533759532",
    "region": "경기도"
  },
  {
    "name": "강구면 수협창고 뒤 공터(강구지구)",
    "address": "경상북도 영덕군 강구면 강구리 산52-1",
    "lat": "36.36022591098694",
    "lng": "129.38668193334854",
    "region": "경상북도"
  },
  {
    "name": "능길초등학교 운동장",
    "address": "경기도 안산시 단원구 신길동 1417-22",
    "lat": "37.33584370832389",
    "lng": "126.76411095573454",
    "region": "경기도"
  },
  {
    "name": "군북고등학교 운동장",
    "address": "경상남도 함안군 군북면 덕대리 267",
    "lat": "35.26014801127989",
    "lng": "128.34328829161637",
    "region": "경상남도"
  },
  {
    "name": "문암초등학교 운동장",
    "address": "경상남도 함안군 산인면 모곡리 510",
    "lat": "35.27252965125497",
    "lng": "128.45766277462735",
    "region": "경상남도"
  },
  {
    "name": "서정초등학교운동장",
    "address": "전라남도 해남군 송지면 서정리 90",
    "lat": "34.3889794508196",
    "lng": "126.56115198418625",
    "region": "전라남도"
  },
  {
    "name": "유치초중학교 운동장",
    "address": "전라남도 장흥군 유치면 조양리 695",
    "lat": "34.802488421232724",
    "lng": "126.83552792861992",
    "region": "전라남도"
  },
  {
    "name": "천천초등학교 운동장",
    "address": "전북특별자치도 장수군 천천면 춘송리 833-1",
    "lat": "35.73561361604903",
    "lng": "127.53331647768894",
    "region": "전북특별자치도"
  },
  {
    "name": "항공우주테마공원",
    "address": "경상남도 사천시 정동면 예수리 420",
    "lat": "35.069258314036055",
    "lng": "128.08559946708974",
    "region": "경상남도"
  },
  {
    "name": "병방공원",
    "address": "인천광역시 계양구 병방동 367",
    "lat": "37.548280492904986",
    "lng": "126.73811616971842",
    "region": "인천광역시"
  },
  {
    "name": "계양교통공원",
    "address": "인천광역시 계양구 계산동 1085-1",
    "lat": "37.53745566510769",
    "lng": "126.74280221857295",
    "region": "인천광역시"
  },
  {
    "name": "세원고등학교 운동장",
    "address": "인천광역시 계양구 병방동 5-5",
    "lat": "37.55148345484698",
    "lng": "126.74462001346494",
    "region": "인천광역시"
  },
  {
    "name": "율촌초등학교 운동장",
    "address": "전라남도 여수시 율촌면 조화리 182",
    "lat": "34.88272786953376",
    "lng": "127.57650488645234",
    "region": "전라남도"
  },
  {
    "name": "충남중학교 운동장",
    "address": "대전광역시 동구 신흥동 168",
    "lat": "36.324880749117966",
    "lng": "127.44425460762871",
    "region": "대전광역시"
  },
  {
    "name": "거문초등학교 운동장",
    "address": "전라남도 여수시 삼산면 서도리 25",
    "lat": "34.0557769799445",
    "lng": "127.29628536792144",
    "region": "전라남도"
  },
  {
    "name": "가오초등학교 운동장",
    "address": "대전광역시 동구 가오동 498",
    "lat": "36.31066590030148",
    "lng": "127.45844166937503",
    "region": "대전광역시"
  },
  {
    "name": "자양초등학교 운동장",
    "address": "대전광역시 동구 자양동 221-2",
    "lat": "36.33306257921037",
    "lng": "127.44305177487799",
    "region": "대전광역시"
  },
  {
    "name": "봉산초등학교 운동장",
    "address": "전라남도 여수시 봉산동 12",
    "lat": "34.735035242712115",
    "lng": "127.72748678755806",
    "region": "전라남도"
  },
  {
    "name": "여수정보과학고등학교 운동장",
    "address": "전라남도 여수시 문수동 182",
    "lat": "34.75231391443686",
    "lng": "127.69880983271528",
    "region": "전라남도"
  },
  {
    "name": "고매초등학교 운동장",
    "address": "대구광역시 군위군 효령면 고곡리 929",
    "lat": "36.09702876435516",
    "lng": "128.58252071487894",
    "region": "대구광역시"
  },
  {
    "name": "군위생활체육공원",
    "address": "대구광역시 군위군 군위읍 서부리 475-1",
    "lat": "36.24088157578465",
    "lng": "128.56193103898926",
    "region": "대구광역시"
  },
  {
    "name": "오갑초등학교 운동장",
    "address": "충청북도 음성군 감곡면 오궁리 2-1",
    "lat": "37.11211032649739",
    "lng": "127.67703189364126",
    "region": "충청북도"
  },
  {
    "name": "동춘공원",
    "address": "인천광역시 연수구 동춘동 938-2",
    "lat": "37.408615003914555",
    "lng": "126.66979012037501",
    "region": "인천광역시"
  },
  {
    "name": "해돋이공원",
    "address": "인천광역시 연수구 송도동 5-1",
    "lat": "37.38766939223731",
    "lng": "126.6544975611151",
    "region": "인천광역시"
  },
  {
    "name": "동홍초등학교 운동장",
    "address": "제주특별자치도 서귀포시 동홍동 614-5",
    "lat": "33.26023956314432",
    "lng": "126.57016953500535",
    "region": "제주특별자치도"
  },
  {
    "name": "비즈니스고등학교운동장",
    "address": "인천광역시 미추홀구 도화동 43-24",
    "lat": "37.47189214987074",
    "lng": "126.66652737179409",
    "region": "인천광역시"
  },
  {
    "name": "성산초등학교 운동장",
    "address": "제주특별자치도 서귀포시 성산읍 성산리 333",
    "lat": "33.46795439873369",
    "lng": "126.9317386720321",
    "region": "제주특별자치도"
  },
  {
    "name": "상아초등학교 운동장",
    "address": "인천광역시 남동구 간석동 939-4",
    "lat": "37.457537140486295",
    "lng": "126.71223618061428",
    "region": "인천광역시"
  },
  {
    "name": "부평서여자중학교 운동장",
    "address": "인천광역시 부평구 십정동 186-519",
    "lat": "37.486108",
    "lng": "126.705455",
    "region": "인천광역시"
  },
  {
    "name": "서선초등학교 운동장",
    "address": "경상북도 안동시 풍산읍 수곡리 382",
    "lat": "36.59069295329104",
    "lng": "128.63954639521944",
    "region": "경상북도"
  },
  {
    "name": "와룡초등학교 운동장",
    "address": "경상북도 안동시 와룡면 가구리 684",
    "lat": "36.61905809992432",
    "lng": "128.7684519623443",
    "region": "경상북도"
  },
  {
    "name": "안산강서고등학교 운동장",
    "address": "경기도 안산시 단원구 와동 828",
    "lat": "37.33455650999821",
    "lng": "126.81844743804878",
    "region": "경기도"
  },
  {
    "name": "신길초등학교 운동장",
    "address": "경기도 안산시 단원구 신길동 1513",
    "lat": "37.33565768753189",
    "lng": "126.78061541108019",
    "region": "경기도"
  },
  {
    "name": "안산해양중학교 운동장",
    "address": "경기도 안산시 상록구 사동 1512-3",
    "lat": "37.29513462267837",
    "lng": "126.82105546866781",
    "region": "경기도"
  },
  {
    "name": "각골초등학교 운동장",
    "address": "경기도 안산시 상록구 본오동 728-6",
    "lat": "37.292816075579694",
    "lng": "126.87335518796502",
    "region": "경기도"
  },
  {
    "name": "상록고등학교 운동장",
    "address": "경기도 안산시 상록구 본오동 828-87",
    "lat": "37.29899509945008",
    "lng": "126.87464475631711",
    "region": "경기도"
  },
  {
    "name": "간석초등학교 운동장",
    "address": "인천광역시 남동구 구월동 6-1",
    "lat": "37.458885140876774",
    "lng": "126.71607666814852",
    "region": "인천광역시"
  },
  {
    "name": "부평고등학교 운동장",
    "address": "인천광역시 부평구 부평동 10-312",
    "lat": "37.50185969362275",
    "lng": "126.72756047299632",
    "region": "인천광역시"
  },
  {
    "name": "화랑초등학교 운동장",
    "address": "경기도 안산시 단원구 와동 846",
    "lat": "37.330860512759735",
    "lng": "126.81865962616044",
    "region": "경기도"
  },
  {
    "name": "선부중학교 운동장",
    "address": "경기도 안산시 단원구 선부동 1138",
    "lat": "37.34435372067768",
    "lng": "126.81448987720117",
    "region": "경기도"
  },
  {
    "name": "남선초등학교 운동장",
    "address": "경상북도 안동시 남선면 구미리 146",
    "lat": "36.5245805441239",
    "lng": "128.76877667239032",
    "region": "경상북도"
  },
  {
    "name": "불국사초등학교 운동장",
    "address": "경상북도 경주시 구정동 392-2",
    "lat": "35.7779449333103",
    "lng": "129.30155038833936",
    "region": "경상북도"
  },
  {
    "name": "용강초등학교 운동장",
    "address": "경상북도 경주시 용강동 1293",
    "lat": "35.875757765652814",
    "lng": "129.22932337090805",
    "region": "경상북도"
  },
  {
    "name": "천북초등학교 운동장",
    "address": "경���북도 경주시 천북면 동산리 434",
    "lat": "35.89672161705249",
    "lng": "129.2676530533788",
    "region": "경���북도"
  },
  {
    "name": "모아초등학교 모서분교 운동장",
    "address": "경상북도 경주시 강동면 모서리 529",
    "lat": "35.95025997395106",
    "lng": "129.25301040218574",
    "region": "경상북도"
  },
  {
    "name": "불로초등학교 운동장",
    "address": "인천광역시 서구 불로동 799-2",
    "lat": "37.61440093619764",
    "lng": "126.68859555202002",
    "region": "인천광역시"
  },
  {
    "name": "중동공원",
    "address": "인천광역시 서구 검암동 613-5",
    "lat": "37.56490292431322",
    "lng": "126.67713753279834",
    "region": "인천광역시"
  },
  {
    "name": "의곡초등학교 운동장",
    "address": "경상북도 경주시 산내면 의곡리 89-14",
    "lat": "35.754588173070765",
    "lng": "129.0473333001151",
    "region": "경상북도"
  },
  {
    "name": "외동중학교 운동장",
    "address": "경상북도 경주시 외동읍 입실리 443-1",
    "lat": "35.71705886020352",
    "lng": "129.3252575700372",
    "region": "경상북도"
  },
  {
    "name": "천포초등학교 운동장",
    "address": "경상북도 경주시 건천읍 천포리 721",
    "lat": "35.84549342848034",
    "lng": "129.0946690273295",
    "region": "경상북도"
  },
  {
    "name": "산대초등학교 운동장",
    "address": "경상북도 경주시 안강읍 산대리 2387",
    "lat": "36.00276470256323",
    "lng": "129.1976539790173",
    "region": "경상북도"
  },
  {
    "name": "이촌근린공원",
    "address": "인천광역시 계양구 효성동 산18",
    "lat": "37.536125461336745",
    "lng": "126.7119419574737",
    "region": "인천광역시"
  },
  {
    "name": "봉덕초등학교 운동장",
    "address": "전라남도 여수시 돌산읍 죽포리 1623",
    "lat": "34.64207764849735",
    "lng": "127.77834170978709",
    "region": "전라남도"
  },
  {
    "name": "여안초등학교 운동장(폐교)",
    "address": "전라남도 여수시 남면 안도리 991",
    "lat": "34.48547478434974",
    "lng": "127.8055465404163",
    "region": "전라남도"
  },
  {
    "name": "한밭여자중학교 운동장",
    "address": "대전광역시 동구 대동 28",
    "lat": "36.329350619676426",
    "lng": "127.44896820790738",
    "region": "대전광역시"
  },
  {
    "name": "동아마이스터고등학교 운동장",
    "address": "대전광역시 동구 자양동 2",
    "lat": "36.343630624621504",
    "lng": "127.45373162777534",
    "region": "대전광역시"
  },
  {
    "name": "종고초등학교 운동장",
    "address": "전라남도 여수시 덕충동 111",
    "lat": "34.74989160288285",
    "lng": "127.74379583827593",
    "region": "전라남도"
  },
  {
    "name": "세천초등학교 운동장",
    "address": "대전광역시 동구 세천동 70",
    "lat": "36.341346578017514",
    "lng": "127.49361687495683",
    "region": "대전광역시"
  },
  {
    "name": "대호초등학교",
    "address": "경기도 오산시 궐동 661",
    "lat": "37.159301562031885",
    "lng": "127.05799625972853",
    "region": "경기도"
  },
  {
    "name": "구)대율초등학교(폐교) 운동장",
    "address": "대구광역시 군위군 부계면 대율리 644-1",
    "lat": "36.062596886685554",
    "lng": "128.65460030202428",
    "region": "대구광역시"
  },
  {
    "name": "우보초등학교 운동장",
    "address": "대구광역시 군위군 우보면 이화리 1195-2",
    "lat": "36.19485009451228",
    "lng": "128.66147484201855",
    "region": "대구광역시"
  },
  {
    "name": "칠십리시공원",
    "address": "제주특별자치도 서귀포시 서홍동 572",
    "lat": "33.24713198663704",
    "lng": "126.55348188383476",
    "region": "제주특별자치도"
  },
  {
    "name": "대학공원",
    "address": "인천광역시 연수구 연수동 580",
    "lat": "37.42011297562035",
    "lng": "126.68582301510288",
    "region": "인천광역시"
  },
  {
    "name": "법환초등학교 운동장",
    "address": "제주특별자치도 서귀포시 법환동 1244-1",
    "lat": "33.23767590214536",
    "lng": "126.50889471516815",
    "region": "제주특별자치도"
  },
  {
    "name": "효돈초등학교 운동장",
    "address": "제주특별자치도 서귀포시 신효동 123-3",
    "lat": "33.2644209798007",
    "lng": "126.61612102282857",
    "region": "제주특별자치도"
  },
  {
    "name": "창신초등학교 운동장",
    "address": "인천광역시 서구 원당동 809",
    "lat": "37.59872930447313",
    "lng": "126.69835234696193",
    "region": "인천광역시"
  },
  {
    "name": "신산중학교 운동장",
    "address": "제주특별자치도 서귀포시 성산읍 신산리 963",
    "lat": "33.38164208787841",
    "lng": "126.87561286636578",
    "region": "제주특별자치도"
  },
  {
    "name": "서림초등학교 운동장",
    "address": "인천광역시 동구 송림동 61-11",
    "lat": "37.475253252339265",
    "lng": "126.64678310182535",
    "region": "인천광역시"
  },
  {
    "name": "축동초등학교 운동장",
    "address": "경상남도 사천시 축동면 배춘리 714",
    "lat": "35.107896355787425",
    "lng": "128.09105087055266",
    "region": "경상남도"
  },
  {
    "name": "대성초등학교 운동장",
    "address": "경상남도 사천시 좌룡동 300-52",
    "lat": "34.953396412975735",
    "lng": "128.07826191186905",
    "region": "경상남도"
  },
  {
    "name": "안남공원",
    "address": "인천광역시 계양구 계산동 949",
    "lat": "37.54126578269184",
    "lng": "126.7272182119532",
    "region": "인천광역시"
  },
  {
    "name": "옥룡초등학교 운동장",
    "address": "전라남도 광양시 옥룡면 운평리 624-4",
    "lat": "35.01547765636387",
    "lng": "127.61825529487591",
    "region": "전라남도"
  },
  {
    "name": "명현중학교 운동장",
    "address": "인천광역시 계양구 효성동 20",
    "lat": "37.531821981282675",
    "lng": "126.71380104389773",
    "region": "인천광역시"
  },
  {
    "name": "안산초등학교 운동장",
    "address": "인천광역시 계양구 계산동 914",
    "lat": "37.54429817131304",
    "lng": "126.73233681314626",
    "region": "인천광역시"
  },
  {
    "name": "가양중학교 운동장",
    "address": "대전광역시 동구 가양동 36-2",
    "lat": "36.350417284379354",
    "lng": "127.44827889200236",
    "region": "대전광역시"
  },
  {
    "name": "낙서초등학교 운동장",
    "address": "경상남도 의령군 낙서면 정곡리 167-2",
    "lat": "35.48147867940319",
    "lng": "128.41452777385723",
    "region": "경상남도"
  },
  {
    "name": "상암초등학교 묘도분교장 운동장",
    "address": "전라남도 여수시 묘도동 910-1",
    "lat": "34.875288180765466",
    "lng": "127.7094266588012",
    "region": "전라남도"
  },
  {
    "name": "봉수초등학교 운동장",
    "address": "경상남도 의령군 봉수면 서암리 336",
    "lat": "35.47883146860067",
    "lng": "128.24077427387243",
    "region": "경상남도"
  },
  {
    "name": "음성고등학교 운동장",
    "address": "충청북도 음성군 음성읍 읍내리 503-7",
    "lat": "36.93364137828773",
    "lng": "127.68649495915417",
    "region": "충청북도"
  },
  {
    "name": "수봉초등학교 운동장",
    "address": "충청북도 음성군 음성읍 읍내리 209",
    "lat": "36.94018804863209",
    "lng": "127.69289463915273",
    "region": "충청북도"
  },
  {
    "name": "대소초등학교 운동장",
    "address": "충청북도 음성군 대소면 오산리 186-1",
    "lat": "36.96695558313074",
    "lng": "127.4856897488727",
    "region": "충청북도"
  },
  {
    "name": "상대초등학교 운동장",
    "address": "경상북도 포항시 남구 대도동 175-1",
    "lat": "36.021581112394536",
    "lng": "129.36144948005617",
    "region": "경상북도"
  },
  {
    "name": "포항운하부지",
    "address": "경상북도 포항시 남구 해도동 551",
    "lat": "36.0289262185446",
    "lng": "129.37425166369073",
    "region": "경상북도"
  },
  {
    "name": "송림초등학교 운동장",
    "address": "경상북도 포항시 남구 송도동 471-1",
    "lat": "36.02999974871448",
    "lng": "129.37495838423445",
    "region": "경상북도"
  },
  {
    "name": "내성천 야외공연장 및 체육공원",
    "address": "경상북도 봉화군 봉화읍 내성리 506",
    "lat": "36.889884569723826",
    "lng": "128.73839168641155",
    "region": "경상북도"
  },
  {
    "name": "청도고등학교 운동장",
    "address": "경상북도 청도군 청도읍 고수리 840-2",
    "lat": "35.64101771309441",
    "lng": "128.7482147169124",
    "region": "경상북도"
  },
  {
    "name": "성안중학교 운동장",
    "address": "경기도 안산시 상록구 사동 1538",
    "lat": "37.30398640080217",
    "lng": "126.84831843422567",
    "region": "경기도"
  },
  {
    "name": "성안초등학교 운동장",
    "address": "경기도 안산시 상록구 사동 1535",
    "lat": "37.30510753330824",
    "lng": "126.85325834235071",
    "region": "경기도"
  },
  {
    "name": "능산보건진료소 앞",
    "address": "충청북도 음성군 삼성면 능산리 185-19",
    "lat": "37.03872915982756",
    "lng": "127.53668193870529",
    "region": "충청북도"
  },
  {
    "name": "마천초등학교 운동장",
    "address": "경상남도 함양군 마천면 덕전리 86-4",
    "lat": "35.38612941129914",
    "lng": "127.65959276934635",
    "region": "경상남도"
  },
  {
    "name": "유림초등학교 운동장",
    "address": "경상남도 함양군 유림면 화촌리 472",
    "lat": "35.472434289631146",
    "lng": "127.79321446568399",
    "region": "경상남도"
  },
  {
    "name": "기계초등학교 운동장",
    "address": "경상북도 포항시 북구 기계면 현내리 842-2",
    "lat": "36.07171714753262",
    "lng": "129.20359749944294",
    "region": "경상북도"
  },
  {
    "name": "포항해양과학고등학교(한국해양마이스터고등학교) 운동장",
    "address": "경상북도 포항시 북구 여남동 390",
    "lat": "36.07468428958591",
    "lng": "129.4052392244332",
    "region": "경상북도"
  },
  {
    "name": "서귀포고등학교 운동장",
    "address": "제주특별자치도 서귀포시 동홍동 1460-6",
    "lat": "33.257316845343844",
    "lng": "126.56241585097303",
    "region": "제주특별자치도"
  },
  {
    "name": "창영초등학교 운동장",
    "address": "인천광역시 동구 창영동 30",
    "lat": "37.4715317631955",
    "lng": "126.63937285452432",
    "region": "인천광역시"
  },
  {
    "name": "서흥초등학교 운동장",
    "address": "인천광역시 동구 송림동 34-1",
    "lat": "37.47933145466109",
    "lng": "126.64467982582096",
    "region": "인천광역시"
  },
  {
    "name": "구룡운동장",
    "address": "경기도 안산시 상록구 이동 609-3",
    "lat": "37.307923997309175",
    "lng": "126.8608533678502",
    "region": "경기도"
  },
  {
    "name": "초당초등학교 운동장",
    "address": "경기도 안산시 상록구 사동 1389",
    "lat": "37.28538362592713",
    "lng": "126.85114909813343",
    "region": "경기도"
  },
  {
    "name": "한양대학교 정문주차장",
    "address": "경기도 안산시 상록구 사동 1271",
    "lat": "37.296672232090216",
    "lng": "126.83538719575932",
    "region": "경기도"
  },
  {
    "name": "본원초등학교 운동장",
    "address": "경기도 안산시 상록구 본오동 902",
    "lat": "37.291171141719275",
    "lng": "126.86198189530751",
    "region": "경기도"
  },
  {
    "name": "안산부곡초등학교 운동장",
    "address": "경기도 안산시 상록구 부곡동 680",
    "lat": "37.32903756783942",
    "lng": "126.860154357814",
    "region": "경기도"
  },
  {
    "name": "자월분교운동장",
    "address": "인천광역시 옹진군 자월면 자월리 1116-2",
    "lat": "37.253291290585835",
    "lng": "126.30622331078915",
    "region": "인천광역시"
  },
  {
    "name": "슬기초등학교 운동장",
    "address": "경기도 안산시 단원구 고잔동 720-1",
    "lat": "37.30534400798112",
    "lng": "126.82597010780029",
    "region": "경기도"
  },
  {
    "name": "경주초등학교 운동장",
    "address": "경상북도 경주시 충효동 3012",
    "lat": "35.8423734261206",
    "lng": "129.1895563029284",
    "region": "경상북도"
  },
  {
    "name": "선덕여자중학교 운동장",
    "address": "경상북도 경주시 인왕동 571-1",
    "lat": "35.83797127241035",
    "lng": "129.22376912694716",
    "region": "경상북도"
  },
  {
    "name": "충무중학교",
    "address": "경상남도 통영시 인평동 386-3",
    "lat": "34.84049106662296",
    "lng": "128.3965145781853",
    "region": "경상남도"
  },
  {
    "name": "샘터공원",
    "address": "인천광역시 계양구 귤현동 509-5",
    "lat": "37.567869",
    "lng": "126.745517",
    "region": "인천광역시"
  },
  {
    "name": "입실초등학교 운동장",
    "address": "경상북도 경주시 외동읍 입실리 1039",
    "lat": "35.71663071405171",
    "lng": "129.32465549918024",
    "region": "경상북도"
  },
  {
    "name": "외동읍행정복지센터 주차장",
    "address": "경상북도 경주시 외동읍 입실리 525",
    "lat": "35.71738100386395",
    "lng": "129.32757683514146",
    "region": "경상북도"
  },
  {
    "name": "효청보건고등학교 운동장",
    "address": "경상북도 경주시 외동읍 모화리 162",
    "lat": "35.671642297083736",
    "lng": "129.34156388041023",
    "region": "경상북도"
  },
  {
    "name": "나주실내체육관 주차장",
    "address": "전라남도 나주시 송월동 1107-1",
    "lat": "35.01235445381037",
    "lng": "126.7124352684833",
    "region": "전라남도"
  },
  {
    "name": "대방초등학교 운동장",
    "address": "경상남도 사천시 서동 76",
    "lat": "34.93106214984434",
    "lng": "128.06544363498688",
    "region": "경상남도"
  },
  {
    "name": "삼천포제일중학교 운동장",
    "address": "경상남도 사천시 용강동 505-1",
    "lat": "34.94837425490713",
    "lng": "128.08584351097275",
    "region": "경상남도"
  },
  {
    "name": "용산초등학교 운동장",
    "address": "경상남도 사천시 봉남동 479",
    "lat": "34.94297697861969",
    "lng": "128.0987202530498",
    "region": "경상남도"
  },
  {
    "name": "통영고등학교",
    "address": "경상남도 통영시 봉평동 130",
    "lat": "34.83005288595968",
    "lng": "128.41711078850594",
    "region": "경상남도"
  },
  {
    "name": "서운공원",
    "address": "인천광역시 계양구 작전동 915-2",
    "lat": "37.528037853839436",
    "lng": "126.74098887817986",
    "region": "인천광역시"
  },
  {
    "name": "계산중학교 운동장",
    "address": "인천광역시 계양구 계산동 1085-4",
    "lat": "37.53422313648946",
    "lng": "126.74254973393127",
    "region": "인천광역시"
  },
  {
    "name": "효성중학교 운동장",
    "address": "인천광역시 계양구 효성동 28-43",
    "lat": "37.53738047467527",
    "lng": "126.71078737706146",
    "region": "인천광역시"
  },
  {
    "name": "성황초등학교 운동장",
    "address": "전라남도 광양시 성황동 342",
    "lat": "34.94024594573033",
    "lng": "127.68267832673284",
    "region": "전라남도"
  },
  {
    "name": "신풍초등학교 운동장",
    "address": "전라남도 여수시 율촌면 신풍리 1006",
    "lat": "34.843385588073936",
    "lng": "127.60965707432123",
    "region": "전라남도"
  },
  {
    "name": "거문중학교 운동장",
    "address": "전라남도 여수시 삼산면 덕촌리 811",
    "lat": "34.02478003419757",
    "lng": "127.30307779780118",
    "region": "전라남도"
  },
  {
    "name": "대동초등학교 운동장",
    "address": "대전광역시 동구 대동 198-10",
    "lat": "36.32505284261575",
    "lng": "127.44682532062679",
    "region": "대전광역시"
  },
  {
    "name": "여수동초등학교 운동장",
    "address": "전라남도 여수시 공화동 1181",
    "lat": "34.746983857173426",
    "lng": "127.74080796516556",
    "region": "전라남도"
  },
  {
    "name": "여수진남초등학교 운동장",
    "address": "전라남도 여수시 광무동 819",
    "lat": "34.751827007066176",
    "lng": "127.7269050853396",
    "region": "전라남도"
  },
  {
    "name": "가양초등학교 운동장",
    "address": "대전광역시 동구 가양동 336-1",
    "lat": "36.341509529028855",
    "lng": "127.44096100330354",
    "region": "대전광역시"
  },
  {
    "name": "부영초등학교 운동장",
    "address": "전라남도 여수시 여서동 592",
    "lat": "34.74551267467212",
    "lng": "127.7003376914006",
    "region": "전라남도"
  },
  {
    "name": "여천고등학교 운동장",
    "address": "전라남도 여수시 선원동 54",
    "lat": "34.771109146225015",
    "lng": "127.6616112544485",
    "region": "전라남도"
  },
  {
    "name": "철조각공원",
    "address": "전라남도 광양시 금호동 716",
    "lat": "34.94028627756372",
    "lng": "127.73192730342487",
    "region": "전라남도"
  },
  {
    "name": "안의고등학교 운동장",
    "address": "경상남도 함양군 안의면 석천리 90",
    "lat": "35.630726951555715",
    "lng": "127.81944647044772",
    "region": "경상남도"
  },
  {
    "name": "선학공원",
    "address": "인천광역시 연수구 선학동 359",
    "lat": "37.42414810633498",
    "lng": "126.69921865343197",
    "region": "인천광역시"
  },
  {
    "name": "체육공원",
    "address": "인천광역시 연수구 연수동 636",
    "lat": "37.4082505897288",
    "lng": "126.68502770244882",
    "region": "인천광역시"
  },
  {
    "name": "성산중학교 운동장",
    "address": "제주특별자치도 서귀포시 성산읍 고성리 1027",
    "lat": "33.44354914419996",
    "lng": "126.91043098020887",
    "region": "제주특별자치도"
  },
  {
    "name": "성산고등학교 운동장",
    "address": "제주특별자치도 서귀포시 성산읍 오조리 360",
    "lat": "33.4696469544857",
    "lng": "126.91541232711324",
    "region": "제주특별자치도"
  },
  {
    "name": "만석초등학교 운동장",
    "address": "인천광역시 동구 화수동 26-3",
    "lat": "37.48420868476017",
    "lng": "126.62820070981972",
    "region": "인천광역시"
  },
  {
    "name": "동인천중학교 운동장",
    "address": "인천광역시 남동구 구월동 1089-1",
    "lat": "37.454542576375246",
    "lng": "126.69698281425325",
    "region": "인천광역시"
  },
  {
    "name": "만월중학교 운동장",
    "address": "인천광역시 남동구 서창동 658",
    "lat": "37.426189870498604",
    "lng": "126.75222836287737",
    "region": "인천광역시"
  },
  {
    "name": "풍산초등학교 운동장",
    "address": "경상북도 안동시 풍산읍 하리리 247",
    "lat": "36.57659274249314",
    "lng": "128.57428772887567",
    "region": "경상북도"
  },
  {
    "name": "부평북초등학교 운동장",
    "address": "인천광역시 부평구 갈산동 10-1",
    "lat": "37.52030677561647",
    "lng": "126.72952517673387",
    "region": "인천광역시"
  },
  {
    "name": "부평공업고등학교 운동장",
    "address": "인천광역시 부평구 갈산동 360-2",
    "lat": "37.51235341475046",
    "lng": "126.72693255130545",
    "region": "인천광역시"
  },
  {
    "name": "빛가람초등학교 운동장",
    "address": "전라남도 나주시 빛가람동 625",
    "lat": "35.0081239845355",
    "lng": "126.78560685993207",
    "region": "전라남도"
  },
  {
    "name": "소청분교운동장",
    "address": "인천광역시 옹진군 대청면 소청리 454-1",
    "lat": "37.773740332763985",
    "lng": "124.75396066532556",
    "region": "인천광역시"
  },
  {
    "name": "석남서초등학교 운동장",
    "address": "인천광역시 서구 석남동 580",
    "lat": "37.49977336440416",
    "lng": "126.67088721398434",
    "region": "인천광역시"
  },
  {
    "name": "심곡초등학교 운동장",
    "address": "인천광역시 서구 심곡동 291-8",
    "lat": "37.5434267019498",
    "lng": "126.682563111013",
    "region": "인천광역시"
  },
  {
    "name": "영산포여자중학교 운동장",
    "address": "전라남도 나주시 이창동 136",
    "lat": "34.99683271414782",
    "lng": "126.71173888653807",
    "region": "전라남도"
  },
  {
    "name": "도산중학교",
    "address": "경상남도 통영시 도산면 법송리 1042",
    "lat": "34.90399321427463",
    "lng": "128.36178115941374",
    "region": "경상남도"
  },
  {
    "name": "서녘공원",
    "address": "인천광역시 계양구 동양동 620-2",
    "lat": "37.56086129359869",
    "lng": "126.75776252232242",
    "region": "인천광역시"
  },
  {
    "name": "작전체육공원(작전공원 2)",
    "address": "인천광역시 계양구 작전동 902",
    "lat": "37.531069163069574",
    "lng": "126.73530453548987",
    "region": "인천광역시"
  },
  {
    "name": "북인천여자중학교 운동장",
    "address": "인천광역시 계양구 효성동 551",
    "lat": "37.52669250734774",
    "lng": "126.70108243796639",
    "region": "인천광역시"
  },
  {
    "name": "서운초등학교 운동장",
    "address": "인천광역시 계양구 서운동 55-133",
    "lat": "37.526893679785665",
    "lng": "126.74445525673683",
    "region": "인천광역시"
  },
  {
    "name": "다압초등학교 운동장",
    "address": "전라남도 광양시 다압면 고사리 1106",
    "lat": "35.12064136199795",
    "lng": "127.69186050427582",
    "region": "전라남도"
  },
  {
    "name": "나진초등학교 운동장",
    "address": "전라남도 여수시 화양면 나진리 463",
    "lat": "34.70868711812652",
    "lng": "127.61223373902406",
    "region": "전라남도"
  },
  {
    "name": "칠곡초등학교 운동장",
    "address": "경상남도 의령군 칠곡면 외조리 85-2",
    "lat": "35.340750131397876",
    "lng": "128.19544762372973",
    "region": "경상남도"
  },
  {
    "name": "유강초등학교 운동장",
    "address": "경상북도 포항시 남구 연일읍 유강리 582",
    "lat": "36.003655832647674",
    "lng": "129.31454569101516",
    "region": "경상북도"
  },
  {
    "name": "송원초등학교 운동장",
    "address": "대구광역시 군위군 소보면 송원리 675",
    "lat": "36.25369006144302",
    "lng": "128.47636135330345",
    "region": "대구광역시"
  },
  {
    "name": "음성여자중학교 운동장",
    "address": "충청북도 음성군 음성읍 평곡리 830-3",
    "lat": "36.92745457310469",
    "lng": "127.69909016007972",
    "region": "충청북도"
  },
  {
    "name": "환호공원",
    "address": "경상북도 포항시 북구 환호동 산63-1",
    "lat": "36.06684478768557",
    "lng": "129.39358234405856",
    "region": "경상북도"
  },
  {
    "name": "걸매생태공원",
    "address": "제주특별자치도 서귀포시 서홍동 470",
    "lat": "33.249806764784275",
    "lng": "126.5548778834611",
    "region": "제주특별자치도"
  },
  {
    "name": "중문중학교 운동장",
    "address": "제주특별자치도 서귀포시 중문동 1935",
    "lat": "33.25058136491867",
    "lng": "126.42904408023733",
    "region": "제주특별자치도"
  },
  {
    "name": "서귀포산업과학고 운동장",
    "address": "제주특별자치도 서귀포시 상효동 1237-1",
    "lat": "33.29780381249555",
    "lng": "126.59593893458144",
    "region": "제주특별자치도"
  },
  {
    "name": "시흥초등학교 운동장",
    "address": "제주특별자치도 서귀포시 성산읍 시흥리 1214-4",
    "lat": "33.47918088843657",
    "lng": "126.89543914544305",
    "region": "제주특별자치도"
  },
  {
    "name": "석호중학교 운동���",
    "address": "경기도 안산시 상록구 사동 541-1",
    "lat": "37.300042101225664",
    "lng": "126.85176868114453",
    "region": "경기도"
  },
  {
    "name": "북후초등학교 운동장",
    "address": "경상북도 안동시 북후면 장기리 679",
    "lat": "36.67568389793588",
    "lng": "128.69724333286325",
    "region": "경상북도"
  },
  {
    "name": "강구초등학교",
    "address": "경상북도 영덕군 강구면 오포리 599-2",
    "lat": "36.35644106019419",
    "lng": "129.37862653301912",
    "region": "경상북도"
  },
  {
    "name": "해맞이 휴게 주유소",
    "address": "경상북도 영덕군 병곡면 금곡리 10",
    "lat": "36.643591352545876",
    "lng": "129.42157449329298",
    "region": "경상북도"
  },
  {
    "name": "석남체육공원",
    "address": "인천광역시 서구 석남동 483",
    "lat": "37.51039326114685",
    "lng": "126.6750115539198",
    "region": "인천광역시"
  },
  {
    "name": "덕적면종합운동장",
    "address": "인천광역시 옹진군 덕적면 서포리 226-1",
    "lat": "37.22247861973689",
    "lng": "126.11814648950038",
    "region": "인천광역시"
  },
  {
    "name": "건지초등학교 운동장",
    "address": "인천광역시 서구 가좌동 200",
    "lat": "37.49497019628397",
    "lng": "126.6779714455251",
    "region": "인천광역시"
  },
  {
    "name": "양지중학교 운동장",
    "address": "경기도 안산시 단원구 고잔동 781-2",
    "lat": "37.304820204614145",
    "lng": "126.83324467237618",
    "region": "경기도"
  },
  {
    "name": "곤명초등학교 운동장",
    "address": "경상남도 사천시 곤명면 정곡리 848-1",
    "lat": "35.130765520442715",
    "lng": "127.97441214323047",
    "region": "경상남도"
  },
  {
    "name": "벽방초등학교",
    "address": "경상남도 통영시 광도면 안정리 1058",
    "lat": "34.94839140000346",
    "lng": "128.41045657004696",
    "region": "경상남도"
  },
  {
    "name": "사량중학교",
    "address": "경상남도 통영시 사량면 금평리 107",
    "lat": "34.84433824467303",
    "lng": "128.22000031764844",
    "region": "경상남도"
  },
  {
    "name": "낙원공원",
    "address": "인천광역시 계양구 임학동 25",
    "lat": "37.546505036305085",
    "lng": "126.73754093568361",
    "region": "인천광역시"
  },
  {
    "name": "통영공설운동장",
    "address": "경상남도 통영시 북신동 77-2",
    "lat": "34.851458084265815",
    "lng": "128.43045161096697",
    "region": "경상남도"
  },
  {
    "name": "동양택지1공원",
    "address": "인천광역시 계양구 동양동 575-1",
    "lat": "37.559162871482265",
    "lng": "126.75339915141153",
    "region": "인천광역시"
  },
  {
    "name": "동산공원",
    "address": "인천광역시 계양구 장기동 131",
    "lat": "37.579427009467686",
    "lng": "126.73064225860456",
    "region": "인천광역시"
  },
  {
    "name": "장기공원",
    "address": "인천광역시 계양구 장기동 124",
    "lat": "37.57768411731995",
    "lng": "126.73142918723703",
    "region": "인천광역시"
  },
  {
    "name": "충무초등학교",
    "address": "경상남도 통영시 정량동 232",
    "lat": "34.84786970512604",
    "lng": "128.43041772758963",
    "region": "경상남도"
  },
  {
    "name": "당산초등학교 운동장",
    "address": "인천광역시 계양구 동양동 583",
    "lat": "37.55852498865046",
    "lng": "126.75934109534771",
    "region": "인천광역시"
  },
  {
    "name": "중앙초등학교 운동장",
    "address": "전라남도 여수시 종화동 943",
    "lat": "34.7409437454214",
    "lng": "127.74425999284861",
    "region": "전라남도"
  },
  {
    "name": "명석고등학교 운동장",
    "address": "대전광역시 동구 가양동 116",
    "lat": "36.35247626308657",
    "lng": "127.454615850355",
    "region": "대전광역시"
  },
  {
    "name": "용전초등학교 운동장",
    "address": "대전광역시 동구 용전동 40-2",
    "lat": "36.356211447667555",
    "lng": "127.4300719536475",
    "region": "대전광역시"
  },
  {
    "name": "대전성남초등학교 운동장",
    "address": "대전광역시 동구 성남동 193-5",
    "lat": "36.34327327875609",
    "lng": "127.42964815950455",
    "region": "대전광역시"
  },
  {
    "name": "현암초등학교 운동장",
    "address": "대전광역시 동구 삼성동 353-1",
    "lat": "36.34175066145269",
    "lng": "127.42062804530431",
    "region": "대전광역시"
  },
  {
    "name": "의령여자중고등학교 운동장",
    "address": "경상남도 의령군 가례면 가례리 265-1",
    "lat": "35.32333655976125",
    "lng": "128.2449853420258",
    "region": "경상남도"
  },
  {
    "name": "여수서초등학교 운동장",
    "address": "전라남도 여수시 서교동 898",
    "lat": "34.741382731909866",
    "lng": "127.72496129385416",
    "region": "전라남도"
  },
  {
    "name": "화성초등학교",
    "address": "경기도 오산시 수청동 48-1",
    "lat": "37.1644120436413",
    "lng": "127.06836462020878",
    "region": "경기도"
  },
  {
    "name": "구룡포중학교(포항과학기술고등학교) 운동장",
    "address": "경상북도 포항시 남구 구룡포읍 구룡포리 199-47",
    "lat": "35.99163176567864",
    "lng": "129.5659250021053",
    "region": "경상북도"
  },
  {
    "name": "소이면사무소 광장",
    "address": "충청북도 음성군 소이면 대장리 145-3",
    "lat": "36.92346797975359",
    "lng": "127.7576210011674",
    "region": "충청북도"
  },
  {
    "name": "원남초등학교 운동장",
    "address": "충청북도 음성군 원남면 보룡리 371-1",
    "lat": "36.87865814607417",
    "lng": "127.65382652847923",
    "region": "충청북도"
  },
  {
    "name": "함양중학교 운동장",
    "address": "경상남도 함양군 함양읍 교산리 217",
    "lat": "35.52458658379141",
    "lng": "127.72997972856011",
    "region": "경상남도"
  },
  {
    "name": "함양초등학교 운���장",
    "address": "경상남도 함양군 함양읍 운림리 27-1",
    "lat": "35.52048008943567",
    "lng": "127.72649583709818",
    "region": "경상남도"
  },
  {
    "name": "의성군공설운동장",
    "address": "경상북도 의성군 의성읍 중리리 516",
    "lat": "36.35593771056805",
    "lng": "128.70252655787328",
    "region": "경상북도"
  },
  {
    "name": "진주초등학교 운동장",
    "address": "강원특별자치도 삼척시 남양동 178",
    "lat": "37.433727105058786",
    "lng": "129.1647909879693",
    "region": "강원특별자치도"
  },
  {
    "name": "두리중학교 운동장",
    "address": "대전광역시 유성구 송강동 162",
    "lat": "36.42885756821465",
    "lng": "127.38198302232972",
    "region": "대전광역시"
  },
  {
    "name": "순천이수초등학교 운동장",
    "address": "전라남도 순천시 조례동 1283",
    "lat": "34.94999199454369",
    "lng": "127.51186539946447",
    "region": "전라남도"
  },
  {
    "name": "석남초등학교 운동장",
    "address": "인천광역시 서구 석남동 109-32",
    "lat": "37.51014508214996",
    "lng": "126.68029820167645",
    "region": "인천광역시"
  },
  {
    "name": "서포초등학교 운동장",
    "address": "경상남도 사천시 서포면 구평리 653",
    "lat": "35.008332129313544",
    "lng": "127.97675836352283",
    "region": "경상남도"
  },
  {
    "name": "광의초등학교 운동장",
    "address": "전라남도 구례군 광의면 연파리 271",
    "lat": "35.25912472598923",
    "lng": "127.44554221630096",
    "region": "전라남도"
  },
  {
    "name": "구례고등학교 운동장",
    "address": "전라남도 구례군 구례읍 봉남리 54",
    "lat": "35.20444731415429",
    "lng": "127.46331590379938",
    "region": "전라남도"
  },
  {
    "name": "중앙공원",
    "address": "인천광역시 계양구 장기동 136",
    "lat": "37.5777087844903",
    "lng": "126.73435107253353",
    "region": "인천광역시"
  },
  {
    "name": "모탱이공원",
    "address": "인천광역시 계양구 동양동 607",
    "lat": "37.56171068189622",
    "lng": "126.75456999614319",
    "region": "인천광역시"
  },
  {
    "name": "계산1공원",
    "address": "인천광역시 계양구 계산동 944-20",
    "lat": "37.54276511565014",
    "lng": "126.72372826589428",
    "region": "인천광역시"
  },
  {
    "name": "된밭공원",
    "address": "인천광역시 계양구 작전동 88",
    "lat": "37.53274911934574",
    "lng": "126.72929649678872",
    "region": "인천광역시"
  },
  {
    "name": "계산체육공원",
    "address": "인천광역시 계양구 계산동 907-1",
    "lat": "37.54493840600702",
    "lng": "126.72958455045159",
    "region": "인천광역시"
  },
  {
    "name": "봉강초등학교 운동장",
    "address": "전라남도 광양시 봉강면 봉당리 468-2",
    "lat": "35.01215027510938",
    "lng": "127.5814282981642",
    "region": "전라남도"
  },
  {
    "name": "명현초등학교 운동장",
    "address": "인천광역시 계양구 효성동 15-3",
    "lat": "37.531803043006505",
    "lng": "126.71261281807953",
    "region": "인천광역시"
  },
  {
    "name": "서운중학교 운동장",
    "address": "인천광역시 계양구 서운동 55-146",
    "lat": "37.526084171455174",
    "lng": "126.74442055541026",
    "region": "인천광역시"
  },
  {
    "name": "효성남초등학교 운동장",
    "address": "인천광역시 계양구 효성동 276",
    "lat": "37.52838127835077",
    "lng": "126.71616222209016",
    "region": "인천광역시"
  },
  {
    "name": "여문공원",
    "address": "전라남도 여수시 문수동 169",
    "lat": "34.753872733610685",
    "lng": "127.70128279924393",
    "region": "전라남도"
  },
  {
    "name": "위성초등학교 운동장",
    "address": "경상남도 함양군 함양읍 교산리 201",
    "lat": "35.52352761403315",
    "lng": "127.73265614489209",
    "region": "경상남도"
  },
  {
    "name": "오천중고등학교 운동장",
    "address": "경상북도 포항시 남구 오천읍 용덕리 267",
    "lat": "35.9688875184686",
    "lng": "129.41339214353707",
    "region": "경상북도"
  },
  {
    "name": "답동종합운동장",
    "address": "인천광역시 옹진군 대청면 대청리 421-1",
    "lat": "37.832020192826135",
    "lng": "124.71695528619831",
    "region": "인천광역시"
  },
  {
    "name": "충북반도체고 운동장",
    "address": "충청북도 음성군 금왕읍 금석리 103",
    "lat": "36.99456968485014",
    "lng": "127.60606637184021",
    "region": "충청북도"
  },
  {
    "name": "신���초등학교 운동장",
    "address": "경상북도 포항시 북구 신광면 토성리 483",
    "lat": "36.12924073578338",
    "lng": "129.26217130504565",
    "region": "경상북도"
  },
  {
    "name": "포항동부초등학교 운동장",
    "address": "경상북도 포항시 북구 두호동 336",
    "lat": "36.06263353570004",
    "lng": "129.38030298534827",
    "region": "경상북도"
  },
  {
    "name": "두호남부초등학교 운동장",
    "address": "경상북도 포항시 북구 두호동 919-9",
    "lat": "36.06141781646098",
    "lng": "129.3734872341162",
    "region": "경상북도"
  },
  {
    "name": "주안남초등학교운동장",
    "address": "인천광역시 미추홀구 주안동 1503",
    "lat": "37.450075921946876",
    "lng": "126.68541518889538",
    "region": "인천광역시"
  },
  {
    "name": "인천대제물포캠퍼스대운동장",
    "address": "인천광역시 미추홀구 도화동 20-6",
    "lat": "37.47492872287516",
    "lng": "126.6537231412328",
    "region": "인천광역시"
  },
  {
    "name": "시곡초등학교 운동장",
    "address": "경기도 안산시 상록구 사동 1344-2",
    "lat": "37.288743779205106",
    "lng": "126.85247384736209",
    "region": "경기도"
  },
  {
    "name": "안산초등학교 운동장",
    "address": "경기도 안산시 상록구 수암동 177",
    "lat": "37.364680755544015",
    "lng": "126.87817325344494",
    "region": "경기도"
  },
  {
    "name": "영명학교 운동장",
    "address": "경상북도 안동시 북후면 오산리 509-1",
    "lat": "36.621191630357906",
    "lng": "128.70893808456697",
    "region": "경상북도"
  },
  {
    "name": "길안중학교 운동장",
    "address": "경상북도 안동시 길안면 천지리 731-1",
    "lat": "36.45847053434414",
    "lng": "128.8947428010281",
    "region": "경상북도"
  },
  {
    "name": "경주여자고등학교 운동장",
    "address": "경상북도 경주시 성건동 620-118",
    "lat": "35.857416306875514",
    "lng": "129.20590718458362",
    "region": "경상북도"
  },
  {
    "name": "안강옥산초등학교 운동장",
    "address": "경상북도 경주시 안강읍 옥산리 1116",
    "lat": "35.995241236329974",
    "lng": "129.1692309276992",
    "region": "경상북도"
  },
  {
    "name": "지산초등학교 운동장",
    "address": "경기도 파주시 와동동 1339-5",
    "lat": "37.73086339974411",
    "lng": "126.7617310658838",
    "region": "경기도"
  },
  {
    "name": "소보면복지회관",
    "address": "대구광역시 군위군 소보면 송원리 682",
    "lat": "36.25659440872475",
    "lng": "128.47743124658527",
    "region": "대구광역시"
  },
  {
    "name": "불로중학교 운동장",
    "address": "인천광역시 서구 불로동 306-22",
    "lat": "37.61532357828697",
    "lng": "126.69615356932904",
    "region": "인천광역시"
  },
  {
    "name": "갈매공원",
    "address": "인천광역시 서구 공촌동 304",
    "lat": "37.55277564924825",
    "lng": "126.68481778530007",
    "region": "인천광역시"
  },
  {
    "name": "삼양초등학교 운동장",
    "address": "충청북도 옥천군 옥천읍 마암리 5-1",
    "lat": "36.29744254854639",
    "lng": "127.56891261918479",
    "region": "충청북도"
  },
  {
    "name": "옥천여자중학교 운동장",
    "address": "충청북도 옥천군 옥천읍 문정리 455-2",
    "lat": "36.304088104794786",
    "lng": "127.57270957838739",
    "region": "충청북도"
  },
  {
    "name": "죽미체육공원 다목적구장",
    "address": "경기도 오산시 세교동 619",
    "lat": "37.180860196167814",
    "lng": "127.04584479331972",
    "region": "경기도"
  },
  {
    "name": "오산고현초등학교",
    "address": "경기도 오산시 고현동 92",
    "lat": "37.1332857929734",
    "lng": "127.08568445092168",
    "region": "경기도"
  },
  {
    "name": "매홀초등학교",
    "address": "경기도 오산시 수청�� 534-1",
    "lat": "37.162356588923096",
    "lng": "127.06365564471646",
    "region": "경기도"
  },
  {
    "name": "월포초등학교 운동장",
    "address": "경상북도 포항시 북구 청하면 용두리 469-1",
    "lat": "36.20265923057457",
    "lng": "129.36790823936929",
    "region": "경상북도"
  },
  {
    "name": "솔밭 공원",
    "address": "인천광역시 연수구 연수동 582-1",
    "lat": "37.41633948096236",
    "lng": "126.69031107360321",
    "region": "인천광역시"
  },
  {
    "name": "새서귀초등학교 운동장",
    "address": "제주특별자치도 서귀포시 서호동 1451",
    "lat": "33.25640914630389",
    "lng": "126.51317910472375",
    "region": "제주특별자치도"
  },
  {
    "name": "남주고등학교 운동장",
    "address": "제주특별자치도 서귀포시 동홍동 1907",
    "lat": "33.275605608482095",
    "lng": "126.56451113694673",
    "region": "제주특별자치도"
  },
  {
    "name": "토평초등학교 운동장",
    "address": "제주특별자치도 서귀포시 토평동 1210-1",
    "lat": "33.26588570955642",
    "lng": "126.58960040546086",
    "region": "제주특별자치도"
  },
  {
    "name": "효돈중학교 운동장",
    "address": "제주특별자치도 서귀포시 하효동 15-1",
    "lat": "33.26531452337017",
    "lng": "126.62063564069582",
    "region": "제주특별자치도"
  },
  {
    "name": "풍천초등학교 운동장",
    "address": "제주특별자치도 서귀포시 성산읍 신천리 603",
    "lat": "33.34883512122376",
    "lng": "126.85015941742276",
    "region": "제주특별자치도"
  },
  {
    "name": "신풍레포츠공원",
    "address": "제주특별자치도 서귀포시 성산읍 신풍리 1567",
    "lat": "33.37894021728454",
    "lng": "126.81606138340719",
    "region": "제주특별자치도"
  },
  {
    "name": "선인고등학교운동장",
    "address": "인천광역시 미추홀구 도화동 20-6",
    "lat": "37.47492872287516",
    "lng": "126.6537231412328",
    "region": "인천광역시"
  },
  {
    "name": "석바위근린공원",
    "address": "인천광역시 미추홀구 주안동 1578",
    "lat": "37.454022810497456",
    "lng": "126.69394328045162",
    "region": "인천광역시"
  },
  {
    "name": "강구면 삼사공원-2(삼사지구)",
    "address": "경상북도 영덕군 강구면 삼사리 167",
    "lat": "36.348889934274226",
    "lng": "129.38595790450418",
    "region": "경상북도"
  },
  {
    "name": "가좌초등학교 운동장",
    "address": "인천광역시 서구 가좌동 30-87",
    "lat": "37.49016183051445",
    "lng": "126.68417864548056",
    "region": "인천광역시"
  },
  {
    "name": "서곶초등학교 운동장",
    "address": "인천광역시 서구 연희동 745-2",
    "lat": "37.5482317091045",
    "lng": "126.67009389660721",
    "region": "인천광역시"
  },
  {
    "name": "모도리소공원",
    "address": "인천광역시 옹진군 북도면 모도리 80-1",
    "lat": "37.53442240402357",
    "lng": "126.41123544034996",
    "region": "인천광역시"
  },
  {
    "name": "남양중학교 운동장",
    "address": "경상남도 사천시 송포동 281",
    "lat": "34.969066419227204",
    "lng": "128.062509674679",
    "region": "경상남도"
  },
  {
    "name": "통영여자고등학교",
    "address": "경상남도 통영시 도천동 121",
    "lat": "34.84005833974131",
    "lng": "128.41082474959293",
    "region": "경상남도"
  },
  {
    "name": "칠성초등학�� 운동장",
    "address": "전라남도 광양시 광양읍 칠성리 1006",
    "lat": "34.9790185448964",
    "lng": "127.57884480817397",
    "region": "전라남도"
  },
  {
    "name": "천동초등학교 운동장",
    "address": "대전광역시 동구 천동 214-1",
    "lat": "36.31661207250697",
    "lng": "127.44536250829695",
    "region": "대전광역시"
  },
  {
    "name": "석천초등학교",
    "address": "경기도 부천시 원미구 상동 525-4",
    "lat": "37.51034286244899",
    "lng": "126.75263106822965",
    "region": "경기도"
  },
  {
    "name": "성곡초등학교",
    "address": "경기도 부천시 오정구 여월동 325",
    "lat": "37.51276050980244",
    "lng": "126.80581797357138",
    "region": "경기도"
  },
  {
    "name": "소안초등학교",
    "address": "경기도 부천시 소사구 소사본동 409-9",
    "lat": "37.47237603112376",
    "lng": "126.80456936359404",
    "region": "경기도"
  },
  {
    "name": "판암초등학교 운동장",
    "address": "대전광역시 동구 판암동 334-1",
    "lat": "36.31555165528565",
    "lng": "127.46073888870103",
    "region": "대전광역시"
  },
  {
    "name": "남초등학교 운동장",
    "address": "전라남도 여수시 국동 513",
    "lat": "34.73101018053101",
    "lng": "127.71997638447212",
    "region": "전라남도"
  },
  {
    "name": "여수문수중학교 운동장",
    "address": "전라남도 여수시 문수동 171",
    "lat": "34.75353149848683",
    "lng": "127.70018199315874",
    "region": "전라남도"
  },
  {
    "name": "가례초등학교 운동장",
    "address": "경상남도 의령군 가례면 수성리 199-2",
    "lat": "35.33299129284261",
    "lng": "128.24647128582004",
    "region": "경상남도"
  },
  {
    "name": "양포초등학교 운동장",
    "address": "경상북도 포항시 남구 장기면 양포리 487-18",
    "lat": "35.87620185507385",
    "lng": "129.5132231056683",
    "region": "경상북도"
  },
  {
    "name": "상도중학교 운동장",
    "address": "경상북도 포항시 남구 대도동 157-1",
    "lat": "36.014645367452154",
    "lng": "129.36088085174637",
    "region": "경상북도"
  },
  {
    "name": "포항종합운동장",
    "address": "경상북도 포항시 남구 대도동 314-4",
    "lat": "36.00830134908375",
    "lng": "129.36239361763373",
    "region": "경상북도"
  },
  {
    "name": "장성초등학교 운동장",
    "address": "경상북도 포항시 북구 장성동 1344",
    "lat": "36.06953753655229",
    "lng": "129.37185645103733",
    "region": "경상북도"
  },
  {
    "name": "청도중앙초등학교 운동장",
    "address": "경상북도 청도군 청도읍 원정리 530",
    "lat": "35.64709524181966",
    "lng": "128.75217445666016",
    "region": "경상북도"
  },
  {
    "name": "양지공원",
    "address": "인천광역시 연수구 연수동 594-1",
    "lat": "37.41513351133229",
    "lng": "126.67869338368108",
    "region": "인천광역시"
  },
  {
    "name": "하원초등학교 운동장",
    "address": "제주특별자치도 서귀포시 하원동 323-1",
    "lat": "33.25284261448241",
    "lng": "126.45958536377786",
    "region": "제주특별자치도"
  },
  {
    "name": "인천기계공업고등학교운동장",
    "address": "인천광역시 미추홀구 주안동 638-1",
    "lat": "37.45567630838128",
    "lng": "126.66863441092194",
    "region": "인천광역시"
  },
  {
    "name": "주안북초등학교운동장",
    "address": "인천광역시 미추홀구 주안동 14-1",
    "lat": "37.46796839314852",
    "lng": "126.67814344403988",
    "region": "인천광역시"
  },
  {
    "name": "부인초등학교",
    "address": "경기도 부천시 원미구 상동 398-3",
    "lat": "37.48945498047669",
    "lng": "126.74862921237946",
    "region": "경기도"
  },
  {
    "name": "부천역곡초등학교",
    "address": "경기도 부천시 원미구 역곡동 178-17",
    "lat": "37.49057442630685",
    "lng": "126.80798113346097",
    "region": "경기도"
  },
  {
    "name": "심원초등학교",
    "address": "경기도 부천시 원미구 중동 1097",
    "lat": "37.499414479423315",
    "lng": "126.78180813789363",
    "region": "경기도"
  },
  {
    "name": "대전동산초등학교 운동장",
    "address": "대전광역시 대덕구 오정동 230",
    "lat": "36.350305149367166",
    "lng": "127.42183407032893",
    "region": "대전광역시"
  },
  {
    "name": "서곶중학교 운동장",
    "address": "인천광역시 서구 연희동 734-2",
    "lat": "37.549180452535126",
    "lng": "126.67117347582008",
    "region": "인천광역시"
  },
  {
    "name": "서부산단공원(주물공단공원)",
    "address": "인천광역시 서구 경서동 678",
    "lat": "37.55564381896551",
    "lng": "126.63954827567423",
    "region": "인천광역시"
  },
  {
    "name": "충렬초등학교",
    "address": "경상남도 통영시 명정동 173",
    "lat": "34.84729435435558",
    "lng": "128.41621821743024",
    "region": "경상남도"
  },
  {
    "name": "통영중학교",
    "address": "경상남도 통영시 봉평동 196",
    "lat": "34.828706935569244",
    "lng": "128.4162430655345",
    "region": "경상남도"
  },
  {
    "name": "용방초등학교 운동장",
    "address": "전라남도 구례군 용방면 용정리 199-2",
    "lat": "35.25057100534726",
    "lng": "127.43330595125383",
    "region": "전라남도"
  },
  {
    "name": "효성고등학교  운동장",
    "address": "인천광역시 계양구 효성동 13-1",
    "lat": "37.53181704479623",
    "lng": "126.71523156375982",
    "region": "인천광역시"
  },
  {
    "name": "부영여자고등학교 운동장",
    "address": "전라남도 여수시 안산동 657-1",
    "lat": "34.75880098659503",
    "lng": "127.65166776700545",
    "region": "전라남도"
  },
  {
    "name": "용덕면공설운동장",
    "address": "경상남도 의령군 용덕면 가락리 189-5",
    "lat": "35.341251170096015",
    "lng": "128.27132195234304",
    "region": "경상남도"
  },
  {
    "name": "유곡초등학교 운동장",
    "address": "경상남도 의령군 유곡면 칠곡리 330",
    "lat": "35.4336450859035",
    "lng": "128.31398785114294",
    "region": "경상남도"
  },
  {
    "name": "화정초등학교 운동장",
    "address": "경상남도 의령군 화정면 상정리 642-1",
    "lat": "35.276284977258854",
    "lng": "128.2112753391266",
    "region": "경상남도"
  },
  {
    "name": "원동초등학교",
    "address": "경기도 오산시 원동 805",
    "lat": "37.135125742055266",
    "lng": "127.06976224619646",
    "region": "경기도"
  },
  {
    "name": "형산강변체육공원",
    "address": "경상북도 포항시 남구 해도동 119-1",
    "lat": "36.016833139148645",
    "lng": "129.37363720147303",
    "region": "경상북도"
  },
  {
    "name": "송도중학교 운동장",
    "address": "경상북도 포항시 남구 송도동 492-1",
    "lat": "36.028653066569724",
    "lng": "129.3772886910298",
    "region": "경상북도"
  },
  {
    "name": "송도초등학교 운동장",
    "address": "경상북도 포항시 남구 송도동 산24-38",
    "lat": "36.03236204597638",
    "lng": "129.3806676225252",
    "region": "경상북도"
  },
  {
    "name": "상미초등학교",
    "address": "경기도 부천시 원미구 상동 588-7",
    "lat": "37.49460301552617",
    "lng": "126.74454420804973",
    "region": "경기도"
  },
  {
    "name": "와동초등학교 운동장",
    "address": "대전광역시 대덕구 신대동 372-1",
    "lat": "36.39731861973562",
    "lng": "127.42220867298325",
    "region": "대전광역시"
  },
  {
    "name": "귀덕초등학교 운동장",
    "address": "제주특별자치도 제주시 한림읍 귀덕리 1118",
    "lat": "33.442028444180266",
    "lng": "126.29343152046165",
    "region": "제주특별자치도"
  },
  {
    "name": "구좌중앙초등학교 운동장",
    "address": "제주특별자치도 제주시 구좌읍 월정리 100",
    "lat": "33.551485554776114",
    "lng": "126.79782403323244",
    "region": "제주특별자치도"
  },
  {
    "name": "하도초등학교 운동장",
    "address": "제주특별자치도 제주시 구좌읍 하도리 2315",
    "lat": "33.51740387261604",
    "lng": "126.87842887421995",
    "region": "제주특별자치도"
  },
  {
    "name": "대흘초등학교 운동장",
    "address": "제주특별자치도 제주시 조천읍 대흘리 1672-1",
    "lat": "33.49943989674331",
    "lng": "126.65775364827967",
    "region": "제주특별자치도"
  },
  {
    "name": "기북초등학교 운동장",
    "address": "경상북도 포항시 북구 기북면 용기리 126-8",
    "lat": "36.12882834370453",
    "lng": "129.1676545143136",
    "region": "경상북도"
  },
  {
    "name": "와동초등학교 운동장",
    "address": "경기도 안산시 단원구 와동 704",
    "lat": "37.33671841747422",
    "lng": "126.83123816764605",
    "region": "경기도"
  },
  {
    "name": "덕성초등학교 운동장",
    "address": "경기도 안산시 단원구 고잔동 676-1",
    "lat": "37.32750760206355",
    "lng": "126.83679913690384",
    "region": "경기도"
  },
  {
    "name": "관산초등학교 운동장",
    "address": "경기도 안산시 단원구 초지동 603",
    "lat": "37.32836579965959",
    "lng": "126.80679683412637",
    "region": "경기도"
  },
  {
    "name": "안산진흥초등학교 운동장",
    "address": "경기도 안산시 단원구 고잔동 712-1",
    "lat": "37.31210550951687",
    "lng": "126.822241890761",
    "region": "경기도"
  },
  {
    "name": "서라벌여자중학교 운동장",
    "address": "경상북도 경주시 황성동 1053-18",
    "lat": "35.85483931092816",
    "lng": "129.21705546987803",
    "region": "경상북도"
  },
  {
    "name": "신라공업고등학교 운동장",
    "address": "경상북도 경주시 천북면 ���당리 1084",
    "lat": "35.89318303215132",
    "lng": "129.2421522571932",
    "region": "경상북도"
  },
  {
    "name": "아화중학교 운동장",
    "address": "경상북도 경주시 서면 아화리 123",
    "lat": "35.89969285252565",
    "lng": "129.04729204399166",
    "region": "경상북도"
  },
  {
    "name": "서면행정복지센터 주차장",
    "address": "경상북도 경주시 서면 아화리 359-2",
    "lat": "35.891417676475214",
    "lng": "129.0524882569838",
    "region": "경상북도"
  },
  {
    "name": "의곡초등학교 우라분교 운동장",
    "address": "경상북도 경주시 산내면 우라리 939-2",
    "lat": "35.81248818455189",
    "lng": "129.01317277469536",
    "region": "경상북도"
  },
  {
    "name": "의곡초등학교 일부분교 운동장 ",
    "address": "경상북도 경주시 산내면 일부리 748",
    "lat": "35.720830903155175",
    "lng": "129.01544103131548",
    "region": "경상북도"
  },
  {
    "name": "내남초등학교 운동장",
    "address": "경상북도 경주시 내남면 부지리 431-1",
    "lat": "35.76479931294635",
    "lng": "129.19559984007196",
    "region": "경상북도"
  },
  {
    "name": "간재울초등학교 운동장",
    "address": "인천광역시 서구 검암동 629-3",
    "lat": "37.56016019759363",
    "lng": "126.67276086360347",
    "region": "인천광역시"
  },
  {
    "name": "금곡초등학교 운동장",
    "address": "인천광역시 서구 금곡동 721-1",
    "lat": "37.60511843710255",
    "lng": "126.65082829777668",
    "region": "인천광역시"
  },
  {
    "name": "동산고등학교 운동장",
    "address": "인천광역시 동구 송림동 97-1",
    "lat": "37.47359664793716",
    "lng": "126.64833860234452",
    "region": "인천광역시"
  },
  {
    "name": "사리운동장",
    "address": "경기도 안산시 상록구 본오동 968",
    "lat": "37.28483469365532",
    "lng": "126.85670730198368",
    "region": "경기도"
  },
  {
    "name": "반월초등학교 운동장",
    "address": "경기도 안산시 상록구 건건동 629",
    "lat": "37.305417458219345",
    "lng": "126.90150556291249",
    "region": "경기도"
  },
  {
    "name": "서울예술대학교 운동장",
    "address": "경기도 안산시 단원구 고잔동 640",
    "lat": "37.332248075905476",
    "lng": "126.8376096902348",
    "region": "경기도"
  },
  {
    "name": "신길중학교 운동장",
    "address": "경기도 안산시 단원구 신길동 1549",
    "lat": "37.33701568151527",
    "lng": "126.78767647804767",
    "region": "경기도"
  },
  {
    "name": "부부로주차장",
    "address": "경기도 안산시 단원구 원곡동 991-2",
    "lat": "37.3302191406077",
    "lng": "126.78883501922542",
    "region": "경기도"
  },
  {
    "name": "별망초등학교 운동장",
    "address": "경기도 안산시 단원구 초지동 739-1",
    "lat": "37.304420364117",
    "lng": "126.81354559043884",
    "region": "경기도"
  },
  {
    "name": "초지초등학교 운동장",
    "address": "경기도 안산시 단원구 초지동 724-1",
    "lat": "37.312519047487925",
    "lng": "126.81430588699237",
    "region": "경기도"
  },
  {
    "name": "별망중학교 운동장",
    "address": "경기도 안산시 단원구 초지동 739-2",
    "lat": "37.30449356743673",
    "lng": "126.81218350480182",
    "region": "경기도"
  },
  {
    "name": "봉화초등학교 운동장",
    "address": "인천광역시 서구 가좌동 147",
    "lat": "37.4950916307139",
    "lng": "126.67024097257392",
    "region": "인천광역시"
  },
  {
    "name": "유영초등학교",
    "address": "경상남도 통영시 북신동 106-2",
    "lat": "34.85140933070034",
    "lng": "128.42653700806375",
    "region": "경상남도"
  },
  {
    "name": "살나리공원",
    "address": "인천광역시 계양구 서운동 185-1",
    "lat": "37.53625992183555",
    "lng": "126.74617111626561",
    "region": "인천광역시"
  },
  {
    "name": "오조산공원",
    "address": "인천광역시 계양구 용종동 208",
    "lat": "37.54058776619429",
    "lng": "126.73809888035521",
    "region": "인천광역시"
  },
  {
    "name": "계수중학교 운동장",
    "address": "인천광역시 계양구 서운동 109-2",
    "lat": "37.53494726842629",
    "lng": "126.74491545262084",
    "region": "인천광역시"
  },
  {
    "name": "서운고등학교 운동장",
    "address": "인천광역시 계양구 서운동 55-42",
    "lat": "37.526514257372796",
    "lng": "126.74587013625215",
    "region": "인천광역시"
  },
  {
    "name": "중동근린공원",
    "address": "전라남도 광양시 중동 1673",
    "lat": "34.934176333425064",
    "lng": "127.69290952847882",
    "region": "전라남도"
  },
  {
    "name": "가야초등학교 운동장",
    "address": "전라남도 광양시 광영동 250",
    "lat": "34.96683358737286",
    "lng": "127.71314207038036",
    "region": "전라남도"
  },
  {
    "name": "낙서면사무소 방계운동장",
    "address": "경상남도 의령군 낙서면 전화리 228-2",
    "lat": "35.483715198804575",
    "lng": "128.37756693363198",
    "region": "경상남도"
  },
  {
    "name": "부림공설운동장",
    "address": "경상남도 의령군 부림면 감암리 1210",
    "lat": "35.4721999539054",
    "lng": "128.3207148313523",
    "region": "경상남도"
  },
  {
    "name": "의령중학교 운동장",
    "address": "경상남도 의령군 의령읍 동동리 1087",
    "lat": "35.324041227972856",
    "lng": "128.26567053794867",
    "region": "경상남도"
  },
  {
    "name": "원당초등학교 운동장",
    "address": "충청북도 음성군 감곡면 원당리 159-1",
    "lat": "37.074038748999826",
    "lng": "127.61572367766476",
    "region": "충청북도"
  },
  {
    "name": "양학초등학교 운동장",
    "address": "경상북도 포항시 북구 학잠동 191",
    "lat": "36.031592066724706",
    "lng": "129.3445515632619",
    "region": "경상북도"
  },
  {
    "name": "창포중학교 운동장",
    "address": "경상북도 포항시 북구 창포동 647",
    "lat": "36.065704352563756",
    "lng": "129.3685519695333",
    "region": "경상북도"
  },
  {
    "name": "예래초등학교 운동장",
    "address": "제주특별자치도 서귀포시 상예동 1152-3",
    "lat": "33.24603380398945",
    "lng": "126.39146007992699",
    "region": "제주특별자치도"
  },
  {
    "name": "부수지공원",
    "address": "인천광역시 연수구 동춘동 925-4",
    "lat": "37.407992672558386",
    "lng": "126.67819440365072",
    "region": "인천광역시"
  },
  {
    "name": "중문초등학교 운동장",
    "address": "제주특별자치도 서귀포시 중문동 1984",
    "lat": "33.252418150491174",
    "lng": "126.4294421665951",
    "region": "제주특별자치도"
  },
  {
    "name": "산성어린이공원",
    "address": "인천광역시 미추홀구 문학동 403-15",
    "lat": "37.43479176201413",
    "lng": "126.68664169705694",
    "region": "인천광역시"
  },
  {
    "name": "안산해양초등학교 운동장",
    "address": "경기도 안산시 상록구 사동 1512-1",
    "lat": "37.29428554343522",
    "lng": "126.82380778974466",
    "region": "경기도"
  },
  {
    "name": "성포중학교 운동장",
    "address": "경기도 안산시 상록구 월피동 459",
    "lat": "37.33513292508117",
    "lng": "126.85111347936486",
    "region": "경기도"
  },
  {
    "name": "갈월초등학교 운동장",
    "address": "인천광역시 부평구 갈산동 373",
    "lat": "37.50984526937596",
    "lng": "126.72517448381468",
    "region": "인천광역시"
  },
  {
    "name": "영흥중운동장",
    "address": "인천광역시 옹진군 영흥면 내리 496-95",
    "lat": "37.26563223337787",
    "lng": "126.47979384564083",
    "region": "인천광역시"
  },
  {
    "name": "선부고등학교 운동장",
    "address": "경기도 안산시 단원구 선부동 35",
    "lat": "37.341128268116094",
    "lng": "126.79395496748879",
    "region": "경기도"
  },
  {
    "name": "대남초등학교 운동장",
    "address": "경기도 안산시 단원구 대부남동 1066-123",
    "lat": "37.21940935377562",
    "lng": "126.57580556325266",
    "region": "경기도"
  },
  {
    "name": "대부초등학교 운동장",
    "address": "경기도 안산시 단원구 대부북동 181",
    "lat": "37.24524215693375",
    "lng": "126.58033311487493",
    "region": "경기도"
  },
  {
    "name": "산동중학교 운동장",
    "address": "전라남도 구례군 산동면 원촌리 341",
    "lat": "35.31565295377794",
    "lng": "127.43531051411156",
    "region": "전라남도"
  },
  {
    "name": "서라벌초등학교 운동장",
    "address": "경상북도 경주시 천군동 582",
    "lat": "35.83129195052764",
    "lng": "129.27916802387207",
    "region": "경상북도"
  },
  {
    "name": "안심초등학교 운동장",
    "address": "전라남도 여수시 소호동 428",
    "lat": "34.739855385414245",
    "lng": "127.64679277267636",
    "region": "전라남도"
  },
  {
    "name": "원동초등학교 운동장",
    "address": "경상북도 포항시 남구 오천읍 원리 978",
    "lat": "35.96502820130789",
    "lng": "129.40157480421755",
    "region": "경상북도"
  },
  {
    "name": "포항운하관 공영주차장",
    "address": "경상북도 포항시 남구 송도동 222",
    "lat": "36.026854646891216",
    "lng": "129.379506111149",
    "region": "경상북도"
  },
  {
    "name": "포항초등학교 운동장",
    "address": "경상북도 포항시 북구 덕산동 902-1",
    "lat": "36.04257553740729",
    "lng": "129.36342358589368",
    "region": "경상북도"
  },
  {
    "name": "포항대흥초등학교 운동장",
    "address": "경상북도 포항시 북구 용흥동 418-8",
    "lat": "36.04528212901564",
    "lng": "129.3520832061851",
    "region": "경상북도"
  },
  {
    "name": "용일초등학교운동장",
    "address": "인천광역시 미추홀구 용현동 74-1",
    "lat": "37.452794654600474",
    "lng": "126.663498342762",
    "region": "인천광역시"
  },
  {
    "name": "학익고등학교운동장",
    "address": "인천광역시 미추홀구 학익동 688-1",
    "lat": "37.439078449259675",
    "lng": "126.663838831625",
    "region": "인천광역시"
  },
  {
    "name": "주안초등학교운동장",
    "address": "인천광역시 미추홀구 주안동 1627",
    "lat": "37.45479861160219",
    "lng": "126.6733030122394",
    "region": "인천광역시"
  },
  {
    "name": "인천고등학교운동장",
    "address": "인천광역시 미추홀구 주안동 1555",
    "lat": "37.45347591082494",
    "lng": "126.69071249099107",
    "region": "인천광역시"
  },
  {
    "name": "성포초등학교 운동장",
    "address": "경기도 안산시 상록구 성포동 592-1",
    "lat": "37.324042039692394",
    "lng": "126.84253932146821",
    "region": "경기도"
  },
  {
    "name": "와동중학교 운동장",
    "address": "경기도 안산시 단원구 와동 143",
    "lat": "37.33890758209909",
    "lng": "126.8303480340943",
    "region": "경기도"
  },
  {
    "name": "용마초등학교 운동장",
    "address": "인천광역시 부평구 청천동 176-4",
    "lat": "37.515551574355754",
    "lng": "126.70713311705458",
    "region": "인천광역시"
  },
  {
    "name": "경안고등학교 운동장",
    "address": "경기도 안산시 단원구 고잔동 677",
    "lat": "37.32565539499911",
    "lng": "126.8337372017269",
    "region": "경기도"
  },
  {
    "name": "경주여자정보고등학교 운동장",
    "address": "경상북도 경주시 시래동 729-1",
    "lat": "35.77303693759125",
    "lng": "129.29060760584514",
    "region": "경상북도"
  },
  {
    "name": "불국중학교 운동장",
    "address": "경상북도 경주시 시래동 206",
    "lat": "35.77354987289433",
    "lng": "129.30901360078812",
    "region": "경상북도"
  },
  {
    "name": "계림고등��교 운동장",
    "address": "경상북도 경주시 황성동 897-1",
    "lat": "35.865919923166715",
    "lng": "129.2085567957472",
    "region": "경상북도"
  },
  {
    "name": "근화여자중학교 운동장",
    "address": "경상북도 경주시 용강동 870",
    "lat": "35.87130364468456",
    "lng": "129.22692307431922",
    "region": "경상북도"
  },
  {
    "name": "선도동행정복지센터 주차장",
    "address": "경상북도 경주시 충효동 544-3",
    "lat": "35.84378588564882",
    "lng": "129.17486720298427",
    "region": "경상북도"
  },
  {
    "name": "월성중학교 운동장",
    "address": "경상북도 경주시 충효동 549-6",
    "lat": "35.84232205961231",
    "lng": "129.1761461390509",
    "region": "경상북도"
  },
  {
    "name": "신라고등학교 운동장",
    "address": "경상북도 경주시 충효동 191",
    "lat": "35.840089420387734",
    "lng": "129.1875908368047",
    "region": "경상북도"
  },
  {
    "name": "문화중학교 운동장",
    "address": "경상북도 경주시 충효동 717",
    "lat": "35.85321620446288",
    "lng": "129.16873763528403",
    "region": "경상북도"
  },
  {
    "name": "경주정보고등학교 운동장",
    "address": "경상북도 경주시 충효동 549-6",
    "lat": "35.84232205961231",
    "lng": "129.1761461390509",
    "region": "경상북도"
  },
  {
    "name": "통일전 주차장",
    "address": "경상북도 경주시 남산동 1156-102",
    "lat": "35.79744862097196",
    "lng": "129.2429468035725",
    "region": "경상북도"
  },
  {
    "name": "동방초등학교 운동장",
    "address": "경상북도 경주시 동방동 151",
    "lat": "35.80368737539596",
    "lng": "129.26232377482847",
    "region": "경상북도"
  },
  {
    "name": "작동초등학교 운동장",
    "address": "인천광역시 계양구 작전동 920",
    "lat": "37.528891369446356",
    "lng": "126.73565565398286",
    "region": "인천광역시"
  },
  {
    "name": "여남초등학교 운동장",
    "address": "전라남도 여수시 남면 우학리 263",
    "lat": "34.51168256826483",
    "lng": "127.76636466283556",
    "region": "전라남도"
  },
  {
    "name": "신라초등학교 운동장",
    "address": "경상북도 경주시 사정동 446-1",
    "lat": "35.83428890612487",
    "lng": "129.2041566967988",
    "region": "경상북도"
  },
  {
    "name": "경주중학교 운동장",
    "address": "경상북도 경주시 황오동 13",
    "lat": "35.84347990116501",
    "lng": "129.2258461807164",
    "region": "경상북도"
  },
  {
    "name": "계림초등학교 운동장",
    "address": "경상북도 경주시 북부동 9",
    "lat": "35.849112543393424",
    "lng": "129.21288103599363",
    "region": "경상북도"
  },
  {
    "name": "검암초등학교 운동장",
    "address": "인천광역시 서구 검암동 495",
    "lat": "37.567788689674806",
    "lng": "126.6789298080405",
    "region": "인천광역시"
  },
  {
    "name": "구례여자중학교 운동장",
    "address": "전라남도 구례군 구례읍 봉남리 106",
    "lat": "35.20564127033431",
    "lng": "127.4635681958811",
    "region": "전라남도"
  },
  {
    "name": "전라남도자연탐구수련원 지리산학생수련장 운동장",
    "address": "전라남도 구례군 광의면 수월리 494",
    "lat": "35.24730732072011",
    "lng": "127.46363031536765",
    "region": "전라남도"
  },
  {
    "name": "대구 의흥초등학교 석산분교장 운동장",
    "address": "대구광역시 군위군 삼국유사면 석산리 547-1",
    "lat": "36.17496785173728",
    "lng": "128.85513711599384",
    "region": "대구광역시"
  },
  {
    "name": "대소중학교 운동장",
    "address": "충청북도 음성군 대소면 삼정리 613-7",
    "lat": "36.963388725989894",
    "lng": "127.4899592505417",
    "region": "충청북도"
  },
  {
    "name": "함양제일고등학교 운동장",
    "address": "경상남도 함양군 함양읍 교산리 210",
    "lat": "35.524338688651994",
    "lng": "127.73211357490788",
    "region": "경상남도"
  },
  {
    "name": "신흥초등학교 운동장",
    "address": "경상북도 포항시 남구 상도동 607-6",
    "lat": "36.01326174878239",
    "lng": "129.3533496847067",
    "region": "경상북도"
  },
  {
    "name": "서상중학교 운동장",
    "address": "경상남도 함양군 서상면 도천리 1047-6",
    "lat": "35.67696649033719",
    "lng": "127.68857024602829",
    "region": "경상남도"
  },
  {
    "name": "백전초등학교 운동장",
    "address": "경상남도 함양군 백전면 평정리 481",
    "lat": "35.5529489004754",
    "lng": "127.63496412949354",
    "region": "경상남도"
  },
  {
    "name": "포항송곡초등학교 운동장",
    "address": "경상북도 포항시 북구 양덕동 336-2",
    "lat": "36.091687425715925",
    "lng": "129.38412487507395",
    "region": "경상북도"
  },
  {
    "name": "황오동 공영주차장",
    "address": "경상북도 경주시 성동동 97-2",
    "lat": "35.84622340604942",
    "lng": "129.22011864699675",
    "region": "경상북도"
  },
  {
    "name": "문화공원",
    "address": "인천광역시 연수구 연수동 578",
    "lat": "37.41776785933933",
    "lng": "126.68048617795098",
    "region": "인천광역시"
  },
  {
    "name": "용정초등학교운동장",
    "address": "인천광역시 미추홀구 숭의동 12-8",
    "lat": "37.45970664314022",
    "lng": "126.65755456943621",
    "region": "인천광역시"
  },
  {
    "name": "석암초등학교운동장",
    "address": "인천광역시 미추홀구 주안동 55-1",
    "lat": "37.461837570713435",
    "lng": "126.68675731151926",
    "region": "인천광역시"
  },
  {
    "name": "인화여자중학교운동장",
    "address": "인천광역시 미추홀구 도화동 20-6",
    "lat": "37.47492872287516",
    "lng": "126.6537231412328",
    "region": "인천광역시"
  },
  {
    "name": "정재초등학교 운동장",
    "address": "경기도 안산시 상록구 부곡동 225-5",
    "lat": "37.33823737557967",
    "lng": "126.86455352860311",
    "region": "경기도"
  },
  {
    "name": "삼일초등학교 운동장",
    "address": "경기도 안산시 상록구 월피동 448-1",
    "lat": "37.33215460265433",
    "lng": "126.85058440889723",
    "region": "경기도"
  },
  {
    "name": "풍산고등학교 운동장",
    "address": "경상북도 안동시 풍산읍 안교리 320",
    "lat": "36.5831268199091",
    "lng": "128.56550700272706",
    "region": "경상북도"
  },
  {
    "name": "안산창촌초등학교 운동장",
    "address": "경기도 안산시 상록구 건건동 619",
    "lat": "37.30743646559882",
    "lng": "126.90450289639266",
    "region": "경기도"
  },
  {
    "name": "신촌공원",
    "address": "인천광역시 서구 석남동 521-1",
    "lat": "37.50797207393271",
    "lng": "126.66973260062335",
    "region": "인천광역시"
  },
  {
    "name": "대동초등학교 운동장",
    "address": "경기도 안산시 단원구 대부동동 838",
    "lat": "37.240931385982165",
    "lng": "126.60013476643857",
    "region": "경기도"
  },
  {
    "name": "신라중학교 운동장",
    "address": "경상북도 경주시 황성동 1053-18",
    "lat": "35.85483931092816",
    "lng": "129.21705546987803",
    "region": "경상북도"
  },
  {
    "name": "흥무초등학교 운동장",
    "address": "경상북도 경주시 성건동 486",
    "lat": "35.84937288923902",
    "lng": "129.20412831815898",
    "region": "경상북도"
  },
  {
    "name": "경주고등학교 운동장",
    "address": "경상북도 경주시 황오동 13",
    "lat": "35.84347990116501",
    "lng": "129.2258461807164",
    "region": "경상북도"
  },
  {
    "name": "월성초등학교  운동장",
    "address": "경상북도 경주시 노서동 35-1",
    "lat": "35.842789767267966",
    "lng": "129.20783544511036",
    "region": "경상북도"
  },
  {
    "name": "모아초등학교 운동장",
    "address": "경상북도 경주시 천북면 모아리 588",
    "lat": "35.919768450971674",
    "lng": "129.2463094265414",
    "region": "경상북도"
  },
  {
    "name": "강동면행정복지센터 주차장",
    "address": "경상북도 경주시 강동면 인동리 29-1",
    "lat": "35.98763624301587",
    "lng": "129.27341804364679",
    "region": "경상북도"
  },
  {
    "name": "강동초등학교 운동장",
    "address": "경상북도 경주시 강동면 유금리 1111",
    "lat": "35.9922479755187",
    "lng": "129.27701086752407",
    "region": "경상북도"
  },
  {
    "name": "가석초등학교 운동장",
    "address": "인천광역시 서구 가정동 430-37",
    "lat": "37.51447606406952",
    "lng": "126.67963380684054",
    "region": "인천광역시"
  },
  {
    "name": "현곡초등학교 운동장",
    "address": "경상북도 경주시 현곡면 하구리 1120",
    "lat": "35.886740054707595",
    "lng": "129.1806260061015",
    "region": "경상북도"
  },
  {
    "name": "경주디자인고등학교 운동장",
    "address": "경상북도 경주시 현곡면 가정리 49-2",
    "lat": "35.90029457118126",
    "lng": "129.1633517449828",
    "region": "경상북도"
  },
  {
    "name": "나원초등학교 운동장",
    "address": "경상북도 경주시 현곡면 금장리 394",
    "lat": "35.86959579498754",
    "lng": "129.2034239751524",
    "region": "경상북도"
  },
  {
    "name": "이작분교운동장",
    "address": "인천광역시 옹진군 자월면 이작리 575-3",
    "lat": "37.17660775938015",
    "lng": "126.25283913918574",
    "region": "인천광역시"
  },
  {
    "name": "이작2리목섬족구장",
    "address": "인천광역시 옹진군 자월면 이작리 231-5",
    "lat": "37.18126892686673",
    "lng": "126.22198440415717",
    "region": "인천광역시"
  },
  {
    "name": "선일초등학교 운동장",
    "address": "경기도 안산시 단원구 선부동 1002",
    "lat": "37.340013010116316",
    "lng": "126.80000377520146",
    "region": "경기도"
  },
  {
    "name": "가좌중학교 운동장",
    "address": "인천광역시 서구 가좌동 195",
    "lat": "37.4954455109289",
    "lng": "126.67966201487972",
    "region": "인천광역시"
  },
  {
    "name": "간재울공원",
    "address": "인천광역시 서구 검암동 607-2",
    "lat": "37.5641514496344",
    "lng": "126.67459351129254",
    "region": "인천광역시"
  },
  {
    "name": "송호중학교 운동장",
    "address": "경기도 안산시 단원구 고잔동 765-1",
    "lat": "37.31109809629969",
    "lng": "126.8393766665576",
    "region": "경기도"
  },
  {
    "name": "노산초등학교 운동장",
    "address": "경상남도 사천시 동금동 171-5",
    "lat": "34.93037606319972",
    "lng": "128.08316767215732",
    "region": "경상남도"
  },
  {
    "name": "남망산조각공원",
    "address": "경상남도 통영시 동호동 230-1",
    "lat": "34.84128018514848",
    "lng": "128.42941894745232",
    "region": "경상남도"
  },
  {
    "name": "방축공원",
    "address": "인천광역시 계양구 방축동 211",
    "lat": "37.55053259815936",
    "lng": "126.74032788620077",
    "region": "인천광역시"
  },
  {
    "name": "전남자연과학고등학교 운동장",
    "address": "전라남도 구례군 구례읍 봉서리 1066",
    "lat": "35.199911938794344",
    "lng": "127.46248304843904",
    "region": "전라남도"
  },
  {
    "name": "한산초중학교",
    "address": "경상남도 통영시 한산면 하소리 36-2",
    "lat": "34.76814578414212",
    "lng": "128.50697502295284",
    "region": "경상남도"
  },
  {
    "name": "굴재공원",
    "address": "인천광역시 계양구 귤현동 499-6",
    "lat": "37.56788062463136",
    "lng": "126.74907366946195",
    "region": "인천광역시"
  },
  {
    "name": "욕지중학교",
    "address": "���상남도 통영시 욕지면 동항리 809-2",
    "lat": "34.63571229645043",
    "lng": "128.26024652806055",
    "region": "���상남도"
  },
  {
    "name": "까치공원",
    "address": "인천광역시 계양구 작전동 908",
    "lat": "37.53332321770036",
    "lng": "126.73732413997347",
    "region": "인천광역시"
  },
  {
    "name": "경인교대부설초등학교 운동장",
    "address": "인천광역시 계양구 효성동 산19-1",
    "lat": "37.537179056320355",
    "lng": "126.71223386752722",
    "region": "인천광역시"
  },
  {
    "name": "계산초등학교 운동장",
    "address": "인천광역시 계양구 계산동 737",
    "lat": "37.54446935971357",
    "lng": "126.7180285959248",
    "region": "인천광역시"
  },
  {
    "name": "계양중학교 운동장",
    "address": "인천광역시 계양구 귤현동 430",
    "lat": "37.56902795605905",
    "lng": "126.73914649362906",
    "region": "인천광역시"
  },
  {
    "name": "계양초등학교 운동장",
    "address": "인천광역시 계양구 장기동 134",
    "lat": "37.57840143345361",
    "lng": "126.73349646358716",
    "region": "인천광역시"
  },
  {
    "name": "세풍초등학교 운동장",
    "address": "전라남도 광양시 광양읍 세풍리 210",
    "lat": "34.94338214571192",
    "lng": "127.58222222327872",
    "region": "전라남도"
  },
  {
    "name": "귤현초등학교 운동장",
    "address": "인천광역시 계양구 귤현동 494",
    "lat": "37.56841133446201",
    "lng": "126.74711123541972",
    "region": "인천광역시"
  },
  {
    "name": "예일고등학교 운동장",
    "address": "인천광역시 계양구 방축동 27-1",
    "lat": "37.554002414578235",
    "lng": "126.74164568862169",
    "region": "인천광역시"
  },
  {
    "name": "효성초등학교 운동장",
    "address": "인천광역시 계양구 효성동 28-1",
    "lat": "37.53639659520937",
    "lng": "126.71066079823592",
    "region": "인천광역시"
  },
  {
    "name": "소라초등학교 운동장",
    "address": "전라남도 여수시 소라면 덕양리 1220",
    "lat": "34.79584887912416",
    "lng": "127.63121055304106",
    "region": "전라남도"
  },
  {
    "name": "연도초등학교 운동장",
    "address": "전라남도 여수시 남면 연도리 424",
    "lat": "34.43271745228929",
    "lng": "127.8008433504385",
    "region": "전라남도"
  },
  {
    "name": "구봉초등학교 운동장",
    "address": "전라남도 여수시 국동 823",
    "lat": "34.73580175802193",
    "lng": "127.71433171452212",
    "region": "전라남도"
  },
  {
    "name": "광영초등학교 운동장",
    "address": "전라남도 광양시 광영동 75",
    "lat": "34.963354387209286",
    "lng": "127.72025542686063",
    "region": "전라남도"
  },
  {
    "name": "진남여자중학교 운동장",
    "address": "전라남도 여수시 미평동 328",
    "lat": "34.77010422394119",
    "lng": "127.70651711968561",
    "region": "전라남도"
  },
  {
    "name": "쌍봉초등학교 운동장",
    "address": "전라남도 여수시 학동 238",
    "lat": "34.76357034888309",
    "lng": "127.66793616704973",
    "region": "전라남도"
  },
  {
    "name": "신기초등학교 운동장",
    "address": "전라남도 여수시 신기동 75-3",
    "lat": "34.76079879049995",
    "lng": "127.67564270090644",
    "region": "전라남도"
  },
  {
    "name": "웅천초등학교 운동장",
    "address": "전라남도 여수시 웅천동 1674",
    "lat": "34.74990947139152",
    "lng": "127.67472184277902",
    "region": "전라남도"
  },
  {
    "name": "산내초등학교 운동장",
    "address": "대전광역시 동구 낭월동 632",
    "lat": "36.2792114437127",
    "lng": "127.4698494841021",
    "region": "대전광역시"
  },
  {
    "name": "유곡면민체육운동장",
    "address": "경상남도 의령군 유곡면 칠곡리 547",
    "lat": "35.42327236546525",
    "lng": "128.30357015132913",
    "region": "경상남도"
  },
  {
    "name": "포항여자고등학교 운동장",
    "address": "경상북도 포항시 북구 학산동 243",
    "lat": "36.05023060227799",
    "lng": "129.36487373612377",
    "region": "경상북도"
  },
  {
    "name": "영동체육관",
    "address": "충청북도 영동군 영동읍 매천리 313",
    "lat": "36.16609619063971",
    "lng": "127.78377429738165",
    "region": "충청북도"
  },
  {
    "name": "용담공원",
    "address": "인천광역시 연수구 청학동 467",
    "lat": "37.41968080573287",
    "lng": "126.67368754378464",
    "region": "인천광역시"
  },
  {
    "name": "송림초등학교 운동장",
    "address": "인천광역시 동구 송림동 235-1",
    "lat": "37.47417120434232",
    "lng": "126.63743463048384",
    "region": "인천광역시"
  },
  {
    "name": "가좌여자중학교 운동장",
    "address": "인천광역시 서구 석남동 115",
    "lat": "37.5085513641181",
    "lng": "126.67929947376246",
    "region": "인천광역시"
  },
  {
    "name": "영산포초등학교 운동장",
    "address": "전라남도 나주시 이창동 178",
    "lat": "34.993516935379255",
    "lng": "126.71463813176463",
    "region": "전라남도"
  },
  {
    "name": "청라1호근린공원",
    "address": "인천광역시 서구 청라동 11-29",
    "lat": "37.531706913660145",
    "lng": "126.60338212714655",
    "region": "인천광역시"
  },
  {
    "name": "공촌공원",
    "address": "인천광역시 서구 공촌동 313",
    "lat": "37.551101020585804",
    "lng": "126.68432603177398",
    "region": "인천광역시"
  },
  {
    "name": "곤양중학교 운동장",
    "address": "경상남도 사천시 곤양면 송전리 134",
    "lat": "35.059581318838966",
    "lng": "127.97316404808393",
    "region": "경상남도"
  },
  {
    "name": "초정공원",
    "address": "인천광역시 계양구 용종동 213-1",
    "lat": "37.54084885780512",
    "lng": "126.74149847726004",
    "region": "인천광역시"
  },
  {
    "name": "구례동중학교 운동장",
    "address": "전라남도 구례군 토지면 파도리 25",
    "lat": "35.1924782321285",
    "lng": "127.54577604400093",
    "region": "전라남도"
  },
  {
    "name": "계산공업고등학교 운동장",
    "address": "인천광역시 계양구 계산동 1084-6",
    "lat": "37.53445433352863",
    "lng": "126.739424026165",
    "region": "인천광역시"
  },
  {
    "name": "계산여자고등학교 운동장",
    "address": "인천광역시 계양구 용종동 228-2",
    "lat": "37.538797611081314",
    "lng": "126.74233461004272",
    "region": "인천광역시"
  },
  {
    "name": "성지초등학교 운동장",
    "address": "인천광역시 계양구 작전동 448-2",
    "lat": "37.526182551340376",
    "lng": "126.7199647463785",
    "region": "인천광역시"
  },
  {
    "name": "작전고등학교 운동장",
    "address": "인천광역시 계양구 작전동 90",
    "lat": "37.532710389382146",
    "lng": "126.73003492089767",
    "region": "인천광역시"
  },
  {
    "name": "고리울초등학교",
    "address": "경기도 부천시 오정구 고강동 325-4",
    "lat": "37.52695791775901",
    "lng": "126.82670295238492",
    "region": "경기도"
  },
  {
    "name": "도당초등학교",
    "address": "경기도 부천시 원미구 도당동 106",
    "lat": "37.51929545434858",
    "lng": "126.79168671369548",
    "region": "경기도"
  },
  {
    "name": "동곡초등학교",
    "address": "경기도 부천시 원미구 역곡동 227",
    "lat": "37.490363733411336",
    "lng": "126.81713014841081",
    "region": "경기도"
  },
  {
    "name": "동산초등학교",
    "address": "경기도 부천시 오정구 오정동 727",
    "lat": "37.53117872327535",
    "lng": "126.78507140880845",
    "region": "경기도"
  },
  {
    "name": "개도중학교 운동장",
    "address": "전라남도 여수시 화정면 개도리 1057",
    "lat": "34.571445777155915",
    "lng": "127.65949130058603",
    "region": "전라남도"
  },
  {
    "name": "가오중학교 운동장",
    "address": "대전광역시 동구 가오동 171-6",
    "lat": "36.30844071510496",
    "lng": "127.457439174503",
    "region": "대전광역시"
  },
  {
    "name": "구봉중학교 운동장",
    "address": "전라남도 여수시 국동 878",
    "lat": "34.7318772837228",
    "lng": "127.71459151430707",
    "region": "전라남도"
  },
  {
    "name": "신월초등학교 운동장",
    "address": "전라남도 여수시 신월동 9-22",
    "lat": "34.72702778047346",
    "lng": "127.7139621755697",
    "region": "전라남도"
  },
  {
    "name": "동대전중학교 운동장",
    "address": "대전광역시 동구 가양동 10",
    "lat": "36.34539836277619",
    "lng": "127.45492458343504",
    "region": "대전광역시"
  },
  {
    "name": "양지초등학교 운동장",
    "address": "전라남도 여수시 미평동 762",
    "lat": "34.77260337245378",
    "lng": "127.70108577652758",
    "region": "전라남도"
  },
  {
    "name": "부림초등학교 운동장",
    "address": "경상남도 의령군 부림면 신반리 253-1",
    "lat": "35.464973688745616",
    "lng": "128.3206826448441",
    "region": "경상남도"
  },
  {
    "name": "의령고등학교 운동장",
    "address": "경상남도 의령군 의령읍 동동리 1012",
    "lat": "35.32253121714192",
    "lng": "128.26626598834997",
    "region": "경상남도"
  },
  {
    "name": "운암초등학교",
    "address": "경기도 오산시 원동 815-5",
    "lat": "37.14354372299545",
    "lng": "127.07618737261704",
    "region": "경기도"
  },
  {
    "name": "오산대원초등학교",
    "address": "경기도 오산시 갈곶동 258",
    "lat": "37.130305051078246",
    "lng": "127.07082342885653",
    "region": "경기도"
  },
  {
    "name": "효령초등학교 운동장",
    "address": "대구광역시 군위군 효령면 중구리 197",
    "lat": "36.156720148365864",
    "lng": "128.58661562204387",
    "region": "대구광역시"
  },
  {
    "name": "대금고등학교 운동장",
    "address": "충청북도 음성군 금왕읍 본대리 267-4",
    "lat": "36.98112345824877",
    "lng": "127.5290361668231",
    "region": "충청북도"
  },
  {
    "name": "쌍봉초등학교 운동장",
    "address": "충청북도 음성군 금왕읍 쌍봉리 413",
    "lat": "37.0026103748397",
    "lng": "127.54232594193589",
    "region": "충청북도"
  },
  {
    "name": "삼성초등학교 운동장",
    "address": "충청북도 음성군 삼성면 덕정리 508-1",
    "lat": "37.019867058130416",
    "lng": "127.49660275036061",
    "region": "충청북도"
  },
  {
    "name": "위림초등학교 운동장",
    "address": "경상남도 함양군 함양읍 백연리 511",
    "lat": "35.52069938160382",
    "lng": "127.71878018319896",
    "region": "경상남도"
  },
  {
    "name": "문덕초등학교 운동장",
    "address": "경상북도 포항시 남구 오천읍 문덕리 1188-403",
    "lat": "35.9601403125836",
    "lng": "129.40942991308887",
    "region": "경상북도"
  },
  {
    "name": "신흥중학교 운동장",
    "address": "경상북도 포항시 남구 오천읍 세계리 700-3",
    "lat": "35.96474501558762",
    "lng": "129.42205747557816",
    "region": "경상북도"
  },
  {
    "name": "부천덕산초등학교",
    "address": "경기도 부천시 오정구 오정동 113-2",
    "lat": "37.52953945015421",
    "lng": "126.79103184891144",
    "region": "경기도"
  },
  {
    "name": "부천부안초등학교",
    "address": "경기도 부천시 소사구 괴안동 103",
    "lat": "37.4797185060059",
    "lng": "126.81211448062244",
    "region": "경기도"
  },
  {
    "name": "부천서초등학교",
    "address": "경기도 부천시 원미구 중동 815",
    "lat": "37.487126649675744",
    "lng": "126.76616549491877",
    "region": "경기도"
  },
  {
    "name": "부천수주초등학교",
    "address": "경기도 부천시 오정구 고강동 275-2",
    "lat": "37.53096261699445",
    "lng": "126.81522552526116",
    "region": "경기도"
  },
  {
    "name": "부천신흥초등학교",
    "address": "경기도 부천시 원미구 도당동 265-2",
    "lat": "37.50672577883357",
    "lng": "126.78454399108882",
    "region": "경기도"
  },
  {
    "name": "부천일신초등학교",
    "address": "경기도 부천시 소사구 범박동 153-8",
    "lat": "37.47357806662262",
    "lng": "126.80754697039465",
    "region": "경기도"
  },
  {
    "name": "부천중앙초등학교",
    "address": "경기도 부천시 원미구 중동 1099-1",
    "lat": "37.49623098913847",
    "lng": "126.78233385086058",
    "region": "경기도"
  },
  {
    "name": "봉수초등학교 운동장",
    "address": "인천광역시 서구 가정동 284-438",
    "lat": "37.52593170383468",
    "lng": "126.67824503120775",
    "region": "인천광역시"
  },
  {
    "name": "연풍초등학교 운동장",
    "address": "경기도 파주시 파주읍 연풍리 427",
    "lat": "37.830822126756814",
    "lng": "126.83461075328927",
    "region": "경기도"
  },
  {
    "name": "장파초등학교 운동장",
    "address": "경기도 파주시 파평면 장파리 348-1",
    "lat": "37.94110333041044",
    "lng": "126.8378331485102",
    "region": "경기도"
  },
  {
    "name": "파평초등학교 운동장",
    "address": "경기도 파주시 파평면 두포리 260",
    "lat": "37.90346598885187",
    "lng": "126.83806609502054",
    "region": "경기도"
  },
  {
    "name": "영덕경찰수련원",
    "address": "��상북도 영덕군 병곡면 덕천리 190-42",
    "lat": "36.568658873201045",
    "lng": "129.4167051088202",
    "region": "��상북도"
  },
  {
    "name": "구정동 광장",
    "address": "경상북도 경주시 구정동 484-6",
    "lat": "35.77774425987343",
    "lng": "129.29706045849744",
    "region": "경상북도"
  },
  {
    "name": "강동초등학교 단구분교 운동장",
    "address": "경상북도 경주시 강동면 단구리 1147",
    "lat": "36.051399711217044",
    "lng": "129.24422945228105",
    "region": "경상북도"
  },
  {
    "name": "안강생활체육공원",
    "address": "경상북도 경주시 안강읍 근계리 1418-474",
    "lat": "35.986211",
    "lng": "129.217661",
    "region": "경상북도"
  },
  {
    "name": "화북중학교 운동장",
    "address": "경상북도 상주시 화북면 용유리 340-1",
    "lat": "36.55892459867687",
    "lng": "127.9217040538788",
    "region": "경상북도"
  },
  {
    "name": "상주중학교 운동장",
    "address": "경상북도 상주시 만산동 673-1",
    "lat": "36.4288392685137",
    "lng": "128.1551879998822",
    "region": "경상북도"
  },
  {
    "name": "증약초등학교 대정분교 운동장",
    "address": "충청북도 옥천군 군북면 대정리 577",
    "lat": "36.389187451799444",
    "lng": "127.53850147244479",
    "region": "충청북도"
  },
  {
    "name": "곡성중학교 운동장",
    "address": "전라남도 곡성군 곡성읍 읍내리 726-1",
    "lat": "35.28141930984738",
    "lng": "127.2891322179172",
    "region": "전라남도"
  },
  {
    "name": "성주중학교 운동장",
    "address": "경상북도 성주군 성주읍 예산리 640",
    "lat": "35.92849188081883",
    "lng": "128.28334589750122",
    "region": "경상북도"
  },
  {
    "name": "선남초등학교 운동장",
    "address": "경상북도 성주군 선남면 관화리 873",
    "lat": "35.90650476459018",
    "lng": "128.3520315619334",
    "region": "경상북도"
  },
  {
    "name": "이양초등학교 운동장",
    "address": "전라남도 화순군 이양면 이양리 317",
    "lat": "34.88341510947836",
    "lng": "126.98854644212757",
    "region": "전라남도"
  },
  {
    "name": "능주고등학교 운동장",
    "address": "전라남도 화순군 능주면 잠정리 106",
    "lat": "34.9856510027376",
    "lng": "126.95858271680548",
    "region": "전라남도"
  },
  {
    "name": "도포중학교 운동장",
    "address": "전라남도 영암군 도포면 구학리 370-3",
    "lat": "34.849206673125806",
    "lng": "126.64280292908285",
    "region": "전라남도"
  },
  {
    "name": "경북외국어고등학교 운동장",
    "address": "경상북도 구미시 남통동 110",
    "lat": "36.12392360181014",
    "lng": "128.3212511215931",
    "region": "경상북도"
  },
  {
    "name": "인동고등학교 운동장",
    "address": "경상북도 구미시 구평동 477",
    "lat": "36.09004400373072",
    "lng": "128.43216514770788",
    "region": "경상북도"
  },
  {
    "name": "황상공원",
    "address": "경상북도 구미시 황상동 268-2",
    "lat": "36.11218678104312",
    "lng": "128.4237534671143",
    "region": "경상북도"
  },
  {
    "name": "금오공업고등학교 운동장",
    "address": "경상북도 구미시 공단동 111",
    "lat": "36.11920439584961",
    "lng": "128.36890023193538",
    "region": "경상북도"
  },
  {
    "name": "형곡중학교 운동장",
    "address": "경상북도 구미시 형곡동 289-2",
    "lat": "36.10659323855339",
    "lng": "128.33115598415975",
    "region": "경상북도"
  },
  {
    "name": "진평중학교 운동장",
    "address": "경상북도 구미시 진평동 178",
    "lat": "36.09496105901239",
    "lng": "128.4212090973367",
    "region": "경상북도"
  },
  {
    "name": "옥계동부중학교 운동장",
    "address": "경상북도 구미시 옥계동 911",
    "lat": "36.1388338234269",
    "lng": "128.42617048149054",
    "region": "경상북도"
  },
  {
    "name": "원평공원",
    "address": "경상북도 구미시 원평동 1078",
    "lat": "36.12094224311703",
    "lng": "128.3550417423249",
    "region": "경상북도"
  },
  {
    "name": "구미중학교 운동장",
    "address": "경상북도 구미시 도량동 703-3",
    "lat": "36.147301916604555",
    "lng": "128.33039473798902",
    "region": "경상북도"
  },
  {
    "name": "형곡 근린공원",
    "address": "경상북도 구미시 형곡동 142",
    "lat": "36.113449713765945",
    "lng": "128.33493769179773",
    "region": "경상북도"
  },
  {
    "name": "송정공원",
    "address": "경상북도 구미시 송정동 448",
    "lat": "36.119584848471504",
    "lng": "128.35443596710527",
    "region": "경상북도"
  },
  {
    "name": "장천초등학교 운동장",
    "address": "경상북도 구미시 장천면 하장리 503-1",
    "lat": "36.130246692460986",
    "lng": "128.49482446951674",
    "region": "경상북도"
  },
  {
    "name": "경동하이츠7차 옆 공원",
    "address": "경상북도 경주시 용강동 1342-1",
    "lat": "35.86063745629991",
    "lng": "129.2258811472865",
    "region": "경상북도"
  },
  {
    "name": "중동초등학교 운동장",
    "address": "경상북도 상주시 중동면 오상리 302",
    "lat": "36.42923322122679",
    "lng": "128.26815426349648",
    "region": "경상북도"
  },
  {
    "name": "상주삼백농업농촌 테마공원",
    "address": "경상북도 상주시 복룡동 177-1",
    "lat": "36.421362300783365",
    "lng": "128.17831903696066",
    "region": "경상북도"
  },
  {
    "name": "상주공업고등학교 운동장",
    "address": "경상북도 상주시 낙양동 388",
    "lat": "36.40608651092904",
    "lng": "128.14558267593387",
    "region": "경상북도"
  },
  {
    "name": "봉화군청 잔디광장",
    "address": "경상북도 봉화군 봉화읍 내성리 537",
    "lat": "36.892928777954246",
    "lng": "128.732879589037",
    "region": "경상북도"
  },
  {
    "name": "춘양초등학교 눌산분교(폐교)",
    "address": "경상북도 봉화군 법전면 눌산리 1134-2",
    "lat": "36.893279635915746",
    "lng": "128.95319944009867",
    "region": "경상북도"
  },
  {
    "name": "호서남초등학교 운동장",
    "address": "경상북도 문경시 흥덕동 348",
    "lat": "36.60463931312647",
    "lng": "128.2035253012075",
    "region": "경상북도"
  },
  {
    "name": "전남체육중고등학교 운동장",
    "address": "전라남도 무안군 일로읍 월암리 16-4",
    "lat": "34.844543818908754",
    "lng": "126.49737936648583",
    "region": "전라남도"
  },
  {
    "name": "강진군 축구전용구장(남포축구장)",
    "address": "전라남도 강진군 강진읍 남포리 548",
    "lat": "34.61992195676118",
    "lng": "126.77373043948278",
    "region": "전라남도"
  },
  {
    "name": "임자고등학교",
    "address": "전라남도 신안군 임자면 대기리 353",
    "lat": "35.0903704",
    "lng": "126.0990949",
    "region": "전라남도"
  },
  {
    "name": "안좌고등학교",
    "address": "전라남도 신안군 안좌면 읍동리 499-3",
    "lat": "34.74988300288544",
    "lng": "126.1296738384694",
    "region": "전라남도"
  },
  {
    "name": "월항초등학교 운동장",
    "address": "경상북도 성주군 월항면 안포리 1151",
    "lat": "35.94873505559794",
    "lng": "128.31341068210085",
    "region": "경상북도"
  },
  {
    "name": "김천학생문화센터",
    "address": "경상북도 김천시 농소면 월곡리 696",
    "lat": "36.10533220522834",
    "lng": "128.1717430376388",
    "region": "경상북도"
  },
  {
    "name": "신일초등학교",
    "address": "경상북도 김천시 신음동 506-2",
    "lat": "36.143395190896435",
    "lng": "128.12109762575787",
    "region": "경상북도"
  },
  {
    "name": "김천동부초등학교",
    "address": "경상북도 김천시 지좌동 730-1",
    "lat": "36.118511257879604",
    "lng": "128.13903272152126",
    "region": "경상북도"
  },
  {
    "name": "임고초등학교 운동장",
    "address": "경상북도 영천시 임고면 양항리 638",
    "lat": "36.0212350506826",
    "lng": "128.97301430072005",
    "region": "경상북도"
  },
  {
    "name": "영동고등학교 운동장",
    "address": "경상북도 영천시 야사동 393",
    "lat": "35.97830238600147",
    "lng": "128.94609653438428",
    "region": "경상북도"
  },
  {
    "name": "성남여중고 운동장",
    "address": "경상북도 영천시 도동 213-1",
    "lat": "35.94882821956152",
    "lng": "128.9321797870081",
    "region": "경상북도"
  },
  {
    "name": "불갑초등학교",
    "address": "전라남도 영광군 불갑면 쌍운리 404",
    "lat": "35.21121703400916",
    "lng": "126.50772996975644",
    "region": "전라남도"
  },
  {
    "name": "동초등학교 운동장",
    "address": "전라남도 목포시 산정동 270-1",
    "lat": "34.80942163040397",
    "lng": "126.38751848701376",
    "region": "전라남도"
  },
  {
    "name": "항도여자중학교 운동장",
    "address": "전라남도 목포시 상동 327",
    "lat": "34.81624115082421",
    "lng": "126.41124561021917",
    "region": "전라남도"
  },
  {
    "name": "옥암초등학교 운동장",
    "address": "전라남도 목포시 옥암동 1270",
    "lat": "34.81122748119189",
    "lng": "126.45281820885475",
    "region": "전라남도"
  },
  {
    "name": "이전초등학교 운동장",
    "address": "경상북도 청송군 주왕산면 주산지리 1176-1",
    "lat": "36.357525955715396",
    "lng": "129.1542541980716",
    "region": "경상북도"
  },
  {
    "name": "선일중학교 운동장",
    "address": "경기도 안산시 단원구 선부동 799-5",
    "lat": "37.33551460879652",
    "lng": "126.80384609758981",
    "region": "경기도"
  },
  {
    "name": "계림중학교 운동장",
    "address": "경상북도 경주시 황성동 469-8",
    "lat": "35.863850559353466",
    "lng": "129.21396030224415",
    "region": "경상북도"
  },
  {
    "name": "경주생태원 운동장",
    "address": "경상북도 경주시 천북면 물천리 624-1",
    "lat": "35.868960972591346",
    "lng": "129.28195908836528",
    "region": "경상북도"
  },
  {
    "name": "대현초등학교 운동장",
    "address": "경상북도 경주시 산내면 대현리 1354-9",
    "lat": "35.729068974824266",
    "lng": "129.0580420196071",
    "region": "경상북도"
  },
  {
    "name": "무을초등학교 운동장",
    "address": "경상북도 구미시 무을면 송삼리 748-1",
    "lat": "36.263978631503484",
    "lng": "128.1973879989425",
    "region": "경상북도"
  },
  {
    "name": "선주고등학교 운동장",
    "address": "경상북도 구미시 봉곡동 7",
    "lat": "36.14159981802513",
    "lng": "128.3120274207181",
    "region": "경상북도"
  },
  {
    "name": "형곡고등학교 운동장",
    "address": "경상북도 구미시 형곡동 778-1",
    "lat": "36.10203336789269",
    "lng": "128.3384315622624",
    "region": "경상북도"
  },
  {
    "name": "도개초등학교 운동장",
    "address": "경상북도 구미시 도개면 궁기리 748-6",
    "lat": "36.3005817266885",
    "lng": "128.33112693280998",
    "region": "경상북도"
  },
  {
    "name": "덕적초중고등학교 운동장",
    "address": "인천광역시 옹진군 덕적면 진리 136",
    "lat": "37.22548882664447",
    "lng": "126.14753072327741",
    "region": "인천광역시"
  },
  {
    "name": "영흥초운동장",
    "address": "인천광역시 옹진군 영흥면 내리 237",
    "lat": "37.25422447473138",
    "lng": "126.46764980460809",
    "region": "인천광역시"
  },
  {
    "name": "대신어린이공원",
    "address": "경상북도 경주시 용강동 1350",
    "lat": "35.86148174454452",
    "lng": "129.22206921453756",
    "region": "경상북도"
  },
  {
    "name": "가은초등학교 운동장",
    "address": "경상북도 문경시 가은읍 왕능리 292",
    "lat": "36.64315776500464",
    "lng": "128.06286893876631",
    "region": "경상북도"
  },
  {
    "name": "영강체육공원",
    "address": "경상북도 문경시 흥덕동 74-1",
    "lat": "36.6024",
    "lng": "128.2121",
    "region": "경상북도"
  },
  {
    "name": "성주중앙초등학교 운동장",
    "address": "경상북도 성주군 성주읍 경산리 718-34",
    "lat": "35.916498138220284",
    "lng": "128.28707836395785",
    "region": "경상북도"
  },
  {
    "name": "왜가리생태관",
    "address": "경상북도 의성군 신평면 중율리 150",
    "lat": "36.48451732644237",
    "lng": "128.52794252844123",
    "region": "경상북도"
  },
  {
    "name": "함평골프고등학교",
    "address": "전라남도 함평군 학교면 사거리 460",
    "lat": "35.02666645827233",
    "lng": "126.53568802218008",
    "region": "전라남도"
  },
  {
    "name": "미암초등학교 운동장",
    "address": "전라남도 영암군 미암면 선황리 1190-1",
    "lat": "34.69994115606238",
    "lng": "126.57401225068261",
    "region": "전라남도"
  },
  {
    "name": "비산초등학교 운동장",
    "address": "경상북도 구미시 공단동 114-1",
    "lat": "36.11877893968396",
    "lng": "128.37476747029598",
    "region": "경상북도"
  },
  {
    "name": "성서공업지역 주변 완충녹지",
    "address": "대구광역시 달서구 갈산동 976",
    "lat": "35.849142014899705",
    "lng": "128.50803224171932",
    "region": "대구광역시"
  },
  {
    "name": "배실웨딩공원",
    "address": "대구광역시 달서구 이곡동 260",
    "lat": "35.86223624468838",
    "lng": "128.50517831652692",
    "region": "대구광역시"
  },
  {
    "name": "배꽃공원",
    "address": "대구광역시 달서구 이곡동 1184-5",
    "lat": "35.859690432891625",
    "lng": "128.50188887437074",
    "region": "대구광역시"
  },
  {
    "name": "와룡(위)공원",
    "address": "대구광역시 달서구 이곡동 1189",
    "lat": "35.85811953233534",
    "lng": "128.50063693909883",
    "region": "대구광역시"
  },
  {
    "name": "와룡(아랫)공원",
    "address": "대구광역시 달서구 이곡동 1191-2",
    "lat": "35.85631134424843",
    "lng": "128.50059969294068",
    "region": "대구광역시"
  },
  {
    "name": "샛별어린이공원",
    "address": "대구광역시 달서구 이곡동 1189-3",
    "lat": "35.85755299484517",
    "lng": "128.50433245774633",
    "region": "대구광역시"
  },
  {
    "name": "햇님어린이공원",
    "address": "대구광역시 달서구 이곡동 1192-1",
    "lat": "35.85687294847518",
    "lng": "128.50471881118753",
    "region": "대구광역시"
  },
  {
    "name": "사령봉어린이공원",
    "address": "대구광역시 달서구 이곡동 1216",
    "lat": "35.8526784231938",
    "lng": "128.50314560123155",
    "region": "대구광역시"
  },
  {
    "name": "늘푸른공원",
    "address": "대구광역시 달서구 이곡동 1314-2",
    "lat": "35.85996376825251",
    "lng": "128.50460536761986",
    "region": "대구광역시"
  },
  {
    "name": "계골산공원",
    "address": "대구광역시 달서구 신당동 1683",
    "lat": "35.8608329752379",
    "lng": "128.49927753210082",
    "region": "대구광역시"
  },
  {
    "name": "돌산공원",
    "address": "대구광역시 달서구 신당동 1716",
    "lat": "35.85722442557324",
    "lng": "128.4936019778253",
    "region": "대구광역시"
  },
  {
    "name": "신당어린이공원",
    "address": "대구광역시 달서구 신당동 1759-1",
    "lat": "35.858241792347265",
    "lng": "128.4990522265436",
    "region": "대구광역시"
  },
  {
    "name": "오정공원",
    "address": "대구광역시 달서구 신당동 1778",
    "lat": "35.85629250408899",
    "lng": "128.49639374244097",
    "region": "대구광역시"
  },
  {
    "name": "점터공원",
    "address": "대구광역시 달서구 신당동 1801",
    "lat": "35.85467008179467",
    "lng": "128.49389433860793",
    "region": "대구광역시"
  },
  {
    "name": "갈뫼공원",
    "address": "대구광역시 달서구 신당동 1834-5",
    "lat": "35.85218036534918",
    "lng": "128.49417881517624",
    "region": "대구광역시"
  },
  {
    "name": "앞돌어린이공원",
    "address": "대구광역시 달서구 신당동 1844-1",
    "lat": "35.85326787511541",
    "lng": "128.4970888495447",
    "region": "대구광역시"
  },
  {
    "name": "청록어린이공원",
    "address": "대구광역시 달서구 신당동 1846-2",
    "lat": "35.8539418070022",
    "lng": "128.49711298942583",
    "region": "대구광역시"
  },
  {
    "name": "은하수공원",
    "address": "대구광역시 달서구 호산동 357",
    "lat": "35.851180313260464",
    "lng": "128.487078785236",
    "region": "대구광역시"
  },
  {
    "name": "미리내공원",
    "address": "대구광역시 달서구 호산동 368-1",
    "lat": "35.85163519702195",
    "lng": "128.4836053848268",
    "region": "대구광역시"
  },
  {
    "name": "강창근린공원",
    "address": "대구광역시 달서구 호산동 349",
    "lat": "35.85237436304",
    "lng": "128.4792280197145",
    "region": "대구광역시"
  },
  {
    "name": "호림공원",
    "address": "대구광역시 달서구 호산동 714",
    "lat": "35.84271248483055",
    "lng": "128.48891079425826",
    "region": "대구광역시"
  },
  {
    "name": "병곡면 고래불휴게소 앞 주차장",
    "address": "경상북도 영덕군 병곡면 백석리 204",
    "lat": "36.62322683336063",
    "lng": "129.41043800194393",
    "region": "경상북도"
  },
  {
    "name": "호산근린공원",
    "address": "대구광역시 달서구 호산동 357-60",
    "lat": "35.84896109769704",
    "lng": "128.4839808940889",
    "region": "대구광역시"
  },
  {
    "name": "광수어린이공원",
    "address": "대구광역시 달서구 월성동 364-3",
    "lat": "35.827245649138824",
    "lng": "128.53446930287464",
    "region": "대구광역시"
  },
  {
    "name": "송일어린이공원",
    "address": "대구광역시 달서구 월성동 500-1",
    "lat": "35.82419663642393",
    "lng": "128.5325470502994",
    "region": "대구광역시"
  },
  {
    "name": "조암공원",
    "address": "대구광역시 달서구 월성동 739",
    "lat": "35.827685249969775",
    "lng": "128.52487789531577",
    "region": "대구광역시"
  },
  {
    "name": "선돌공원",
    "address": "대구광역시 달서구 월암동 431",
    "lat": "35.8232728533529",
    "lng": "128.51665751615525",
    "region": "대구광역시"
  },
  {
    "name": "마을마당공원",
    "address": "대구광역시 달서구 월성동 611-2",
    "lat": "35.823857394185765",
    "lng": "128.52698270243062",
    "region": "대구광역시"
  },
  {
    "name": "한샘청동공원",
    "address": "대구광역시 달서구 대천동 1038",
    "lat": "35.819898948451524",
    "lng": "128.51798877790813",
    "region": "대구광역시"
  },
  {
    "name": "월명공원",
    "address": "대구광역시 달서구 월성동 87",
    "lat": "35.828029264534116",
    "lng": "128.52899696058682",
    "region": "대구광역시"
  },
  {
    "name": "감천리어린이공원",
    "address": "대구광역시 달서구 월성동 86",
    "lat": "35.82930298054844",
    "lng": "128.52897372225098",
    "region": "대구광역시"
  },
  {
    "name": "감포관광단지 주차장",
    "address": "경상북도 경주시 감포읍 대본리 1225",
    "lat": "35.76746875548906",
    "lng": "129.49109673500604",
    "region": "경상북도"
  },
  {
    "name": "외서초등학교 운동장",
    "address": "경상북도 상주시 외서면 가곡리 100-1",
    "lat": "36.47927592598906",
    "lng": "128.10733705759048",
    "region": "경상북도"
  },
  {
    "name": "상주초등학교 운동장",
    "address": "경상북도 상주시 서문동 131-1",
    "lat": "36.4161800500442",
    "lng": "128.1565368175507",
    "region": "경상북도"
  },
  {
    "name": "복룡동 시민문화공원",
    "address": "경상북도 상주시 복룡동 342-7",
    "lat": "36.41803427577318",
    "lng": "128.1700353519008",
    "region": "경상북도"
  },
  {
    "name": "봉화중고등학교",
    "address": "경상북도 봉화군 봉화읍 삼계리 40",
    "lat": "36.89524347732818",
    "lng": "128.73972452470147",
    "region": "경상북도"
  },
  {
    "name": "조성초등학교 운동장",
    "address": "전라남도 보성군 조성면 조성리 683-1",
    "lat": "34.80961682383614",
    "lng": "127.24836576537331",
    "region": "전라남도"
  },
  {
    "name": "곡성생활체육공원(동악체육공원)",
    "address": "전라남도 곡성군 곡성읍 교촌리 47",
    "lat": "35.28262901965767",
    "lng": "127.28493773513657",
    "region": "전라남도"
  },
  {
    "name": "문창고등학교 운동장",
    "address": "경상북도 문경시 흥덕동 716",
    "lat": "36.60272995534586",
    "lng": "128.20020378421842",
    "region": "경상북도"
  },
  {
    "name": "단밀초등학교운동장",
    "address": "경상북도 의성군 단밀면 속암리 181",
    "lat": "36.375739906257095",
    "lng": "128.3803082032816",
    "region": "경상북도"
  },
  {
    "name": "흑산초등학교 홍도분교",
    "address": "전라남도 신안군 흑산면 홍도리 95-2",
    "lat": "34.6851755",
    "lng": "125.1924403",
    "region": "전라남도"
  },
  {
    "name": "한천초등학교 운동장",
    "address": "전라남도 화순군 한천면 한계리 183",
    "lat": "34.97907681325868",
    "lng": "127.00405213752694",
    "region": "전라남도"
  },
  {
    "name": "도곡초등학교 운동장",
    "address": "전라남도 화순군 도곡면 천암리 191",
    "lat": "35.01310446023031",
    "lng": "126.90867240310305",
    "region": "전라남도"
  },
  {
    "name": "천태초등학교 운동장",
    "address": "전라남도 화순군 도암면 원천리 252",
    "lat": "34.945355806913575",
    "lng": "126.89343805608554",
    "region": "전라남도"
  },
  {
    "name": "연왕어린이공원",
    "address": "대구광역시 달서구 월성동 270-2",
    "lat": "35.834941025683925",
    "lng": "128.5324281413508",
    "region": "대구광역시"
  },
  {
    "name": "사랑어린이공원",
    "address": "대구광역시 달서구 월성동 277-2",
    "lat": "35.82977434636698",
    "lng": "128.5311974378082",
    "region": "대구광역시"
  },
  {
    "name": "효성어린이공원",
    "address": "대구광역시 달서구 월성동 273-1",
    "lat": "35.83367078692563",
    "lng": "128.53008797863737",
    "region": "대구광역시"
  },
  {
    "name": "평화어린이공원",
    "address": "대구광역시 달서구 월성동 277-1",
    "lat": "35.83018472797303",
    "lng": "128.52887509872974",
    "region": "대구광역시"
  },
  {
    "name": "옹달샘어린이공원",
    "address": "대구광역시 달서구 월성동 273-3",
    "lat": "35.83177514045091",
    "lng": "128.52912783622756",
    "region": "대구광역시"
  },
  {
    "name": "학산어린이공원",
    "address": "대구광역시 달서구 월성동 84-3",
    "lat": "35.83159903514049",
    "lng": "128.5267157104888",
    "region": "대구광역시"
  },
  {
    "name": "창공어린이공원",
    "address": "대구광역시 달서구 월성동 270-3",
    "lat": "35.83318843733055",
    "lng": "128.531577823846",
    "region": "대구광역시"
  },
  {
    "name": "미성어린이공원",
    "address": "대구광역시 달서구 월성동 270-4",
    "lat": "35.83282327734171",
    "lng": "128.53358030319234",
    "region": "대구광역시"
  },
  {
    "name": "오복어린이공원",
    "address": "대구광역시 달서구 진천동 223-31",
    "lat": "35.81422134504867",
    "lng": "128.52927087660737",
    "region": "대구광역시"
  },
  {
    "name": "진천어린이공원",
    "address": "대구광역시 달서구 진천동 623-12",
    "lat": "35.81277527934617",
    "lng": "128.52294557116457",
    "region": "대구광역시"
  },
  {
    "name": "무궁화어린이공원",
    "address": "대구광역시 달서구 진천동 812",
    "lat": "35.81282492154308",
    "lng": "128.53286491748727",
    "region": "대구광역시"
  },
  {
    "name": "진달래어린이공원",
    "address": "대구광역시 달서구 진천동 832-3",
    "lat": "35.81055587263293",
    "lng": "128.53193989033963",
    "region": "대구광역시"
  },
  {
    "name": "장미어린이공원",
    "address": "대구광역시 달서구 진천동 780-1",
    "lat": "35.81098136747771",
    "lng": "128.51811801161242",
    "region": "대구광역시"
  },
  {
    "name": "태양어린이공원",
    "address": "대구광역시 달서구 상인동 1501-1",
    "lat": "35.81781892820234",
    "lng": "128.5415336958191",
    "region": "대구광역시"
  },
  {
    "name": "보배어린이공원",
    "address": "대구광역시 달서구 상인동 1515-1",
    "lat": "35.816284868630376",
    "lng": "128.54232612222359",
    "region": "대구광역시"
  },
  {
    "name": "영광어린이공원",
    "address": "대구광역시 달서구 상인동 1517-1",
    "lat": "35.81834905361494",
    "lng": "128.54338424130688",
    "region": "대구광역시"
  },
  {
    "name": "한빛어린이공원",
    "address": "대구광역시 달서구 상인동 1522-1",
    "lat": "35.81520300793362",
    "lng": "128.54659575555758",
    "region": "대구광역시"
  },
  {
    "name": "동심공원",
    "address": "대구광역시 달서구 상인동 1523-1",
    "lat": "35.81426701297183",
    "lng": "128.54434890393313",
    "region": "대구광역시"
  },
  {
    "name": "월곡역사공원",
    "address": "대구광역시 달서구 상인동 1530",
    "lat": "35.8180898463897",
    "lng": "128.54520693095242",
    "region": "대구광역시"
  },
  {
    "name": "십리포주차장1",
    "address": "인천광역시 옹진군 영흥면 내리 724-91",
    "lat": "37.28144787080018",
    "lng": "126.48637623664277",
    "region": "인천광역시"
  },
  {
    "name": "십리포주차장2",
    "address": "인천광역시 옹진군 영흥면 내리 724-43",
    "lat": "37.28027093526617",
    "lng": "126.48327707842189",
    "region": "인천광역시"
  },
  {
    "name": "일직초등학교 운동장",
    "address": "경상북도 안동시 일직면 원호리 116",
    "lat": "36.48364495872427",
    "lng": "128.65691747859253",
    "region": "경상북도"
  },
  {
    "name": "함창고등학교 운동장",
    "address": "경상북도 상주시 함창읍 구향리 181",
    "lat": "36.56831320923574",
    "lng": "128.17422330379765",
    "region": "경상북도"
  },
  {
    "name": "청리중학교 운동장",
    "address": "경상북도 상주시 청리면 청하리 954-5",
    "lat": "36.33092659718087",
    "lng": "128.12788009643558",
    "region": "경상북도"
  },
  {
    "name": "화동초등학교 운동장",
    "address": "경상북도 상주시 화동면 이소리 490",
    "lat": "36.39139716251633",
    "lng": "127.95092940330505",
    "region": "경상북도"
  },
  {
    "name": "감천초등학교",
    "address": "경상북도 김천시 감천면 도평리 514",
    "lat": "36.06516977851613",
    "lng": "128.12611608837992",
    "region": "경상북도"
  },
  {
    "name": "개령초등학교",
    "address": "경상북도 김천시 개령면 동부리 330",
    "lat": "36.16797952701799",
    "lng": "128.18705781843724",
    "region": "경상북도"
  },
  {
    "name": "무안고등학교 운동장",
    "address": "전라남도 무안군 무안읍 성남리 1000",
    "lat": "34.98181665123638",
    "lng": "126.46726306324157",
    "region": "전라남도"
  },
  {
    "name": "남악초등학교 운동장",
    "address": "전라남도 무안군 삼향읍 남악리 1587",
    "lat": "34.81243005436664",
    "lng": "126.4740720612415",
    "region": "전라남도"
  },
  {
    "name": "강진군 축구전용구장(다산구장)",
    "address": "전라남도 강진군 군동면 호계리 1091",
    "lat": "34.648467005563006",
    "lng": "126.7808988033394",
    "region": "전라남도"
  },
  {
    "name": "강진군 축구전용구장(하멜구장)",
    "address": "전라남도 강진군 강진읍 교촌리 211-1",
    "lat": "34.64479964187998",
    "lng": "126.78038310658089",
    "region": "전라남도"
  },
  {
    "name": "성밖숲 공터",
    "address": "경상북도 성주군 성주읍 경산리 446-1",
    "lat": "35.91616271233016",
    "lng": "128.2797259888861",
    "region": "경상북도"
  },
  {
    "name": "흑산초등학교",
    "address": "전라남도 신안군 흑산면 진리 477",
    "lat": "34.6841346",
    "lng": "125.4273365",
    "region": "전라남도"
  },
  {
    "name": "신의중학교",
    "address": "전라남도 신안군 신의면 상태동리 420-1",
    "lat": "34.5902353394793",
    "lng": "126.07980263079386",
    "region": "전라남도"
  },
  {
    "name": "아포중학교",
    "address": "경상북도 김천시 아포읍 국사리 757-1",
    "lat": "36.15962832436137",
    "lng": "128.24359112792934",
    "region": "경상북도"
  },
  {
    "name": "손불중학교",
    "address": "전라남도 함평군 손불면 대전리 636",
    "lat": "35.14405428377296",
    "lng": "126.42782695494786",
    "region": "전라남도"
  },
  {
    "name": "이서초등학교 운동장",
    "address": "전라남도 화순군 이서면 영평리 282-1",
    "lat": "35.117384519625254",
    "lng": "127.04446804828095",
    "region": "전라남도"
  },
  {
    "name": "최무선과학관 주차장",
    "address": "경상북도 영천시 금호읍 원기리 277",
    "lat": "35.907784453872964",
    "lng": "128.8812724116673",
    "region": "경상북도"
  },
  {
    "name": "국민체육센터",
    "address": "전라남도 영광군 영광읍 단주리 673",
    "lat": "35.28866193259367",
    "lng": "126.49627268357365",
    "region": "전라남도"
  },
  {
    "name": "염산초등학교",
    "address": "전라남도 영광군 염산면 봉남리 195",
    "lat": "35.220615846722986",
    "lng": "126.36686210681245",
    "region": "전라남도"
  },
  {
    "name": "이로초등학교 운동장",
    "address": "전라남도 목포시 용해동 240-2",
    "lat": "34.80480038883732",
    "lng": "126.40665576431375",
    "region": "전라남도"
  },
  {
    "name": "상동초등학교 운동장",
    "address": "전라남도 목포시 상동 364",
    "lat": "34.813729224216495",
    "lng": "126.41189054373918",
    "region": "전라남도"
  },
  {
    "name": "하당초등학교 운동장",
    "address": "전라남도 목포시 상동 820",
    "lat": "34.80629064120779",
    "lng": "126.41922312045286",
    "region": "전라남도"
  },
  {
    "name": "장곡중학교 운동장",
    "address": "경상북도 칠곡군 석적읍 중리 246",
    "lat": "36.07310742048544",
    "lng": "128.4150853034751",
    "region": "경상북도"
  },
  {
    "name": "동명동부초등학교 운동장",
    "address": "경상북도 칠곡군 동명면 기성리 232-1",
    "lat": "36.00581050587804",
    "lng": "128.59318736208715",
    "region": "경상북도"
  },
  {
    "name": "원곡중학교 운동장",
    "address": "경기도 안산시 단원구 원곡동 936-1",
    "lat": "37.33153949826842",
    "lng": "126.8008153647241",
    "region": "경기도"
  },
  {
    "name": "벌교고등학교 운동장",
    "address": "전라남도 보성군 벌교읍 장좌리 511",
    "lat": "34.834425837872075",
    "lng": "127.34273850917819",
    "region": "전라남도"
  },
  {
    "name": "장성남중학교",
    "address": "전라남도 장성군 남면 분향리 335",
    "lat": "35.24324737283395",
    "lng": "126.81160221542007",
    "region": "전라남도"
  },
  {
    "name": "대평공원",
    "address": "인천광역시 서구 연희동 733-3",
    "lat": "37.54906019337406",
    "lng": "126.6702080913569",
    "region": "인천광역시"
  },
  {
    "name": "북군동 제1공영주차장",
    "address": "경상북도 경주시 북군동 249-4",
    "lat": "35.85196200332735",
    "lng": "129.26404533732554",
    "region": "경상북도"
  },
  {
    "name": "불국사 주차장",
    "address": "경상북도 경주시 진현동 50-2",
    "lat": "35.78628745776513",
    "lng": "129.328989386562",
    "region": "경상북도"
  },
  {
    "name": "가좌근린공원",
    "address": "인천광역시 서구 가좌동 219",
    "lat": "37.488301465512464",
    "lng": "126.68068885803221",
    "region": "인천광역시"
  },
  {
    "name": "계곡초등학교운동장",
    "address": "전라남도 해남군 계곡면 성진리 231-1",
    "lat": "34.645726283196794",
    "lng": "126.65612514381048",
    "region": "전라남도"
  },
  {
    "name": "하장초등학교 운동장",
    "address": "강원특별자치도 삼척시 하장면 광동리 76-1",
    "lat": "37.34822031362226",
    "lng": "128.9445751905765",
    "region": "강원특별자치도"
  },
  {
    "name": "나주초등학교 운동장",
    "address": "전라남도 나주시 남외동 128",
    "lat": "35.027093840405946",
    "lng": "126.71904799769062",
    "region": "전라남도"
  },
  {
    "name": "용현초등학교 운동장",
    "address": "경상남도 사천시 용현면 송지리 186",
    "lat": "35.012820810099115",
    "lng": "128.0626078664066",
    "region": "경상남도"
  },
  {
    "name": "신수도초등학교(삼천포초등학교 신수도 분교)운동장",
    "address": "경상남도 사천시 신수동 217",
    "lat": "34.90371777455057",
    "lng": "128.07484708019695",
    "region": "경상남도"
  },
  {
    "name": "동양소공원(동양공원 1)",
    "address": "인천광역시 계양구 동양동 615-3",
    "lat": "37.56161206427414",
    "lng": "126.75791552470983",
    "region": "인천광역시"
  },
  {
    "name": "계산여자중학교 운동장",
    "address": "인천광역시 계양구 계산동 292",
    "lat": "37.5358538873079",
    "lng": "126.73289970050452",
    "region": "인천광역시"
  },
  {
    "name": "계양고등학교 운동장",
    "address": "인천광역시 계양구 용종동 227-3",
    "lat": "37.541620794017525",
    "lng": "126.74386777501797",
    "region": "인천광역시"
  },
  {
    "name": "북인천중학교 운동장",
    "address": "인천광역시 계양구 계산동 765",
    "lat": "37.541955739038514",
    "lng": "126.71721590747704",
    "region": "인천광역시"
  },
  {
    "name": "골약초등학교 운동장",
    "address": "전라남도 광양시 황길동 827",
    "lat": "34.91014730669014",
    "lng": "127.6604808656238",
    "region": "전라남도"
  },
  {
    "name": "양산초등학교",
    "address": "경기도 오산시 양산동 667-3",
    "lat": "37.196693716113614",
    "lng": "127.03211724758147",
    "region": "경기도"
  },
  {
    "name": "의흥초등학교 운동장",
    "address": "대구광역시 군위군 의흥면 읍내리 283",
    "lat": "36.17524642871917",
    "lng": "128.71880637048565",
    "region": "대구광역시"
  },
  {
    "name": "안강운동장 주차장",
    "address": "경상북도 경주시 안강읍 산대리 1258",
    "lat": "36.00257791773986",
    "lng": "129.19145490266948",
    "region": "경상북도"
  },
  {
    "name": "남동중학교 운동장",
    "address": "인천광역시 남동구 만수동 1047",
    "lat": "37.44016499729726",
    "lng": "126.73802523785179",
    "region": "인천광역시"
  },
  {
    "name": "서창중학교 운동장",
    "address": "인천광역시 남동구 서창동 543-7",
    "lat": "37.43349990169012",
    "lng": "126.7496793164786",
    "region": "인천광역시"
  },
  {
    "name": "논곡초등학교 운동장",
    "address": "인천광역시 남동구 논현동 563-5",
    "lat": "37.410391378662354",
    "lng": "126.71029892444014",
    "region": "인천광역시"
  },
  {
    "name": "시청 본관 잔디밭(인천애뜰)",
    "address": "인천광역시 남동구 구월동 1138",
    "lat": "37.45548082578766",
    "lng": "126.70499326789754",
    "region": "인천광역시"
  },
  {
    "name": "동방초등학교 운동장",
    "address": "인천광역시 남동구 논현동 633-8",
    "lat": "37.40317000768825",
    "lng": "126.71966719510922",
    "region": "인천광역시"
  },
  {
    "name": "안산공업고등학교 운동장",
    "address": "경기도 안산시 상록구 부곡동 722",
    "lat": "37.33622879091008",
    "lng": "126.86056887957014",
    "region": "경기도"
  },
  {
    "name": "경수초등학교 운동장",
    "address": "경기도 안산시 상록구 성포동 594-3",
    "lat": "37.32716259865332",
    "lng": "126.85042843222617",
    "region": "경기도"
  },
  {
    "name": "신촌초등학교 운동장",
    "address": "인천광역시 부평구 십정동 186-346",
    "lat": "37.48628001903778",
    "lng": "126.70676652326894",
    "region": "인천광역시"
  },
  {
    "name": "풍북초등학교 운동장",
    "address": "경상북도 안동시 풍산읍 괴정리 569",
    "lat": "36.598201714990786",
    "lng": "128.53468906647512",
    "region": "경상북도"
  },
  {
    "name": "청천초등학교 운동장",
    "address": "인천광역시 부평구 청천동 34-6",
    "lat": "37.52035101293587",
    "lng": "126.70103456465593",
    "region": "인천광역시"
  },
  {
    "name": "경일초등학교 운동장",
    "address": "경기도 안산시 상록구 성포동 591-1",
    "lat": "37.323771282128696",
    "lng": "126.84742301702497",
    "region": "경기도"
  },
  {
    "name": "덕인초등학교 운동장",
    "address": "경기도 안산시 단원구 와동 258-6",
    "lat": "37.339987789366155",
    "lng": "126.82434829376004",
    "region": "경기도"
  },
  {
    "name": "단촌초등학교운동장",
    "address": "경상북도 의성군 단촌면 세촌리 875-1",
    "lat": "36.42523064137051",
    "lng": "128.67049166422902",
    "region": "경상북도"
  },
  {
    "name": "청하초등학교 운동장",
    "address": "경상북도 포항시 북구 청하면 덕성리 327",
    "lat": "36.19840397785703",
    "lng": "129.33786213397948",
    "region": "경상북도"
  },
  {
    "name": "장원초등학교 운동장",
    "address": "경상북도 포항시 북구 장성동 1536-1",
    "lat": "36.081118341115804",
    "lng": "129.38477396965777",
    "region": "경상북도"
  },
  {
    "name": "포항장흥초등학교 운동장",
    "address": "경상북도 포항시 북구 장성동 1429-1",
    "lat": "36.078321934609825",
    "lng": "129.39273476601383",
    "region": "경상북도"
  },
  {
    "name": "점곡초등학교운동장",
    "address": "경상북도 의성군 점곡면 사촌리 191-3",
    "lat": "36.425041583937805",
    "lng": "128.76113258140154",
    "region": "경상북도"
  },
  {
    "name": "구월서초등학교 운동장",
    "address": "인천광역시 남동구 구월동 1099",
    "lat": "37.45279211205926",
    "lng": "126.69576539706857",
    "region": "인천광역시"
  },
  {
    "name": "신월초등학교 운동장",
    "address": "인천광역시 남동구 구월동 609-1",
    "lat": "37.44751557238356",
    "lng": "126.72365093907837",
    "region": "인천광역시"
  },
  {
    "name": "인천예술고등학교 운동장",
    "address": "인천광역시 남동구 간석동 417-3",
    "lat": "37.45872195840357",
    "lng": "126.70370599159428",
    "region": "인천광역시"
  },
  {
    "name": "인동초등학교 운동장",
    "address": "인천광역시 남동구 만수동 846",
    "lat": "37.46240056331838",
    "lng": "126.72249583223463",
    "region": "인천광역시"
  },
  {
    "name": "인수초등학교 운동장",
    "address": "인천광역시 남동구 만수동 47",
    "lat": "37.453889734642836",
    "lng": "126.73604684958052",
    "region": "인천광역시"
  },
  {
    "name": "남동초등학교 운동장",
    "address": "인천광역시 남동구 만수동 1017",
    "lat": "37.44439679512215",
    "lng": "126.73675332956479",
    "region": "인천광역시"
  },
  {
    "name": "담방초등학교 운동장",
    "address": "인천광역시 남동구 만수동 1046",
    "lat": "37.44016198966875",
    "lng": "126.73675418860594",
    "region": "인천광역시"
  },
  {
    "name": "망미초등학교 운동장",
    "address": "부산광역시 수영구 망미동 268-2",
    "lat": "35.175554053359974",
    "lng": "129.11456328427943",
    "region": "부산광역시"
  },
  {
    "name": "서창초등학교 운동장",
    "address": "인천광역시 남동구 서창동 560-6",
    "lat": "37.43580119559007",
    "lng": "126.75020822168567",
    "region": "인천광역시"
  },
  {
    "name": "천안중앙고등학교 ",
    "address": "충청남도 천안시 동남구 원성동 460-1",
    "lat": "36.810311185125464",
    "lng": "127.15918153524397",
    "region": "충청남도"
  },
  {
    "name": "황산초등학교운동장",
    "address": "전라남도 해남군 황산면 남리리 31-32",
    "lat": "34.5760443308145",
    "lng": "126.427476303533",
    "region": "전라남도"
  },
  {
    "name": "옥천초등학교운동장",
    "address": "전라남도 해남군 옥천면 영춘리 573-1",
    "lat": "34.567922298479054",
    "lng": "126.64970711191545",
    "region": "전라남도"
  },
  {
    "name": "옴천초등학교 운동장",
    "address": "전라남도 강진군 옴천면 개산리 245",
    "lat": "34.744842298050806",
    "lng": "126.79547039716884",
    "region": "전라남도"
  },
  {
    "name": "북평초등학교운동장",
    "address": "전라남도 해남군 북평면 남창리 142",
    "lat": "34.40792635324236",
    "lng": "126.63134180214195",
    "region": "전라남도"
  },
  {
    "name": "송석초등학교 운동장",
    "address": "충청남도 서천군 마서면 송석리 49-1",
    "lat": "36.07327948056654",
    "lng": "126.64324522017928",
    "region": "충청남도"
  },
  {
    "name": "지족초등학교 운동장",
    "address": "대전광역시 유성구 지족동 850",
    "lat": "36.380600202990216",
    "lng": "127.3172657953813",
    "region": "대전광역시"
  },
  {
    "name": "문지초등학교 운동장",
    "address": "대전광역시 유성구 문지동 285-9",
    "lat": "36.395819835396004",
    "lng": "127.39951424921621",
    "region": "대전광역시"
  },
  {
    "name": "남산초등학교 운동장",
    "address": "전라남도 여수시 남산동 765",
    "lat": "34.737165827193714",
    "lng": "127.72996188787825",
    "region": "전라남도"
  },
  {
    "name": "오산초등학교",
    "address": "경기도 오산시 가수동 76",
    "lat": "37.14475569249149",
    "lng": "127.05003598721376",
    "region": "경기도"
  },
  {
    "name": "구룡포초등학교 운동장",
    "address": "경상북도 포항시 남구 구룡포읍 구룡포리 765-1",
    "lat": "35.99026453859633",
    "lng": "129.55239057542082",
    "region": "경상북도"
  },
  {
    "name": "군위초등학교 운동장",
    "address": "대구광역시 군위군 군위읍 동부리 323-2",
    "lat": "36.23887886252727",
    "lng": "128.5687843271256",
    "region": "대구광역시"
  },
  {
    "name": "부계초등학교 운동장",
    "address": "대구광역시 군위군 부계면 창평리 851-1",
    "lat": "36.101609750826306",
    "lng": "128.6628750061426",
    "region": "대구광역시"
  },
  {
    "name": "금반초등학교 운동장",
    "address": "경상남도 함양군 휴천면 금반리 92",
    "lat": "35.47665609444028",
    "lng": "127.73701307684985",
    "region": "경상남도"
  },
  {
    "name": "상인천초등학교 운동장",
    "address": "인천광역시 남동구 간석동 304",
    "lat": "37.46166848223185",
    "lng": "126.70698796537158",
    "region": "인천광역시"
  },
  {
    "name": "동부초등학교 운동장",
    "address": "인천광역시 남동구 만수동 111-5",
    "lat": "37.46272555023886",
    "lng": "126.72750617522804",
    "region": "인천광역시"
  },
  {
    "name": "만수북중학교 운동장",
    "address": "인천광역시 남동구 만수동 10",
    "lat": "37.461366967227",
    "lng": "126.73887082147037",
    "region": "인천광역시"
  },
  {
    "name": "조동초등학교 운동장",
    "address": "인천광역시 남동구 만수동 11",
    "lat": "37.46071381854221",
    "lng": "126.73982833833999",
    "region": "인천광역시"
  },
  {
    "name": "도림초등학교 운동장",
    "address": "인천광역시 남동구 도림동 629-2",
    "lat": "37.4190289037478",
    "lng": "126.73174125419308",
    "region": "인천광역시"
  },
  {
    "name": "논현초등학교 운동장",
    "address": "인천광역시 남동구 논현동 602-2",
    "lat": "37.40511378875121",
    "lng": "126.73115501013864",
    "region": "인천광역시"
  },
  {
    "name": "시낭운동장",
    "address": "경기도 안산시 상록구 부곡동 719-1",
    "lat": "37.33470494210912",
    "lng": "126.85587134102302",
    "region": "경기도"
  },
  {
    "name": "인천동수중학교 운동장",
    "address": "인천광역시 부평구 부평동 677",
    "lat": "37.48427393433957",
    "lng": "126.71996334773132",
    "region": "인천광역시"
  },
  {
    "name": "부흥초등학교 운동장",
    "address": "인천광역시 부평구 부평동 171",
    "lat": "37.495959724063546",
    "lng": "126.73162263724645",
    "region": "인천광역시"
  },
  {
    "name": "산곡초등학교 운동장",
    "address": "인천광역시 부평구 산곡동 87-236",
    "lat": "37.50723382031135",
    "lng": "126.70184349952176",
    "region": "인천광역시"
  },
  {
    "name": "마곡초등학교 운동장",
    "address": "인천광역시 부평구 산곡동 68",
    "lat": "37.51143934364178",
    "lng": "126.69787964160088",
    "region": "인천광역시"
  },
  {
    "name": "미산초등학교 운동장",
    "address": "인천광역시 부평구 산곡동 128-60",
    "lat": "37.50451959773743",
    "lng": "126.70981304003321",
    "region": "인천광역시"
  },
  {
    "name": "묵계초등학교 운동장",
    "address": "경상남도 하동군 청암면 묵계리 550",
    "lat": "35.2290130249699",
    "lng": "127.73458848001498",
    "region": "경상남도"
  },
  {
    "name": "남천초등학교 운동장",
    "address": "부산광역시 수영구 남천동 69-24",
    "lat": "35.14344506719717",
    "lng": "129.10803915399634",
    "region": "부산광역시"
  },
  {
    "name": "북후중학교 운동장",
    "address": "경상북도 안동시 북후면 장기리 474-3",
    "lat": "36.68021609383454",
    "lng": "128.69903374848425",
    "region": "경상북도"
  },
  {
    "name": "금남중학교 운동장",
    "address": "경상남도 하동군 금남면 덕천리 1241",
    "lat": "34.98653756574382",
    "lng": "127.83872200892698",
    "region": "경상남도"
  },
  {
    "name": "영천중학교 운동장",
    "address": "경상남도 고성군 영오면 영산리 250",
    "lat": "35.10893775427759",
    "lng": "128.23589167120682",
    "region": "경상남도"
  },
  {
    "name": "도암초등학교 운동장",
    "address": "전라남도 강진군 도암면 석문리 242",
    "lat": "34.55085201321371",
    "lng": "126.72580098713617",
    "region": "전라남도"
  },
  {
    "name": "경포초등학교",
    "address": "강원특별자치도 강릉시 교동 1797",
    "lat": "37.76979758522261",
    "lng": "128.87967659489505",
    "region": "강원특별자치도"
  },
  {
    "name": "수정초등학교 운동장",
    "address": "대전광역시 유성구 노은동 552-2",
    "lat": "36.36589020349862",
    "lng": "127.31346730957252",
    "region": "대전광역시"
  },
  {
    "name": "동인천여자중학교 운동장",
    "address": "인천광역시 서구 가좌동 402",
    "lat": "37.48959468243743",
    "lng": "126.68819450532777",
    "region": "인천광역시"
  },
  {
    "name": "시도리운동장",
    "address": "인천광역시 옹진군 북도면 시도리 277-7",
    "lat": "37.533517824640086",
    "lng": "126.43143653869609",
    "region": "인천광역시"
  },
  {
    "name": "영강초등학교 운동장",
    "address": "전라남도 나주시 삼영동 96",
    "lat": "35.00639873087576",
    "lng": "126.7123146328518",
    "region": "전라남도"
  },
  {
    "name": "간문초등학교 운동장",
    "address": "전라남도 구례군 간전면 간문리 220-1",
    "lat": "35.17718422377727",
    "lng": "127.54205319028277",
    "region": "전라남도"
  },
  {
    "name": "구례중앙초등학교 운동장",
    "address": "전라남도 구례군 구례읍 봉남리 32-1",
    "lat": "35.204643314498874",
    "lng": "127.46547732620317",
    "region": "전라남도"
  },
  {
    "name": "문척초등학교 운동장",
    "address": "전라남도 구례군 문척면 월전리 286-1",
    "lat": "35.191835287454936",
    "lng": "127.49063445852715",
    "region": "전라남도"
  },
  {
    "name": "작전중학교 운동장",
    "address": "인천광역시 계양구 작전동 85",
    "lat": "37.533331117813596",
    "lng": "126.72961542229467",
    "region": "인천광역시"
  },
  {
    "name": "자산공원",
    "address": "전라남도 여수시 종화동 3",
    "lat": "34.739475554871845",
    "lng": "127.75039586938139",
    "region": "전라남도"
  },
  {
    "name": "부윤초등학교 운동장",
    "address": "충청북도 음성군 대소면 부윤리 392",
    "lat": "36.948566827920395",
    "lng": "127.52488671317994",
    "region": "충청북도"
  },
  {
    "name": "함양여자중학교 운동장",
    "address": "경상남도 함양군 함양읍 교산리 956",
    "lat": "35.52366245898085",
    "lng": "127.72643921264472",
    "region": "경상남도"
  },
  {
    "name": "오천초등학교 운동장",
    "address": "경상북도 포항시 남구 오천읍 용덕리 221-2",
    "lat": "35.97005891491299",
    "lng": "129.41691619944848",
    "region": "경상북도"
  },
  {
    "name": "수동초등학교 운동장",
    "address": "경상남도 함양군 수동면 화산리 1097",
    "lat": "35.52256853368864",
    "lng": "127.79053208884916",
    "region": "경상남도"
  },
  {
    "name": "용흥초등학교 운동장",
    "address": "경상북도 포항시 북구 용흥동 532-1",
    "lat": "36.03870633782568",
    "lng": "129.34901207685894",
    "region": "경상북도"
  },
  {
    "name": "대도중학교 운동장",
    "address": "경상북도 포항시 북구 환호동 493",
    "lat": "36.07253171674276",
    "lng": "129.3965764232547",
    "region": "경상북도"
  },
  {
    "name": "용현초등학교운동장",
    "address": "인천광역시 미추홀구 용현동 610-108",
    "lat": "37.45326390078829",
    "lng": "126.6414793329009",
    "region": "인천광역시"
  },
  {
    "name": "인천문학초등학교운동장",
    "address": "인천광역시 미추홀구 문학동 343-2",
    "lat": "37.43935284772379",
    "lng": "126.68288252529295",
    "region": "인천광역시"
  },
  {
    "name": "안산대학교 운동장",
    "address": "경기도 안산시 상록구 일동 752",
    "lat": "37.309274100307654",
    "lng": "126.87577119782375",
    "region": "경기도"
  },
  {
    "name": "약산초등학교 운동장",
    "address": "인천광역시 남동구 간석동 104-1",
    "lat": "37.467450887099524",
    "lng": "126.71009458267739",
    "region": "인천광역시"
  },
  {
    "name": "석정초등학교 운동장",
    "address": "인천광역시 남동구 간석동 614-5",
    "lat": "37.46716573051754",
    "lng": "126.6962768852534",
    "region": "인천광역시"
  }
]