[
  {
    "name": "한일사택 주차장",
    "address": "충청북도 단양군 매포읍 평동리 16",
    "lat": "37.0257006632913",
    "lng": "128.31134917662183",
    "region": "충청북도"
  },
  {
    "name": "동두천사동초등학교 운동장",
    "address": "경기도 동두천시 생연동 783",
    "lat": "37.898206766321145",
    "lng": "127.0483124256134",
    "region": "경기도"
  },
  {
    "name": "가산1리마을회관",
    "address": "충청북도 단양군 단성면 가산리 68-6",
    "lat": "36.88950839224693",
    "lng": "128.3061008121249",
    "region": "충청북도"
  },
  {
    "name": "시민회관 주차장",
    "address": "경기도 동두천시 상패동 122",
    "lat": "37.905229111054574",
    "lng": "127.04310357570647",
    "region": "경기도"
  },
  {
    "name": "고천초등학교 운동장",
    "address": "경기도 의왕시 고천동 296-1",
    "lat": "37.34858422890636",
    "lng": "126.97509940877858",
    "region": "경기도"
  },
  {
    "name": "의왕부곡초등학교 운동장",
    "address": "경기도 의왕시 삼동 572-1",
    "lat": "37.31519862772173",
    "lng": "126.94995298152693",
    "region": "경기도"
  },
  {
    "name": "오전초등학교 운동장",
    "address": "경기도 의왕시 오전동 848",
    "lat": "37.35447757911099",
    "lng": "126.9723823320903",
    "region": "경기도"
  },
  {
    "name": "번동중학교운동장",
    "address": "서울특별시 강북구 번동 231",
    "lat": "37.63211669747398",
    "lng": "127.03684798951703",
    "region": "서울특별시"
  },
  {
    "name": "청안초등학교 운동장",
    "address": "충청북도 괴산군 청안면 읍내리 221-1",
    "lat": "36.77241933290278",
    "lng": "127.63936971061156",
    "region": "충청북도"
  },
  {
    "name": "마분공원(82호공원)",
    "address": "인천광역시 부평구 부개동 331",
    "lat": "37.48517255247641",
    "lng": "126.74056541190745",
    "region": "인천광역시"
  },
  {
    "name": "무정초등학교운동장",
    "address": "부산광역시 해운대구 반여동 1651",
    "lat": "35.19796602309733",
    "lng": "129.1236564489679",
    "region": "부산광역시"
  },
  {
    "name": "부발초등학교 운동장",
    "address": "경기도 이천시 부발읍 무촌리 195-5",
    "lat": "37.286626236487166",
    "lng": "127.48847415978352",
    "region": "경기도"
  },
  {
    "name": "반여고등학교운동장",
    "address": "부산광역시 해운대구 반여동 1622",
    "lat": "35.20318364751993",
    "lng": "129.1263733084468",
    "region": "부산광역시"
  },
  {
    "name": "부흥초등학교운동장",
    "address": "부산광역시 해운대구 좌동 1303",
    "lat": "35.175742571188664",
    "lng": "129.17839003321302",
    "region": "부산광역시"
  },
  {
    "name": "대월초등학교 운동장",
    "address": "경기도 이천시 대월면 초지리 426-1",
    "lat": "37.223594492246534",
    "lng": "127.49296015813245",
    "region": "경기도"
  },
  {
    "name": "중동초교운동장",
    "address": "경상남도 창원시 의창구 서상동 657",
    "lat": "35.26002179911356",
    "lng": "128.6233699660536",
    "region": "경상남도"
  },
  {
    "name": "동해웰빙레포츠타운 운동장",
    "address": "강원특별자치도 동해시 천곡동 363-1",
    "lat": "37.51605821151315",
    "lng": "129.10226283516948",
    "region": "강원특별자치도"
  },
  {
    "name": "천곡초등학교운동장",
    "address": "강원특별자치도 동해시 천곡동 320-1",
    "lat": "37.51734201193861",
    "lng": "129.10805745635548",
    "region": "강원특별자치도"
  },
  {
    "name": "해원초등학교운동장",
    "address": "부산광역시 해운대구 우동 1405-2",
    "lat": "35.158420178085315",
    "lng": "129.14384722710085",
    "region": "부산광역시"
  },
  {
    "name": "동해초등학교운동장",
    "address": "강원특별자치도 동해시 용정동 475-3",
    "lat": "37.51146651668745",
    "lng": "129.12031059521527",
    "region": "강원특별자치도"
  },
  {
    "name": "(구)한중대학교운동장",
    "address": "강원특별자치도 동해시 지흥동 504-6",
    "lat": "37.504404369896406",
    "lng": "129.08984094858332",
    "region": "강원특별자치도"
  },
  {
    "name": "하랑중학교운동장",
    "address": "강원특별자치도 동해시 발한동 377",
    "lat": "37.55902303904072",
    "lng": "129.10269560887482",
    "region": "강원특별자치도"
  },
  {
    "name": "조도초등학교 운동장",
    "address": "전라남도 진도군 조도면 창유리 458",
    "lat": "34.29618534817321",
    "lng": "126.04825778873524",
    "region": "전라남도"
  },
  {
    "name": "지곡초등학교  운동장",
    "address": "경기도 용인시 기흥구 지곡동 703",
    "lat": "37.251982409961016",
    "lng": "127.13840719489293",
    "region": "경기도"
  },
  {
    "name": "서천고등학교  운동장",
    "address": "경기도 용인시 기흥구 농서동 401",
    "lat": "37.23386981866738",
    "lng": "127.06937819731544",
    "region": "경기도"
  },
  {
    "name": "언동중학교  운동장",
    "address": "경기도 용인시 기흥구 언남동 132-5",
    "lat": "37.29424787031717",
    "lng": "127.13027547511675",
    "region": "경기도"
  },
  {
    "name": "동백고등학교 운동장",
    "address": "경기도 용인시 기흥구 동백동 601",
    "lat": "37.28300847772234",
    "lng": "127.15860206513904",
    "region": "경기도"
  },
  {
    "name": "상하중���교 운동장",
    "address": "경기도 용인시 기흥구 상하동 672",
    "lat": "37.26160303821207",
    "lng": "127.13580760082209",
    "region": "경기도"
  },
  {
    "name": "대진중고등학교 운동장",
    "address": "강원특별자치도 고성군 현내면 초도리 75",
    "lat": "38.484369971505934",
    "lng": "128.4330111514376",
    "region": "강원특별자치도"
  },
  {
    "name": "고금중학교 운동장",
    "address": "전라남도 완도군 고금면 농상리 365",
    "lat": "34.39401276486541",
    "lng": "126.80299151393147",
    "region": "전라남도"
  },
  {
    "name": "송림공원",
    "address": "부산광역시 서구 암남동 124-1",
    "lat": "35.07690517102356",
    "lng": "129.0228299425037",
    "region": "부산광역시"
  },
  {
    "name": "성산국민체육센터",
    "address": "제주특별자치도 서귀포시 성산읍 오조리 1365-1",
    "lat": "33.46684600751254",
    "lng": "126.90610170364377",
    "region": "제주특별자치도"
  },
  {
    "name": "외도초등학교 운동장",
    "address": "제주특별자치도 제주시 외도이동 235-1",
    "lat": "33.493096175284926",
    "lng": "126.43440964458108",
    "region": "제주특별자치도"
  },
  {
    "name": "양운초등학교운동장",
    "address": "부산광역시 해운대구 좌동 1372",
    "lat": "35.17420734472833",
    "lng": "129.16695713996927",
    "region": "부산광역시"
  },
  {
    "name": "운봉초등학교운동장",
    "address": "부산광역시 해운대구 반송동 237-1",
    "lat": "35.22873279511601",
    "lng": "129.15954351425347",
    "region": "부산광역시"
  },
  {
    "name": "이천초등학교 운동장",
    "address": "경기도 이천시 창전동 421-21",
    "lat": "37.283675547935154",
    "lng": "127.4422683348134",
    "region": "경기도"
  },
  {
    "name": "해강중학교운동장",
    "address": "부산광역시 해운대구 우동 1417-1",
    "lat": "35.16395919137363",
    "lng": "129.13645505904876",
    "region": "부산광역시"
  },
  {
    "name": "남호초등학교운동장",
    "address": "강원특별자치도 동해시 평릉동 443",
    "lat": "37.53395208200888",
    "lng": "129.1127832200518",
    "region": "강원특별자치도"
  },
  {
    "name": "북평초등학교운동장",
    "address": "강원특별자치도 동해시 북평동 25-6",
    "lat": "37.48199299851476",
    "lng": "129.1243287921013",
    "region": "강원특별자치도"
  },
  {
    "name": "백암초등학교 운동장",
    "address": "경기도 용인시 처인구 백암면 근창리 105",
    "lat": "37.16414900445325",
    "lng": "127.36780166195719",
    "region": "경기도"
  },
  {
    "name": "한터초등학교 운동장",
    "address": "경기도 용인시 처인구 양지면 대대리 577",
    "lat": "37.261838561991546",
    "lng": "127.26863354695357",
    "region": "경기도"
  },
  {
    "name": "용인고등학교 운동장",
    "address": "경기도 용인시 처인구 역북동 444-1",
    "lat": "37.240355238635566",
    "lng": "127.19305990650064",
    "region": "경기도"
  },
  {
    "name": "신갈중학교 운동장",
    "address": "경기도 용인시 기흥구 신갈동 113",
    "lat": "37.28040916477454",
    "lng": "127.10828127510435",
    "region": "경기도"
  },
  {
    "name": "신월초등학교 운동장",
    "address": "경기도 용인시 수지구 풍덕천동 1097",
    "lat": "37.320697346785416",
    "lng": "127.09288406489951",
    "region": "경기도"
  },
  {
    "name": "동백중학교  운동장",
    "address": "경기도 용인시 기흥구 동백동 578",
    "lat": "37.28535339358938",
    "lng": "127.15857060810053",
    "region": "경기도"
  },
  {
    "name": "목도초등학교 운동장",
    "address": "충청북도 괴산군 불정면 목도리 290",
    "lat": "36.87399571818555",
    "lng": "127.85450249930159",
    "region": "충청북도"
  },
  {
    "name": "울릉문화예술체험장 운동장",
    "address": "경상북도 울릉군 울릉읍 사동리 541-8",
    "lat": "37.46421778167153",
    "lng": "130.8714363761092",
    "region": "경상북도"
  },
  {
    "name": "울릉서중학교 운동장",
    "address": "경상북도 울릉군 서면 남서리 30-3",
    "lat": "37.46876775259206",
    "lng": "130.8364981413743",
    "region": "경상북도"
  },
  {
    "name": "중랑중학교운동장",
    "address": "서울특별시 중랑구 중화동 21-4",
    "lat": "37.604472189998624",
    "lng": "127.08277390466678",
    "region": "서울특별시"
  },
  {
    "name": "수산초중학교  운동장",
    "address": "충청북도 제천시 수산면 수산리 349",
    "lat": "36.93572437971049",
    "lng": "128.18722769656804",
    "region": "충청북도"
  },
  {
    "name": "제천중앙공원",
    "address": "충청북도 제천시 중앙로2가 26-1",
    "lat": "37.13957372404277",
    "lng": "128.21062631278411",
    "region": "충청북도"
  },
  {
    "name": "제천여자고등학교  운동장",
    "address": "충청북도 제천시 서부동 740",
    "lat": "37.136028501482",
    "lng": "128.20451012318816",
    "region": "충청북도"
  },
  {
    "name": "증안초등학교 운동장",
    "address": "충청북도 청주시 흥덕구 복대동 2610",
    "lat": "36.63419509572689",
    "lng": "127.42730423651987",
    "region": "충청북도"
  },
  {
    "name": "제천체육관의병광장",
    "address": "충청북도 제천시 화산동 128-1",
    "lat": "37.13083632791308",
    "lng": "128.21505013144989",
    "region": "충청북도"
  },
  {
    "name": "제천보건복지센터",
    "address": "충청북도 제천시 청전동 110",
    "lat": "37.148950409834185",
    "lng": "128.21588265768335",
    "region": "충청북도"
  },
  {
    "name": "부평초등학교",
    "address": "강원특별자치도 인제군 남면 신남리 458",
    "lat": "37.97063042201102",
    "lng": "128.0836401825609",
    "region": "강원특별자치도"
  },
  {
    "name": "문산고등학교 운동장",
    "address": "경기도 파주시 문산읍 당동리 149",
    "lat": "37.86251246263623",
    "lng": "126.77606106630363",
    "region": "경기도"
  },
  {
    "name": "신남중고등학교",
    "address": "강원특별자치도 인제군 남면 신남리 404",
    "lat": "37.970417423536055",
    "lng": "128.07978720014287",
    "region": "강원특별자치도"
  },
  {
    "name": "웅담초등학교 운동장",
    "address": "경기도 파주시 법원읍 웅담리 387-1",
    "lat": "37.91395709863721",
    "lng": "126.89567098638537",
    "region": "경기도"
  },
  {
    "name": "천현초등학교 운동장",
    "address": "경기도 파주시 법원읍 법원리 440-1",
    "lat": "37.849257986995724",
    "lng": "126.87804351760417",
    "region": "경기도"
  },
  {
    "name": "통일초등학교 운동장",
    "address": "경기도 파주시 탄현면 법흥리 1719",
    "lat": "37.7746827830718",
    "lng": "126.7040338128284",
    "region": "경기도"
  },
  {
    "name": "한국호텔관광고등학교 운동장",
    "address": "충청북도 단양군 단성면 북하리 58",
    "lat": "36.92739954549686",
    "lng": "128.3369637494886",
    "region": "충청북도"
  },
  {
    "name": "상진제2공원(어린이 교통교육장)",
    "address": "충청북도 단양군 단양읍 상진리 583",
    "lat": "36.979874093880795",
    "lng": "128.35320946595417",
    "region": "충청북도"
  },
  {
    "name": "하2리 공터",
    "address": "충청북도 단양군 영춘면 남천리 629-1",
    "lat": "37.06052800972908",
    "lng": "128.49462342222378",
    "region": "충청북도"
  },
  {
    "name": "문원체육공원",
    "address": "경기도 과천시 문원동 20-2",
    "lat": "37.42779998883198",
    "lng": "127.00313329696657",
    "region": "경기도"
  },
  {
    "name": "각기민원센터",
    "address": "충청북도 단양군 적성면 각기리 140",
    "lat": "37.0215567423461",
    "lng": "128.28640896852144",
    "region": "충청북도"
  },
  {
    "name": "장회리 선착장 주차장",
    "address": "충청북도 단양군 단성면 장회리 14-2",
    "lat": "36.93070197464108",
    "lng": "128.25702930548465",
    "region": "충청북도"
  },
  {
    "name": "두항리마을회관",
    "address": "충청북도 단양군 단성면 두항리 151-5",
    "lat": "36.92158651419284",
    "lng": "128.24266917377034",
    "region": "충청북도"
  },
  {
    "name": "화계초등학교운동장",
    "address": "서울특별시 강북구 미아동 127-2",
    "lat": "37.62386408672403",
    "lng": "127.02915603994946",
    "region": "서울특별시"
  },
  {
    "name": "모락초등학교 운동장",
    "address": "경기도 의왕시 오전동 235",
    "lat": "37.35821234578684",
    "lng": "126.97275487745021",
    "region": "경기도"
  },
  {
    "name": "갈뫼초등학교 운동장",
    "address": "경기도 의왕시 내손동 780",
    "lat": "37.37654644647702",
    "lng": "126.97241662037526",
    "region": "경기도"
  },
  {
    "name": "강북구견인차량보관소(우이동 교통광장)",
    "address": "서울특별시 강북구 우이동 산99-2",
    "lat": "37.663538124437565",
    "lng": "127.01273366445093",
    "region": "서울특별시"
  },
  {
    "name": "반안초등학교운동장",
    "address": "부산광역시 해운대구 반여동 1164-6",
    "lat": "35.202660354045946",
    "lng": "129.1136401891723",
    "region": "부산광역시"
  },
  {
    "name": "신곡초등학교운동장",
    "address": "부산광역시 해운대구 좌동 1324",
    "lat": "35.169747780762634",
    "lng": "129.1823315620398",
    "region": "부산광역시"
  },
  {
    "name": "해송초등학교운동장",
    "address": "부산광역시 해운대구 좌동 1338",
    "lat": "35.16440650615555",
    "lng": "129.1790378093731",
    "region": "부산광역시"
  },
  {
    "name": "용인백현초등학교 운동장",
    "address": "경기도 용인시 기흥구 동백동 600",
    "lat": "37.283177146756046",
    "lng": "127.16193322201258",
    "region": "경기도"
  },
  {
    "name": "주민자치센터 광장",
    "address": "충청북도 괴산군 불정면 목도리 303-1",
    "lat": "36.87115730583741",
    "lng": "127.85404179434164",
    "region": "충청북도"
  },
  {
    "name": "고기초등학교 운동장",
    "address": "경기도 용인시 수지구 고기동 172-1",
    "lat": "37.35883023500701",
    "lng": "127.06611227942884",
    "region": "경기도"
  },
  {
    "name": "(구)울릉중학교 운동장",
    "address": "경상북도 울릉군 울릉읍 도동리 223-8",
    "lat": "37.484666286994326",
    "lng": "130.9030812979695",
    "region": "경상북도"
  },
  {
    "name": "원봉중학교 운동장",
    "address": "충청북도 청주시 상당구 용암동 2100",
    "lat": "36.61395499713531",
    "lng": "127.50571240106161",
    "region": "충청북도"
  },
  {
    "name": "동중학교 운동장",
    "address": "충청북도 청주시 상당구 금천동 47-5",
    "lat": "36.628005984251075",
    "lng": "127.50583121718188",
    "region": "충청북도"
  },
  {
    "name": "각리중학교 운동장",
    "address": "충청북도 청주시 청원구 오창읍 각리 637-4",
    "lat": "36.70875700307633",
    "lng": "127.42189433167272",
    "region": "충청북도"
  },
  {
    "name": "오창초등학교 운동장",
    "address": "충청북도 청주시 청원구 오창읍 장대리 238",
    "lat": "36.74029905707404",
    "lng": "127.45782100263102",
    "region": "충청북도"
  },
  {
    "name": "동산초등학교",
    "address": "대구광역시 수성구 범어동 678-3",
    "lat": "35.84904588759649",
    "lng": "128.62767487764387",
    "region": "대구광역시"
  },
  {
    "name": "대구여자고등학교",
    "address": "대구광역시 수성구 범어동 238-41",
    "lat": "35.8571",
    "lng": "128.6304",
    "region": "대구광역시"
  },
  {
    "name": "동도중학교",
    "address": "대구광역시 수성구 범어동 336",
    "lat": "35.848956749494555",
    "lng": "128.63964557647733",
    "region": "대구광역시"
  },
  {
    "name": "정화중.여자고등학교",
    "address": "대구광역시 수성구 범어동 산105-1",
    "lat": "35.8494",
    "lng": "128.6411",
    "region": "대구광역시"
  },
  {
    "name": "광주학강초등학교 운동장",
    "address": "광주광역시 남구 양림동 10",
    "lat": "35.138067754261506",
    "lng": "126.91902458667757",
    "region": "광주광역시"
  },
  {
    "name": "동문초등학교",
    "address": "대구광역시 수성구 만촌동 262",
    "lat": "35.87455628167323",
    "lng": "128.65191042434193",
    "region": "대구광역시"
  },
  {
    "name": "방림초등학교 운동장",
    "address": "광주광역시 남구 방림동 66-10",
    "lat": "35.13334737035304",
    "lng": "126.92114353179932",
    "region": "광주광역시"
  },
  {
    "name": "무거고등학교운동장",
    "address": "울산광역시 남구 무거동 1000",
    "lat": "35.536657112231936",
    "lng": "129.25116002353727",
    "region": "울산광역시"
  },
  {
    "name": "매포초등학교 운동장",
    "address": "충청북도 단양군 매포읍 평동리 271",
    "lat": "37.03385486790337",
    "lng": "128.30176998097164",
    "region": "충청북도"
  },
  {
    "name": "동부중학교",
    "address": "대구광역시 수성구 만촌동 645-1",
    "lat": "35.872093057524566",
    "lng": "128.64440739165764",
    "region": "대구광역시"
  },
  {
    "name": "덕포초등학교 운동장",
    "address": "부산광역시 사상구 덕포동 406-1",
    "lat": "35.17412841652299",
    "lng": "128.98526966571922",
    "region": "부산광역시"
  },
  {
    "name": "삼신초등학교운동장",
    "address": "울산광역시 남구 삼산동 1510-1",
    "lat": "35.54565606613196",
    "lng": "129.33083935151924",
    "region": "울산광역시"
  },
  {
    "name": "대신초등학교 운동장",
    "address": "부산광역시 서구 서대신동3가 195",
    "lat": "35.115540152063495",
    "lng": "129.01202621072068",
    "region": "부산광역시"
  },
  {
    "name": "수암초등학교운동장",
    "address": "울산광역시 남구 신정동 951-1",
    "lat": "35.525684768940685",
    "lng": "129.31611712499804",
    "region": "울산광역시"
  },
  {
    "name": "경남고등학교 운동장",
    "address": "부산광역시 서구 동대신동3가 1-28",
    "lat": "35.12088010577361",
    "lng": "129.02017081068976",
    "region": "부산광역시"
  },
  {
    "name": "월계초등학교운동장",
    "address": "울산광역시 남구 무거동 488-11",
    "lat": "35.53810802018413",
    "lng": "129.25835999185568",
    "region": "울산광역시"
  },
  {
    "name": "중앙초등학교운동장",
    "address": "경상남도 창원시 진해구 태백동 5",
    "lat": "35.1544021899048",
    "lng": "128.67536398114868",
    "region": "경상남도"
  },
  {
    "name": "장천초��학교운동장",
    "address": "경상남도 창원시 진해구 장천동 119-35",
    "lat": "35.12590266538112",
    "lng": "128.7070795459245",
    "region": "경상남도"
  },
  {
    "name": "광남중학교 운동장",
    "address": "경기도 광명시 광명동 384-6",
    "lat": "37.470599191445125",
    "lng": "126.84774287619798",
    "region": "경기도"
  },
  {
    "name": "철산어린이공원",
    "address": "경기도 광명시 철산동 629-1",
    "lat": "37.48871665528242",
    "lng": "126.86452193805746",
    "region": "경기도"
  },
  {
    "name": "광명중학교 운동장",
    "address": "경기도 광명시 철산동 234-3",
    "lat": "37.47838026986839",
    "lng": "126.86712898246284",
    "region": "경기도"
  },
  {
    "name": "하안북중학교 운동장",
    "address": "경기도 광명시 하안동 684",
    "lat": "37.46455368346312",
    "lng": "126.86818027433131",
    "region": "경기도"
  },
  {
    "name": "하일초등학교 운동장",
    "address": "경기도 광명시 하안동 23",
    "lat": "37.46881697622943",
    "lng": "126.87668388886222",
    "region": "경기도"
  },
  {
    "name": "중앙중학교운동장",
    "address": "울산광역시 남구 신정동 859-3",
    "lat": "35.526448898639366",
    "lng": "129.31639410228382",
    "region": "울산광역시"
  },
  {
    "name": "문수초등학교 운동장",
    "address": "경상북도 영주시 문수면 적동리 319",
    "lat": "36.7739472077477",
    "lng": "128.6337686800964",
    "region": "경상북도"
  },
  {
    "name": "장정리 마을 분교",
    "address": "충청북도 단양군 대강면 장정리 30",
    "lat": "36.846484313029215",
    "lng": "128.3955786242499",
    "region": "충청북도"
  },
  {
    "name": "상2리 마을회관",
    "address": "충청북도 단양군 영춘면 상리 66-3",
    "lat": "37.08653215233561",
    "lng": "128.49381758256106",
    "region": "충청북도"
  },
  {
    "name": "사이곡리 마을경로당 앞",
    "address": "충청북도 단양군 영춘면 사이곡리 104-1",
    "lat": "37.11579056241257",
    "lng": "128.40269516930812",
    "region": "충청북도"
  },
  {
    "name": "과천초등학교",
    "address": "경기도 과천시 중앙동 75",
    "lat": "37.436674824393656",
    "lng": "126.99411419826522",
    "region": "경기도"
  },
  {
    "name": "미탄초등학교 운동장",
    "address": "강원특별자치도 평창군 미탄면 창리 776-1",
    "lat": "37.341880153614646",
    "lng": "128.50032718759667",
    "region": "강원특별자치도"
  },
  {
    "name": "경기창조고등학교운동장",
    "address": "경기도 안성시 공도읍 만정리 789",
    "lat": "37.001897206487506",
    "lng": "127.17186033725737",
    "region": "경기도"
  },
  {
    "name": "덕산초등학교 운동장 ",
    "address": "경상북도 청도군 각북면 덕촌리 553-1",
    "lat": "35.70544086185321",
    "lng": "128.58341306448008",
    "region": "경상북도"
  },
  {
    "name": "이서초등학교 운동장 ",
    "address": "경상북도 청도군 이서면 학산리 170",
    "lat": "35.66381603874519",
    "lng": "128.66907296327904",
    "region": "경상북도"
  },
  {
    "name": "분원초등학교 운동장",
    "address": "경기도 광주시 남종면 분원리 116",
    "lat": "37.496141611115746",
    "lng": "127.30218887329103",
    "region": "경기도"
  },
  {
    "name": "화정공원",
    "address": "경상남도 김해시 삼계동 1437",
    "lat": "35.26141057177936",
    "lng": "128.86603249665882",
    "region": "경상남도"
  },
  {
    "name": "온정초등학교 운동장",
    "address": "경상북도 울진군 온정면 소태리 804",
    "lat": "36.72508561938853",
    "lng": "129.34645861387617",
    "region": "경상북도"
  },
  {
    "name": "구남초등학교운동장",
    "address": "부산광역시 북구 구포동 1076-1",
    "lat": "35.200001534282535",
    "lng": "128.9935872772595",
    "region": "부산광역시"
  },
  {
    "name": "덕천초등학교운동장",
    "address": "부산광역시 북구 구포동 127-1",
    "lat": "35.208271584953856",
    "lng": "129.00656880316308",
    "region": "부산광역시"
  },
  {
    "name": "용수중학교운동장",
    "address": "부산광역시 북구 화명동 2302",
    "lat": "35.23002597812025",
    "lng": "129.0080534749284",
    "region": "부산광역시"
  },
  {
    "name": "기찰어린이공원",
    "address": "부산광역시 금정구 부곡동 26-11",
    "lat": "35.241698213687506",
    "lng": "129.09434479900858",
    "region": "부산광역시"
  },
  {
    "name": "포천초등학교운동장",
    "address": "부산광역시 북구 구포동 1231",
    "lat": "35.19654578570148",
    "lng": "129.00877098911695",
    "region": "부산광역시"
  },
  {
    "name": "학사초등학교운동장",
    "address": "부산광역시 북구 화명동 2296",
    "lat": "35.23119361179976",
    "lng": "129.00806754518877",
    "region": "부산광역시"
  },
  {
    "name": "농소중학교 운동장",
    "address": "울산광역시 북구 호계동 726",
    "lat": "35.625292714528335",
    "lng": "129.355427920821",
    "region": "울산광역시"
  },
  {
    "name": "대사초등학교 운동장",
    "address": "부산광역시 강서구 강동동 101-64",
    "lat": "35.219980516321506",
    "lng": "128.93847902011973",
    "region": "부산광역시"
  },
  {
    "name": "호계초등학교 운동장",
    "address": "울산광역시 북구 호계동 266",
    "lat": "35.62982743670385",
    "lng": "129.35715526342713",
    "region": "울산광역시"
  },
  {
    "name": "대상초등학교 운동장",
    "address": "부산광역시 강서구 대저1동 2355-1",
    "lat": "35.21468028579355",
    "lng": "128.97968408619013",
    "region": "부산광역시"
  },
  {
    "name": "이화초등학교 운동장",
    "address": "울산광역시 북구 중산동 710",
    "lat": "35.66097042341861",
    "lng": "129.34377517946908",
    "region": "울산광역시"
  },
  {
    "name": "달천운동장",
    "address": "울산광역시 북구 달천동 75-1",
    "lat": "35.62914530060972",
    "lng": "129.32227127100293",
    "region": "울산광역시"
  },
  {
    "name": "성북초등학교 운동장",
    "address": "강원특별자치도 횡성군 횡성읍 읍상리 82",
    "lat": "37.48985597660489",
    "lng": "127.99229381675968",
    "region": "강원특별자치도"
  },
  {
    "name": "창림초등학교 운동장",
    "address": "강원특별자치도 횡성군 횡성읍 추동리 3-4",
    "lat": "37.49525825774522",
    "lng": "128.03639846295914",
    "region": "강원특별자치도"
  },
  {
    "name": "동천초등학교 운동장",
    "address": "울산광역시 북구 천곡동 1056-27",
    "lat": "35.6311446338436",
    "lng": "129.3416160012454",
    "region": "울산광역시"
  },
  {
    "name": "횡성고등학교 운동장",
    "address": "강원특별자치도 횡성군 횡성읍 읍하리 200",
    "lat": "37.48488052233127",
    "lng": "127.97906383919876",
    "region": "강원특별자치도"
  },
  {
    "name": "횡성여자고등학교 운동장",
    "address": "강원특별자치도 횡성군 횡성읍 입석리 194-2",
    "lat": "37.475536392252216",
    "lng": "127.981547266731",
    "region": "강원특별자치도"
  },
  {
    "name": "우천초등학교 운동장",
    "address": "강원특별자치도 횡성군 우천면 우항리 628",
    "lat": "37.4610710208556",
    "lng": "128.06242977843948",
    "region": "강원특별자치도"
  },
  {
    "name": "이백초등학교운동장",
    "address": "전북특별자치도 남원시 이백면 평촌리 109",
    "lat": "35.429398034781784",
    "lng": "127.46062750806989",
    "region": "전북특별자치도"
  },
  {
    "name": "다산초등학교 운동장",
    "address": "경상북도 고령군 다산면 상곡리 122",
    "lat": "35.82419856913969",
    "lng": "128.4516710042955",
    "region": "경상북도"
  },
  {
    "name": "완도군체육공원",
    "address": "전라남도 완도군 완도읍 가용리 46",
    "lat": "34.317992900566416",
    "lng": "126.73688680997546",
    "region": "전라남도"
  },
  {
    "name": "천곡중학교 운동장",
    "address": "울산광역시 북구 천곡동 369-2",
    "lat": "35.63249170192304",
    "lng": "129.34140883203233",
    "region": "울산광역시"
  },
  {
    "name": "완도군체육공원",
    "address": "전라남도 완도군 완도읍 가용리 50-21",
    "lat": "34.318856",
    "lng": "126.7356711",
    "region": "전라남도"
  },
  {
    "name": "천곡초등학교 운동장",
    "address": "울산광역시 북구 천곡동 1086-4",
    "lat": "35.63971136753746",
    "lng": "129.3302097916665",
    "region": "울산광역시"
  },
  {
    "name": "강동초등학교 운동장",
    "address": "울산광역시 북구 산하동 1007",
    "lat": "35.6312826",
    "lng": "129.4353064",
    "region": "울산광역시"
  },
  {
    "name": "운수초등학교 운동장",
    "address": "경상북도 고령군 운수면 봉평리 797-1",
    "lat": "35.77004165214467",
    "lng": "128.29023573004542",
    "region": "경상북도"
  },
  {
    "name": "한빛중학교운동장",
    "address": "전북특별자치도 남원시 월락동 428",
    "lat": "35.42315019844577",
    "lng": "127.40225819430063",
    "region": "전북특별자치도"
  },
  {
    "name": "화이트하우스 수련원 운동장",
    "address": "인천광역시 강화군 화도면 문산리 267",
    "lat": "37.6276518068587",
    "lng": "126.43523991107921",
    "region": "인천광역시"
  },
  {
    "name": "화진초등학교 운동장",
    "address": "울산광역시 동구 방어동 79",
    "lat": "35.49092546451525",
    "lng": "129.42532984931046",
    "region": "울산광역시"
  },
  {
    "name": "일산해수욕장 중앙주차장",
    "address": "울산광역시 동구 일산동 963",
    "lat": "35.49411223740726",
    "lng": "129.42872878433698",
    "region": "울산광역시"
  },
  {
    "name": "대송중학교 운동장",
    "address": "울산광역시 동구 화정동 143-1",
    "lat": "35.504348984083556",
    "lng": "129.4202710887421",
    "region": "울산광역시"
  },
  {
    "name": "대송고등학교 운동장",
    "address": "울산광역시 동구 화정동 223",
    "lat": "35.50548127560471",
    "lng": "129.41978893223342",
    "region": "울산광역시"
  },
  {
    "name": "남목중학교 운동장",
    "address": "울산광역시 동구 서부동 568",
    "lat": "35.53890893041814",
    "lng": "129.4222320816285",
    "region": "울산광역시"
  },
  {
    "name": "현대청운중학교 운동장",
    "address": "울산광역시 동구 서부동 290-1",
    "lat": "35.535293426044156",
    "lng": "129.42908387314284",
    "region": "울산광역시"
  },
  {
    "name": "주전초등학교 운동장",
    "address": "울산광역시 동구 주전동 277",
    "lat": "35.55768597832626",
    "lng": "129.4568737774071",
    "region": "울산광역시"
  },
  {
    "name": "한국애니메이션고등학교 운동장",
    "address": "경기도 하남시 창우동 523-4",
    "lat": "37.53453824482591",
    "lng": "127.22724987459846",
    "region": "경기도"
  },
  {
    "name": "월곡쉼터",
    "address": "경상북도 청도군 청도읍 고수리 1035-12",
    "lat": "35.6348538213799",
    "lng": "128.75157495907368",
    "region": "경상북도"
  },
  {
    "name": "(구)방지초등학교 운동장",
    "address": "경상북도 청도군 금천면 방지리 1203",
    "lat": "35.71236653061897",
    "lng": "128.90868478076914",
    "region": "경상북도"
  },
  {
    "name": "도평초등학교 운동장",
    "address": "경기도 광주시 초월읍 도평리 219-10",
    "lat": "37.39603826453392",
    "lng": "127.2890512608229",
    "region": "경기도"
  },
  {
    "name": "초월초등학교 운동장",
    "address": "경기도 광주시 초월읍 신월리 452-1",
    "lat": "37.40757509004168",
    "lng": "127.30759702018511",
    "region": "경기도"
  },
  {
    "name": "남한산초등학교",
    "address": "경기도 광주시 남한산성면 산성리 373",
    "lat": "37.478666206927755",
    "lng": "127.1855322738772",
    "region": "경기도"
  },
  {
    "name": "탄벌초등학교 운동장",
    "address": "경기도 광주시 탄벌동 27-44",
    "lat": "37.41989620329673",
    "lng": "127.24875316171828",
    "region": "경기도"
  },
  {
    "name": "정선공설운동장",
    "address": "강원특별자치도 정선군 정선읍 봉양리 115-1",
    "lat": "37.377604744576466",
    "lng": "128.66552352905305",
    "region": "강원특별자치도"
  },
  {
    "name": "진례초등학교 운동장",
    "address": "경상남도 김해시 진례면 초전리 530-2",
    "lat": "35.24735169600877",
    "lng": "128.75565926682023",
    "region": "경상남도"
  },
  {
    "name": "삼산초등학교 운동장",
    "address": "인천광역시 강화군 삼산면 석모리 231",
    "lat": "37.70355447229735",
    "lng": "126.3216698169705",
    "region": "인천광역시"
  },
  {
    "name": "매곡초등학교 운동장",
    "address": "경기도 광주시 양벌동 557-1",
    "lat": "37.372020209300445",
    "lng": "127.24856078624724",
    "region": "경기도"
  },
  {
    "name": "(구)대산초등학교",
    "address": "경상북도 청도군 각남면 옥산리 15",
    "lat": "35.61804505676118",
    "lng": "128.63651093509412",
    "region": "경상북도"
  },
  {
    "name": "(구)관하초등학교 운동장 ",
    "address": "경상북도 청도군 매전면 관하리 1226-1",
    "lat": "35.70405484412621",
    "lng": "128.81153710712428",
    "region": "경상북도"
  },
  {
    "name": "청도군농촌체험관광센터 운동장",
    "address": "경상북도 청도군 매전면 지전리 101-2",
    "lat": "35.61196393896991",
    "lng": "128.82186681032246",
    "region": "경상북도"
  },
  {
    "name": "선동초등학교 운동장",
    "address": "경기도 광주시 초월읍 선동리 274-9",
    "lat": "37.37806785189926",
    "lng": "127.31766905696291",
    "region": "경기도"
  },
  {
    "name": "도수초등학교 운동장",
    "address": "경기도 광주시 퇴촌면 도수리 605-1",
    "lat": "37.472039618331365",
    "lng": "127.31762160380798",
    "region": "경기도"
  },
  {
    "name": "기성초��학교사동분교 운동장",
    "address": "경상북도 울진군 기성면 사동리 455",
    "lat": "36.82960862873572",
    "lng": "129.43782249511395",
    "region": "경상북도"
  },
  {
    "name": "죽변초등학교 운동장",
    "address": "경상북도 울진군 죽변면 죽변리 324-2",
    "lat": "37.06249893906506",
    "lng": "129.42128812140766",
    "region": "경상북도"
  },
  {
    "name": "대천리중학교운동장",
    "address": "부산광역시 북구 화명동 509",
    "lat": "35.242138450439896",
    "lng": "129.02169753672425",
    "region": "부산광역시"
  },
  {
    "name": "백양초등학교운동장",
    "address": "부산광역시 북구 만덕동 838-1",
    "lat": "35.20715480161832",
    "lng": "129.0349796925755",
    "region": "부산광역시"
  },
  {
    "name": "배영초등학교",
    "address": "경기도 의정부시 의정부동 229-2",
    "lat": "37.74765912214399",
    "lng": "127.04674006584122",
    "region": "경기도"
  },
  {
    "name": "영양공설운동장",
    "address": "경상북도 영양군 영양읍 서부리 22-1",
    "lat": "36.657563865019036",
    "lng": "129.11943203698465",
    "region": "경상북도"
  },
  {
    "name": "한세대학교 운동장",
    "address": "경기도 군포시 당정동 964-1",
    "lat": "37.346885198458054",
    "lng": "126.95246156759447",
    "region": "경기도"
  },
  {
    "name": "영양초등학교 운동장",
    "address": "경상북도 영양군 영양읍 서부리 381",
    "lat": "36.666126741661685",
    "lng": "129.11130241235338",
    "region": "경상북도"
  },
  {
    "name": "솔뫼초등학교",
    "address": "경기도 의정부시 용현동 211-4",
    "lat": "37.73142633705793",
    "lng": "127.08128457672024",
    "region": "경기도"
  },
  {
    "name": "고산초등학교",
    "address": "경기도 의정부시 산곡동 722",
    "lat": "37.72619408870558",
    "lng": "127.1072030067444",
    "region": "경기도"
  },
  {
    "name": "봉래초등학교 운동장",
    "address": "부산광역시 중구 영주동 582-2",
    "lat": "35.11149529838566",
    "lng": "129.03603104537387",
    "region": "부산광역시"
  },
  {
    "name": "입암초등학교 운동장",
    "address": "경상북도 영양군 입암면 신구리 272",
    "lat": "36.59929768871484",
    "lng": "129.08734116266248",
    "region": "경상북도"
  },
  {
    "name": "성동중학교 운동장",
    "address": "부산광역시 남구 문현동 791",
    "lat": "35.14100065419393",
    "lng": "129.06570397881185",
    "region": "부산광역시"
  },
  {
    "name": "부산디지털고등학교 운동장",
    "address": "부산광역시 중구 영주동 446-2",
    "lat": "35.10893953342659",
    "lng": "129.03210846679102",
    "region": "부산광역시"
  },
  {
    "name": "금오초등학교",
    "address": "경기도 의정부시 금오동 234-47",
    "lat": "37.756088391412455",
    "lng": "127.06603414872755",
    "region": "경기도"
  },
  {
    "name": "공덕초등학교 운동장",
    "address": "부산광역시 금정구 두구동 224-1",
    "lat": "35.296017213502",
    "lng": "129.111098961659",
    "region": "부산광역시"
  },
  {
    "name": "용두산공원 공터",
    "address": "부산광역시 중구 광복동2가 1-2",
    "lat": "35.100899",
    "lng": "129.032655",
    "region": "부산광역시"
  },
  {
    "name": "다온중학교",
    "address": "경기도 의정부시 가능동 833",
    "lat": "37.740912865847015",
    "lng": "127.03727304211966",
    "region": "경기도"
  },
  {
    "name": "가능초등학교",
    "address": "경기도 의정부시 가능동 724-3",
    "lat": "37.746027166740824",
    "lng": "127.03561349213963",
    "region": "경기도"
  },
  {
    "name": "쌍림초등학교 운동장",
    "address": "경상북도 고령군 쌍림면 귀원리 134-1",
    "lat": "35.68182442617077",
    "lng": "128.24240520227988",
    "region": "경상북도"
  },
  {
    "name": "버들개초등학교",
    "address": "경기도 의정부시 녹양동 190-51",
    "lat": "37.76179100276195",
    "lng": "127.029428779257",
    "region": "경기도"
  },
  {
    "name": "녹양초등학교",
    "address": "경기도 의정부시 녹양동 398",
    "lat": "37.76317477319147",
    "lng": "127.03666343145115",
    "region": "경기도"
  },
  {
    "name": "화명고등학교운동장",
    "address": "부산광역시 북구 화명동 2259",
    "lat": "35.23941464457137",
    "lng": "129.01080344126066",
    "region": "부산광역시"
  },
  {
    "name": "녹양중학교",
    "address": "경기도 의정부시 녹양동 191-5",
    "lat": "37.7617433321878",
    "lng": "127.02784328341717",
    "region": "경기도"
  },
  {
    "name": "문현고등학교 운동장",
    "address": "울산광역시 동구 방어동 1008",
    "lat": "35.48218572864623",
    "lng": "129.40953629192262",
    "region": "울산광역시"
  },
  {
    "name": "일산초등학교 운동장",
    "address": "울산광역시 동구 일산동 452",
    "lat": "35.50496184737239",
    "lng": "129.42581615305588",
    "region": "울산광역시"
  },
  {
    "name": "양지초등학교 운동장",
    "address": "울산광역시 동구 화정동 853",
    "lat": "35.496885886115194",
    "lng": "129.42120688169697",
    "region": "울산광역시"
  },
  {
    "name": "울산과학대 동부캠퍼스 운동장",
    "address": "울산광역시 동구 화정동 산160-1",
    "lat": "35.49597854735587",
    "lng": "129.4150936605773",
    "region": "울산광역시"
  },
  {
    "name": "화진중학교 운동장",
    "address": "울산광역시 동구 화정동 828",
    "lat": "35.49673896939273",
    "lng": "129.42245824672352",
    "region": "울산광역시"
  },
  {
    "name": "동구청 광장",
    "address": "울산광역시 동구 화정동 222",
    "lat": "35.50551252865379",
    "lng": "129.41744328597457",
    "region": "울산광역시"
  },
  {
    "name": "서부초등학교 운동장",
    "address": "울산광역시 동구 서부동 238-13",
    "lat": "35.5260616843639",
    "lng": "129.4232969756943",
    "region": "울산광역시"
  },
  {
    "name": "현대중학교 운동장",
    "address": "울산광역시 동구 서부동 238-21",
    "lat": "35.52458904653914",
    "lng": "129.4234585670914",
    "region": "울산광역시"
  },
  {
    "name": "현대고등학교 운동장",
    "address": "울산광역시 동구 서부동 238-17",
    "lat": "35.524618507593765",
    "lng": "129.42187866855969",
    "region": "울산광역시"
  },
  {
    "name": "현대공업고등학교 운동장",
    "address": "울산광역시 동구 동부동 166-4",
    "lat": "35.53764788017491",
    "lng": "129.43185823201443",
    "region": "울산광역시"
  },
  {
    "name": "봉평고등학교 운동장",
    "address": "강원특별자치도 평창군 봉평면 창동리 332",
    "lat": "37.61751727110286",
    "lng": "128.38114876272365",
    "region": "강원특별자치도"
  },
  {
    "name": "덕천중학교운동장",
    "address": "부산광역시 북구 덕천동 320-1",
    "lat": "35.21394234726209",
    "lng": "129.0119147300733",
    "region": "부산광역시"
  },
  {
    "name": "신천초등학교운동장",
    "address": "부산광역시 북구 구포동 801",
    "lat": "35.20037721084352",
    "lng": "129.00834247676977",
    "region": "부산광역시"
  },
  {
    "name": "부곡여자중학교 운동장",
    "address": "부산광역시 금정구 부곡동 717-1",
    "lat": "35.22305984246197",
    "lng": "129.09511513228082",
    "region": "부산광역시"
  },
  {
    "name": "의정부중앙초등학교",
    "address": "경기도 의정부시 의정부동 224",
    "lat": "37.74445873866402",
    "lng": "127.04688375508434",
    "region": "경기도"
  },
  {
    "name": "상우고등학교",
    "address": "경기도 의정부시 의정부동 611",
    "lat": "37.731473420638345",
    "lng": "127.03739206471312",
    "region": "경기도"
  },
  {
    "name": "의정부호원초등학교",
    "address": "경기도 의정부시 호원동 292-1",
    "lat": "37.72185457407333",
    "lng": "127.04105998292933",
    "region": "경기도"
  },
  {
    "name": "반남도란공원",
    "address": "부산광역시 금정구 남산동 975-4",
    "lat": "35.26944468160968",
    "lng": "129.0878310919145",
    "region": "부산광역시"
  },
  {
    "name": "부곡초등학교 운동장",
    "address": "부산광역시 금정구 부곡동 354",
    "lat": "35.23313215923711",
    "lng": "129.0935772657411",
    "region": "부산광역시"
  },
  {
    "name": "입암중학교 운동장",
    "address": "경상북도 영양군 입암면 산해리 48",
    "lat": "36.59071816247484",
    "lng": "129.08671525382528",
    "region": "경상북도"
  },
  {
    "name": "동현초등학교 운동장",
    "address": "부산광역시 금정구 부곡동 337-1",
    "lat": "35.2224896191743",
    "lng": "129.09236714995149",
    "region": "부산광역시"
  },
  {
    "name": "초지1리 마을회관 공터",
    "address": "인천광역시 강화군 길상면 초지리 372",
    "lat": "37.63320451010771",
    "lng": "126.51634722948062",
    "region": "인천광역시"
  },
  {
    "name": "옥동4공원",
    "address": "경상북도 안동시 옥동 768-2",
    "lat": "36.56160800982842",
    "lng": "128.69927459569703",
    "region": "경상북도"
  },
  {
    "name": "옥동9공원",
    "address": "경상북도 안동시 옥동 920-5",
    "lat": "36.561833827511215",
    "lng": "128.69485053467562",
    "region": "경상북도"
  },
  {
    "name": "강남3공원",
    "address": "경상북도 안동시 정하동 320-1",
    "lat": "36.54815727457417",
    "lng": "128.73633837852537",
    "region": "경상북도"
  },
  {
    "name": "문화공원",
    "address": "경상북도 안동시 동부동 447-8",
    "lat": "36.56601122668387",
    "lng": "128.73419599770955",
    "region": "경상북도"
  },
  {
    "name": "탈춤공원",
    "address": "경상북도 안동시 운흥동 300-1",
    "lat": "36.5597949997282",
    "lng": "128.72922599315686",
    "region": "경상북도"
  },
  {
    "name": "가산초등학교 운동장",
    "address": "경상남도 합천군 가야면 사촌리 166",
    "lat": "35.7497680082687",
    "lng": "128.12771132249375",
    "region": "경상남도"
  },
  {
    "name": "용암중학교 운동장",
    "address": "경상북도 성주군 용암면 본리리 724",
    "lat": "35.84089976060051",
    "lng": "128.3146697096496",
    "region": "경상북도"
  },
  {
    "name": "적중초등학교 운동장",
    "address": "경상남도 합천군 적중면 상부리 142-1",
    "lat": "35.545900556702065",
    "lng": "128.2812283596858",
    "region": "경상남도"
  },
  {
    "name": "모동초등학교 운동장",
    "address": "경상북도 상주시 모동면 금천리 6",
    "lat": "36.31670716558442",
    "lng": "127.95922815799713",
    "region": "경상북도"
  },
  {
    "name": "입면초등학교 운동장",
    "address": "전라남도 곡성군 입면 송전리 573",
    "lat": "35.307266375491515",
    "lng": "127.18525982133268",
    "region": "전라남도"
  },
  {
    "name": "호계초등학교 운동장",
    "address": "경상북도 문경시 호계면 막곡리 248",
    "lat": "36.63450984474179",
    "lng": "128.205847119544",
    "region": "경상북도"
  },
  {
    "name": "점촌초등학교 운동장",
    "address": "경상북도 문경시 모전동 7",
    "lat": "36.5921861326069",
    "lng": "128.1940380606885",
    "region": "경상북도"
  },
  {
    "name": "문경초등학교 운동장",
    "address": "경상북도 문경시 문경읍 상리 468",
    "lat": "36.73675952140293",
    "lng": "128.10388219248762",
    "region": "경상북도"
  },
  {
    "name": "목포대학교 운동장",
    "address": "전라남도 무안군 청계면 도림리 61",
    "lat": "34.90851168986356",
    "lng": "126.43555791536457",
    "region": "전라남도"
  },
  {
    "name": "자은초등학교",
    "address": "전라남도 신안군 자은면 구영리 44",
    "lat": "34.890856633721505",
    "lng": "126.04814660309687",
    "region": "전라남도"
  },
  {
    "name": "명인정보고등학교 운동장",
    "address": "경상북도 성주군 선남면 도성리 1111-1",
    "lat": "35.8856016567566",
    "lng": "128.36346760250223",
    "region": "경상북도"
  },
  {
    "name": "장산중학교",
    "address": "전라남도 신안군 장산면 도창리 778",
    "lat": "34.64273677398454",
    "lng": "126.14133250727266",
    "region": "전라남도"
  },
  {
    "name": "가천초등학교 운동장",
    "address": "경상북도 성주군 가천면 창천리 574",
    "lat": "35.885205471452025",
    "lng": "128.16778207187483",
    "region": "경상북도"
  },
  {
    "name": "공원(복지회관옆) 공터",
    "address": "경상북도 성주군 대가면 옥성리 753-1",
    "lat": "35.90962508261868",
    "lng": "128.22989685848182",
    "region": "경상북도"
  },
  {
    "name": "월항주차공원 공터",
    "address": "경상북도 성주군 월항면 안포리 166-2",
    "lat": "35.94382881758996",
    "lng": "128.3135865754697",
    "region": "경상북도"
  },
  {
    "name": "춘양초등학교 운동장",
    "address": "전라남도 화순군 춘양면 석정리 239",
    "lat": "34.94956153046268",
    "lng": "126.95968838860783",
    "region": "전라남도"
  },
  {
    "name": "동복초등학교 운동장",
    "address": "전라남도 화순군 동복면 칠정리 702",
    "lat": "35.07203005415924",
    "lng": "127.1282478497352",
    "region": "전라남도"
  },
  {
    "name": "서곶근린공원 주차장 ",
    "address": "인천광역시 서구 연희동 산50",
    "lat": "37.546889785010194",
    "lng": "126.68114974533756",
    "region": "인천광역시"
  },
  {
    "name": "계명공원",
    "address": "인천광역시 서구 연희동 735-2",
    "lat": "37.54982908469711",
    "lng": "126.67209978724262",
    "region": "인천광역시"
  },
  {
    "name": "낭주중학교 운동장",
    "address": "전라남도 영암군 학산면 독천리 151",
    "lat": "34.72720646264594",
    "lng": "126.56730125183093",
    "region": "전라남도"
  },
  {
    "name": "순심중고등학교 운동장",
    "address": "경상북도 칠곡군 왜관읍 왜관리 340",
    "lat": "35.98699919420412",
    "lng": "128.40315699613453",
    "region": "경상북도"
  },
  {
    "name": "칠곡종합운동장 주차장",
    "address": "경상북도 칠곡군 왜관읍 석전리 10-7",
    "lat": "36.001772832631524",
    "lng": "128.4226991646329",
    "region": "경상북도"
  },
  {
    "name": "겸백초등학교 운동장",
    "address": "전라남도 보성군 겸백면 석호리 559",
    "lat": "34.83127924504998",
    "lng": "127.15059329978598",
    "region": "전라남도"
  },
  {
    "name": "약동초등학교 운동장",
    "address": "경상북도 칠곡군 기산면 죽전리 269-1",
    "lat": "35.98494357343047",
    "lng": "128.38172587639696",
    "region": "경상북도"
  },
  {
    "name": "죽전체육시설 공터",
    "address": "경상북도 칠곡군 기산면 죽전리 621-1",
    "lat": "35.987848933786935",
    "lng": "128.39009010208147",
    "region": "경상북도"
  },
  {
    "name": "청송중학교부동분교 운동장",
    "address": "경상북도 청송군 주왕산면 주산지리 916",
    "lat": "36.35803573121263",
    "lng": "129.1573199629829",
    "region": "경상북도"
  },
  {
    "name": "봉곡중학교 운동장",
    "address": "경상북도 구미시 봉곡동 51",
    "lat": "36.158705177561565",
    "lng": "128.30465983398437",
    "region": "경상북도"
  },
  {
    "name": "구미여자중학교 운동장",
    "address": "경상북도 구미시 원평동 404",
    "lat": "36.12484097924249",
    "lng": "128.32712221063235",
    "region": "경상북도"
  },
  {
    "name": "선산초등학교 운동장",
    "address": "경상북도 구미시 선산읍 동부리 545-1",
    "lat": "36.243519520674504",
    "lng": "128.30113354909753",
    "region": "경상북도"
  },
  {
    "name": "구미사곡초등학교 운동장",
    "address": "경상북도 구미시 사곡동 667",
    "lat": "36.099472437919374",
    "lng": "128.36057782173165",
    "region": "경상북도"
  },
  {
    "name": "용성초등학교",
    "address": "경상북도 경산시 용성면 당리리 161",
    "lat": "35.79367533283568",
    "lng": "128.87393791883653",
    "region": "경상북도"
  },
  {
    "name": "경주가축시장 주차장",
    "address": "경상북도 경주시 시동 211-3",
    "lat": "35.76431373729366",
    "lng": "129.28258100825906",
    "region": "경상북도"
  },
  {
    "name": "경산초등학교",
    "address": "경상북도 경산시 삼남동 21",
    "lat": "35.81520099502301",
    "lng": "128.7396249175076",
    "region": "경상북도"
  },
  {
    "name": "김제죽산초등학교",
    "address": "전북특별자치도 김제시 죽산면 죽산리 498-1",
    "lat": "35.7730281373036",
    "lng": "126.81591108240926",
    "region": "전북특별자치도"
  },
  {
    "name": "김제동초등학교",
    "address": "전북특별자치도 김제시 신풍동 48-3",
    "lat": "35.79533589217375",
    "lng": "126.90135199106696",
    "region": "전북특별자치도"
  },
  {
    "name": "임동중학교(폐교) 운동장",
    "address": "경상북도 안동시 임동면 중평리 948",
    "lat": "36.57025259926591",
    "lng": "128.91942538267134",
    "region": "경상북도"
  },
  {
    "name": "경주 태종무열왕릉 주차장",
    "address": "경상북도 경주시 서악동 1006-1",
    "lat": "35.82498583553733",
    "lng": "129.18936297297705",
    "region": "경상북도"
  },
  {
    "name": "미력초등학교 운동장",
    "address": "전라남도 보성군 미력면 도개리 731",
    "lat": "34.79957798005636",
    "lng": "127.08617032579753",
    "region": "전라남도"
  },
  {
    "name": "심청체육공원",
    "address": "전라남도 곡성군 오산면 연화리 1080",
    "lat": "35.265094199717765",
    "lng": "127.12305134516454",
    "region": "전라남도"
  },
  {
    "name": "곡성고등학교 운동장",
    "address": "전라남도 곡성군 곡성읍 읍내리 446-1",
    "lat": "35.284585615544394",
    "lng": "127.29310770461336",
    "region": "전라남도"
  },
  {
    "name": "문경새재도립공원 주차장",
    "address": "경상북도 문경시 문경읍 상초리 288-1",
    "lat": "36.76162614422947",
    "lng": "128.0769945681095",
    "region": "경상북도"
  },
  {
    "name": "동로초등학교 운동장",
    "address": "경상북도 문경시 동로면 노은리 155-2",
    "lat": "36.77133071971091",
    "lng": "128.3146265779993",
    "region": "경상북도"
  },
  {
    "name": "공원(금봉리숲) 공터",
    "address": "경상북도 성주군 가천면 금봉리 812-11",
    "lat": "35.884549748933786",
    "lng": "128.15117650849209",
    "region": "경상북도"
  },
  {
    "name": "매산공원",
    "address": "전라남도 순천시 금곡동 315",
    "lat": "34.95639622775915",
    "lng": "127.4767750978499",
    "region": "전라남도"
  },
  {
    "name": "용문초등학교운동장",
    "address": "경상북도 예천군 용문면 상금곡리 543-1",
    "lat": "36.689694627358136",
    "lng": "128.40880800687765",
    "region": "경상북도"
  },
  {
    "name": "청통복지타운 주차장",
    "address": "경상북도 영천시 청통면 치일리 13",
    "lat": "35.991664150631166",
    "lng": "128.8235464754988",
    "region": "경상북도"
  },
  {
    "name": "화산초등학교 운동장",
    "address": "경상북도 영천시 화산면 유성리 607-1",
    "lat": "36.02004279918963",
    "lng": "128.8547451292806",
    "region": "경상북도"
  },
  {
    "name": "영화등학교 화덕분교장(폐교)",
    "address": "경상북도 영천시 화산면 덕암리 548-3",
    "lat": "36.032528538976116",
    "lng": "128.8328675881962",
    "region": "경상북도"
  },
  {
    "name": "왜관중앙초등학교 운동장",
    "address": "경상북도 칠곡군 왜관읍 석전리 590-3",
    "lat": "35.999215163422186",
    "lng": "128.4063843770918",
    "region": "경상북도"
  },
  {
    "name": "매원초등학교 운동장",
    "address": "경상북도 칠곡군 왜관읍 매원리 496-1",
    "lat": "35.994657165121005",
    "lng": "128.42954952473198",
    "region": "경상북도"
  },
  {
    "name": "대교초등학교 운동장",
    "address": "경상북도 칠곡군 석적읍 남율리 880",
    "lat": "36.075478432070824",
    "lng": "128.39874180265033",
    "region": "경상북도"
  },
  {
    "name": "황상초등학교 운동장",
    "address": "경상북도 구미시 황상동 176",
    "lat": "36.118713666841984",
    "lng": "128.4274181684103",
    "region": "경상북도"
  },
  {
    "name": "구미제일고등학교 운동장",
    "address": "경상북도 구미시 지산동 산15-1",
    "lat": "36.142596788986076",
    "lng": "128.34601879119882",
    "region": "경상북도"
  },
  {
    "name": "약수초등학교",
    "address": "전라남도 장성군 북하면 약수리 406",
    "lat": "35.408003849198074",
    "lng": "126.88055628823953",
    "region": "전라남도"
  },
  {
    "name": "삼서중학교",
    "address": "전라남도 장성군 삼서면 대곡리 297-1",
    "lat": "35.228797917251164",
    "lng": "126.6516386835147",
    "region": "전라남도"
  },
  {
    "name": "하주초등학교",
    "address": "경상북도 경산시 하양읍 양지리 107-2",
    "lat": "35.91986497008417",
    "lng": "128.81239432779503",
    "region": "경상북도"
  },
  {
    "name": "성암초등학교",
    "address": "경상북도 경산시 중산동 660",
    "lat": "35.82612010280541",
    "lng": "128.7195825942171",
    "region": "경상북도"
  },
  {
    "name": "온혜초등학교 운동장",
    "address": "경상북도 안동시 도산면 온혜리 572",
    "lat": "36.74980734550684",
    "lng": "128.83145661560067",
    "region": "경상북도"
  },
  {
    "name": "경안공원",
    "address": "경상북도 안동시 태화동 692-33",
    "lat": "36.56989327414894",
    "lng": "128.7068822061155",
    "region": "경상북도"
  },
  {
    "name": "영남초등학교 운동장",
    "address": "경상북도 안동시 안기동 195-10",
    "lat": "36.57308207829445",
    "lng": "128.72083891999586",
    "region": "경상북도"
  },
  {
    "name": "옥동1공원",
    "address": "경상북도 안동시 옥동 638-2",
    "lat": "36.56179216806361",
    "lng": "128.704661519763",
    "region": "경상북도"
  },
  {
    "name": "성창여자고등학교 운동장",
    "address": "경상북도 안동시 안기동 312",
    "lat": "36.5789",
    "lng": "128.7132",
    "region": "경상북도"
  },
  {
    "name": "합천초등학교 운동장",
    "address": "경상남도 합천군 합천읍 합천리 315",
    "lat": "35.56515989226251",
    "lng": "128.16371333207462",
    "region": "경상남도"
  },
  {
    "name": "합천여자중학교 운동장",
    "address": "경상남도 합천군 합천읍 합천리 943-1",
    "lat": "35.562854700766245",
    "lng": "128.1546843008571",
    "region": "경상남도"
  },
  {
    "name": "대안학교 운동장",
    "address": "경상남도 합천군 봉산면 김봉리 351-1",
    "lat": "35.62548834183922",
    "lng": "128.04281459130914",
    "region": "경상남도"
  },
  {
    "name": "청성면사무소",
    "address": "충청북도 옥천군 청성면 산계리 225",
    "lat": "36.32731698598451",
    "lng": "127.75979239437116",
    "region": "충청북도"
  },
  {
    "name": "토용어린이공원",
    "address": "경상북도 경주시 용강동 1318-1",
    "lat": "35.863950748793876",
    "lng": "129.22410428356216",
    "region": "경상북도"
  },
  {
    "name": "해인중학교 운동장",
    "address": "경상남도 합천군 가야면 황산리 180-1",
    "lat": "35.758424248244644",
    "lng": "128.13601797042736",
    "region": "경상남도"
  },
  {
    "name": "영전초등학교 운동장",
    "address": "경상남도 합천군 율곡면 영전리 446",
    "lat": "35.57172628513097",
    "lng": "128.2185392340495",
    "region": "경상남도"
  },
  {
    "name": "대양초등학교 운동장",
    "address": "경상남도 합천군 대양면 덕정리 898-4",
    "lat": "35.517605591510396",
    "lng": "128.17246809742835",
    "region": "경상남도"
  },
  {
    "name": "삼가초등학교 운동장",
    "address": "경상남도 합천군 삼가면 소오리 393-3",
    "lat": "35.411879671490865",
    "lng": "128.11915834165194",
    "region": "경상남도"
  },
  {
    "name": "노동초등학교 운동장",
    "address": "전라남도 보성군 노동면 거석리 522",
    "lat": "34.82379375230484",
    "lng": "127.04894274473192",
    "region": "전라남도"
  },
  {
    "name": "문화운동장",
    "address": "전라남도 곡성군 곡성읍 읍내리 192-12",
    "lat": "35.28112668252935",
    "lng": "127.29741066414203",
    "region": "전라남도"
  },
  {
    "name": "옥과초등학교 운동장",
    "address": "전라남도 곡성군 옥과면 무창리 972",
    "lat": "35.27697223762365",
    "lng": "127.14244686412191",
    "region": "전라남도"
  },
  {
    "name": "산북초등학교 운동장",
    "address": "경상북도 문경시 산북면 대상리 69",
    "lat": "36.655509357941526",
    "lng": "128.257182687521",
    "region": "경상북도"
  },
  {
    "name": "압해초등학교",
    "address": "전라남도 신안군 압해읍 동서리 191",
    "lat": "34.86734681319767",
    "lng": "126.30905998207386",
    "region": "전라남도"
  },
  {
    "name": "안평중앙교회",
    "address": "전라남도 장성군 장성읍 안평리 419-34",
    "lat": "35.34064790990339",
    "lng": "126.77765482684265",
    "region": "전라남도"
  },
  {
    "name": "진원면행정복지센터",
    "address": "전라남도 장성군 진원면 선적리 128",
    "lat": "35.273077624450366",
    "lng": "126.8332331793206",
    "region": "전라남도"
  },
  {
    "name": "영남삼육고등학교",
    "address": "경상북도 경산시 남산면 송내리 70",
    "lat": "35.78831483948195",
    "lng": "128.82976534367194",
    "region": "경상북도"
  },
  {
    "name": "봉황초등학교",
    "address": "경상북도 경산시 진량읍 봉회리 81-14",
    "lat": "35.88333435563041",
    "lng": "128.82362651147525",
    "region": "경상북도"
  },
  {
    "name": "월곡초등학교 운동장",
    "address": "경상북도 안동시 예안면 정산리 624",
    "lat": "36.66145686358223",
    "lng": "128.8879050117538",
    "region": "경상북도"
  },
  {
    "name": "송천초등학교 운동장",
    "address": "경상북도 안동시 송천동 941-1",
    "lat": "36.54598450056083",
    "lng": "128.79228743758793",
    "region": "경상북도"
  },
  {
    "name": "용상1공원",
    "address": "경상북도 안동시 용상동 1612-4",
    "lat": "36.56045369680433",
    "lng": "128.74567996055845",
    "region": "경상북도"
  },
  {
    "name": "경안고등학교 운동장",
    "address": "경상북도 안동시 금곡동 124-17",
    "lat": "36.5692",
    "lng": "128.7204",
    "region": "경상북도"
  },
  {
    "name": "복주여자중학교 운동장",
    "address": "경상북도 안동시 당북동 333-1",
    "lat": "36.562117382911154",
    "lng": "128.71811685179873",
    "region": "경상북도"
  },
  {
    "name": "운안공원",
    "address": "경상북도 안동시 운안동 401-42",
    "lat": "36.56986956295827",
    "lng": "128.71230072254772",
    "region": "경상북도"
  },
  {
    "name": "안기1공원",
    "address": "경상북도 안동시 안기동 232-45",
    "lat": "36.5775952876792",
    "lng": "128.7168316635657",
    "region": "경상북도"
  },
  {
    "name": "옥동3공원",
    "address": "경상북도 안동시 옥동 765-1",
    "lat": "36.564287219383985",
    "lng": "128.70000840661075",
    "region": "경상북도"
  },
  {
    "name": "경안여자고등학교 운동장",
    "address": "경상북도 안동시 송현동 599-1",
    "lat": "36.57612271559684",
    "lng": "128.68325831417513",
    "region": "경상북도"
  },
  {
    "name": "성희여자고등학교 운동장",
    "address": "경상북도 안동시 정하동 325-3",
    "lat": "36.55224908070526",
    "lng": "128.72889830818397",
    "region": "경상북도"
  },
  {
    "name": "야로초등학교 운동장",
    "address": "경상남도 합천군 야로면 하빈리 492",
    "lat": "35.71125602338778",
    "lng": "128.17778074909805",
    "region": "경상남도"
  },
  {
    "name": "쌍백초등학교 운동장",
    "address": "경상남도 합천군 쌍백면 평구리 531-3",
    "lat": "35.439803634505914",
    "lng": "128.14715344303946",
    "region": "경상남도"
  },
  {
    "name": "용주초등학교 운동장",
    "address": "경상남도 합천군 용주면 용지리 274",
    "lat": "35.53975189514128",
    "lng": "128.1140983735753",
    "region": "경상남도"
  },
  {
    "name": "동포초등학교 운동장",
    "address": "경상남도 창녕군 남지읍 남지리 598-2",
    "lat": "35.39057185401132",
    "lng": "128.47904562950148",
    "region": "경상남도"
  },
  {
    "name": "고암초등학교 운동장",
    "address": "경상남도 창녕군 고암면 중대리 284",
    "lat": "35.5768903456135",
    "lng": "128.51123213768022",
    "region": "경상남도"
  },
  {
    "name": "대합초등학교 운동장",
    "address": "경상남도 창녕군 대합면 십이리 456",
    "lat": "35.61450427446391",
    "lng": "128.4692662954332",
    "region": "경상남도"
  },
  {
    "name": "장천초등학교 운동장",
    "address": "경상남도 창녕군 이방면 장천리 436",
    "lat": "35.59957074237469",
    "lng": "128.37543994188317",
    "region": "경상남도"
  },
  {
    "name": "옥야고등학교 운동장",
    "address": "경상남도 창녕군 이방면 장천리 49",
    "lat": "35.59958382788095",
    "lng": "128.38037252426156",
    "region": "경상남도"
  },
  {
    "name": "대지초등학교 운동장",
    "address": "경상남도 창녕군 대지면 석리 277",
    "lat": "35.55648166078981",
    "lng": "128.46366316080108",
    "region": "경상남도"
  },
  {
    "name": "계창초등학교 운동장",
    "address": "경상남도 창녕군 계성면 계��리 194",
    "lat": "35.48460629466595",
    "lng": "128.50862234830873",
    "region": "경상남도"
  },
  {
    "name": "부곡중학교 운동장",
    "address": "경상남도 창녕군 부곡면 부곡리 115",
    "lat": "35.43687071649538",
    "lng": "128.60749930143385",
    "region": "경상남도"
  },
  {
    "name": "만옥정공원",
    "address": "경상남도 창녕군 창녕읍 교상리 28-23",
    "lat": "35.54095468461908",
    "lng": "128.50217330768942",
    "region": "경상남도"
  },
  {
    "name": "창녕문화공원",
    "address": "경상남도 창녕군 창녕읍 교리 381",
    "lat": "35.54650015297257",
    "lng": "128.4956377744676",
    "region": "경상남도"
  },
  {
    "name": "안내초등학교 운동장",
    "address": "충청북도 옥천군 안내면 현리 115-2",
    "lat": "36.39426245644863",
    "lng": "127.66104038007256",
    "region": "충청북도"
  },
  {
    "name": "강화고등학교운동장",
    "address": "인천광역시 강화군 강화읍 국화리 879-6",
    "lat": "37.74708344523347",
    "lng": "126.47398978471736",
    "region": "인천광역시"
  },
  {
    "name": "덕신고등학교운동장",
    "address": "인천광역시 강화군 강화읍 국화리 248-2",
    "lat": "37.744595613186966",
    "lng": "126.47407561540585",
    "region": "인천광역시"
  },
  {
    "name": "상림공원 노외주차장",
    "address": "경상남도 함양군 함양읍 교산리 1076",
    "lat": "35.52383092595283",
    "lng": "127.72130548954013",
    "region": "경상남도"
  },
  {
    "name": "고운광장",
    "address": "경상남도 함양군 함양읍 교산리 1041",
    "lat": "35.524788886259834",
    "lng": "127.72134318299075",
    "region": "경상남도"
  },
  {
    "name": "어린이공원(백연유원지)",
    "address": "경상남도 함양군 함양읍 죽곡리 6",
    "lat": "35.52303424207786",
    "lng": "127.71707830289465",
    "region": "경상남도"
  },
  {
    "name": "용강어린이공원",
    "address": "경상북도 경주시 용강동 1282",
    "lat": "35.880292307220884",
    "lng": "129.23117719976392",
    "region": "경상북도"
  },
  {
    "name": "모서초등학교 운동장",
    "address": "경상북도 상주시 모서면 삼포리 202-1",
    "lat": "36.34235644714118",
    "lng": "127.96119153499605",
    "region": "경상북도"
  },
  {
    "name": "보성초등학교 운동장",
    "address": "전라남도 보성군 보성읍 보성리 806",
    "lat": "34.77118414929983",
    "lng": "127.07860782261095",
    "region": "전라남도"
  },
  {
    "name": "금성중,고등학교운동장",
    "address": "경상북도 의성군 금성면 탑리리 582",
    "lat": "36.25400692981198",
    "lng": "128.68958483588173",
    "region": "경상북도"
  },
  {
    "name": "하멜기념관(외부공원)",
    "address": "전라남도 강진군 병영면 성동리 109",
    "lat": "34.719446429410205",
    "lng": "126.81853975720638",
    "region": "전라남도"
  },
  {
    "name": "압해동초등학교",
    "address": "전라남도 신안군 압해읍 신장리 518-1",
    "lat": "34.8408058",
    "lng": "126.3545597",
    "region": "전라남도"
  },
  {
    "name": "벽진체육공원 공터",
    "address": "경상북도 성주군 벽진면 봉계리 1442-78",
    "lat": "35.94085068748668",
    "lng": "128.22162766812755",
    "region": "경상북도"
  },
  {
    "name": "함평학다리고등학교",
    "address": "전라남도 함평군 함평읍 내교리 518",
    "lat": "35.05955511778061",
    "lng": "126.51554272595466",
    "region": "전라남도"
  },
  {
    "name": "해보초등학교",
    "address": "전라남도 함평군 해보면 금덕리 477",
    "lat": "35.1767071237322",
    "lng": "126.6027190431781",
    "region": "전라남도"
  },
  {
    "name": "부곡근린공원",
    "address": "경상북도 김천시 부곡동 1533-1",
    "lat": "36.1251670383784",
    "lng": "128.09015214443545",
    "region": "경상북도"
  },
  {
    "name": "직지문화공원",
    "address": "경상북도 김천시 대항면 운수리 36-5",
    "lat": "36.11480275588563",
    "lng": "128.01531399665123",
    "region": "경상북도"
  },
  {
    "name": "옥동5공원",
    "address": "경상북도 안동시 옥동 794-1",
    "lat": "36.56041172555671",
    "lng": "128.70033640760911",
    "region": "경상북도"
  },
  {
    "name": "예일메디텍고등학교 운동장",
    "address": "경상북도 안동시 정하동 401",
    "lat": "36.54783891045683",
    "lng": "128.7209616942991",
    "region": "경상북도"
  },
  {
    "name": "벌교상업고등학교 운동장",
    "address": "전라남도 보성군 벌교읍 회정리 527",
    "lat": "34.846179377044855",
    "lng": "127.34949651771991",
    "region": "전라남도"
  },
  {
    "name": "석곡초등학교 운동장",
    "address": "전라남도 곡성군 석곡면 석곡리 8",
    "lat": "35.135041763980766",
    "lng": "127.25359342777134",
    "region": "전라남도"
  },
  {
    "name": "지명고등학교",
    "address": "전라남도 신안군 지도읍 읍내리 404-4",
    "lat": "35.06330508375352",
    "lng": "126.20228344557813",
    "region": "전라남도"
  },
  {
    "name": "증산초등학교",
    "address": "경상북도 김천시 증산면 유성리 276-7",
    "lat": "35.90197272559049",
    "lng": "128.0359960626562",
    "region": "경상북도"
  },
  {
    "name": "월야초등학교",
    "address": "전라남도 함평군 월야면 월야리 1240",
    "lat": "35.17700621026829",
    "lng": "126.63268610611571",
    "region": "전라남도"
  },
  {
    "name": "남산공원",
    "address": "경상북도 김천시 황금동 192-1",
    "lat": "36.11548867126327",
    "lng": "128.12024384736756",
    "region": "경상북도"
  },
  {
    "name": "조례호수공원",
    "address": "전라남도 순천시 조례동 1867",
    "lat": "34.96776004606643",
    "lng": "127.52423199724824",
    "region": "전라남도"
  },
  {
    "name": "장천공원",
    "address": "전라남도 순천시 장천동 81",
    "lat": "34.94881868356119",
    "lng": "127.48705365482765",
    "region": "전라남도"
  },
  {
    "name": "영암초등학교 운동장",
    "address": "전라남도 영암군 영암읍 회문리 186",
    "lat": "34.79660784906088",
    "lng": "126.68750126860364",
    "region": "전라남도"
  },
  {
    "name": "독천초등학교 운동장",
    "address": "전라남도 영암군 학산면 독천리 85",
    "lat": "34.72771360183803",
    "lng": "126.5648969371302",
    "region": "전라남도"
  },
  {
    "name": "서부초등학교",
    "address": "경상북도 경산시 옥산동 736-1",
    "lat": "35.827008527762544",
    "lng": "128.72903145108467",
    "region": "경상북도"
  },
  {
    "name": "장산중학교",
    "address": "경상북도 경산시 사정동 59",
    "lat": "35.81868684921958",
    "lng": "128.7303033682102",
    "region": "경상북도"
  },
  {
    "name": "정평초등학교",
    "address": "경상북도 경산시 정평동 255-3",
    "lat": "35.8332178",
    "lng": "128.7308233",
    "region": "경상북도"
  },
  {
    "name": "길안초등학교 운동장",
    "address": "경상북도 안동시 길안면 천지리 554",
    "lat": "36.4546",
    "lng": "128.8962",
    "region": "경상북도"
  },
  {
    "name": "태화4공원",
    "address": "경상북도 안동시 태화동 666-1",
    "lat": "36.57043128634613",
    "lng": "128.70903675298155",
    "region": "경상북도"
  },
  {
    "name": "복주초등학교 운동장",
    "address": "경상북도 안동시 옥동 763-1",
    "lat": "36.56351541582907",
    "lng": "128.69832805601453",
    "region": "경상북도"
  },
  {
    "name": "옥동11공원",
    "address": "경상북도 안동시 옥동 930-5",
    "lat": "36.558662887878704",
    "lng": "128.6921894468282",
    "region": "경상북도"
  },
  {
    "name": "합천공설운동장",
    "address": "경상남도 합천군 합천읍 합천리 923-1",
    "lat": "35.562295998996014",
    "lng": "128.1523650190359",
    "region": "경상남도"
  },
  {
    "name": "묘산초등학교 운동장",
    "address": "경상남도 합천군 묘산면 산제리 316-1",
    "lat": "35.659074742495704",
    "lng": "128.11141026207605",
    "region": "경상남도"
  },
  {
    "name": "해인초등학교 운동장",
    "address": "경상남도 합천군 가야면 치인리 산19",
    "lat": "35.79339771333811",
    "lng": "128.0854046344757",
    "region": "경상남도"
  },
  {
    "name": "도청전정",
    "address": "경상북도 안동시 풍천면 갈전리 1155",
    "lat": "36.573633920599256",
    "lng": "128.50759774446502",
    "region": "경상북도"
  },
  {
    "name": "풍천중학교 운동장",
    "address": "경상북도 안동시 풍천면 갈전리 1460",
    "lat": "36.574202469039044",
    "lng": "128.5006149156982",
    "region": "경상북도"
  },
  {
    "name": "유어초등학교 운동장",
    "address": "경상남도 창녕군 유어면 부곡리 481",
    "lat": "35.50884118604425",
    "lng": "128.41100603342065",
    "region": "경상남도"
  },
  {
    "name": "장마초등학교 운동장",
    "address": "경상남도 창녕군 장마면 강리 766-1",
    "lat": "35.45923677773144",
    "lng": "128.4768944978715",
    "region": "경상남도"
  },
  {
    "name": "창녕공설운동장",
    "address": "경상남도 창녕군 창녕읍 퇴천리 61",
    "lat": "35.52063934579646",
    "lng": "128.50505232810988",
    "region": "경상남도"
  },
  {
    "name": "함양 공설운동장",
    "address": "경상남도 함양군 함양읍 백연리 447",
    "lat": "35.51906350633016",
    "lng": "127.71627960066267",
    "region": "경상남도"
  },
  {
    "name": "서상고등학교 운동장",
    "address": "경상남도 함양군 서상면 도천리 1047-6",
    "lat": "35.67670158677277",
    "lng": "127.68820929551937",
    "region": "경상남도"
  },
  {
    "name": "고흥동초등학교",
    "address": "전라남도 고흥군 고흥읍 호형리 1287",
    "lat": "34.608748892295196",
    "lng": "127.290284585104",
    "region": "전라남도"
  },
  {
    "name": "고흥고등학교",
    "address": "전라남도 고흥군 고흥읍 호형리 1259-4",
    "lat": "34.60621904326101",
    "lng": "127.29354139920699",
    "region": "전라남도"
  },
  {
    "name": "청산면사무소",
    "address": "충청북도 옥천군 청산면 지전리 74-3",
    "lat": "36.34642165681486",
    "lng": "127.7919475142803",
    "region": "충청북도"
  },
  {
    "name": "다향고등학교 운동장",
    "address": "전라남도 보성군 보성읍 옥평리 770",
    "lat": "34.76349584200069",
    "lng": "127.09325015544891",
    "region": "전라남도"
  },
  {
    "name": "녹동고등학교",
    "address": "전라남도 고흥군 도양읍 용정리 1318",
    "lat": "34.53813723072631",
    "lng": "127.14166127067175",
    "region": "전라남도"
  },
  {
    "name": "풍양초등학교",
    "address": "전라남도 고흥군 풍양면 야막리 461-1",
    "lat": "34.57482380005824",
    "lng": "127.24288718886768",
    "region": "전라남도"
  },
  {
    "name": "도덕중학교",
    "address": "전라남도 고흥군 도덕면 신양리 1350",
    "lat": "34.574964779785645",
    "lng": "127.17522774161394",
    "region": "전라남도"
  },
  {
    "name": "금산초등학교",
    "address": "전라남도 고흥군 금산면 대흥리 391",
    "lat": "34.46196381805135",
    "lng": "127.1296164193279",
    "region": "전라남도"
  },
  {
    "name": "금산중학교",
    "address": "전라남도 고흥군 금산면 대흥리 320",
    "lat": "34.464535712322814",
    "lng": "127.12805795142383",
    "region": "전라남도"
  },
  {
    "name": "지도초등학교 선치분교",
    "address": "전라남도 신안군 지도읍 선도리 594-1",
    "lat": "34.9827526",
    "lng": "126.2637398",
    "region": "전라남도"
  },
  {
    "name": "벽진문화센터 공터",
    "address": "경상북도 성주군 벽진면 수촌리 824",
    "lat": "35.94730953222384",
    "lng": "128.21674069426496",
    "region": "경상북도"
  },
  {
    "name": "조마초등학교",
    "address": "경상북도 김천시 조마면 강곡리 237",
    "lat": "36.03304179242258",
    "lng": "128.09956363121734",
    "region": "경상북도"
  },
  {
    "name": "신대22공원",
    "address": "전라남도 순천시 해룡면 신대리 2099",
    "lat": "34.92898802767323",
    "lng": "127.55095510652893",
    "region": "전라남도"
  },
  {
    "name": "풍덕공원",
    "address": "전라남도 순천시 풍덕동 1287",
    "lat": "34.93987746734502",
    "lng": "127.49852965641014",
    "region": "전라남도"
  },
  {
    "name": "명주초등학교 운동장",
    "address": "경상북도 영천시 북안면 명주리 307-1",
    "lat": "35.87364452476479",
    "lng": "128.9950430145454",
    "region": "경상북도"
  },
  {
    "name": "이마트영천점 주차장",
    "address": "경상북도 영천시 오수동 286",
    "lat": "35.95811058958519",
    "lng": "128.91115142840943",
    "region": "경상북도"
  },
  {
    "name": "연산초등학교 운동장",
    "address": "전라남도 목포시 연산동 1270",
    "lat": "34.81117386166886",
    "lng": "126.38059289128971",
    "region": "전라남도"
  },
  {
    "name": "대성초등학교 운동장",
    "address": "전라남도 목포시 대성동 212",
    "lat": "34.79942564386779",
    "lng": "126.38031413809485",
    "region": "전라남도"
  },
  {
    "name": "덕인중학교 운동장",
    "address": "전라남도 목포시 죽교동 30",
    "lat": "34.798495731258384",
    "lng": "126.37283283703225",
    "region": "전라남도"
  },
  {
    "name": "용해초등학교 운동장",
    "address": "전라남도 목포시 용해동 974",
    "lat": "34.81877811733616",
    "lng": "126.3964082125397",
    "region": "전라남도"
  },
  {
    "name": "한빛초등학교 운동장",
    "address": "전라남도 목포시 상동 887",
    "lat": "34.8033502371484",
    "lng": "126.42245177002422",
    "region": "전라남도"
  },
  {
    "name": "애향초등학교 운동장",
    "address": "전라남도 목포시 옥암동 1172",
    "lat": "34.809016424756685",
    "lng": "126.44185547812646",
    "region": "전라남도"
  },
  {
    "name": "율어초등학교 운동장",
    "address": "전라남도 보성군 율어면 문양리 274",
    "lat": "34.87259319714428",
    "lng": "127.18624137930503",
    "region": "전라남도"
  },
  {
    "name": "삼거리공원",
    "address": "경상북도 구미시 임은동 478-4",
    "lat": "36.08604558359324",
    "lng": "128.35949382255131",
    "region": "경상북도"
  },
  {
    "name": "누리공원",
    "address": "경상북도 구미시 신평동 95-15",
    "lat": "36.122621684991245",
    "lng": "128.36540092003622",
    "region": "경상북도"
  },
  {
    "name": "경산중앙초등학교",
    "address": "경상북도 경산시 중방동 322-1",
    "lat": "35.82282440561533",
    "lng": "128.73166175565768",
    "region": "경상북도"
  },
  {
    "name": "자인초등학교",
    "address": "경상북도 경산시 자인면 교촌리 303",
    "lat": "35.8214598",
    "lng": "128.824355",
    "region": "경상북도"
  },
  {
    "name": "임당초등학교",
    "address": "경상북도 경산시 임당동 443-2",
    "lat": "35.841461229479535",
    "lng": "128.7434949675244",
    "region": "경상북도"
  },
  {
    "name": "하양여자고등학교",
    "address": "경상북도 경산시 하양읍 대학리 100",
    "lat": "35.930767230881195",
    "lng": "128.82579624652928",
    "region": "경상북도"
  },
  {
    "name": "길주중학교 녹전분교 운동장",
    "address": "경상북도 안동시 녹전면 신평리 756",
    "lat": "36.745",
    "lng": "128.7754",
    "region": "경상북도"
  },
  {
    "name": "경안중학교 운동장",
    "address": "경상북도 안동시 송현동 599-1",
    "lat": "36.57601469025164",
    "lng": "128.68171219336148",
    "region": "경상북도"
  },
  {
    "name": "가톨릭상지대학교 운동장",
    "address": "경상북도 안동시 율세동 387-1",
    "lat": "36.56900583857334",
    "lng": "128.73642133979388",
    "region": "경상북도"
  },
  {
    "name": "경북하이텍고등학교 운동장",
    "address": "경상북도 안동시 송현동 273",
    "lat": "36.56993048007879",
    "lng": "128.70248854339624",
    "region": "경상북도"
  },
  {
    "name": "강남초등학교 운동장",
    "address": "경상북도 안동시 정하동 272-1",
    "lat": "36.54972648225216",
    "lng": "128.73195487481274",
    "region": "경상북도"
  },
  {
    "name": "경북자연과학고등학교 운동장",
    "address": "경상북도 상주시 공성면 산현리 873",
    "lat": "36.278652029689866",
    "lng": "128.09448122978208",
    "region": "경상북도"
  },
  {
    "name": "두동면 제2주민자치센터",
    "address": "울산광역시 울주군 두동면 봉계리 1030-3",
    "lat": "35.701864457825494",
    "lng": "129.20721709728483",
    "region": "울산광역시"
  },
  {
    "name": "연양초등학교 운동장",
    "address": "세종특별자치시 세종시 어진동 515",
    "lat": "36.50294844109953",
    "lng": "127.25672006607059",
    "region": "세종특별자치시"
  },
  {
    "name": "금호중학교 운동장",
    "address": "세종특별자치시 세종시 대평동 711",
    "lat": "36.470044747079534",
    "lng": "127.28057026863101",
    "region": "세종특별자치시"
  },
  {
    "name": "전의중학교 운동장",
    "address": "세종특별자치시 세종시 전의면 읍내리 98-1",
    "lat": "36.68111120920677",
    "lng": "127.19723403453828",
    "region": "세종특별자치시"
  },
  {
    "name": "감리교신학대 운동장",
    "address": "서울특별시 서대문구 냉천동 31",
    "lat": "37.56719462849886",
    "lng": "126.9630356895512",
    "region": "서울특별시"
  },
  {
    "name": "삼정초등학교 운동장",
    "address": "울산광역시 울주군 청량읍 삼정리 786-1",
    "lat": "35.490863996845555",
    "lng": "129.23325409750157",
    "region": "울산광역시"
  },
  {
    "name": "한강미디어고등학교 운동장",
    "address": "서울특별시 영등포구 양평동4가 315-1",
    "lat": "37.53890315347235",
    "lng": "126.89726650714876",
    "region": "서울특별시"
  },
  {
    "name": "화천 생활체육공원",
    "address": "강원특별자치도 화천군 하남면 용암리 1142-2",
    "lat": "38.09484496281364",
    "lng": "127.70111113787208",
    "region": "강원특별자치도"
  },
  {
    "name": "신서수변공원",
    "address": "경기도 연천군 신서면 도신리 1182-69",
    "lat": "38.186243414573546",
    "lng": "127.10553735494615",
    "region": "경기도"
  },
  {
    "name": "미금초등학교 운동장",
    "address": "경기도 남양주시 다산동 4028-14",
    "lat": "37.609132008910855",
    "lng": "127.15471029281616",
    "region": "경기도"
  },
  {
    "name": "남춘천초등학교 운동장",
    "address": "강원특별자치도 춘천시 온의동 550",
    "lat": "37.860821392708786",
    "lng": "127.72214187073008",
    "region": "강원특별자치도"
  },
  {
    "name": "구로중학교 운동장",
    "address": "서울특별시 구로구 구로동 90",
    "lat": "37.494271848946674",
    "lng": "126.89087121773889",
    "region": "서울특별시"
  },
  {
    "name": "청웅중학교 운동장",
    "address": "전북특별자치도 임실군 청웅면 구고리 251",
    "lat": "35.569069136759715",
    "lng": "127.19871156799307",
    "region": "전북특별자치도"
  },
  {
    "name": "성수초등학교 운동장",
    "address": "전북특별자치도 임실군 성수면 양지리 675",
    "lat": "35.62956511875701",
    "lng": "127.33069372714648",
    "region": "전북특별자치도"
  },
  {
    "name": "덕치초등학교 운동장",
    "address": "전북특별자치도 임실군 덕치면 일중리 221",
    "lat": "35.49612387805269",
    "lng": "127.14865995600611",
    "region": "전북특별자치도"
  },
  {
    "name": "전주한들초등학교(운동장)",
    "address": "전북특별자치도 전주시 완산구 중화산동2가 752-4",
    "lat": "35.82137687507759",
    "lng": "127.1172648310166",
    "region": "전북특별자치도"
  },
  {
    "name": "오동초등학교 운동장",
    "address": "강원특별자치도 춘천시 신북읍 발산리 473-2",
    "lat": "37.95124493883469",
    "lng": "127.75783375336931",
    "region": "강원특별자치도"
  },
  {
    "name": "신도초등학교 운동장",
    "address": "충청남도 계룡시 엄사면 엄사리 232-92",
    "lat": "36.28234075739889",
    "lng": "127.23561644554248",
    "region": "충청남도"
  },
  {
    "name": "풍광초등학교 운동장",
    "address": "충청북도 청주시 흥덕구 가경동 1172",
    "lat": "36.62957789816321",
    "lng": "127.43525322164685",
    "region": "충청북도"
  },
  {
    "name": "남사초등학교 운동장",
    "address": "서울특별시 동작구 사당동 1011-1",
    "lat": "37.48224204480817",
    "lng": "126.97886684209718",
    "region": "서울특별시"
  },
  {
    "name": "한국외식과학고등학교 운동장",
    "address": "경기도 양주시 남면 신산리 186-2",
    "lat": "37.8968679044975",
    "lng": "126.98014261672041",
    "region": "경기도"
  },
  {
    "name": "백석고등학교 운동장",
    "address": "경기도 양주시 백석읍 오산리 554",
    "lat": "37.79162625290991",
    "lng": "126.98663694427124",
    "region": "경기도"
  },
  {
    "name": "나리공원",
    "address": "경기도 양주시 광사동 731",
    "lat": "37.78563415906559",
    "lng": "127.08067932076884",
    "region": "경기도"
  },
  {
    "name": "고덕생활체육공원",
    "address": "경기도 양주시 덕계동 산132",
    "lat": "37.804492",
    "lng": "127.063853",
    "region": "경기도"
  },
  {
    "name": "향남초등학교 운동장",
    "address": "경기도 화성시 향남읍 백토리 551",
    "lat": "37.11984178848712",
    "lng": "126.94316420116786",
    "region": "경기도"
  },
  {
    "name": "화산초등학교 운동장",
    "address": "경기도 화성시 송산동 146-9",
    "lat": "37.21035682521623",
    "lng": "127.01401202835619",
    "region": "경기도"
  },
  {
    "name": "가양초등학교 운동장",
    "address": "경기도 남양주시 수동면 수산리 12-2",
    "lat": "37.73278975474531",
    "lng": "127.29342273084204",
    "region": "경기도"
  },
  {
    "name": "논현초등학교 운동장",
    "address": "서울특별시 강남구 논현동 168",
    "lat": "37.5081417578865",
    "lng": "127.02620552987541",
    "region": "서울특별시"
  },
  {
    "name": "공덕초등학교 운동장",
    "address": "서울특별시 마포구 공덕동 256-4",
    "lat": "37.545784801210566",
    "lng": "126.95412437303924",
    "region": "서울특별시"
  },
  {
    "name": "영통중앙공원",
    "address": "경기도 수원시 영통구 영통동 961-1",
    "lat": "37.25486772251264",
    "lng": "127.0711167908297",
    "region": "경기도"
  },
  {
    "name": "대신중고등학교 운동장",
    "address": "경기도 여주��� 대신면 후포리 258-1",
    "lat": "37.36373727093829",
    "lng": "127.607977307578",
    "region": "경기도"
  },
  {
    "name": "북내초등학교 운동장",
    "address": "경기도 여주시 북내면 당우리 175",
    "lat": "37.330044130310405",
    "lng": "127.68014785848908",
    "region": "경기도"
  },
  {
    "name": "예곡초등학교 운동장",
    "address": "경상남도 함안군 칠원읍 예곡리 433",
    "lat": "35.27661363292695",
    "lng": "128.5323620473901",
    "region": "경상남도"
  },
  {
    "name": "안정초등학교 운동장",
    "address": "경상북도 영주시 안정면 신전리 67-2",
    "lat": "36.84501698588779",
    "lng": "128.55535565661535",
    "region": "경상북도"
  },
  {
    "name": "원평중학교 운동장",
    "address": "충청북도 청주시 서원구 분평동 1362",
    "lat": "36.60750891787098",
    "lng": "127.49377863642043",
    "region": "충청북도"
  },
  {
    "name": "원평초등학교 운동장",
    "address": "충청북도 청주시 서원구 분평동 1263",
    "lat": "36.61091707489708",
    "lng": "127.4958827734562",
    "region": "충청북도"
  },
  {
    "name": "안산초등학교 운동장",
    "address": "서울특별시 서대문구 홍제동 44",
    "lat": "37.57937954928355",
    "lng": "126.95160106136107",
    "region": "서울특별시"
  },
  {
    "name": "청운중학교 운동장",
    "address": "충청북도 청주시 상당구 영운동 73-48",
    "lat": "36.61848775450658",
    "lng": "127.50544506078293",
    "region": "충청북도"
  },
  {
    "name": "탄현면 공터 1",
    "address": "경기도 파주시 탄현면 법흥리 1652-239",
    "lat": "37.78836479367448",
    "lng": "126.69964764805428",
    "region": "경기도"
  },
  {
    "name": "포산중학교운동장",
    "address": "대구광역시 달성군 유가읍 봉리 598",
    "lat": "35.695987598983514",
    "lng": "128.45853238981113",
    "region": "대구광역시"
  },
  {
    "name": "장훈고등학교 운동장",
    "address": "서울특별시 영등포구 신길동 176-1",
    "lat": "37.513615108257454",
    "lng": "126.91555112600328",
    "region": "서울특별시"
  },
  {
    "name": "모충초등학교 운동장",
    "address": "충청북도 청주시 서원구 모충동 372",
    "lat": "36.626143285918324",
    "lng": "127.47850530570614",
    "region": "충청북도"
  },
  {
    "name": "영남중학교 운동장",
    "address": "서울특별시 영등포구 대림동 735",
    "lat": "37.49741842986061",
    "lng": "126.89603805541992",
    "region": "서울특별시"
  },
  {
    "name": "운암초등학교 운동장",
    "address": "전북특별자치도 임실군 운암면 쌍암리 617-5",
    "lat": "35.66338675696364",
    "lng": "127.1569319062607",
    "region": "전북특별자치도"
  },
  {
    "name": "산양초등학교 운동장",
    "address": "강원특별자치도 화천군 상서면 산양리 707",
    "lat": "38.21274103505789",
    "lng": "127.66233502745175",
    "region": "강원특별자치도"
  },
  {
    "name": "평화중학교(운동장)",
    "address": "전북특별자치도 전주시 완산구 평화동2가 911-2",
    "lat": "35.78321871676152",
    "lng": "127.13429095467511",
    "region": "전북특별자치도"
  },
  {
    "name": "전주서곡초등학교(운동장)",
    "address": "전북특별자치도 전주시 완산구 효자동3가 1474",
    "lat": "35.832812082722924",
    "lng": "127.10035971454055",
    "region": "전북특별자치도"
  },
  {
    "name": "해동중학교 운동장",
    "address": "부산광역시 영도구 동삼동 산57",
    "lat": "35.06975346741277",
    "lng": "129.06936228275174",
    "region": "부산광역시"
  },
  {
    "name": "금암초등학교 운동장",
    "address": "충청남도 계룡시 금암동 191",
    "lat": "36.27075073329083",
    "lng": "127.24639892578095",
    "region": "충청남도"
  },
  {
    "name": "여의도여자고등학교 운동장",
    "address": "서울특별시 영등포구 여의도동 40-2",
    "lat": "37.522575816809194",
    "lng": "126.93490862846377",
    "region": "서울특별시"
  },
  {
    "name": "신대림초등학교 운동장",
    "address": "서울특별시 영등포구 대림동 970-1",
    "lat": "37.491853468402326",
    "lng": "126.90588980913164",
    "region": "서울특별시"
  },
  {
    "name": "풍산초등학교 운동장",
    "address": "강원특별자치도 화천군 화천읍 풍산리 764-5",
    "lat": "38.14697691941",
    "lng": "127.74165344438602",
    "region": "강원특별자치도"
  },
  {
    "name": "풍남초등학교(운동장)",
    "address": "전북특별자치도 전주시 완산구 남노송동 507-1",
    "lat": "35.8220007612718",
    "lng": "127.15362936732359",
    "region": "전북특별자치도"
  },
  {
    "name": "전주평화초등학교(운동장)",
    "address": "전북특별자치도 전주시 완산구 평화동1가 389-2",
    "lat": "35.79946459436089",
    "lng": "127.13891680537863",
    "region": "전북특별자치도"
  },
  {
    "name": "남양주 양정초등학교 운동장",
    "address": "경기도 남양주시 다산동 3099-43",
    "lat": "37.60876228834456",
    "lng": "127.16627866029742",
    "region": "경기도"
  },
  {
    "name": "신포중학교 운동장",
    "address": "강원특별자치도 춘천시 사북면 신포리 322",
    "lat": "38.02544296746622",
    "lng": "127.64272485279305",
    "region": "강원특별자치도"
  },
  {
    "name": "춘천중학교 운동장",
    "address": "강원특별자치도 춘천시 중앙로3가 69",
    "lat": "37.874753318451205",
    "lng": "127.71926286000578",
    "region": "강원특별자치도"
  },
  {
    "name": "근화초등학교 운동장",
    "address": "강원특별자치도 춘천시 근화동 802-14",
    "lat": "37.88941413401104",
    "lng": "127.72319644689563",
    "region": "강원특별자치도"
  },
  {
    "name": "후평초등학교 운동장",
    "address": "강원특별자치도 춘천시 후평동 511-36",
    "lat": "37.882628959399426",
    "lng": "127.74439328137721",
    "region": "강원특별자치도"
  },
  {
    "name": "동부초등학교 운동장",
    "address": "강원특별자치도 춘천시 후평동 894",
    "lat": "37.87063881739247",
    "lng": "127.7548062453017",
    "region": "강원특별자치도"
  },
  {
    "name": "대정초등학교 운동장",
    "address": "충청남도 홍성군 구항면 지정리 55",
    "lat": "36.547104703768035",
    "lng": "126.63801379706419",
    "region": "충청남도"
  },
  {
    "name": "은하초등학교 운동장",
    "address": "충청남도 홍성군 은하면 대천리 108",
    "lat": "36.52887410816617",
    "lng": "126.58905886192322",
    "region": "충청남도"
  },
  {
    "name": "옥산중학교 운동장",
    "address": "충청북도 청주시 흥덕구 옥산면 오산리 77-3",
    "lat": "36.67040070576812",
    "lng": "127.370977165582",
    "region": "충청북도"
  },
  {
    "name": "신촌동 공터 1",
    "address": "경기도 파주시 신촌동 725-4",
    "lat": "37.72833062009771",
    "lng": "126.69476935662846",
    "region": "경기도"
  },
  {
    "name": "죽곡초등학교운동장",
    "address": "대구광역시 달성군 다사읍 죽곡리 189",
    "lat": "35.85673199494974",
    "lng": "128.46316835937924",
    "region": "대구광역시"
  },
  {
    "name": "운정지구 오름공원",
    "address": "경기도 파주시 야당동 993",
    "lat": "37.714189800334",
    "lng": "126.75586581230162",
    "region": "경기도"
  },
  {
    "name": "달서고등학교운동장",
    "address": "대구광역시 달성군 하빈면 감문리 815",
    "lat": "35.886387293233604",
    "lng": "128.422244932359",
    "region": "대구광역시"
  },
  {
    "name": "윤중초등학교 운동장",
    "address": "서울특별시 영등포구 여의도동 38",
    "lat": "37.51954861326669",
    "lng": "126.92310690879825",
    "region": "서울특별시"
  },
  {
    "name": "우신초등학교 운동장",
    "address": "서울특별시 영등포구 신길동 210",
    "lat": "37.50933647972441",
    "lng": "126.91213130950926",
    "region": "서울특별시"
  },
  {
    "name": "대동초등학교 운동장",
    "address": "서울특별시 영등포구 대림동 702",
    "lat": "37.493281457909255",
    "lng": "126.90007209777832",
    "region": "서울특별시"
  },
  {
    "name": "미원중학교 운동장",
    "address": "충청북도 청주시 상당구 미원면 미원리 281-3",
    "lat": "36.63646225131254",
    "lng": "127.66111909474864",
    "region": "충청북도"
  },
  {
    "name": "운주초등학교 운동장",
    "address": "전북특별자치도 완주군 운주면 장선리 507-2",
    "lat": "36.09188717342701",
    "lng": "127.27825415796073",
    "region": "전북특별자치도"
  },
  {
    "name": "갈담초등학교 운동장",
    "address": "전북특별자치도 임실군 강진면 갈담리 323-1",
    "lat": "35.53175547584157",
    "lng": "127.16555050834558",
    "region": "전북특별자치도"
  },
  {
    "name": "망곡산체육공원",
    "address": "경기도 연천군 연천읍 차탄리 산1-8",
    "lat": "38.103077735487155",
    "lng": "127.07133863031238",
    "region": "경기도"
  },
  {
    "name": "은대근린공원",
    "address": "경기도 연천군 전곡읍 은대리 573",
    "lat": "38.02819562886665",
    "lng": "127.063864025242",
    "region": "경기도"
  },
  {
    "name": "남양주 금곡초등학교 운동장",
    "address": "경기도 남양주시 금곡동 159-7",
    "lat": "37.63547426910335",
    "lng": "127.21122381141406",
    "region": "경기도"
  },
  {
    "name": "남산초등학교 운동장",
    "address": "강원특별자치도 춘천시 남산면 방곡리 126-2",
    "lat": "37.79293565275694",
    "lng": "127.64566303419929",
    "region": "강원특별자치도"
  },
  {
    "name": "부안초등학교 운동장",
    "address": "강원특별자치도 춘천시 후평동 474-3",
    "lat": "37.8767791329601",
    "lng": "127.74979227561866",
    "region": "강원특별자치도"
  },
  {
    "name": "호반초등학교 운동장",
    "address": "강원특별자치도 춘천시 후평동 15",
    "lat": "37.874566271705774",
    "lng": "127.76067734673285",
    "region": "강원특별자치도"
  },
  {
    "name": "남춘천중학교 운동장",
    "address": "강원특별자치도 춘천시 온의동 200-1",
    "lat": "37.859952077661305",
    "lng": "127.7214317507349",
    "region": "강원특별자치도"
  },
  {
    "name": "신남초등학교 운동장",
    "address": "강원특별자치도 춘천시 칠전동 149",
    "lat": "37.84262583500486",
    "lng": "127.71201132277331",
    "region": "강원특별자치도"
  },
  {
    "name": "신동초등학교 운동장",
    "address": "강원특별자치도 춘천시 우두동 1084",
    "lat": "37.911875939786746",
    "lng": "127.73304441048624",
    "region": "강원특별자치도"
  },
  {
    "name": "계룡중학교 운동장",
    "address": "충청남도 계룡시 금암동 75-1",
    "lat": "36.267643325967974",
    "lng": "127.25541946687238",
    "region": "충청남도"
  },
  {
    "name": "태종대중학교 운동장",
    "address": "부산광역시 영도구 동삼동 523-1",
    "lat": "35.073377901332385",
    "lng": "129.0643132842727",
    "region": "부산광역시"
  },
  {
    "name": "다사체육공원축구장",
    "address": "대구광역시 달성군 다사읍 이천리 25",
    "lat": "35.890907910990045",
    "lng": "128.4779266831876",
    "region": "대구광역시"
  },
  {
    "name": "청량운동장",
    "address": "울산광역시 울주군 청량읍 덕하리 606-1",
    "lat": "35.481544203314655",
    "lng": "129.29892182350557",
    "region": "울산광역시"
  },
  {
    "name": "왕선초등학교운동장",
    "address": "대구광역시 달성군 다사읍 매곡리 1542",
    "lat": "35.863102895171025",
    "lng": "128.4655805338967",
    "region": "대구광역시"
  },
  {
    "name": "용계초등학교운동장",
    "address": "대구광역시 달성군 가창면 용계리 7",
    "lat": "35.803560068965496",
    "lng": "128.6214038893189",
    "region": "대구광역시"
  },
  {
    "name": "현풍테니스장",
    "address": "대구광역시 달성군 현풍읍 성하리 725-48",
    "lat": "35.69662601796091",
    "lng": "128.43653959555874",
    "region": "대구광역시"
  },
  {
    "name": "새금초등학교 운동장",
    "address": "경기도 파주시 금촌동 1018",
    "lat": "37.747925063183494",
    "lng": "126.77296540740235",
    "region": "경기도"
  },
  {
    "name": "전주남중학교(운동장)",
    "address": "전북특별자치도 전주시 완산구 평화동1가 445-4",
    "lat": "35.795834560920184",
    "lng": "127.14039283245803",
    "region": "전북특별자치도"
  },
  {
    "name": "백학근린공원",
    "address": "경기도 연천군 백학면 통구리 1071-10",
    "lat": "38.0152361199469",
    "lng": "126.9229326494066",
    "region": "경기도"
  },
  {
    "name": "금곡고등학교 운동장",
    "address": "경기도 남양주시 금곡동 152-18",
    "lat": "37.63347279900344",
    "lng": "127.21336800466304",
    "region": "경기도"
  },
  {
    "name": "장곡초등학교 운동장",
    "address": "충청남도 홍성군 장곡면 도산리 479",
    "lat": "36.505237584603265",
    "lng": "126.69361301112379",
    "region": "충청남도"
  },
  {
    "name": "죽왕초등학교 운동장",
    "address": "강원특별자치도 고성군 죽왕면 오호리 225",
    "lat": "38.330166607154574",
    "lng": "128.52296988341425",
    "region": "강원특별자치도"
  },
  {
    "name": "가창초등학교운동장",
    "address": "대구광역시 달성군 가창면 냉천리 815-1",
    "lat": "35.77056051051676",
    "lng": "128.64793643758802",
    "region": "대구광역시"
  },
  {
    "name": "두일초등학교 운동장",
    "address": "경기도 파주시 동패동 1743",
    "lat": "37.71974422063433",
    "lng": "126.71357569860861",
    "region": "경기도"
  },
  {
    "name": "동곡초등학교운동장",
    "address": "대구광역시 달성군 하빈면 동곡리 142",
    "lat": "35.87927800479295",
    "lng": "128.4180797832878",
    "region": "대구광역시"
  },
  {
    "name": "매곡초등학교운동장",
    "address": "대구광역시 달성군 다사읍 매곡리 1536",
    "lat": "35.862109210878415",
    "lng": "128.46891113189156",
    "region": "대구광역시"
  },
  {
    "name": "북동초등학교운동장",
    "address": "대구광역시 달성군 논공읍 남리 1119",
    "lat": "35.72971250790414",
    "lng": "128.43961698827104",
    "region": "대구광역시"
  },
  {
    "name": "내포리체육공원",
    "address": "경기도 파주시 문산읍 내포리 산140-1",
    "lat": "37.840083",
    "lng": "126.746311",
    "region": "경기도"
  },
  {
    "name": "교하체육공원",
    "address": "경기도 파주시 하지석동 326-3",
    "lat": "37.762106221888374",
    "lng": "126.74182176589966",
    "region": "경기도"
  },
  {
    "name": "운정지구 메아리공원",
    "address": "경기도 파주시 동패동 1766",
    "lat": "37.708307242774865",
    "lng": "126.73743211719591",
    "region": "경기도"
  },
  {
    "name": "화동초등학교운동장",
    "address": "대구광역시 달성군 화원읍 본리리 104-1",
    "lat": "35.79983779812246",
    "lng": "128.50965794655326",
    "region": "대구광역시"
  },
  {
    "name": "마지초등학교 운동장",
    "address": "경기도 파주시 적성면 마지리 60-4",
    "lat": "37.95216397910111",
    "lng": "126.91954029540919",
    "region": "경기도"
  },
  {
    "name": "달성중학교운동장",
    "address": "대구광역시 달성군 화원읍 명곡리 261",
    "lat": "35.800019061550394",
    "lng": "128.4937577699014",
    "region": "대구광역시"
  },
  {
    "name": "고은초등학교 운동장",
    "address": "서울특별시 서대문구 홍제동 320-3",
    "lat": "37.584714185240124",
    "lng": "126.94362132642537",
    "region": "서울특별시"
  },
  {
    "name": "양화중학교 운동장",
    "address": "서울특별시 영등포구 문래동3가 48",
    "lat": "37.5192911995695",
    "lng": "126.89635992050171",
    "region": "서울특별시"
  },
  {
    "name": "명지전문대 운동장",
    "address": "서울특별시 서대문구 홍은동 356-1",
    "lat": "37.58379190992708",
    "lng": "126.9253049056828",
    "region": "서울특별시"
  },
  {
    "name": "명지중학교 운동장",
    "address": "서울특별시 서대문구 홍은동 361-30",
    "lat": "37.58402039849075",
    "lng": "126.92710163158188",
    "region": "서울특별시"
  },
  {
    "name": "도림초등학교 운동장",
    "address": "서울특별시 영등포구 신길동 285-1",
    "lat": "37.50829604018597",
    "lng": "126.90748035907971",
    "region": "서울특별시"
  },
  {
    "name": "신남성초등학교 운동장",
    "address": "서울특별시 동작구 사당동 199-1",
    "lat": "37.488503465196196",
    "lng": "126.96527689475035",
    "region": "서울특별시"
  },
  {
    "name": "솔빛초등학교 운동장",
    "address": "경기도 화성시 반송동 133",
    "lat": "37.19663585330352",
    "lng": "127.07370869791482",
    "region": "경기도"
  },
  {
    "name": "문창초등학교 운동장",
    "address": "서울특별시 동작구 신대방동 640",
    "lat": "37.489170934290925",
    "lng": "126.91436322588233",
    "region": "서울특별시"
  },
  {
    "name": "창수교육문화센터",
    "address": "경기도 포천시 창수면 추동리 73-2",
    "lat": "37.99055429713869",
    "lng": "127.18364529458701",
    "region": "경기도"
  },
  {
    "name": "고암중학교 운동장",
    "address": "경기도 양주시 덕정동 210",
    "lat": "37.834262598338654",
    "lng": "127.06801160444851",
    "region": "경기도"
  },
  {
    "name": "회천중학교 운동장",
    "address": "경기도 양주시 고암동 122-2",
    "lat": "37.8323738138596",
    "lng": "127.07095146385609",
    "region": "경기도"
  },
  {
    "name": "삼상초등학교 운동장",
    "address": "경기도 양주시 장흥면 삼상리 288",
    "lat": "37.69984629654762",
    "lng": "126.93009720992843",
    "region": "경기도"
  },
  {
    "name": "덕정초등학교 운동장",
    "address": "경기도 양주시 덕정동 123",
    "lat": "37.84606905312315",
    "lng": "127.06337753667695",
    "region": "경기도"
  },
  {
    "name": "덕소초등학교 운동장",
    "address": "경기도 남양주시 와부읍 덕소리 431-1",
    "lat": "37.588205328398516",
    "lng": "127.21433285046518",
    "region": "경기도"
  },
  {
    "name": "덕정고등학교 운동장",
    "address": "경기도 양주시 고암동 121-1",
    "lat": "37.837262632395415",
    "lng": "127.07150542889188",
    "region": "경기도"
  },
  {
    "name": "책 읽는 공원",
    "address": "경상남도 거창군 거창읍 상림리 773",
    "lat": "35.68886610006343",
    "lng": "127.9029795057645",
    "region": "경상남도"
  },
  {
    "name": "거창초등학교운동장",
    "address": "경상남도 거창군 거창읍 중앙리 311",
    "lat": "35.68769689237412",
    "lng": "127.91088321060924",
    "region": "경상남도"
  },
  {
    "name": "청룡초등학교 운동장",
    "address": "경기도 화성시 비봉면 청요리 571",
    "lat": "37.201242814485106",
    "lng": "126.88873053436956",
    "region": "경기도"
  },
  {
    "name": "서전주중학교(운동장)",
    "address": "전북특별자치도 전주시 완산구 효자동1가 364-8",
    "lat": "35.810429025733974",
    "lng": "127.11271898866099",
    "region": "전북특별자치도"
  },
  {
    "name": "가북초등학교",
    "address": "경상남도 거창군 가북면 우혜리 1891-3",
    "lat": "35.76283317720945",
    "lng": "127.99264387238031",
    "region": "경상남도"
  },
  {
    "name": "옥산근린공원",
    "address": "경기도 연천군 연천읍 옥산리 423-1",
    "lat": "38.09583210163792",
    "lng": "127.07807652979203",
    "region": "경기도"
  },
  {
    "name": "신산초등학교 운동장",
    "address": "경기도 파주시 광탄면 신산리 199",
    "lat": "37.78037373969789",
    "lng": "126.8526365754268",
    "region": "경기도"
  },
  {
    "name": "와석초등학교 운동장",
    "address": "경기도 파주시 야당동 1008",
    "lat": "37.7103787293478",
    "lng": "126.75330528217634",
    "region": "경기도"
  },
  {
    "name": "한빛초등학교 운동장",
    "address": "경기도 파주시 야당동 983",
    "lat": "37.714695616665566",
    "lng": "126.7509045817871",
    "region": "경기도"
  },
  {
    "name": "해솔중학교 운동장",
    "address": "경기도 파주시 목동동 661",
    "lat": "37.72696954964434",
    "lng": "126.7462576120818",
    "region": "경기도"
  },
  {
    "name": "신도봉중학교 운동장",
    "address": "서울특별시 도봉구 쌍문동 94-1",
    "lat": "37.64928108951701",
    "lng": "127.03339494359922",
    "region": "서울특별시"
  },
  {
    "name": "창원초등학교 운동장",
    "address": "서울특별시 도봉구 창동 308",
    "lat": "37.65210446939674",
    "lng": "127.04071278543047",
    "region": "서울특별시"
  },
  {
    "name": "창림초등학교운동장",
    "address": "서울특별시 도봉구 창동 411-8",
    "lat": "37.6431520561912",
    "lng": "127.04179643006208",
    "region": "서울특별시"
  },
  {
    "name": "동학초등학교 운동장",
    "address": "경기도 화성시 반월동 165-2",
    "lat": "37.23284794186672",
    "lng": "127.05950085628463",
    "region": "경기도"
  },
  {
    "name": "마도초등학교 운동장",
    "address": "경기도 화성시 마도면 석교리 248",
    "lat": "37.20386924019748",
    "lng": "126.77315087623082",
    "region": "경기도"
  },
  {
    "name": "영운동 주민센터 옆 나누리소공원",
    "address": "충청북도 청주시 상당구 영운동 107-17",
    "lat": "36.617831921161915",
    "lng": "127.4991059767621",
    "region": "충청북도"
  },
  {
    "name": "흑석초등학교 운동장",
    "address": "서울특별시 동작구 흑석동 7-1",
    "lat": "37.50865820892057",
    "lng": "126.96509326867212",
    "region": "서울특별시"
  },
  {
    "name": "연희중학교 운동장",
    "address": "서울특별시 서대문구 남가좌동 368-1",
    "lat": "37.579122827308325",
    "lng": "126.91891250359937",
    "region": "서울특별시"
  },
  {
    "name": "염주초등학교  운동장",
    "address": "광주광역시 서구 화정동 850",
    "lat": "35.140708593149014",
    "lng": "126.87898457050323",
    "region": "광주광역시"
  },
  {
    "name": "구지초등학교운동장",
    "address": "대구광역시 달성군 구지면 창리 385",
    "lat": "35.660390199420846",
    "lng": "128.41053097361956",
    "region": "대구광역시"
  },
  {
    "name": "화정남초등학교  운동장",
    "address": "광주광역시 서구 화정동 929-1",
    "lat": "35.13784841163022",
    "lng": "126.87210202217098",
    "region": "광주광역시"
  },
  {
    "name": "신평리시장 공영주차장",
    "address": "대구광역시 서구 평리동 1206-1",
    "lat": "35.86798439966401",
    "lng": "128.56095547470252",
    "region": "대구광역시"
  },
  {
    "name": "비산공원",
    "address": "대구광역시 서구 비산동 1036",
    "lat": "35.88774480558481",
    "lng": "128.56857278832976",
    "region": "대구광역시"
  },
  {
    "name": "이현공원",
    "address": "대구광역시 서구 이현동 산28-12",
    "lat": "35.87334641354285",
    "lng": "128.54354202747365",
    "region": "대구광역시"
  },
  {
    "name": "진주교대부설초등학교 운동장",
    "address": "경상남도 진주시 신안동 380",
    "lat": "35.18534313234273",
    "lng": "128.06762052586433",
    "region": "경상남도"
  },
  {
    "name": "도림초등학교운동장",
    "address": "대구광역시 달성군 다사읍 서재리 32",
    "lat": "35.87794786133067",
    "lng": "128.50014907585296",
    "region": "대구광역시"
  },
  {
    "name": "금촌체육공원",
    "address": "경기도 파주시 금촌동 378",
    "lat": "37.767534368783565",
    "lng": "126.76748514175415",
    "region": "경기도"
  },
  {
    "name": "대신초등학교 운동장",
    "address": "서울특별시 서대문구 대현동 67-1",
    "lat": "37.55767976488933",
    "lng": "126.94745918563686",
    "region": "서울특별시"
  },
  {
    "name": "선유고등학교 운동장",
    "address": "서울특별시 영등포구 양평동4가 10",
    "lat": "37.53339020549576",
    "lng": "126.89506977796555",
    "region": "서울특별시"
  },
  {
    "name": "국사봉중학교운동장",
    "address": "서울특별시 동작구 상도동 214-437",
    "lat": "37.49377688759384",
    "lng": "126.94507085104755",
    "region": "서울특별시"
  },
  {
    "name": "석천초등학교 운동장",
    "address": "경기도 화성시 우정읍 석천리 52-3",
    "lat": "37.05498763537547",
    "lng": "126.78892034608285",
    "region": "경기도"
  },
  {
    "name": "유양초등학교 운동장",
    "address": "경기도 양주시 유양동 517-1",
    "lat": "37.78537571618121",
    "lng": "127.02727046208467",
    "region": "경기도"
  },
  {
    "name": "이서초등학교 운동장",
    "address": "전북특별자치도 완주군 이서면 상개리 539",
    "lat": "35.81961227943952",
    "lng": "127.0249498386242",
    "region": "전북특별자치도"
  },
  {
    "name": "풍양초등학교 운동장",
    "address": "경기도 남양주시 진접읍 내각리 640-3",
    "lat": "37.70213434367813",
    "lng": "127.16170261930884",
    "region": "경기도"
  },
  {
    "name": "임실군공설운동장",
    "address": "전북특별자치도 임실군 임실읍 이도리 429-1",
    "lat": "35.6080428404253",
    "lng": "127.28336400662037",
    "region": "전북특별자치도"
  },
  {
    "name": "화성장안초등학교 운동장",
    "address": "경기도 화성시 장안면 어은리 812",
    "lat": "37.08557401789744",
    "lng": "126.82409262894471",
    "region": "경기도"
  },
  {
    "name": "화천초등학교 운동장",
    "address": "강원특별자치도 화천군 화천읍 아리 211-2",
    "lat": "38.10529298680397",
    "lng": "127.70888291611966",
    "region": "강원특별자치도"
  },
  {
    "name": "무주고등학교 운동장",
    "address": "전북특별자치도 무주군 무주읍 읍내리 472-7",
    "lat": "36.01282943350614",
    "lng": "127.66354143619537",
    "region": "전북특별자치도"
  },
  {
    "name": "무풍중고등학교 운동장",
    "address": "전북특별자치도 무주군 무풍면 현내리 503",
    "lat": "35.967334997906846",
    "lng": "127.84631252288818",
    "region": "전북특별자치도"
  },
  {
    "name": "전주조촌초등학교(운동장)",
    "address": "전북특별자치도 전주시 덕진구 여의동 572-1",
    "lat": "35.86933563220859",
    "lng": "127.07636616836523",
    "region": "전북특별자치도"
  },
  {
    "name": "퇴계원중학교 운동장",
    "address": "경기도 남양주시 퇴계원읍 퇴계원리 283-1",
    "lat": "37.65219824495179",
    "lng": "127.14144408702849",
    "region": "경기도"
  },
  {
    "name": "송학초등학교  운동장",
    "address": "광주광역시 서구 세하동 532",
    "lat": "35.11364690404612",
    "lng": "126.83016300201412",
    "region": "광주광역시"
  },
  {
    "name": "삼릉초등학교 운동장",
    "address": "서울특별시 강남구 삼성동 42",
    "lat": "37.512774484496894",
    "lng": "127.04715486175706",
    "region": "서울특별시"
  },
  {
    "name": "마재초등학교  운동장",
    "address": "광주광역시 서구 금호동 788",
    "lat": "35.130368474239",
    "lng": "126.86299324035643",
    "region": "광주광역시"
  },
  {
    "name": "황새말공원",
    "address": "경기도 수원시 팔달구 화서동 714",
    "lat": "37.2868792327096",
    "lng": "126.9812464714050",
    "region": "경기도"
  },
  {
    "name": "효원공원",
    "address": "경기도 수원시 팔달구 인계동 1117",
    "lat": "37.26312194873736",
    "lng": "127.0378088951110",
    "region": "경기도"
  },
  {
    "name": "태백종합경기장",
    "address": "강원특별자치도 태백시 문곡동 10-3",
    "lat": "37.136998104697774",
    "lng": "129.00235519024233",
    "region": "강원특별자치도"
  },
  {
    "name": "교통공원",
    "address": "경기도 수원시 영통구 영통동 981-4",
    "lat": "37.24551952269187",
    "lng": "127.06392288208006",
    "region": "경기도"
  },
  {
    "name": "도성초등학교 운동장",
    "address": "서울특별시 강남구 역삼동 714",
    "lat": "37.50066730498788",
    "lng": "127.04916494511356",
    "region": "서울특별시"
  },
  {
    "name": "비봉초등학교",
    "address": "대구광역시 서구 비산동 705-1",
    "lat": "35.88299670534353",
    "lng": "128.56861094224146",
    "region": "대구광역시"
  },
  {
    "name": "봉곡초등학교 운동장",
    "address": "경상남도 진주시 봉곡동 465-1",
    "lat": "35.194276881640725",
    "lng": "128.07505866433448",
    "region": "경상남도"
  },
  {
    "name": "진주고등학교 운동장",
    "address": "경상남도 진주시 상봉동 987-1",
    "lat": "35.20030640610946",
    "lng": "128.0809949485297",
    "region": "경상남도"
  },
  {
    "name": "장재초등학교 운동장",
    "address": "경상남도 진주시 초전동 1691",
    "lat": "35.214401020613465",
    "lng": "128.11015884281957",
    "region": "경상남도"
  },
  {
    "name": "금포초등학교운동장",
    "address": "대구광역시 달성군 논공읍 금포리 1496",
    "lat": "35.774355289817265",
    "lng": "128.425636685705",
    "region": "대구광역시"
  },
  {
    "name": "천내초등학교운동장",
    "address": "대구광역시 달성군 화원읍 구라리 1557",
    "lat": "35.80954656655131",
    "lng": "128.50203004257915",
    "region": "대구광역시"
  },
  {
    "name": "화원중학교운동장",
    "address": "대구광역시 달성군 화원읍 본리리 104-2",
    "lat": "35.79863745035614",
    "lng": "128.5095917915619",
    "region": "대구광역시"
  },
  {
    "name": "천보초등학교 운동장",
    "address": "경기도 양주시 옥정동 947",
    "lat": "37.82753497454272",
    "lng": "127.08746177632815",
    "region": "경기도"
  },
  {
    "name": "장명초등학교 운동장",
    "address": "경기도 화성시 장안면 장안리 152",
    "lat": "37.05601619835345",
    "lng": "126.85226440429686",
    "region": "경기도"
  },
  {
    "name": "별내초등학교 운동장",
    "address": "경기도 남양주시 별내면 청학리 408-2",
    "lat": "37.71085022103863",
    "lng": "127.11836976940083",
    "region": "경기도"
  },
  {
    "name": "설천초등학교 운동장",
    "address": "전북특별자치도 무주군 설천면 소천리 904-27",
    "lat": "36.00898697895906",
    "lng": "127.78897225856782",
    "region": "전북특별자치도"
  },
  {
    "name": "안성중학교 운동장",
    "address": "전북특별자치도 무주군 안성면 사전리 1224",
    "lat": "35.869316767407575",
    "lng": "127.65372991561891",
    "region": "전북특별자치도"
  },
  {
    "name": "성진초등학교  운동장",
    "address": "광주광역시 서구 화정동 904-1",
    "lat": "35.143007",
    "lng": "126.866228",
    "region": "광주광역시"
  },
  {
    "name": "대자중학교  운동장",
    "address": "광주광역시 서구 동천동 649",
    "lat": "35.16857255503933",
    "lng": "126.86755299568173",
    "region": "광주광역시"
  },
  {
    "name": "광주대동고등학교  운동장",
    "address": "광주광역시 서구 매월동 521-4",
    "lat": "35.11910998292622",
    "lng": "126.84923887252806",
    "region": "광주광역시"
  },
  {
    "name": "대모초등학교 운동장",
    "address": "서울특별시 강남구 일원동 736",
    "lat": "37.48107746314122",
    "lng": "127.08604762782457",
    "region": "서울특별시"
  },
  {
    "name": "영통사공원",
    "address": "경기도 수원시 영통구 영통동 1048-3",
    "lat": "37.257941078103016",
    "lng": "127.07829805320291",
    "region": "경기도"
  },
  {
    "name": "상무고등학교  운동장",
    "address": "광주광역시 서구 쌍촌동 1302",
    "lat": "35.15450360931196",
    "lng": "126.85989797115323",
    "region": "광주광역시"
  },
  {
    "name": "원천공원(매봉공원)",
    "address": "경기도 수원시 영통구 매탄동 1210",
    "lat": "37.26876513124393",
    "lng": "127.0548792426067",
    "region": "경기도"
  },
  {
    "name": "천전초등학교 운동장",
    "address": "강원특별자치도 춘천시 신북읍 율문리 295",
    "lat": "37.92714849123274",
    "lng": "127.74556326097887",
    "region": "강원특별자치도"
  },
  {
    "name": "금곡중학교 운동장",
    "address": "경기도 남양주시 금곡동 152-9",
    "lat": "37.634131785147545",
    "lng": "127.21432613730616",
    "region": "경기도"
  },
  {
    "name": "광판중학교 운동장",
    "address": "강원특별자치도 춘천시 남산면 광판리 583",
    "lat": "37.72340696198577",
    "lng": "127.69877676271024",
    "region": "강원특별자치도"
  },
  {
    "name": "지촌초등학교 운동장",
    "address": "강원특별자치도 춘천시 사북면 지촌리 347",
    "lat": "38.03791191668091",
    "lng": "127.64488266296685",
    "region": "강원특별자치도"
  },
  {
    "name": "유한공업고등학교 운동장",
    "address": "서울특별시 구로구 항동 1-7",
    "lat": "37.48802904609429",
    "lng": "126.82362914085387",
    "region": "서울특별시"
  },
  {
    "name": "점동초등학교 운동장",
    "address": "경기도 여주시 점동면 청안리 117",
    "lat": "37.204523092779084",
    "lng": "127.6624386491081",
    "region": "경기도"
  },
  {
    "name": "가남초등학교 운동장",
    "address": "경기도 여주시 가남읍 태평리 74-1",
    "lat": "37.20515993338773",
    "lng": "127.5479621890436",
    "region": "경기도"
  },
  {
    "name": "매류초등학교 운동장",
    "address": "경기도 여주시 세종대왕면 마래리 143",
    "lat": "37.27370277379694",
    "lng": "127.55752444267274",
    "region": "경기도"
  },
  {
    "name": "강천초등학교 운동장",
    "address": "경기도 여주시 강천면 간매리 443",
    "lat": "37.26876024449925",
    "lng": "127.72011397911031",
    "region": "경기도"
  },
  {
    "name": "덕계고등학교 운동장",
    "address": "경기도 양주시 덕계동 524-1",
    "lat": "37.82411949827263",
    "lng": "127.04797910241733",
    "region": "경기도"
  },
  {
    "name": "미원초등학교 운동장",
    "address": "경기도 가평군 설악면 신천리 818-1",
    "lat": "37.67918422687492",
    "lng": "127.49026805162433",
    "region": "경기도"
  },
  {
    "name": "덕정중학교 운동장",
    "address": "경기도 양주시 덕정동 151-10",
    "lat": "37.842128700130814",
    "lng": "127.06339950887576",
    "region": "경기도"
  },
  {
    "name": "고제초등학교",
    "address": "경상남도 거창군 고제면 궁항리 1826-1",
    "lat": "35.83771584937055",
    "lng": "127.87694334983827",
    "region": "경상남도"
  },
  {
    "name": "북상초등학교",
    "address": "경상남도 거창군 북상면 갈계리 1439-1",
    "lat": "35.77948826666103",
    "lng": "127.81723043822645",
    "region": "경상남도"
  },
  {
    "name": "양오중학교 운동장",
    "address": "경기도 남양주시 오남읍 양지리 616-2",
    "lat": "37.6974530862202",
    "lng": "127.19312514075499",
    "region": "경기도"
  },
  {
    "name": "양구테니스파크테니스장",
    "address": "강원특별자치도 양구군 양구읍 하리 439",
    "lat": "38.11623009953534",
    "lng": "127.98810953963228",
    "region": "강원특별자치도"
  },
  {
    "name": "���안초등학교 운동장",
    "address": "경기도 화성시 진안동 915",
    "lat": "37.21681595572827",
    "lng": "127.04070781618847",
    "region": "경기도"
  },
  {
    "name": "전주금암초등학교(운동장)",
    "address": "전북특별자치도 전주시 덕진구 금암동 522-1",
    "lat": "35.83695525064411",
    "lng": "127.13647079112205",
    "region": "전북특별자치도"
  },
  {
    "name": "구천초등학교 운동장",
    "address": "전북특별자치도 무주군 설천면 삼공리 314",
    "lat": "35.909130412500346",
    "lng": "127.77765333652498",
    "region": "전북특별자치도"
  },
  {
    "name": "극락초등학교  운동장",
    "address": "광주광역시 서구 유촌동 25-1",
    "lat": "35.16567732944726",
    "lng": "126.85730961633764",
    "region": "광주광역시"
  },
  {
    "name": "늘푸른공원(권선3공원)",
    "address": "경기도 수원시 권선구 권선동 1310",
    "lat": "37.248910",
    "lng": "127.0406037569045",
    "region": "경기도"
  },
  {
    "name": "괴목초등학교 운동장",
    "address": "전북특별자치도 무주군 적상면 포내리 803",
    "lat": "35.94700887405379",
    "lng": "127.71600008010866",
    "region": "전북특별자치도"
  },
  {
    "name": "안성초등학교 운동장",
    "address": "전북특별자치도 무주군 안성면 장기리 1309",
    "lat": "35.86553905974147",
    "lng": "127.65515685081485",
    "region": "전북특별자치도"
  },
  {
    "name": "금호초등학교  운동장",
    "address": "광주광역시 서구 쌍촌동 1249",
    "lat": "35.1426077268863",
    "lng": "126.85941586762586",
    "region": "광주광역시"
  },
  {
    "name": "올림픽공원",
    "address": "경기도 수원시 권선구 권선동 1012",
    "lat": "37.261346",
    "lng": "127.02782571315764",
    "region": "경기도"
  },
  {
    "name": "광주서초등학교  운동장",
    "address": "광주광역시 서구 화정동 71-3",
    "lat": "35.15546851497932",
    "lng": "126.8775629997253",
    "region": "광주광역시"
  },
  {
    "name": "대교초등학교 운동장",
    "address": "부산광역시 영도구 봉래동4가 18",
    "lat": "35.094692225312656",
    "lng": "129.04642560593476",
    "region": "부산광역시"
  },
  {
    "name": " 후포1리 마을회관",
    "address": "경기도 여주시 대신면 후포리 710-4",
    "lat": "37.355426518236015",
    "lng": "127.60499882479382",
    "region": "경기도"
  },
  {
    "name": "서대구중학교",
    "address": "대구광역시 서구 평리동 509",
    "lat": "35.8799105327804",
    "lng": "128.556671373781",
    "region": "대구광역시"
  },
  {
    "name": "경운공원",
    "address": "대구광역시 서구 내당동 252-4",
    "lat": "35.86193343682441",
    "lng": "128.5551699691529",
    "region": "대구광역시"
  },
  {
    "name": "부산문화여자고등학교운동장",
    "address": "부산광역시 해운대구 우동 1025-8",
    "lat": "35.165927992149484",
    "lng": "129.14377481434056",
    "region": "부산광역시"
  },
  {
    "name": "송수초등학교운동장",
    "address": "부산광역시 해운대구 재송동 935-1",
    "lat": "35.18939959786031",
    "lng": "129.1194123029726",
    "region": "부산광역시"
  },
  {
    "name": "덕성초등학교 운동장",
    "address": "충청북도 청주시 청원구 율량동 1335",
    "lat": "36.66692420180754",
    "lng": "127.48452740753969",
    "region": "충청북도"
  },
  {
    "name": "소답초교운동장",
    "address": "경상남도 창원시 의창구 소답동 144-1",
    "lat": "35.265226348575055",
    "lng": "128.62950275318903",
    "region": "경상남도"
  },
  {
    "name": "대원초등학교운동장",
    "address": "경상남도 창원시 성산구 대원동 43",
    "lat": "35.233570329851155",
    "lng": "128.65113347768812",
    "region": "경상남도"
  },
  {
    "name": "해운대관광고등학교운동장",
    "address": "부산광역시 해운대구 우동 351-2",
    "lat": "35.17028715105852",
    "lng": "129.15702223777717",
    "region": "부산광역시"
  },
  {
    "name": "송정초등학교운동장",
    "address": "강원특별자치도 동해시 송정동 1058",
    "lat": "37.49422239310097",
    "lng": "129.122945342416",
    "region": "강원특별자치도"
  },
  {
    "name": "망상초등학교운동장",
    "address": "강원특별자치도 동해시 망상동 353-1",
    "lat": "37.59047414333563",
    "lng": "129.0909151928435",
    "region": "강원특별자치도"
  },
  {
    "name": "서천중학교 운동장",
    "address": "경기도 용인시 기흥구 서천동 797",
    "lat": "37.24028003184383",
    "lng": "127.0754812289931",
    "region": "경기도"
  },
  {
    "name": "동백초등학교 운동장",
    "address": "경기도 용인시 기흥구 동백동 658",
    "lat": "37.280345028628595",
    "lng": "127.15637274967955",
    "region": "경기도"
  },
  {
    "name": "초당초등학교 운동장",
    "address": "경기도 용인시 기흥구 중동 1010",
    "lat": "37.263181332910115",
    "lng": "127.16079959189713",
    "region": "경기도"
  },
  {
    "name": "추산초등학교 운동장",
    "address": "충청북도 괴산군 불정면 추산리 575-1",
    "lat": "36.90249500885111",
    "lng": "127.81724625162056",
    "region": "충청북도"
  },
  {
    "name": "남산초등학교 운동장",
    "address": "대구광역시 중구 남산동 122",
    "lat": "35.86280310576512",
    "lng": "128.58353692068914",
    "region": "대구광역시"
  },
  {
    "name": "계성초등학교 운동장",
    "address": "대구광역시 중구 대신동 280-2",
    "lat": "35.86566644641498",
    "lng": "128.58086337681473",
    "region": "대구광역시"
  },
  {
    "name": "경상감영공원",
    "address": "대구광역시 중구 포정동 21",
    "lat": "35.87224490378961",
    "lng": "128.59211863914416",
    "region": "대구광역시"
  },
  {
    "name": "태하분교 운동장",
    "address": "경상북도 울릉군 서면 태하리 521-2",
    "lat": "37.512868333898716",
    "lng": "130.8021041751716",
    "region": "경상북도"
  },
  {
    "name": "현포분교 운동장",
    "address": "경상북도 울릉군 북면 현포리 549",
    "lat": "37.524626501839414",
    "lng": "130.82194447525737",
    "region": "경상북도"
  },
  {
    "name": "운천초등학교 운동장",
    "address": "충청북도 청주시 흥덕구 운천동 543-7",
    "lat": "36.65400672019522",
    "lng": "127.47348272718776",
    "region": "충청북도"
  },
  {
    "name": "중앙여자고등학교 운동장",
    "address": "서울특별시 서대문구 북아현동 190-1",
    "lat": "37.56214365882619",
    "lng": "126.9524797797169",
    "region": "서울특별시"
  },
  {
    "name": "웅촌면운동장",
    "address": "울산광역시 울주군 웅촌면 곡천리 233-3",
    "lat": "35.460536328342165",
    "lng": "129.20855509616158",
    "region": "울산광역시"
  },
  {
    "name": "군민운동장",
    "address": "대구광역시 달성군 논공읍 북리 1",
    "lat": "35.72974335602328",
    "lng": "128.44976813232205",
    "region": "대구광역시"
  },
  {
    "name": "명곡초등학교운동장",
    "address": "대구광역시 달성군 화원읍 명곡리 132",
    "lat": "35.796336951503115",
    "lng": "128.49603666029782",
    "region": "대구광역시"
  },
  {
    "name": "비슬초등학교운동장",
    "address": "대구광역시 달성군 유가읍 봉리 597",
    "lat": "35.69606487284153",
    "lng": "128.45734247420006",
    "region": "대구광역시"
  },
  {
    "name": "방학중학교 운동장",
    "address": "서울특별시 도봉구 방학동 313",
    "lat": "37.66544260584079",
    "lng": "127.03176373749346",
    "region": "서울특별시"
  },
  {
    "name": "기산초등학교 운동장",
    "address": "경기도 화성시 반월동 705-4",
    "lat": "37.224465592691885",
    "lng": "127.05052526143791",
    "region": "경기도"
  },
  {
    "name": "은진초등학교 운동장",
    "address": "서울특별시 은평구 진관동 104",
    "lat": "37.63302062212424",
    "lng": "126.921146056016",
    "region": "서울특별시"
  },
  {
    "name": "반석초등학교운동장",
    "address": "부산광역시 해운대구 반여동 757-1",
    "lat": "35.21125133647658",
    "lng": "129.12501389216388",
    "region": "부산광역시"
  },
  {
    "name": "정읍여자고등학교 운동장",
    "address": "전북특별자치도 정읍시 상동 188",
    "lat": "35.55969640694286",
    "lng": "126.871264014264",
    "region": "전북특별자치도"
  },
  {
    "name": "지지대쉼터",
    "address": "경기도 수원시 장안구 이목동 563",
    "lat": "37.32528236566063",
    "lng": "126.98596627030882",
    "region": "경기도"
  },
  {
    "name": "희망어린이공원",
    "address": "대구광역시 수성구 상동 17",
    "lat": "35.83951089821656",
    "lng": "128.6154930427142",
    "region": "대구광역시"
  },
  {
    "name": "관계지공원",
    "address": "대구광역시 수성구 범물동 1367",
    "lat": "35.8144459",
    "lng": "128.639973",
    "region": "대구광역시"
  },
  {
    "name": "다대초등학교운동장",
    "address": "부산광역시 사하구 다대동 270",
    "lat": "35.05947460161187",
    "lng": "128.97620916366972",
    "region": "부산광역시"
  },
  {
    "name": "진주초등학교 운동장",
    "address": "경상남도 진주시 인사동 1-25",
    "lat": "35.192835592209484",
    "lng": "128.0784269590553",
    "region": "경상남도"
  },
  {
    "name": "날뫼공원",
    "address": "대구광역시 서구 평리동 656-1",
    "lat": "35.88027075654416",
    "lng": "128.56567556225536",
    "region": "대구광역시"
  },
  {
    "name": "다송중학교운동장",
    "address": "부산광역시 사하구 다대동 95",
    "lat": "35.06356698347894",
    "lng": "128.9843845367403",
    "region": "부산광역시"
  },
  {
    "name": "부일외국어고등학교운동장",
    "address": "부산광역시 사하구 감천동 634-61",
    "lat": "35.09097889399444",
    "lng": "129.00155067444055",
    "region": "부산광역시"
  },
  {
    "name": "광주신촌마을대피소",
    "address": "광주광역시 북구 청풍동 852-3",
    "lat": "35.175656062297044",
    "lng": "126.96113534979128",
    "region": "광주광역시"
  },
  {
    "name": "남창고등학교 운동장",
    "address": "울산광역시 울주군 온양읍 운화리 63",
    "lat": "35.41514329301853",
    "lng": "129.27797108888473",
    "region": "울산광역시"
  },
  {
    "name": "세천초등학교운동장",
    "address": "대구광역시 달성군 다사읍 세천리 1586",
    "lat": "35.874342858973876",
    "lng": "128.48188402250878",
    "region": "대구광역시"
  },
  {
    "name": "한빛중학교 운동장",
    "address": "경기도 파주시 야당동 992",
    "lat": "37.71452344781735",
    "lng": "126.75470497752842",
    "region": "경기도"
  },
  {
    "name": "숭인초등학교 운동장",
    "address": "서울특별시 성북구 하월곡동 222-4",
    "lat": "37.60891600078397",
    "lng": "127.03880586902201",
    "region": "서울특별시"
  },
  {
    "name": "연희초등학교 운동장",
    "address": "서울특별시 서대문구 연희동 88-1",
    "lat": "37.56906855824153",
    "lng": "126.93356101697803",
    "region": "서울특별시"
  },
  {
    "name": "본동초등학교 운동장",
    "address": "서울특별시 동작구 본동 50-8",
    "lat": "37.51028213009333",
    "lng": "126.95374415240204",
    "region": "서울특별시"
  },
  {
    "name": "영우리 어린이공원",
    "address": "충청북도 청주시 상당구 영운동 61-1",
    "lat": "36.61992639607103",
    "lng": "127.50621980019712",
    "region": "충청북도"
  },
  {
    "name": "상신초등학교 운동장",
    "address": "경기도 화성시 향남읍 상신리 874",
    "lat": "37.09387639684661",
    "lng": "126.90078076356853",
    "region": "경기도"
  },
  {
    "name": "청남초등학교 운동장",
    "address": "충청북도 청주시 상당구 영운동 127",
    "lat": "36.62012621431665",
    "lng": "127.49771106936252",
    "region": "충청북도"
  },
  {
    "name": "남성초등학교 운동장",
    "address": "서울특별시 동작구 사당동 324-18",
    "lat": "37.4842437840413",
    "lng": "126.97630269389495",
    "region": "서울특별시"
  },
  {
    "name": "석우초등학교 운동장",
    "address": "경기도 화성시 반송동 20",
    "lat": "37.208858270357624",
    "lng": "127.06789255142212",
    "region": "경기도"
  },
  {
    "name": "대림초등학교운동장",
    "address": "서울특별시 동작구 대방동 391-62",
    "lat": "37.50056876666399",
    "lng": "126.92616770099107",
    "region": "서울특별시"
  },
  {
    "name": "대경중학교 운동장",
    "address": "경기도 포천시 소흘읍 송우리 729-13",
    "lat": "37.82653836741542",
    "lng": "127.14001877591105",
    "region": "경기도"
  },
  {
    "name": "신지초등학교 운동장",
    "address": "경기도 양주시 백석읍 복지리 156",
    "lat": "37.78848941198659",
    "lng": "126.99076364990346",
    "region": "경기도"
  },
  {
    "name": "고암초등학교 운동장",
    "address": "경기도 양주시 덕정동 208-13",
    "lat": "37.83523981911505",
    "lng": "127.06808506875466",
    "region": "경기도"
  },
  {
    "name": "회천초등학교 운동장",
    "address": "경기도 양주시 고암동 122-1",
    "lat": "37.83237327989579",
    "lng": "127.06960197109032",
    "region": "경기도"
  },
  {
    "name": "진건초등학교 운동장",
    "address": "경기도 남양주시 진건읍 용정리 780-1",
    "lat": "37.65732103663833",
    "lng": "127.17906371538442",
    "region": "경기도"
  },
  {
    "name": "위천초등학교",
    "address": "경상남도 거창군 위천면 강천리 100-2",
    "lat": "35.752899047154095",
    "lng": "127.82924830913487",
    "region": "경상남도"
  },
  {
    "name": "퇴계원초등학교 운동장",
    "address": "경기도 남양주시 퇴계원읍 퇴계원리 271-6",
    "lat": "37.65348088501649",
    "lng": "127.14180886745451",
    "region": "경기도"
  },
  {
    "name": "수목어린이공원",
    "address": "대구광역시 수성구 황금동 721",
    "lat": "35.8492304",
    "lng": "128.617976",
    "region": "대구광역시"
  },
  {
    "name": "수동송천분교 운동장",
    "address": "경기도 남양주시 수동면 송천리 332",
    "lat": "37.694939191548066",
    "lng": "127.33403274752612",
    "region": "경기도"
  },
  {
    "name": "용남고등학교 운동장",
    "address": "충청남도 계룡시 신도안면 남선리 1278",
    "lat": "36.29352695807953",
    "lng": "127.24548161029931",
    "region": "충청남도"
  },
  {
    "name": "명곡인라인스케이트장",
    "address": "대구광역시 달성군 화원읍 명곡리 57",
    "lat": "35.79787875320305",
    "lng": "128.50384322487815",
    "region": "대구광역시"
  },
  {
    "name": "서재초등학교운동장",
    "address": "대구광역시 달성군 다사읍 서재리 262",
    "lat": "35.872121647028955",
    "lng": "128.49858035626735",
    "region": "대구광역시"
  },
  {
    "name": "하빈초등학교운동장",
    "address": "대구광역시 달성군 하빈면 현내리 855-3",
    "lat": "35.901673456832626",
    "lng": "128.44260909236337",
    "region": "대구광역시"
  },
  {
    "name": "논공중학교운동장",
    "address": "대구광역시 달성군 논공읍 북리 1-23",
    "lat": "35.723868116642585",
    "lng": "128.45673037135282",
    "region": "대구광역시"
  },
  {
    "name": "홍제초등학교 운동장",
    "address": "서울특별시 서대문구 홍은동 48",
    "lat": "37.5925658366191",
    "lng": "126.943928941681",
    "region": "서울특별시"
  },
  {
    "name": "신봉초등학교 운동장",
    "address": "경기도 포천시 소흘읍 송우리 727-4",
    "lat": "37.831725996799335",
    "lng": "127.13897358207807",
    "region": "경기도"
  },
  {
    "name": "청성초등학�� 운동장",
    "address": "경기도 포천시 군내면 직두리 740",
    "lat": "37.87485372594506",
    "lng": "127.22350725403513",
    "region": "경기도"
  },
  {
    "name": "가산초등학교 운동장",
    "address": "경기도 포천시 가산면 마산리 406",
    "lat": "37.8475030313399",
    "lng": "127.18488178738292",
    "region": "경기도"
  },
  {
    "name": "포천중학교 운동장",
    "address": "경기도 포천시 신북면 가채리 841-1",
    "lat": "37.90715924339862",
    "lng": "127.20166131447986",
    "region": "경기도"
  },
  {
    "name": "청평초등학교 운동장",
    "address": "경기도 가평군 청평면 청평리 395",
    "lat": "37.7375091814226",
    "lng": "127.4215042591095",
    "region": "경기도"
  },
  {
    "name": "남양주 월문초등학교 운동장",
    "address": "경기도 남양주시 와부읍 월문리 269-1",
    "lat": "37.60913632865806",
    "lng": "127.26187842927602",
    "region": "경기도"
  },
  {
    "name": "해밀초등학교 운동장",
    "address": "경기도 남양주시 진접읍 금곡리 1077-2",
    "lat": "37.71852777261124",
    "lng": "127.1960753746238",
    "region": "경기도"
  },
  {
    "name": "장현초등학교 운동장",
    "address": "경기도 남양주시 진접읍 장현리 379",
    "lat": "37.719152262094596",
    "lng": "127.18238028678856",
    "region": "경기도"
  },
  {
    "name": "웅양초등학교",
    "address": "경상남도 거창군 웅양면 노현리 292",
    "lat": "35.80309492301447",
    "lng": "127.9159991164493",
    "region": "경상남도"
  },
  {
    "name": "풍암초등학교  운동장",
    "address": "광주광역시 서구 풍암동 1050",
    "lat": "35.123335390269204",
    "lng": "126.87578737735745",
    "region": "광주광역시"
  },
  {
    "name": "머내생태공원",
    "address": "경기도 수원시 영통구 매탄동 1318",
    "lat": "37.25957190575273",
    "lng": "127.04893469810487",
    "region": "경기도"
  },
  {
    "name": "광주여자고등학교  운동장",
    "address": "광주광역시 서구 화정동 325-7",
    "lat": "35.14783228935432",
    "lng": "126.87314271926878",
    "region": "광주광역시"
  },
  {
    "name": "세종국악당",
    "address": "경기도 여주시 하동 107-12",
    "lat": "37.297325485686315",
    "lng": "127.62504282586276",
    "region": "경기도"
  },
  {
    "name": "영도여자고등학교 운동장",
    "address": "부산광역시 영도구 동삼동 514-13",
    "lat": "35.07348313302924",
    "lng": "129.06611144542848",
    "region": "부산광역시"
  },
  {
    "name": "태종대초등학교 운동장",
    "address": "부산광역시 영도구 동삼동 962",
    "lat": "35.0657098376503",
    "lng": "129.07885115920385",
    "region": "부산광역시"
  },
  {
    "name": "서일초등학교 운동장",
    "address": "서울특별시 서초구 서초동 1436-8",
    "lat": "37.48460683049286",
    "lng": "127.0227118805346",
    "region": "서울특별시"
  },
  {
    "name": "서이초등학교 운동장",
    "address": "서울특별시 서초구 서초동 1334-2",
    "lat": "37.49111975720102",
    "lng": "127.02593590717689",
    "region": "서울특별시"
  },
  {
    "name": "서울고등학교 운동장",
    "address": "서울특별시 서초구 서초동 1526-1",
    "lat": "37.484140392618414",
    "lng": "127.00576235809349",
    "region": "서울특별시"
  },
  {
    "name": "서부초등학교 운동장",
    "address": "충청남도 홍성군 서부면 이호리 235",
    "lat": "36.57885992644918",
    "lng": "126.51205725839336",
    "region": "충청남도"
  },
  {
    "name": "서일중학교 운동장",
    "address": "서울특별시 서초구 서초동 1313",
    "lat": "37.49868737793959",
    "lng": "127.02258143187385",
    "region": "서울특별시"
  },
  {
    "name": "신동초등학교 운동장",
    "address": "서울특별시 서초구 잠원동 54-5",
    "lat": "37.51673576422566",
    "lng": "127.01189998183615",
    "region": "서울특별시"
  },
  {
    "name": "반포고등학교 운동장",
    "address": "서울특별시 서초구 반포동 30-19",
    "lat": "37.50176717740565",
    "lng": "127.01678765275895",
    "region": "서울특별시"
  },
  {
    "name": "잠원초등학교 운동장",
    "address": "서울특별시 서초구 반포동 17",
    "lat": "37.50136418947426",
    "lng": "126.9981860531389",
    "region": "서울특별시"
  },
  {
    "name": "신반포중학교 운동장",
    "address": "서울특별시 서초구 반포동 3-1",
    "lat": "37.50559612714511",
    "lng": "126.99615312941079",
    "region": "서울특별시"
  },
  {
    "name": "반원초등학교 운동장",
    "address": "서울특별시 서초구 잠원동 72",
    "lat": "37.50973653250238",
    "lng": "127.00405276640633",
    "region": "서울특별시"
  },
  {
    "name": "방배중학교 운동장",
    "address": "서울특별시 서초구 반포동 586-1",
    "lat": "37.49459059650275",
    "lng": "126.99843985208958",
    "region": "서울특별시"
  },
  {
    "name": "한국폴리텍대학교 운동장",
    "address": "경상남도 진주시 하대동 105",
    "lat": "35.190675254471444",
    "lng": "128.1273673746983",
    "region": "경상남도"
  },
  {
    "name": "갈전초등학교 운동장",
    "address": "경상남도 진주시 충무공동 190-1",
    "lat": "35.18288937209548",
    "lng": "128.14898990360643",
    "region": "경상남도"
  },
  {
    "name": "남동초등학교운동장",
    "address": "대구광역시 달성군 논공읍 남리 717-5",
    "lat": "35.7247",
    "lng": "128.4561",
    "region": "대구광역시"
  },
  {
    "name": "대실초등학교운동장",
    "address": "대구광역시 달성군 다사읍 죽곡리 820",
    "lat": "35.853030788569086",
    "lng": "128.46793989140716",
    "region": "대구광역시"
  },
  {
    "name": "광탄체육공원",
    "address": "경기도 파주시 광탄면 방축리 386-45",
    "lat": "37.80785591818851",
    "lng": "126.85168132233008",
    "region": "경기도"
  },
  {
    "name": "서신초등학교 운동장",
    "address": "경기도 화성시 서신면 매화리 333",
    "lat": "37.16956098177261",
    "lng": "126.70729787141973",
    "region": "경기도"
  },
  {
    "name": "숲속초등학교 운동장",
    "address": "경기도 화성시 반송동 56",
    "lat": "37.20581859228549",
    "lng": "127.06046856114769",
    "region": "경기도"
  },
  {
    "name": "송우중학교 운동장",
    "address": "경기도 포천시 소흘읍 송우리 725-2",
    "lat": "37.83541771972865",
    "lng": "127.14455904359713",
    "region": "경기도"
  },
  {
    "name": "유암초등학교 운동장",
    "address": "경기도 포천시 가산면 감암리 503-1",
    "lat": "37.86829545505872",
    "lng": "127.19225931576713",
    "region": "경기도"
  },
  {
    "name": "경북중학교 운동장",
    "address": "경기도 포천시 가산면 감암리 194",
    "lat": "37.84938840178893",
    "lng": "127.18847496068555",
    "region": "경기도"
  },
  {
    "name": "덕계중학교 운동장",
    "address": "경기도 양주시 덕계동 406-2",
    "lat": "37.81637053688726",
    "lng": "127.05037955498865",
    "region": "경기도"
  },
  {
    "name": "양구레포츠공원인조잔디구장",
    "address": "강원특별자치도 양구군 양구읍 상리 394",
    "lat": "38.10596887156901",
    "lng": "127.98245633457181",
    "region": "강원특별자치도"
  },
  {
    "name": "화성화수초등학교 운동장",
    "address": "경기도 화성시 우정읍 화수리 834-13",
    "lat": "37.10874208944633",
    "lng": "126.79719633706759",
    "region": "경기도"
  },
  {
    "name": "서호공원",
    "address": "경기도 수원시 팔달구 화서동 436-1",
    "lat": "37.2804897705533",
    "lng": "126.9904732704162",
    "region": "경기도"
  },
  {
    "name": "언북초등학교 운동장",
    "address": "서울특별시 강남구 청담동 27",
    "lat": "37.520082420752196",
    "lng": "127.04626233090337",
    "region": "서울특별시"
  },
  {
    "name": "소의초등학교 운동장",
    "address": "서울특별시 마포구 아현동 386-1",
    "lat": "37.55214586808846",
    "lng": "126.96115317517362",
    "region": "서울특별시"
  },
  {
    "name": "매여울공원",
    "address": "경기도 수원시 영통구 매탄동 1338",
    "lat": "37.25681799889993",
    "lng": "127.046206891536",
    "region": "경기도"
  },
  {
    "name": "매화공원",
    "address": "경기도 수원시 영통구 매탄동 1311",
    "lat": "37.262056739941514",
    "lng": "127.04910635948183",
    "region": "경기도"
  },
  {
    "name": " 양촌리 마을회관",
    "address": "경기도 여주시 대신면 양촌리 150-6",
    "lat": "37.370533930767294",
    "lng": "127.55944990780459",
    "region": "경기도"
  },
  {
    "name": "방일초등학교 운동장",
    "address": "서울특별시 서초구 방배동 167-4",
    "lat": "37.4852596398791",
    "lng": "126.99789970572549",
    "region": "서울특별시"
  },
  {
    "name": "남태령어린이공원",
    "address": "서울특별시 서초구 방배동 2956-4",
    "lat": "37.46616858510217",
    "lng": "126.98861774260853",
    "region": "서울특별시"
  },
  {
    "name": "방배초등학교 운동장",
    "address": "서울특별시 서초구 방배동 861-1",
    "lat": "37.48712380473291",
    "lng": "126.98745351840824",
    "region": "서울특별시"
  },
  {
    "name": "서문여자중학교 운동장",
    "address": "서울특별시 서초구 방배동 1514",
    "lat": "37.48897301691069",
    "lng": "126.9850812456648",
    "region": "서울특별시"
  },
  {
    "name": "양재근린공원",
    "address": "서울특별시 서초구 양재동 311",
    "lat": "37.47150216186942",
    "lng": "127.04264608428902",
    "region": "서울특별시"
  },
  {
    "name": "마포초등학교 운동장",
    "address": "서울특별시 마포구 도화동 224-9",
    "lat": "37.538582857995706",
    "lng": "126.94909297358257",
    "region": "서울특별시"
  },
  {
    "name": "신성초등학교 운동장",
    "address": "서울특별시 관악구 신림동 117-4",
    "lat": "37.47147985756789",
    "lng": "126.936851614489",
    "region": "서울특별시"
  },
  {
    "name": "서평초등학교",
    "address": "대구광역시 서구 평리동 574-6",
    "lat": "35.87830843268385",
    "lng": "128.54833897829062",
    "region": "대구광역시"
  },
  {
    "name": "진주여자고등학교 운동장",
    "address": "경상남도 진주시 상봉동 856-1",
    "lat": "35.20117438031757",
    "lng": "128.07583451271057",
    "region": "경상남도"
  },
  {
    "name": "신석초등학교 운동장",
    "address": "서울특별시 마포구 신수동 445-1",
    "lat": "37.5440164462131",
    "lng": "126.93793768010227",
    "region": "서울특별시"
  },
  {
    "name": "신수중학교 운동장",
    "address": "서울특별시 마포구 신수동 371-28",
    "lat": "37.5454",
    "lng": "126.9337",
    "region": "서울특별시"
  },
  {
    "name": "와우어린이공원",
    "address": "서울특별시 마포구 상수동 72-7",
    "lat": "37.549",
    "lng": "126.9253",
    "region": "서울특별시"
  },
  {
    "name": "망원초등학교 운동장",
    "address": "서울특별시 마포구 망원동 467-1",
    "lat": "37.56053252178318",
    "lng": "126.90098261382006",
    "region": "서울특별시"
  },
  {
    "name": "을숙도초등학교운동장",
    "address": "부산광역시 사하구 하단동 1217-2",
    "lat": "35.115301224431015",
    "lng": "128.96142482757142",
    "region": "부산광역시"
  },
  {
    "name": "화성공원",
    "address": "대구광역시 수성구 지산동 1256",
    "lat": "35.82554253013979",
    "lng": "128.62943754117032",
    "region": "대구광역시"
  },
  {
    "name": "장림복합공영주차장",
    "address": "부산광역시 사하구 장림동 1144-1",
    "lat": "35.081483541588504",
    "lng": "128.96143952072373",
    "region": "부산광역시"
  },
  {
    "name": "두성공원",
    "address": "대구광역시 수성구 신매동 595-2",
    "lat": "35.83366582976214",
    "lng": "128.70519997710147",
    "region": "대구광역시"
  },
  {
    "name": "봉원초등학교 운동장",
    "address": "경상남도 진주시 상봉동 777",
    "lat": "35.200752640603966",
    "lng": "128.0699662004162",
    "region": "경상남도"
  },
  {
    "name": "상리공원",
    "address": "대구광역시 서구 중리동 1182-1",
    "lat": "35.86168291694851",
    "lng": "128.53046089410802",
    "region": "대구광역시"
  },
  {
    "name": "미동초등학교 운동장",
    "address": "서울특별시 서대문구 미근동 36-1",
    "lat": "37.56284509681788",
    "lng": "126.96589446690788",
    "region": "서울특별시"
  },
  {
    "name": "금화초등학교 운동장",
    "address": "서울특별시 서대문구 천연동 13-1",
    "lat": "37.56855745306014",
    "lng": "126.96323040034534",
    "region": "서울특별시"
  },
  {
    "name": "자운학교 운동장",
    "address": "경기도 파주시 목동동 1090",
    "lat": "37.71860305575453",
    "lng": "126.74279808998102",
    "region": "경기도"
  },
  {
    "name": "송우고등학교 운동장",
    "address": "경기도 포천시 소흘읍 송우리 728-8",
    "lat": "37.82957566439244",
    "lng": "127.13849416732126",
    "region": "경기도"
  },
  {
    "name": "조종초등학교 운동장",
    "address": "경기도 가평군 조종면 현리 276",
    "lat": "37.82099727353444",
    "lng": "127.34887003898622",
    "region": "경기도"
  },
  {
    "name": "가평종합운동장",
    "address": "경기도 가평군 가평읍 대곡리 316",
    "lat": "37.824972581401674",
    "lng": "127.50728921050124",
    "region": "경기도"
  },
  {
    "name": "태안초등학교 운동장",
    "address": "경기도 화성시 병점동 824",
    "lat": "37.2104662053952",
    "lng": "127.04106020327757",
    "region": "경기도"
  },
  {
    "name": "오남체육문화센터 광장",
    "address": "경기도 남양주시 오남읍 오남리 538-1",
    "lat": "37.68452779313883",
    "lng": "127.20983043640814",
    "region": "경기도"
  },
  {
    "name": "서광초등학교  운동장",
    "address": "광주광역시 서구 쌍촌동 362-7",
    "lat": "35.1540913279465",
    "lng": "126.86461865901947",
    "region": "광주광역시"
  },
  {
    "name": "안성고등학교 운동장",
    "address": "전북특별자치도 무주군 안성면 사전리 1238",
    "lat": "35.87000795104663",
    "lng": "127.65332221984862",
    "region": "전북특별자치도"
  },
  {
    "name": "삼광초등학교 운동장",
    "address": "서울특별시 용산구 후암동 190-2",
    "lat": "37.5468976269737",
    "lng": "126.97662027909628",
    "region": "서울특별시"
  },
  {
    "name": "화정중학교  운동장",
    "address": "광주광역시 서구 화정동 647-7",
    "lat": "35.14491533396469",
    "lng": "126.8818116188049",
    "region": "광주광역시"
  },
  {
    "name": "매탄공원",
    "address": "경기도 수원시 영통구 매탄동 811",
    "lat": "37.26821296905731",
    "lng": "127.04541563987732",
    "region": "경기도"
  },
  {
    "name": "아현중학교 운동장",
    "address": "서울특별시 마포구 아현동 267-1",
    "lat": "37.556405344937694",
    "lng": "126.9571828175776",
    "region": "서울특별시"
  },
  {
    "name": "황골공원",
    "address": "경기도 수원시 영통구 영통동 948-2",
    "lat": "37.2663732627628",
    "lng": "127.07828782012724",
    "region": "경기도"
  },
  {
    "name": "황금공원",
    "address": "대구광역시 수성구 황금동 802",
    "lat": "35.8457875",
    "lng": "128.619356",
    "region": "대구광역시"
  },
  {
    "name": "청소년공원",
    "address": "대구광역시 수성구 상동 54",
    "lat": "35.83662312123405",
    "lng": "128.61371034450238",
    "region": "대구광역시"
  },
  {
    "name": " 천송2통 마을회관",
    "address": "경기도 여주시 천송동 540-1",
    "lat": "37.301609226875144",
    "lng": "127.65467367749211",
    "region": "경기도"
  },
  {
    "name": "청두어린이공원",
    "address": "서울특별시 서초구 방배동 463-14",
    "lat": "37.480617756171156",
    "lng": "126.98499967549724",
    "region": "서울특별시"
  },
  {
    "name": "용강초등학교 운동장 ",
    "address": "서울특별시 마포구 대흥동 35-1",
    "lat": "37.5491",
    "lng": "126.9441",
    "region": "서울특별시"
  },
  {
    "name": "와우근린공원",
    "address": "서울특별시 마포구 창전동 3-181",
    "lat": "37.553",
    "lng": "126.9301",
    "region": "서울특별시"
  },
  {
    "name": "서교초등학교 운동장",
    "address": "서울특별시 마포구 서교동 341",
    "lat": "37.55473950058655",
    "lng": "126.92471221229808",
    "region": "서울특별시"
  },
  {
    "name": "경성고등학교 운동장",
    "address": "서울특별시 마포구 연남동 369-1",
    "lat": "37.56311071524171",
    "lng": "126.91944472853015",
    "region": "서울특별시"
  },
  {
    "name": "성서중학교 운동장 ",
    "address": "서울특별시 마포구 성산동 587-4",
    "lat": "37.5631",
    "lng": "126.9084",
    "region": "서울특별시"
  },
  {
    "name": "대구소프트웨어고등학교운동장",
    "address": "대구광역시 달성군 구지면 창리 1395-1",
    "lat": "35.662522489127674",
    "lng": "128.41412631113755",
    "region": "대구광역시"
  },
  {
    "name": "덕성여자대학교 운동장",
    "address": "서울특별시 도봉구 쌍문동 419",
    "lat": "37.64993445859788",
    "lng": "127.01770305633542",
    "region": "서울특별시"
  },
  {
    "name": "이화금란중학교 운동장",
    "address": "서울특별시 서대문구 대신동 47",
    "lat": "37.5626",
    "lng": "126.9449",
    "region": "서울특별시"
  },
  {
    "name": "연세대학교 운동장",
    "address": "서울특별시 서대문구 연희동 27",
    "lat": "37.56221253477702",
    "lng": "126.9334356540616",
    "region": "서울특별시"
  },
  {
    "name": "장위초등학교 운동장",
    "address": "서울특별시 성북구 장위동 68-8",
    "lat": "37.61167141714778",
    "lng": "127.05002837814372",
    "region": "서울특별시"
  },
  {
    "name": "병점초등학교 운동장",
    "address": "경기도 화성시 진안동 517-2",
    "lat": "37.20992247552528",
    "lng": "127.03495949725205",
    "region": "경기도"
  },
  {
    "name": "은평초등학교 운동장",
    "address": "서울특별시 은평구 녹번동 40-3",
    "lat": "37.601627109697304",
    "lng": "126.93444100329118",
    "region": "서울특별시"
  },
  {
    "name": "점암중앙중학교",
    "address": "전라남도 고흥군 점암면 모룡리 489",
    "lat": "34.65057361530987",
    "lng": "127.38350118441046",
    "region": "전라남도"
  },
  {
    "name": "갈월중학교 운동장",
    "address": "경기도 포천시 소흘읍 이가팔리 487",
    "lat": "37.82423239547753",
    "lng": "127.15294270999031",
    "region": "경기도"
  },
  {
    "name": "태봉공원",
    "address": "경기도 포천시 소흘읍 송우리 산20-1",
    "lat": "37.83173435947588",
    "lng": "127.14478343725206",
    "region": "경기도"
  },
  {
    "name": "운담초등학교 운동장",
    "address": "경기도 포천시 일동면 화대리 608-2",
    "lat": "37.97150464720951",
    "lng": "127.32943756593177",
    "region": "경기도"
  },
  {
    "name": "도평초등학교 운동장",
    "address": "경기도 포천시 이동면 도평리 356-1",
    "lat": "38.05596874244794",
    "lng": "127.38080116310111",
    "region": "경기도"
  },
  {
    "name": "노곡초등학교 운동장",
    "address": "경기도 포천시 이동면 노곡리 846-6",
    "lat": "38.0079476397484",
    "lng": "127.33555971075221",
    "region": "경기도"
  },
  {
    "name": "영북고등학교 운동장",
    "address": "경기도 포천시 영북면 운천리 334-3",
    "lat": "38.0861645579783",
    "lng": "127.27544588052601",
    "region": "경기도"
  },
  {
    "name": "삼숭초등학교 운동장",
    "address": "경기도 양주시 삼숭동 679-2",
    "lat": "37.79641581884225",
    "lng": "127.10812378695056",
    "region": "경기도"
  },
  {
    "name": "설악중고등학교 운동장",
    "address": "경기도 가평군 설악면 신천리 76-2",
    "lat": "37.68126880943843",
    "lng": "127.49345719814299",
    "region": "경기도"
  },
  {
    "name": "산북초등학교 운동장",
    "address": "경기도 양주시 산북동 352-1",
    "lat": "37.80607008197088",
    "lng": "127.0398429089107",
    "region": "경기도"
  },
  {
    "name": "삼숭중학교 운동장",
    "address": "경기도 양주시 삼숭동 679-1",
    "lat": "37.79756027700048",
    "lng": "127.1084860169992",
    "region": "경기도"
  },
  {
    "name": "진건중학교 운동장",
    "address": "경기도 남양주시 진건읍 사능리 634-8",
    "lat": "37.65388233389898",
    "lng": "127.17842714658165",
    "region": "경기도"
  },
  {
    "name": "양구종합운동장",
    "address": "강원특별자치도 양구군 양구읍 하리 97-1",
    "lat": "38.10957147734613",
    "lng": "127.9851710537124",
    "region": "강원특별자치도"
  },
  {
    "name": "하늘물 공원",
    "address": "경기도 양주시 광사동 659",
    "lat": "37.79326175622655",
    "lng": "127.08249449729918",
    "region": "경기도"
  },
  {
    "name": "갈말풋살경기장",
    "address": "강원특별자치도 철원군 갈말읍 군탄리 816-8",
    "lat": "38.16063722639024",
    "lng": "127.30350014859341",
    "region": "강원특별자치도"
  },
  {
    "name": "남하초등학교",
    "address": "경상남도 거창군 남하면 무릉리 1290",
    "lat": "35.65864689349411",
    "lng": "127.94663928242251",
    "region": "경상남도"
  },
  {
    "name": "삼보초등학교 운동장",
    "address": "충청북도 증평군 증평읍 초중리 11-19",
    "lat": "36.77795092682087",
    "lng": "127.57906467685363",
    "region": "충청북도"
  },
  {
    "name": "수원종합운동장",
    "address": "경기도 수원시 장안구 조원동 775",
    "lat": "37.29784757907211",
    "lng": "127.0109832530667",
    "region": "경기도"
  },
  {
    "name": "강상체육공원",
    "address": "경기도 양평군 강상면 교평리 326-2",
    "lat": "37.4821249624572",
    "lng": "127.488025724887",
    "region": "경기도"
  },
  {
    "name": "천천3공원",
    "address": "경기도 수원시 장안구 정자동 925",
    "lat": "37.291227509410994",
    "lng": "126.98686772754007",
    "region": "경기도"
  },
  {
    "name": "고창군공설운동장 ",
    "address": "전북특별자치도 고창군 고창읍 월암리 316",
    "lat": "35.43248576087191",
    "lng": "126.72377723919446",
    "region": "전북특별자치도"
  },
  {
    "name": "청정(권선)공원",
    "address": "경기도 수원시 권선구 권선동 1198",
    "lat": "37.24950170086686",
    "lng": "127.02347911305478",
    "region": "경기도"
  },
  {
    "name": "구곡초등학교",
    "address": "강원특별자치도 원주시 단구동 982-1",
    "lat": "37.32482490358921",
    "lng": "127.95322425159142",
    "region": "강원특별자치도"
  },
  {
    "name": "연세중학교 운동장",
    "address": "경기도 남양주시 조안면 송촌리 760",
    "lat": "37.56864987138765",
    "lng": "127.32168575760356",
    "region": "경기도"
  },
  {
    "name": "끝동공원",
    "address": "대구광역시 수성구 두산동 155",
    "lat": "35.8321797",
    "lng": "128.618062",
    "region": "대구광역시"
  },
  {
    "name": "성일여자고등학교운동장",
    "address": "부산광역시 사하구 신평동 60-1",
    "lat": "35.08840667516716",
    "lng": "128.9786875247961",
    "region": "부산광역시"
  },
  {
    "name": "범물어린이공원",
    "address": "대구광역�� 수성구 범물동 1376",
    "lat": "35.817160669578506",
    "lng": "128.6442428827289",
    "region": "대구광역��"
  },
  {
    "name": "장림여자중학교운동장",
    "address": "부산광역시 사하구 장림동 60",
    "lat": "35.07823991062956",
    "lng": "128.98156285285555",
    "region": "부산광역시"
  },
  {
    "name": "두송중학교운동장",
    "address": "부산광역시 사하구 다대동 1580",
    "lat": "35.06073922219782",
    "lng": "128.9837622642535",
    "region": "부산광역시"
  },
  {
    "name": "면민운동장",
    "address": "대구광역시 달성군 하빈면 현내리 933",
    "lat": "35.90161855655019",
    "lng": "128.44648567364405",
    "region": "대구광역시"
  },
  {
    "name": "문산체육공원",
    "address": "경기도 파주시 문산읍 임진리 51-21",
    "lat": "37.88429046455051",
    "lng": "126.79333733405406",
    "region": "경기도"
  },
  {
    "name": "화남초등학교운동장",
    "address": "대구광역시 달성군 화원읍 명곡리 113",
    "lat": "35.799809841887324",
    "lng": "128.49843016196397",
    "region": "대구광역시"
  },
  {
    "name": "화원초등학교운동장",
    "address": "대구광역시 달성군 화원읍 천내리 417",
    "lat": "35.80298680903291",
    "lng": "128.49933872619187",
    "region": "대구광역시"
  },
  {
    "name": "북동중학교운동장",
    "address": "대구광역시 달성군 논공읍 남리 318",
    "lat": "35.73185131009231",
    "lng": "128.43639982902363",
    "region": "대구광역시"
  },
  {
    "name": "천내중학교운동장",
    "address": "대구광역시 달성군 화원읍 구라리 1560-12",
    "lat": "35.8095228058639",
    "lng": "128.5031698177201",
    "region": "대구광역시"
  },
  {
    "name": "가창중학교운동장",
    "address": "대구광역시 달성군 가창면 냉천리 772-2",
    "lat": "35.77370580695356",
    "lng": "128.64403868461903",
    "region": "대구광역시"
  },
  {
    "name": "고정초등학교 운동장",
    "address": "경기도 화성시 송산면 고정리 1103",
    "lat": "37.23809830060776",
    "lng": "126.73814467125158",
    "region": "경기도"
  },
  {
    "name": "동명여자고등학교 운동장",
    "address": "서울특별시 은평구 대조동 91-20",
    "lat": "37.61390671802114",
    "lng": "126.92396685118277",
    "region": "서울특별시"
  },
  {
    "name": "창수경로당 앞 광장",
    "address": "충청북도 청주시 서원구 사창동 475",
    "lat": "36.63245954201235",
    "lng": "127.45917749050638",
    "region": "충청북도"
  },
  {
    "name": "송추초등학교 운동장",
    "address": "경기도 양주시 장흥면 교현리 119",
    "lat": "37.71605256451333",
    "lng": "126.97070049631317",
    "region": "경기도"
  },
  {
    "name": "상수초등학교 운동장",
    "address": "경기도 양주시 남면 상수리 443-2",
    "lat": "37.868781571019696",
    "lng": "126.98788981489417",
    "region": "경기도"
  },
  {
    "name": "가평중학교 운동장",
    "address": "경기도 가평군 가평읍 대곡리 273",
    "lat": "37.827018266358735",
    "lng": "127.51018478849731",
    "region": "경기도"
  },
  {
    "name": "가평고등학교 운동장",
    "address": "경기도 가평군 가평읍 대곡리 66-2",
    "lat": "37.817707237132424",
    "lng": "127.51329842071245",
    "region": "경기도"
  },
  {
    "name": "만석공원",
    "address": "경기도 수원시 장안구 송죽동 316",
    "lat": "37.30076305790597",
    "lng": "127.00425027484577",
    "region": "경기도"
  },
  {
    "name": "신원초등학교",
    "address": "경상남도 거창군 신원면 과정리 199-4",
    "lat": "35.56639177840426",
    "lng": "127.92520176484105",
    "region": "경상남도"
  },
  {
    "name": "전주미산초등학교(운동장)",
    "address": "전북특별자치도 전주시 덕진구 전미동2가 305-2",
    "lat": "35.8837966165189",
    "lng": "127.10977764878943",
    "region": "전북특별자치도"
  },
  {
    "name": "무풍초등학교 운동장",
    "address": "전북특별자치도 무주군 무풍면 현내리 626",
    "lat": "35.9671526462005",
    "lng": "127.84779846668243",
    "region": "전북특별자치도"
  },
  {
    "name": "여기산공원",
    "address": "경기도 수원시 권선구 서둔동 256",
    "lat": "37.28196233999627",
    "lng": "126.98047935962677",
    "region": "경기도"
  },
  {
    "name": "일월공원",
    "address": "경기도 수원시 권선구 구운동 56-1",
    "lat": "37.28557429147334",
    "lng": "126.9743013500823",
    "region": "경기도"
  },
  {
    "name": "사하중학교운동장",
    "address": "부산광역시 사하구 괴정동 1091-1",
    "lat": "35.1019156953959",
    "lng": "128.98246885895884",
    "region": "부산광역시"
  },
  {
    "name": "백합공원",
    "address": "대구광역시 수성구 상동 59-5",
    "lat": "35.8366257",
    "lng": "128.613117",
    "region": "대구광역시"
  },
  {
    "name": "학동초등학교 운동장",
    "address": "서울특별시 강남구 논현동 264-7",
    "lat": "37.51203586225632",
    "lng": "127.03989134230639",
    "region": "서울특별시"
  },
  {
    "name": "무실초등학교",
    "address": "강원특별자치도 원주시 무실동 1652",
    "lat": "37.33483736575631",
    "lng": "127.9216461810631",
    "region": "강원특별자치도"
  },
  {
    "name": "거제제일고등학교 운동장",
    "address": "경상남도 거제시 거제면 서정리 540",
    "lat": "34.85140215302688",
    "lng": "128.58639782634984",
    "region": "경상남도"
  },
  {
    "name": "전남중학교  운동장",
    "address": "광주광역시 서구 치평��� 1171",
    "lat": "35.150450880544724",
    "lng": "126.84381008148192",
    "region": "광주광역시"
  },
  {
    "name": "광주효동초등학교 운동장",
    "address": "광주광역시 북구 중흥동 367-10",
    "lat": "35.16932242117328",
    "lng": "126.91295206546783",
    "region": "광주광역시"
  },
  {
    "name": "옹기문화공원 주차장",
    "address": "울산광역시 울주군 온양읍 고산리 437",
    "lat": "35.43711984518871",
    "lng": "129.27956163883619",
    "region": "울산광역시"
  },
  {
    "name": "다사초등학교운동장",
    "address": "대구광역시 달성군 다사읍 매곡리 457",
    "lat": "35.869460654858365",
    "lng": "128.45915749072964",
    "region": "대구광역시"
  },
  {
    "name": "통일동산(계절화원)",
    "address": "경기도 파주시 탄현면 성동리 669-3",
    "lat": "37.781076377409676",
    "lng": "126.68795703004871",
    "region": "경기도"
  },
  {
    "name": "유가초등학교운동장",
    "address": "대구광역시 달성군 유가읍 봉리 623",
    "lat": "35.69200909007071",
    "lng": "128.46609007769723",
    "region": "대구광역시"
  },
  {
    "name": "대원고등학교운동장",
    "address": "대구광역시 달성군 화원읍 본리리 1-1",
    "lat": "35.80590871441541",
    "lng": "128.50735085222934",
    "region": "대구광역시"
  },
  {
    "name": "율곡중,고등학교 운동장",
    "address": "경기도 파주시 법원읍 법원리 378",
    "lat": "37.84864918428596",
    "lng": "126.88176411343755",
    "region": "경기도"
  },
  {
    "name": "광탄고등학교 운동장",
    "address": "경기도 파주시 광탄면 신산리 232",
    "lat": "37.78317185717324",
    "lng": "126.84878297809388",
    "region": "경기도"
  },
  {
    "name": "석계초등학교 운동장",
    "address": "서울특별시 성북구 석관동 27-3",
    "lat": "37.60809978163759",
    "lng": "127.06967232596988",
    "region": "서울특별시"
  },
  {
    "name": "석관고등학교 운동장",
    "address": "서울특별시 성북구 석관동 77-1",
    "lat": "37.60898808771573",
    "lng": "127.06663988197323",
    "region": "서울특별시"
  },
  {
    "name": "동화초등학교 운동장",
    "address": "충청북도 청주시 상당구 남일면 화당리 361-1",
    "lat": "36.54731898784911",
    "lng": "127.49281643847323",
    "region": "충청북도"
  },
  {
    "name": "동향초등학교 운동장",
    "address": "전북특별자치도 진안군 동향면 대량리 629",
    "lat": "35.83982768058872",
    "lng": "127.56637749381076",
    "region": "전북특별자치도"
  },
  {
    "name": "영등포초등학교 운동장",
    "address": "서울특별시 영등포구 문래동1가 35-2",
    "lat": "37.512627917875854",
    "lng": "126.89836621284117",
    "region": "서울특별시"
  },
  {
    "name": "연가초등학교 운동장",
    "address": "서울특별시 서대문구 남가좌동 364-6",
    "lat": "37.57973348111147",
    "lng": "126.91810107878617",
    "region": "서울특별시"
  },
  {
    "name": "영신초등학교 운동장",
    "address": "서울특별시 영등포구 신길동 121",
    "lat": "37.50971094930004",
    "lng": "126.91819041967392",
    "region": "서울특별시"
  },
  {
    "name": "대방초등학교 운동장",
    "address": "서울특별시 영등포구 신길동 1444",
    "lat": "37.502376535655934",
    "lng": "126.91891193389893",
    "region": "서울특별시"
  },
  {
    "name": "영등포고등학교 운동장",
    "address": "서울특별시 동작구 대방동 13-2",
    "lat": "37.507988916849975",
    "lng": "126.93383427187928",
    "region": "서울특별시"
  },
  {
    "name": "태봉초등학교 운동장",
    "address": "경기도 포천시 소흘읍 송우리 725-4",
    "lat": "37.83433950974758",
    "lng": "127.14494451500751",
    "region": "경기도"
  },
  {
    "name": "덕산초등학교 운동장",
    "address": "경기도 양주시 덕계동 420-1",
    "lat": "37.817913866164126",
    "lng": "127.04750091115902",
    "region": "경기도"
  },
  {
    "name": "연곡초등���교 운동장",
    "address": "경기도 양주시 백석읍 연곡리 13-3",
    "lat": "37.8069137680165",
    "lng": "126.96175593191586",
    "region": "경기도"
  },
  {
    "name": "미원초등학교 운동장",
    "address": "충청북도 청주시 상당구 미원면 미원리 292-2",
    "lat": "36.63628512883023",
    "lng": "127.65925581158652",
    "region": "충청북도"
  },
  {
    "name": "목동초등학교,가평북중학교 운동장",
    "address": "경기도 가평군 북면 이곡리 13-45",
    "lat": "37.879231656539446",
    "lng": "127.54866242408751",
    "region": "경기도"
  },
  {
    "name": "광릉중학교 운동장",
    "address": "경기도 남양주시 진접읍 진벌리 611",
    "lat": "37.74265214161756",
    "lng": "127.2137419498433",
    "region": "경기도"
  },
  {
    "name": "가천초등학교 운동장",
    "address": "전북특별자치도 완주군 경천면 가천리 351",
    "lat": "36.03249317544616",
    "lng": "127.26383614335035",
    "region": "전북특별자치도"
  },
  {
    "name": "당리초등학교운동장",
    "address": "부산광역시 사하구 당리동 511",
    "lat": "35.099880076260234",
    "lng": "128.97525429725877",
    "region": "부산광역시"
  },
  {
    "name": "광주문우초등학교 운동장",
    "address": "광주광역시 북구 오치동 1046-1",
    "lat": "35.18545821538627",
    "lng": "126.9161814451218",
    "region": "광주광역시"
  },
  {
    "name": "마리초등학교",
    "address": "경상남도 거창군 마리면 말흘리 274",
    "lat": "35.70221722928304",
    "lng": "127.85361280575322",
    "region": "경상남도"
  },
  {
    "name": "정림초등학교 운동장",
    "address": "경기도 화성시 정남면 망월리 328",
    "lat": "37.15252251959997",
    "lng": "127.01216697692873",
    "region": "경기도"
  },
  {
    "name": "보성어린이공원",
    "address": "대구광역시 수성구 범물동 1279-3",
    "lat": "35.82099940352101",
    "lng": "128.64327728748353",
    "region": "대구광역시"
  },
  {
    "name": "부산여자고등학교운동장",
    "address": "부산광역시 사하구 하단동 495-1",
    "lat": "35.112949183259516",
    "lng": "128.9668858051263",
    "region": "부산광역시"
  },
  {
    "name": "신평초등학교운동장",
    "address": "부산광역시 사하구 신평동 226",
    "lat": "35.093910217363415",
    "lng": "128.9715966582582",
    "region": "부산광역시"
  },
  {
    "name": "동서공원",
    "address": "대구광역시 수성구 신매동 594-2",
    "lat": "35.8343269643364",
    "lng": "128.70555454361306",
    "region": "대구광역시"
  },
  {
    "name": "다대포해변공원 공영주차장",
    "address": "부산광역시 사하구 다대동 1552-20",
    "lat": "35.04789962859653",
    "lng": "128.9656285541123",
    "region": "부산광역시"
  },
  {
    "name": "다송초등학교운동장",
    "address": "부산광역시 사하구 다대동 93",
    "lat": "35.06898512194635",
    "lng": "128.97971749305742",
    "region": "부산광역시"
  },
  {
    "name": "운정초등학교 운동장",
    "address": "경기도 파주시 야당동 1027",
    "lat": "37.70788929274679",
    "lng": "126.75403088102088",
    "region": "경기도"
  },
  {
    "name": "왕선중학교운동장",
    "address": "대구광역시 달성군 다사읍 매곡리 1541",
    "lat": "35.86314593965134",
    "lng": "128.46703141308828",
    "region": "대구광역시"
  },
  {
    "name": "도봉중학교 운동장",
    "address": "서울특별시 도봉구 도봉동 622-40",
    "lat": "37.67019117359625",
    "lng": "127.04555351603422",
    "region": "서울특별시"
  },
  {
    "name": "강남초등학교 운동장",
    "address": "���울특별시 동작구 상도1동 501-1",
    "lat": "37.50590795101114",
    "lng": "126.95270191198496",
    "region": "���울특별시"
  },
  {
    "name": "은로초등학교 운동장",
    "address": "서울특별시 동작구 흑석동 245-1",
    "lat": "37.503731600076",
    "lng": "126.96017707317614",
    "region": "서울특별시"
  },
  {
    "name": "남성중학교 운동장",
    "address": "서울특별시 동작구 사당동 304-45",
    "lat": "37.478722686575836",
    "lng": "126.97236910136722",
    "region": "서울특별시"
  },
  {
    "name": "신북체육문화센터",
    "address": "경기도 포천시 신북면 기지리 957-6",
    "lat": "37.935601990597185",
    "lng": "127.2259935668818",
    "region": "경기도"
  },
  {
    "name": "덕도초등학교 운동장",
    "address": "경기도 양주시 광적면 석우리 525-14",
    "lat": "37.84041703997906",
    "lng": "126.9774656030879",
    "region": "경기도"
  },
  {
    "name": "조양중학교 운동장",
    "address": "경기도 양주시 광적면 가납리 908",
    "lat": "37.81934462356199",
    "lng": "126.97925090789796",
    "region": "경기도"
  },
  {
    "name": "덕소중학교 운동장",
    "address": "경기도 남양주시 와부읍 도곡리 1036-4",
    "lat": "37.58045823010602",
    "lng": "127.22623387224536",
    "region": "경기도"
  },
  {
    "name": "회정초등학교 운동장",
    "address": "경기도 양주시 회정동 344-1",
    "lat": "37.8299264946031",
    "lng": "127.05193927189305",
    "region": "경기도"
  },
  {
    "name": "푸르네 근린공원",
    "address": "경기도 양주시 고읍동 445",
    "lat": "37.799937532095605",
    "lng": "127.07897805642654",
    "region": "경기도"
  },
  {
    "name": "푸른초등학교 운동장",
    "address": "경기도 화성시 능동 1136",
    "lat": "37.20216121141029",
    "lng": "127.05529751513555",
    "region": "경기도"
  },
  {
    "name": "대성고등학교 운동장",
    "address": "충청북도 청주시 청원구 내덕동 232",
    "lat": "36.65406825035201",
    "lng": "127.48978013766624",
    "region": "충청북도"
  },
  {
    "name": "양지초등학교 운동장",
    "address": "경기도 남양주시 오남읍 양지리 74",
    "lat": "37.69916281768791",
    "lng": "127.20610239030854",
    "region": "경기도"
  },
  {
    "name": "원천초등학교 운동장",
    "address": "강원특별자치도 화천군 하남면 원천리 440",
    "lat": "38.05918557630489",
    "lng": "127.66647003010024",
    "region": "강원특별자치도"
  },
  {
    "name": "도안초등학교 운동장",
    "address": "충청북도 증평군 도안면 화성리 87",
    "lat": "36.81669193786304",
    "lng": "127.61136186746714",
    "region": "충청북도"
  },
  {
    "name": "전주오송중학교(운동장)",
    "address": "전북특별자치도 전주시 덕진구 송천동2가 175-22",
    "lat": "35.86570497519609",
    "lng": "127.12851524845514",
    "region": "전북특별자치도"
  },
  {
    "name": "연천어린이공원",
    "address": "경기도 연천군 연천읍 차탄리 624",
    "lat": "38.1005947549673",
    "lng": "127.07724675536157",
    "region": "경기도"
  },
  {
    "name": "밤밭공원(천천1공원)",
    "address": "경기도 수원시 장안구 천천동 575",
    "lat": "37.30067127530581",
    "lng": "126.97535002411367",
    "region": "경기도"
  },
  {
    "name": "당리중학교운동장",
    "address": "부산광역시 사하구 당리동 438-1",
    "lat": "35.10191864897035",
    "lng": "128.9805235137567",
    "region": "부산광역시"
  },
  {
    "name": "아랫마을공원",
    "address": "대구광역시 수성구 두산동 141",
    "lat": "35.834361166286406",
    "lng": "128.61990731701187",
    "region": "대구광역시"
  },
  {
    "name": "설천중고등학교 운동장",
    "address": "전북특별자치도 무주군 설천면 소천리 907-1",
    "lat": "36.01205488264216",
    "lng": "127.78776526451112",
    "region": "전북특별자치도"
  },
  {
    "name": "후포면삼율제1어린이공원",
    "address": "경상북도 울진군 후포면 삼율리 530-27",
    "lat": "36.684331368983926",
    "lng": "129.4409189332883",
    "region": "경상북도"
  },
  {
    "name": "화랑어린이공원",
    "address": "부산광역시 금정구 금사동 115-2",
    "lat": "35.21500355429012",
    "lng": "129.11663200960763",
    "region": "부산광역시"
  },
  {
    "name": "용호중학교 운동장",
    "address": "부산광역시 남구 용호동 512",
    "lat": "35.11930304888879",
    "lng": "129.11633849144508",
    "region": "부산광역시"
  },
  {
    "name": "화명중학교운동장",
    "address": "부산광역시 북구 화명동 2326",
    "lat": "35.22592670804365",
    "lng": "129.01118944172322",
    "region": "부산광역시"
  },
  {
    "name": "동천초등학교 운동장",
    "address": "부산광역시 남구 감만동 8-19",
    "lat": "35.1212880501846",
    "lng": "129.08371539673263",
    "region": "부산광역시"
  },
  {
    "name": "동래여자고등학교 운동장",
    "address": "부산광역시 금정구 구서동 67",
    "lat": "35.24577208783122",
    "lng": "129.09612332815885",
    "region": "부산광역시"
  },
  {
    "name": "동래초등학교 운동장",
    "address": "부산광역시 금정구 구서동 74-10",
    "lat": "35.247822729089705",
    "lng": "129.0992796421068",
    "region": "부산광역시"
  },
  {
    "name": "덕천초등학교 운동장",
    "address": "경기도 안양시 만안구 안양동 192-5",
    "lat": "37.39148108756367",
    "lng": "126.9362398476551",
    "region": "경기도"
  },
  {
    "name": "장서초등학교 운동장",
    "address": "부산광역시 금정구 구서동 703",
    "lat": "35.24817320227869",
    "lng": "129.08657401800318",
    "region": "부산광역시"
  },
  {
    "name": "수미초등학교 운동장",
    "address": "부산광역시 수영구 망미동 760",
    "lat": "35.16839378053028",
    "lng": "129.10378746742754",
    "region": "부산광역시"
  },
  {
    "name": "대강초등학교운동장",
    "address": "전북특별자치도 남원시 대강면 사석리 732-4",
    "lat": "35.34596755111497",
    "lng": "127.22862153261235",
    "region": "전북특별자치도"
  },
  {
    "name": "사매초등학교운동장",
    "address": "전북특별자치도 남원시 사매면 오신리 618",
    "lat": "35.49954175967984",
    "lng": "127.3608033219139",
    "region": "전북특별자치도"
  },
  {
    "name": "중앙���자고등학교운동장",
    "address": "울산광역시 중구 반구동 595",
    "lat": "35.55372744268238",
    "lng": "129.3438776701679",
    "region": "울산광역시"
  },
  {
    "name": "신안중학교 운동장",
    "address": "경기도 안양시 만안구 안양동 728",
    "lat": "37.38865748795501",
    "lng": "126.914963722229",
    "region": "경기도"
  },
  {
    "name": "장평초등학교 운동장",
    "address": "강원특별자치도 평창군 용평면 장평리 404-1",
    "lat": "37.59182122412679",
    "lng": "128.41131798527653",
    "region": "강원특별자치도"
  },
  {
    "name": "유천초등학교 운동장",
    "address": "경상북도 청도군 청도읍 유호리 623",
    "lat": "35.57301926476025",
    "lng": "128.76505839113426",
    "region": "경상북도"
  },
  {
    "name": "화양초등학교 운동장",
    "address": "경상북도 청도군 화양읍 동상리 158-6",
    "lat": "35.64728589514193",
    "lng": "128.7072291970257",
    "region": "경상북도"
  },
  {
    "name": "오포초등학교 운동장",
    "address": "경기도 광주시 추자동 500",
    "lat": "37.360704922203055",
    "lng": "127.21558034420013",
    "region": "경기도"
  },
  {
    "name": "광지원초등학교 운동장",
    "address": "경기도 광주시 남한산성면 광지원리 209-1",
    "lat": "37.46407917219652",
    "lng": "127.25134679110548",
    "region": "경기도"
  },
  {
    "name": "초월2소공원(초월물류)",
    "address": "경기도 광주시 초월읍 무갑리 913",
    "lat": "37.41566577936752",
    "lng": "127.31240357971424",
    "region": "경기도"
  },
  {
    "name": "청석공원",
    "address": "경기도 광주시 쌍령동 480-1",
    "lat": "37.409701361216555",
    "lng": "127.26233661174773",
    "region": "경기도"
  },
  {
    "name": "김해여자중학교 운동장",
    "address": "경상남도 김해시 대성동 140",
    "lat": "35.239506323116395",
    "lng": "128.87691414840617",
    "region": "경상남도"
  },
  {
    "name": "경안1소공원",
    "address": "경기도 광주시 경안동 425",
    "lat": "37.41248588627491",
    "lng": "127.26130127906801",
    "region": "경기도"
  },
  {
    "name": "송진초등학교 운동장",
    "address": "경상남도 밀양시 삼랑진읍 송지리 413-1",
    "lat": "35.39511305183975",
    "lng": "128.8368464676913",
    "region": "경상남도"
  },
  {
    "name": "부구초등삼당분교장 운동장",
    "address": "경상북도 울진군 북면 하당리 287",
    "lat": "37.04051579425839",
    "lng": "129.32203833987765",
    "region": "경상북도"
  },
  {
    "name": "구포중학교운동장",
    "address": "부산광역시 북구 구포동 1139",
    "lat": "35.194703300327234",
    "lng": "128.99641220164537",
    "region": "부산광역시"
  },
  {
    "name": "금명초등학교운동장",
    "address": "부산광역시 북구 금곡동 1896",
    "lat": "35.241596824577016",
    "lng": "129.01106060770695",
    "region": "부산광역시"
  },
  {
    "name": "백석천근린공원",
    "address": "경기도 의정부시 의정부동 553",
    "lat": "37.7339",
    "lng": "127.0411",
    "region": "경기도"
  },
  {
    "name": "발곡초등학교",
    "address": "경기도 의정부시 신곡동 727-3",
    "lat": "37.72817678443073",
    "lng": "127.06314396080984",
    "region": "경기도"
  },
  {
    "name": "청기면복지회관 전정",
    "address": "경상북도 영양군 청기면 청기리 758-3",
    "lat": "36.66085613338688",
    "lng": "129.06342239440124",
    "region": "경상북도"
  },
  {
    "name": "주실마을 주차장",
    "address": "경상북도 영양군 일월면 주곡리 549-3",
    "lat": "36.71905937732091",
    "lng": "129.09649259714283",
    "region": "경상북도"
  },
  {
    "name": "의정부고등학교",
    "address": "경기도 의정부시 가능동 359-3",
    "lat": "37.75451343637465",
    "lng": "127.03097507604814",
    "region": "경기도"
  },
  {
    "name": "안일초등학교 운동장",
    "address": "경기도 안양시 만안구 안양동 85-6",
    "lat": "37.40380599796337",
    "lng": "126.92251258267808",
    "region": "경기도"
  },
  {
    "name": "배영초등학교 운동장",
    "address": "부산광역시 강서구 대저2동 4552",
    "lat": "35.150143847408785",
    "lng": "128.94578218460072",
    "region": "부산광역시"
  },
  {
    "name": "대저중고등학교 운동장",
    "address": "부산광역시 강서구 대저2동 2039",
    "lat": "35.17738349205456",
    "lng": "128.95639361208487",
    "region": "부산광역시"
  },
  {
    "name": "농소운동장",
    "address": "울산광역시 북구 창평동 391-1",
    "lat": "35.62132462162742",
    "lng": "129.359335899361",
    "region": "울산광역시"
  },
  {
    "name": "성문고등학교 운동장",
    "address": "경기도 안양시 만안구 안양동 501-28",
    "lat": "37.37957841599484",
    "lng": "126.92511856555942",
    "region": "경기도"
  },
  {
    "name": "학성초등학교운동장",
    "address": "울산광역시 중구 반구동 270-1",
    "lat": "35.5600934",
    "lng": "129.3423322",
    "region": "울산광역시"
  },
  {
    "name": "가온중학교운동장",
    "address": "울산광역시 중구 반구동 50",
    "lat": "35.5639471",
    "lng": "129.3383679",
    "region": "울산광역시"
  },
  {
    "name": "삼성초등학교 운동장",
    "address": "경기도 안양시 만안구 석수동 167-4",
    "lat": "37.419781217726246",
    "lng": "126.91166413481308",
    "region": "경기도"
  },
  {
    "name": "농소초등학교 운동장",
    "address": "울산광역시 북구 호계동 858-1",
    "lat": "35.621472883588346",
    "lng": "129.35654908418755",
    "region": "울산광역시"
  },
  {
    "name": "화창초등학교 운동장",
    "address": "경기도 안양시 만안구 석수동 348-7",
    "lat": "37.412012989180745",
    "lng": "126.90373753444106",
    "region": "경기도"
  },
  {
    "name": "매곡고등학교 운동장",
    "address": "울산광역시 북구 매곡동 620-1",
    "lat": "35.64440934425794",
    "lng": "129.35903967320414",
    "region": "울산광역시"
  },
  {
    "name": "내황초등학교운동장",
    "address": "울산광역시 중구 반구동 395",
    "lat": "35.551614218853665",
    "lng": "129.34884325895095",
    "region": "울산광역시"
  },
  {
    "name": "고령초등학교 운동장",
    "address": "경상북도 고령군 대가야읍 연조리 100",
    "lat": "35.73434175511174",
    "lng": "128.2688345497619",
    "region": "경상북도"
  },
  {
    "name": "동아중학교 운동장",
    "address": "부산광역시 수영구 광안동 1222-23",
    "lat": "35.156907080360014",
    "lng": "129.10742282867602",
    "region": "부산광역시"
  },
  {
    "name": "부산남일고등학교 운동장",
    "address": "부산광역시 수영구 망미동 920-10",
    "lat": "35.177868652446314",
    "lng": "129.10121083259753",
    "region": "부산광역시"
  },
  {
    "name": "화암고등학교 운동장",
    "address": "울산광역시 동구 방어동 1053",
    "lat": "35.476431145426126",
    "lng": "129.40988795935274",
    "region": "울산광역시"
  },
  {
    "name": "서도초중고등학교 운동장",
    "address": "인천광역시 강화군 서도면 주문도리 53",
    "lat": "37.64762388129233",
    "lng": "126.25185728073072",
    "region": "인천광역시"
  },
  {
    "name": "상진초등학교 운동장",
    "address": "울산광역시 동구 화정동 894",
    "lat": "35.49180980688352",
    "lng": "129.41831009595768",
    "region": "울산광역시"
  },
  {
    "name": "남목초등학교 운동장",
    "address": "울산광역시 동구 서부동 370",
    "lat": "35.54184807052952",
    "lng": "129.4253017208266",
    "region": "울산광역시"
  },
  {
    "name": "녹수초등학교 운동장",
    "address": "울산광역시 동구 서부동 257-10",
    "lat": "35.530512805125646",
    "lng": "129.42902454439664",
    "region": "울산광역시"
  },
  {
    "name": "동부초등학교 운동장",
    "address": "울산광역시 동구 동부동 676",
    "lat": "35.54504780752501",
    "lng": "129.42780616058215",
    "region": "울산광역시"
  },
  {
    "name": "위례초등학교 운동장",
    "address": "경기도 하남시 학암동 665",
    "lat": "37.47665313186961",
    "lng": "127.14958370224379",
    "region": "경기도"
  },
  {
    "name": "풍각중학교 각북분교 운동장",
    "address": "경상북도 청도군 각북면 남산리 248",
    "lat": "35.690289051775444",
    "lng": "128.58881771564506",
    "region": "경상북도"
  },
  {
    "name": "(구)매전초등학교 운동장 ",
    "address": "경상북도 청도군 매전면 온막리 42-4",
    "lat": "35.64231145119218",
    "lng": "128.8380615147106",
    "region": "경상북도"
  },
  {
    "name": "양벌소공원",
    "address": "경기도 광주시 양벌동 1040-39",
    "lat": "37.370898989125656",
    "lng": "127.24846422672269",
    "region": "경기도"
  },
  {
    "name": "대성동고분박물관주변",
    "address": "경상남도 김해시 대성동 434",
    "lat": "35.23746999990715",
    "lng": "128.87397014325964",
    "region": "경상남도"
  },
  {
    "name": "김해생명과학고등학교 운동장",
    "address": "경상남도 김해시 외동 743",
    "lat": "35.23690911833596",
    "lng": "128.85611496521295",
    "region": "경상남도"
  },
  {
    "name": "구남중학교운동장",
    "address": "부산광역시 북구 구포동 894",
    "lat": "35.19567370398247",
    "lng": "128.9973626217185",
    "region": "부산광역시"
  },
  {
    "name": "평해정보고등학교 운동장",
    "address": "경상북도 울진군 평해읍 평해리 413",
    "lat": "36.72896136956084",
    "lng": "129.4440496894526",
    "region": "경상북도"
  },
  {
    "name": "구포초등학교운동장",
    "address": "부산광역시 북구 구포동 725",
    "lat": "35.203258888017835",
    "lng": "129.00096154251827",
    "region": "부산광역시"
  },
  {
    "name": "광주 공설운동장",
    "address": "경기도 광주시 경안동 123-4",
    "lat": "37.41486087589985",
    "lng": "127.25166595513909",
    "region": "경기도"
  },
  {
    "name": "동현중학교 운동장",
    "address": "부산광역시 금정구 부곡동 777-4",
    "lat": "35.21873700740629",
    "lng": "129.0919817762455",
    "region": "부산광역시"
  },
  {
    "name": "녹명초등학교 운동장",
    "address": "부산광역시 강서구 녹산동 228",
    "lat": "35.11486680402703",
    "lng": "128.88591527938925",
    "region": "부산광역시"
  },
  {
    "name": "부산공업고등학교 운동장",
    "address": "부산광역시 남구 대연동 918-1",
    "lat": "35.12985077573191",
    "lng": "129.08723115921086",
    "region": "부산광역시"
  },
  {
    "name": "옥성초등학교운동장",
    "address": "울산광역시 중구 학성동 180-1",
    "lat": "35.55269887617706",
    "lng": "129.3345352504434",
    "region": "울산광역시"
  },
  {
    "name": "동수영중학교 운동장",
    "address": "부산광역시 수영구 광안�� 990",
    "lat": "35.16458580828301",
    "lng": "129.10474266959432",
    "region": "부산광역시"
  },
  {
    "name": "연현초등학교 운동장",
    "address": "경기도 안양시 만안구 석수동 485-16",
    "lat": "37.42572108449702",
    "lng": "126.90269529819487",
    "region": "경기도"
  },
  {
    "name": "호암초등학교 운동장",
    "address": "부산광역시 수영구 광안동 1194-2",
    "lat": "35.158235976386294",
    "lng": "129.10667181015185",
    "region": "부산광역시"
  },
  {
    "name": "부산동여자고등학교 운동장",
    "address": "부산광역시 수영구 남천동 65",
    "lat": "35.14588912618541",
    "lng": "129.105792045595",
    "region": "부산광역시"
  },
  {
    "name": "배산초등학교 운동장",
    "address": "부산광역시 수영구 망미동 920",
    "lat": "35.177495952014056",
    "lng": "129.10279870033435",
    "region": "부산광역시"
  },
  {
    "name": "온수2리 마을회관 공터",
    "address": "인천광역시 강화군 길상면 온수리 529-7",
    "lat": "37.639130617826645",
    "lng": "126.49095207452761",
    "region": "인천광역시"
  },
  {
    "name": "한국글로벌셰프고등학교 운동장",
    "address": "인천광역시 강화군 내가면 고천리 1266",
    "lat": "37.71217404333824",
    "lng": "126.39200806617711",
    "region": "인천광역시"
  },
  {
    "name": "우암초등학교 운동장",
    "address": "부산광역시 남구 우암동 133-9",
    "lat": "35.12550155885761",
    "lng": "129.07611513428344",
    "region": "부산광역시"
  },
  {
    "name": "온누리공원",
    "address": "울산광역시 북구 매곡동 산90",
    "lat": "35.64497764754453",
    "lng": "129.36068505049266",
    "region": "울산광역시"
  },
  {
    "name": "망미중학교 운동장",
    "address": "부산광역시 수영구 망미동 952-2",
    "lat": "35.17542633734789",
    "lng": "129.097879529001",
    "region": "부산광역시"
  },
  {
    "name": "광남 생활체육공원",
    "address": "경기도 광주시 태전동 601-2",
    "lat": "37.38898961319099",
    "lng": "127.23744136214452",
    "region": "경기도"
  },
  {
    "name": "가마실어린이공원",
    "address": "부산광역시 금정구 부곡동 296-2",
    "lat": "35.228036757581464",
    "lng": "129.09168777926604",
    "region": "부산광역시"
  },
  {
    "name": "동항초등학교 운동장",
    "address": "부산광역시 남구 감만동 315-1",
    "lat": "35.114572801028174",
    "lng": "129.08229589462275",
    "region": "부산광역시"
  },
  {
    "name": "성지고등학교 운동장",
    "address": "부산광역시 남구 우암동 109",
    "lat": "35.127981768975715",
    "lng": "129.0812873840338",
    "region": "부산광역시"
  },
  {
    "name": "신연초등학교 운동장",
    "address": "부산광역시 남구 우암동 112-77",
    "lat": "35.12899370235548",
    "lng": "129.0778584701318",
    "region": "부산광역시"
  },
  {
    "name": "흥진초등학교 운동장",
    "address": "경기도 군포시 금정동 875-5",
    "lat": "37.35346889513767",
    "lng": "126.92849814891818",
    "region": "경기도"
  },
  {
    "name": "호계고등학교 운동장",
    "address": "울산광역시 북구 호계동 262-4",
    "lat": "35.630727810072635",
    "lng": "129.35417264700024",
    "region": "울산광역시"
  },
  {
    "name": "매곡중학교 운동장",
    "address": "울산광역시 북구 매곡동 490-1",
    "lat": "35.644419647565556",
    "lng": "129.34882968664104",
    "region": "울산광역시"
  },
  {
    "name": "대천초등학교 운동장",
    "address": "부산광역시 남구 대연동 1015-1",
    "lat": "35.128780270063125",
    "lng": "129.100255966191",
    "region": "부산광역시"
  },
  {
    "name": "매곡초등학교 운동장",
    "address": "울산광역시 북구 매곡동 497",
    "lat": "35.64394290318066",
    "lng": "129.35039060129043",
    "region": "울산광역시"
  },
  {
    "name": "메아리학교 운동장",
    "address": "울산광역시 북구 중산동 492-2",
    "lat": "35.6657587",
    "lng": "129.3402092",
    "region": "울산광역시"
  },
  {
    "name": "속심이보주차장",
    "address": "울산광역시 북구 중산동 1166-132",
    "lat": "35.662779",
    "lng": "129.3361152",
    "region": "울산광역시"
  },
  {
    "name": "대연고등학교 운동장",
    "address": "부산광역시 남구 대연동 670-4",
    "lat": "35.128383801223336",
    "lng": "129.10161500461842",
    "region": "부산광역시"
  },
  {
    "name": "신천초등학교 운동장",
    "address": "울산광역시 북구 신천동 316-4",
    "lat": "35.63342450932779",
    "lng": "129.34667319060193",
    "region": "울산광역시"
  },
  {
    "name": "둔대초등학교 운동장",
    "address": "경기도 군포시 둔대동 219",
    "lat": "37.326949222027956",
    "lng": "126.91163593238751",
    "region": "경기도"
  },
  {
    "name": "대양고등학교 운동장",
    "address": "부산광역시 남구 문현동 303-3",
    "lat": "35.132864069008775",
    "lng": "129.07341285253116",
    "region": "부산광역시"
  },
  {
    "name": "대저초등학교 운동장",
    "address": "부산광역시 강서구 대저1동 1605",
    "lat": "35.215867005943686",
    "lng": "128.9553192085124",
    "region": "부산광역시"
  },
  {
    "name": "울산외국어고등학교 운동장",
    "address": "울산광역시 북구 중산동 203-5",
    "lat": "35.658191",
    "lng": "129.3542166",
    "region": "울산광역시"
  },
  {
    "name": "해연중학교 운동장",
    "address": "부산광역시 남구 대연동 1576-1",
    "lat": "35.139587172247346",
    "lng": "129.0825655979875",
    "region": "부산광역시"
  },
  {
    "name": "농서초등학교 운동장",
    "address": "울산광역시 북구 달천동 1-19",
    "lat": "35.631597888572365",
    "lng": "129.33097503913214",
    "region": "울산광역시"
  },
  {
    "name": "연포초등학교 운동장",
    "address": "부산광역시 남구 대연동 1889",
    "lat": "35.13721230592257",
    "lng": "129.0837983711074",
    "region": "부산광역시"
  },
  {
    "name": "남명초등학교 운동장",
    "address": "부산광역시 강서구 명지동 3243-2",
    "lat": "35.083415636925885",
    "lng": "128.91076326369893",
    "region": "부산광역시"
  },
  {
    "name": "세연고등학교(구 부산세무고등학교) 운동장",
    "address": "부산광역시 남구 대연동 1799-1",
    "lat": "35.139226923709465",
    "lng": "129.08562551888272",
    "region": "부산광역시"
  },
  {
    "name": "성남초등학교 운동장",
    "address": "강원특별자치도 횡성군 횡성읍 곡교리 244-1",
    "lat": "37.46470663074063",
    "lng": "127.97300949724135",
    "region": "강원특별자치도"
  },
  {
    "name": "완도군종합운동장",
    "address": "전라남도 완도군 완도읍 군내리 1256-2",
    "lat": "34.31646008612704",
    "lng": "126.74176567141888",
    "region": "전라남도"
  },
  {
    "name": "횡성초등학교 운동장",
    "address": "강원특별자치도 횡성군 횡성읍 읍하리 176-1",
    "lat": "37.48701000781886",
    "lng": "127.98004610497516",
    "region": "강원특별자치도"
  },
  {
    "name": "우곡초등학교 운동장",
    "address": "경상북도 고령군 우곡면 연리 317-4",
    "lat": "35.633138483019096",
    "lng": "128.3677402631129",
    "region": "경상북도"
  },
  {
    "name": "상안초등학교 운동장",
    "address": "울산광역시 북구 천곡동 434-1",
    "lat": "35.63390410678126",
    "lng": "129.33452010155412",
    "region": "울산광역시"
  }
]