[
  {
    "name": "제천동중학교  운동장",
    "address": "충청북도 제천시 신백동 21",
    "lat": "37.13273933412353",
    "lng": "128.23438922710355",
    "region": "충청북도"
  },
  {
    "name": "수정초등학교 운동장",
    "address": "경상남도 진주시 평거동 1125",
    "lat": "35.165157752438496",
    "lng": "128.04862948235873",
    "region": "경상남도"
  },
  {
    "name": "서울예술고등학교 운동장",
    "address": "서울특별시 종로구 평창동 217",
    "lat": "37.60547721915613",
    "lng": "126.96962982416152",
    "region": "서울특별시"
  },
  {
    "name": "윤중중학교 운동장",
    "address": "서울특별시 영등포구 여의도동 38-2",
    "lat": "37.51874871325038",
    "lng": "126.92367821931839",
    "region": "서울특별시"
  },
  {
    "name": "용답근린공원(용답휴식공원)",
    "address": "서울특별시 성동구 용답동 128-3",
    "lat": "37.56993476012347",
    "lng": "127.04757464641742",
    "region": "서울특별시"
  },
  {
    "name": "삼기초등학교 운동장",
    "address": "전북특별자치도 익산시 삼기면 간촌리 43-2",
    "lat": "36.01984777573733",
    "lng": "126.98510348797133",
    "region": "전북특별자치도"
  },
  {
    "name": "성당초등학교 운동장",
    "address": "전북특별자치도 익산시 성당면 갈산리 615-1",
    "lat": "36.0999395835687",
    "lng": "126.92706883646845",
    "region": "전북특별자치도"
  },
  {
    "name": "이리서초등학교 운동장",
    "address": "전북특별자치도 익산시 남중동 458-7",
    "lat": "35.94573207473923",
    "lng": "126.94848060608254",
    "region": "전북특별자치도"
  },
  {
    "name": "연무초등학교 운동장",
    "address": "충청남도 논산시 연무읍 금곡리 40",
    "lat": "36.11812341993462",
    "lng": "127.09749341011046",
    "region": "충청남도"
  },
  {
    "name": "벌곡초등학교 운동장",
    "address": "충청남도 논산시 벌곡면 한삼천리 260",
    "lat": "36.20794009741571",
    "lng": "127.26598978042603",
    "region": "충청남도"
  },
  {
    "name": "도고초등학교 운동장",
    "address": "충청남도 아산시 도고면 시전리 200",
    "lat": "36.74633314496322",
    "lng": "126.89948038383835",
    "region": "충청남도"
  },
  {
    "name": "진서고등학교 운동장",
    "address": "경상남도 진주시 수곡면 대천리 226-1",
    "lat": "35.19734777830176",
    "lng": "127.92764577319308",
    "region": "경상남도"
  },
  {
    "name": "증산초등학교 운동장",
    "address": "서울특별시 은평구 증산동 212",
    "lat": "37.58219147836251",
    "lng": "126.90480926853031",
    "region": "서울특별시"
  },
  {
    "name": "금성초등학교(금계분교) 운동장",
    "address": "충청남도 금산군 금성면 하신리 240-2",
    "lat": "36.16096000297054",
    "lng": "127.47938733933086",
    "region": "충청남도"
  },
  {
    "name": "이천제일고등학교 운동장",
    "address": "경기도 이천시 안흥동 148-1",
    "lat": "37.27883954121014",
    "lng": "127.45878707040534",
    "region": "경기도"
  },
  {
    "name": "유석초등학교 운동장",
    "address": "서울특별시 강서구 등촌동 82-1",
    "lat": "37.56023008372986",
    "lng": "126.85353308916089",
    "region": "서울특별시"
  },
  {
    "name": "동양고등학교 운동장",
    "address": "서울특별시 강서구 가양동 1464",
    "lat": "37.56880572007405",
    "lng": "126.84779690364387",
    "region": "서울특별시"
  },
  {
    "name": "왕미초등학교  운동장",
    "address": "충청북도 제천시 봉양읍 미당리 757",
    "lat": "37.154959575475885",
    "lng": "128.1584250926972",
    "region": "충청북도"
  },
  {
    "name": "화산초등학교  운동장",
    "address": "충청북도 제천시 화산동 606",
    "lat": "37.12992586645327",
    "lng": "128.21351591162636",
    "region": "충청북도"
  },
  {
    "name": "성내하니공원",
    "address": "서울특별시 강동구 성내동 533",
    "lat": "37.52980195464948",
    "lng": "127.12670265224858",
    "region": "서울특별시"
  },
  {
    "name": "인천아시아드주경기장 주차장",
    "address": "인천광역시 서구 연희동 826",
    "lat": "37.54923576435463",
    "lng": "126.66841619968477",
    "region": "인천광역시"
  },
  {
    "name": "검암중학교 운동장 ",
    "address": "인천광역시 서구 검암동 497",
    "lat": "37.566731650584224",
    "lng": "126.67904458780541",
    "region": "인천광역시"
  },
  {
    "name": "한성어린이공원",
    "address": "경기도 용인시 기흥구 구갈동 383-1",
    "lat": "37.27802525573139",
    "lng": "127.11435848052032",
    "region": "경기도"
  },
  {
    "name": "상주여자중학교 운동장",
    "address": "경상북도 상주시 남성동 150-2",
    "lat": "36.410662871669416",
    "lng": "128.16012024879458",
    "region": "경상북도"
  },
  {
    "name": "익산어양초등학교 운동장",
    "address": "전북특별자치도 익산시 어양동 692",
    "lat": "35.961180395072766",
    "lng": "126.98336809873581",
    "region": "전북특별자치도"
  },
  {
    "name": "군산나운초등학교 운동장",
    "address": "전북특별자치도 군산시 나운동 771-1",
    "lat": "35.97228193748814",
    "lng": "126.69295893643339",
    "region": "전북특별자치도"
  },
  {
    "name": "예덕초등학교",
    "address": "충청남도 예산군 고덕면 몽곡리 74-1",
    "lat": "36.778130",
    "lng": "126.716209",
    "region": "충청남도"
  },
  {
    "name": "세명대학교  운동장",
    "address": "충청북도 제천시 신월동 579",
    "lat": "37.17797091511795",
    "lng": "128.19447398185733",
    "region": "충청북도"
  },
  {
    "name": "임진어린이공원",
    "address": "경기도 용인시 수지구 풍덕천동 1155",
    "lat": "37.31802765996227",
    "lng": "127.0935781912738",
    "region": "경기도"
  },
  {
    "name": "영신고등학교 운동장",
    "address": "서울특별시 영등포구 신길동 4656-2",
    "lat": "37.49732905325906",
    "lng": "126.90962076187135",
    "region": "서울특별시"
  },
  {
    "name": "서울숲공원",
    "address": "서울특별시 성동구 성수동1가 720",
    "lat": "37.544664577703564",
    "lng": "127.03973575064913",
    "region": "서울특별시"
  },
  {
    "name": "도원공원(서한이다음)",
    "address": "대구광역시 달서구 도원동 573",
    "lat": "35.80784846435708",
    "lng": "128.54751815725268",
    "region": "대구광역시"
  },
  {
    "name": "배다리공원",
    "address": "경기도 수원시 권선구 고색동 1111",
    "lat": "37.24010439878246",
    "lng": "126.9854368195834",
    "region": "경기도"
  },
  {
    "name": "이리신동초등학교 운동장",
    "address": "전북특별자치도 익산시 신동 626-2",
    "lat": "35.961280261945525",
    "lng": "126.96728289127346",
    "region": "전북특별자치도"
  },
  {
    "name": "이리신흥초등학교 운동장",
    "address": "전북특별자치도 익산시 금강동 349-1",
    "lat": "35.934224750208436",
    "lng": "126.97886466980376",
    "region": "전북특별자치도"
  },
  {
    "name": "이리중앙초등학교 운동장",
    "address": "전북특별자치도 익산시 갈산동 47",
    "lat": "35.93681275815943",
    "lng": "126.95154044934272",
    "region": "전북특별자치도"
  },
  {
    "name": " 함열여자중학교 운동장",
    "address": "전북특별자치도 익산시 함열읍 남당리 586-12",
    "lat": "36.08298593842758",
    "lng": "126.9698081139295",
    "region": "전북특별자치도"
  },
  {
    "name": "장교둑 어린이공원",
    "address": "경기도 수원시 권선구 권선동 980",
    "lat": "37.259521",
    "lng": "127.018950",
    "region": "경기도"
  },
  {
    "name": "용화출 어린이공원",
    "address": "경기도 수원시 권선구 권선동 1163-7",
    "lat": "37.256189",
    "lng": "127.034067",
    "region": "경기도"
  },
  {
    "name": "음봉초등학교 운동장",
    "address": "충청남도 아산시 음봉면 삼거리 282",
    "lat": "36.849185",
    "lng": "127.011219",
    "region": "충청남도"
  },
  {
    "name": "남면초 ",
    "address": "충청남도 태안군 남면 달산리 1174-2",
    "lat": "36.672923846056214",
    "lng": "126.2996488809614",
    "region": "충청남도"
  },
  {
    "name": "안흥초 신진도분교",
    "address": "충청남도 태안군 근흥면 신진도리 85",
    "lat": "36.682801922364725",
    "lng": "126.13939762115538",
    "region": "충청남도"
  },
  {
    "name": "음암초등학교 운동장",
    "address": "충청남도 서산시 음암면 도당리 849",
    "lat": "36.80027066385118",
    "lng": "126.5189302085044",
    "region": "충청남도"
  },
  {
    "name": "이원초 관동분교",
    "address": "충청남도 태안군 이원면 관리 572-3",
    "lat": "36.900815144429814",
    "lng": "126.29946649074174",
    "region": "충청남도"
  },
  {
    "name": "글벗초등학교 운동장",
    "address": "세종특별자치시 세종시 소담동 537",
    "lat": "36.48714",
    "lng": "127.29786",
    "region": "세종특별자치시"
  },
  {
    "name": "서신초등학교 운동장",
    "address": "서울특별시 은평구 신사동 194",
    "lat": "37.592170472081726",
    "lng": "126.90723599670886",
    "region": "서울특별시"
  },
  {
    "name": "향림공원",
    "address": "서울특별시 성동구 성수동2가 289-28",
    "lat": "37.54674943550516",
    "lng": "127.05343236781832",
    "region": "서울특별시"
  },
  {
    "name": "진안중앙초등학교 운동장",
    "address": "전북특별자치도 진안군 진안읍 군상리 222",
    "lat": "35.7952",
    "lng": "127.4355",
    "region": "전북특별자치도"
  },
  {
    "name": "미륵초등학교 운동장",
    "address": "전북특별자치도 익산시 금마면 용순리 645-1",
    "lat": "36.001755019318566",
    "lng": "127.02235132455817",
    "region": "전북특별자치도"
  },
  {
    "name": "오산초등학교 운동장",
    "address": "전북특별자치도 익산시 오산면 오산리 25-1",
    "lat": "35.941454212398256",
    "lng": "126.91551089286496",
    "region": "전북특별자치도"
  },
  {
    "name": "오산남초등학교 운동장",
    "address": "전북특별자치도 익산시 오산면 남전리 713-2",
    "lat": "35.92769251489334",
    "lng": "126.89278208091416",
    "region": "전북특별자치도"
  },
  {
    "name": "이리초등학교 운동장",
    "address": "전북특별자치도 익산시 마동 260-2",
    "lat": "35.93962139240061",
    "lng": "126.95921748876424",
    "region": "전북특별자치도"
  },
  {
    "name": "이리고현초등학교 운동장",
    "address": "전북특별자치도 익산시 모현동1가 73",
    "lat": "35.95179451645381",
    "lng": "126.94743990898132",
    "region": "전북특별자치도"
  },
  {
    "name": "원광보건고등학교 운동장",
    "address": "전북특별자치도 익산시 모현동1가 520",
    "lat": "35.95482990525642",
    "lng": "126.94509029388429",
    "region": "전북특별자치도"
  },
  {
    "name": "이리북일초등학교 운동장",
    "address": "전북특별자치도 익산시 신동 764-1",
    "lat": "35.963056134375094",
    "lng": "126.9593703746796",
    "region": "전북특별자치도"
  },
  {
    "name": "남창초등학교 운동장",
    "address": "충청남도 아산시 둔포면 신남리 230",
    "lat": "36.920610651846964",
    "lng": "127.00137446815793",
    "region": "충청남도"
  },
  {
    "name": "고남초 ",
    "address": "충청남도 태안군 고남면 고남리 1609",
    "lat": "36.42619890001533",
    "lng": "126.40414774417675",
    "region": "충청남도"
  },
  {
    "name": "원북초 ",
    "address": "충청남도 태안군 원북면 반계리 222",
    "lat": "36.82571107355883",
    "lng": "126.25883370638209",
    "region": "충청남도"
  },
  {
    "name": "서산석림중학교 운동장",
    "address": "충청남도 서산시 석림동 557-10",
    "lat": "36.773182530283506",
    "lng": "126.46850126436523",
    "region": "충청남도"
  },
  {
    "name": "명원초등학교 운동장",
    "address": "서울특별시 강동구 명일동 39",
    "lat": "37.550839862554255",
    "lng": "127.15039324425605",
    "region": "서울특별시"
  },
  {
    "name": "후창공원",
    "address": "서울특별시 종로구 평창동 568-2",
    "lat": "37.61013067021915",
    "lng": "126.96463018655778",
    "region": "서울특별시"
  },
  {
    "name": "월암근린공원",
    "address": "서울특별시 종로구 송월동 1-2",
    "lat": "37.571015626426465",
    "lng": "126.96566551923753",
    "region": "서울특별시"
  },
  {
    "name": "상명대학교사범대학부속여자중고등학교 운동장",
    "address": "서울특별시 종로구 홍지동 7-1",
    "lat": "37.60383250517808",
    "lng": "126.95713609457019",
    "region": "서울특별시"
  },
  {
    "name": "상명대학교사범대학 부속초등학교 운동장",
    "address": "서울특별시 종로구 홍지동 56",
    "lat": "37.600659846937695",
    "lng": "126.95653527975084",
    "region": "서울특별시"
  },
  {
    "name": "중앙고등학교 운동장",
    "address": "서울특별시 종로구 계동 1-23",
    "lat": "37.58542580325524",
    "lng": "126.98697835206987",
    "region": "서울특별시"
  },
  {
    "name": "현석어린이공원",
    "address": "서울특별시 마포구 현석동 1-5",
    "lat": "37.54433915732444",
    "lng": "126.93327827513762",
    "region": "서울특별시"
  },
  {
    "name": "진성중학교 운동장",
    "address": "전북특별자치도 진안군 성수면 외궁리 780-1",
    "lat": "35.7042",
    "lng": "127.3217",
    "region": "전북특별자치도"
  },
  {
    "name": "다사문양마을공영주차장",
    "address": "대구광역시 달성군 다사읍 문양리 420",
    "lat": "35.863699034574395",
    "lng": "128.43783405924518",
    "region": "대구광역시"
  },
  {
    "name": "이리영등초등학교 운동장",
    "address": "전북특별자치도 익산시 영등동 762",
    "lat": "35.952923128163995",
    "lng": "126.97222604540566",
    "region": "전북특별자치도"
  },
  {
    "name": "군산경포초등학교",
    "address": "전북특별자치도 군산시 조촌동 461",
    "lat": "35.976171",
    "lng": "126.734914",
    "region": "전북특별자치도"
  },
  {
    "name": "오누이 어린이공원",
    "address": "경기도 수원시 권선구 곡반정동 600",
    "lat": "37.233541",
    "lng": "127.025429",
    "region": "경기도"
  },
  {
    "name": "크레파스 어린이공원",
    "address": "경기도 수원시 권선구 금곡동 1080",
    "lat": "37.27478",
    "lng": "126.937152",
    "region": "경기도"
  },
  {
    "name": "동말 어린이공원",
    "address": "경기도 수원시 팔달구 화서동 184-58",
    "lat": "37.27716251118599",
    "lng": "126.99701249599455",
    "region": "경기도"
  },
  {
    "name": "드라마센터 어린이공원",
    "address": "경기도 수원시 팔달구 인계동 948",
    "lat": "37.270191650105915",
    "lng": "127.0292714238167",
    "region": "경기도"
  },
  {
    "name": "참새 어린이공원",
    "address": "경기도 수원시 영통구 매탄동 1166-2",
    "lat": "37.256894",
    "lng": "127.040546",
    "region": "경기도"
  },
  {
    "name": "교통 어린이공원",
    "address": "경기도 수원시 영통구 매탄동 1231-2",
    "lat": "37.266356",
    "lng": "127.057437",
    "region": "경기도"
  },
  {
    "name": "동방초등학교 운동장",
    "address": "충청남도 아산시 ��방읍 휴대리 145",
    "lat": "36.77941547824563",
    "lng": "127.11413938155464",
    "region": "충청남도"
  },
  {
    "name": "송곡초등학교 운동장",
    "address": "충청남도 아산시 염치읍 송곡리 53-1",
    "lat": "36.80732584820309",
    "lng": "127.01815192434589",
    "region": "충청남도"
  },
  {
    "name": "탕정초등학교 운동장",
    "address": "충청남도 아산시 탕정면 갈산리 530",
    "lat": "36.80167826814427",
    "lng": "127.06642276178934",
    "region": "충청남도"
  },
  {
    "name": "아산북수초등학교 운동장",
    "address": "충청남도 아산시 배방읍 북수리 299-24",
    "lat": "36.76793508102993",
    "lng": "127.0772892638629",
    "region": "충청남도"
  },
  {
    "name": "대동세무고등학교 운동장",
    "address": "서울특별시 종로구 계동 38-10",
    "lat": "37.5809961239698",
    "lng": "126.98785275220871",
    "region": "서울특별시"
  },
  {
    "name": "나래어린이공원",
    "address": "대구광역시 달서구 도원동 1428-1",
    "lat": "35.80894416046775",
    "lng": "128.5301477374576",
    "region": "대구광역시"
  },
  {
    "name": "왕북초등학교 운동장",
    "address": "전북특별자치도 익산시 왕궁면 동용리 643",
    "lat": "35.99069121306916",
    "lng": "127.10381864577732",
    "region": "전북특별자치도"
  },
  {
    "name": "전북맹아학교 운동장",
    "address": "전북특별자치도 익산시 석암동 358-8",
    "lat": "35.94204903741861",
    "lng": "127.00581870538714",
    "region": "전북특별자치도"
  },
  {
    "name": "전북제일고등학교 운동장",
    "address": "전북특별자치도 익산시 평화동 169",
    "lat": "35.93467864698279",
    "lng": "126.94224715232849",
    "region": "전북특별자치도"
  },
  {
    "name": "이리백제초등학교 운동장",
    "address": "전북특별자치도 익산시 영등동 813",
    "lat": "35.962410229570764",
    "lng": "126.97452481969076",
    "region": "전북특별자치도"
  },
  {
    "name": " 함열고등학교 운동장",
    "address": "전북특별자치도 익산시 함열읍 와리 530-1",
    "lat": "36.08223705700194",
    "lng": "126.95939210615852",
    "region": "전북특별자치도"
  },
  {
    "name": "황등중학교 운동장",
    "address": "전북특별자치도 익산시 황등면 황등리 626-1",
    "lat": "36.007713140557655",
    "lng": "126.94618289922357",
    "region": "전북특별자치도"
  },
  {
    "name": "익산초등학교 운동장",
    "address": "전북특별자치도 익산시 어양동 593",
    "lat": "35.954238895604504",
    "lng": "126.97989529941633",
    "region": "전북특별자치도"
  },
  {
    "name": "익산가온초등학교 운동장",
    "address": "전북특별자치도 익산시 모현동2가 636",
    "lat": "35.95567449556151",
    "lng": "126.93768203258513",
    "region": "전북특별자치도"
  },
  {
    "name": "군산기계공업고등학교 운동장",
    "address": "전북특별자치도 군산시 송풍동 762",
    "lat": "35.97687736943587",
    "lng": "126.70018251340535",
    "region": "전북특별자치도"
  },
  {
    "name": "삼척고등학교 운동장",
    "address": "강원특별자치도 삼척시 당저동 57",
    "lat": "37.4457920269435",
    "lng": "129.1651933193851",
    "region": "강원특별자치도"
  },
  {
    "name": "신례원초등학교",
    "address": "충청남도 예산군 예산읍 신례원리 256-2",
    "lat": "36.726069",
    "lng": "126.842589",
    "region": "충청남도"
  },
  {
    "name": "평촌초등학교",
    "address": "충청남도 예산군 응봉면 평촌리 156-3",
    "lat": "36.634356",
    "lng": "126.785940",
    "region": "충청남도"
  },
  {
    "name": "논산반월초등학교 운동장",
    "address": "충청남도 논산시 반월동 130",
    "lat": "36.20353795690362",
    "lng": "127.08402872085568",
    "region": "충청남도"
  },
  {
    "name": "감곡초등학교 운동장",
    "address": "충청남도 논산시 부적면 외성리 366-3",
    "lat": "36.210653978067526",
    "lng": "127.16063261032104",
    "region": "충청남도"
  },
  {
    "name": "둔포초등학교 운동장",
    "address": "충청남도 아산시 둔포면 둔포리 388",
    "lat": "36.92663157209744",
    "lng": "127.03877483308325",
    "region": "충청남도"
  },
  {
    "name": "쌍룡초등학교 운동장",
    "address": "충청남도 아산시 음봉면 쌍룡리 58-1",
    "lat": "36.880025181524665",
    "lng": "127.07454811359179",
    "region": "충청남도"
  },
  {
    "name": "염티초등학교 운동장",
    "address": "충청남도 아산시 염치읍 염성리 173",
    "lat": "36.816498",
    "lng": "126.977429",
    "region": "충청남도"
  },
  {
    "name": "온양중앙초등학교 운동장",
    "address": "충청남도 아산시 온천동 617-2",
    "lat": "36.77640505452243",
    "lng": "127.00162580523869",
    "region": "충청남도"
  },
  {
    "name": "월랑초등학교 운동장",
    "address": "충청남도 아산시 음봉면 월랑리 697",
    "lat": "36.845539",
    "lng": "127.069439",
    "region": "충청남도"
  },
  {
    "name": "새롬고등학교 운동장",
    "address": "세종특별자치시 세종시 새롬동 596",
    "lat": "36.48610801568836",
    "lng": "127.24921524524687",
    "region": "세종특별자치시"
  },
  {
    "name": "신명중학교 운동장",
    "address": "서울특별시 강동구 길동 42",
    "lat": "37.54212922200115",
    "lng": "127.14941696441706",
    "region": "서울특별시"
  },
  {
    "name": "동명근린공원 축구장",
    "address": "서울특별시 강동구 고덕동 229",
    "lat": "37.56107844142139",
    "lng": "127.16490268707278",
    "region": "서울특별시"
  },
  {
    "name": "영원초등학교 운동장",
    "address": "서울특별시 영등포구 영등포동 647-2",
    "lat": "37.510313075417336",
    "lng": "126.90231442451477",
    "region": "서울특별시"
  },
  {
    "name": "정원여자중학교 운동장",
    "address": "서울특별시 서대문구 홍은동 산11-141",
    "lat": "37.585350129869056",
    "lng": "126.93313324549507",
    "region": "서울특별시"
  },
  {
    "name": "합정동보호수 정자마당",
    "address": "서울특별시 마포구 합정동 450-6",
    "lat": "37.5514",
    "lng": "126.9035",
    "region": "서울특별시"
  },
  {
    "name": "마중공원",
    "address": "경기도 수원시 권선구 권선동 1348",
    "lat": "37.237832",
    "lng": "127.020830",
    "region": "경기도"
  },
  {
    "name": "이리동초등학교 운동장",
    "address": "전북특별자치도 익산시 영등동 155",
    "lat": "35.95687991675833",
    "lng": "126.97773561287114",
    "region": "전북특별자치도"
  },
  {
    "name": "예산고등학교",
    "address": "충청남도 예산군 예산읍 주교리 125-1",
    "lat": "36.681228",
    "lng": "126.837698",
    "region": "충청남도"
  },
  {
    "name": "양촌초등학교 운동장",
    "address": "충청남도 논산시 양촌면 인천리 403",
    "lat": "36.13834496606283",
    "lng": "127.23347201408868",
    "region": "충청남도"
  },
  {
    "name": "세연중학교",
    "address": "강원특별자치도 태백시 황지동 274-13",
    "lat": "37.1778774076712",
    "lng": "128.9894912219294",
    "region": "강원특별자치도"
  },
  {
    "name": "백화초",
    "address": "충청남도 태안군 태안읍 동문리 45",
    "lat": "36.75240077170603",
    "lng": "126.30816489458206",
    "region": "충청남도"
  },
  {
    "name": "새뜸초등학교 운동장",
    "address": "세종특별자치시 세종시 새롬동 573",
    "lat": "36.485236785239394",
    "lng": "127.25386083126068",
    "region": "세종특별자치시"
  },
  {
    "name": "큰더기어린이공원",
    "address": "서울특별시 마포구 공덕동 470-1",
    "lat": "37.55049347775175",
    "lng": "126.95322677493095",
    "region": "서울특별시"
  },
  {
    "name": "익산고등학교 운동장",
    "address": "전북특별자치도 익산시 금마면 동고도리 565",
    "lat": "35.994544097395334",
    "lng": "127.05625712871121",
    "region": "전북특별자치도"
  },
  {
    "name": "여산고등학교 운동장",
    "address": "전북특별자치도 익산시 여산면 두여리 716-1",
    "lat": "36.06633983269989",
    "lng": "127.08211638125523",
    "region": "전북특별자치도"
  },
  {
    "name": "이리팔봉초등학교 운동장",
    "address": "전북특별자치도 익산시 팔봉동 403-1",
    "lat": "35.96717869646729",
    "lng": "127.01272487640675",
    "region": "전북특별자치도"
  },
  {
    "name": "회현초등학교 운동장",
    "address": "전북특별자치도 군산시 회현면 대정리 139",
    "lat": "35.915394849384086",
    "lng": "126.75222999554276",
    "region": "전북특별자치도"
  },
  {
    "name": "나포중학교 운동장",
    "address": "전북특별자치도 군산시 나포면 옥곤리 445-5",
    "lat": "36.02788467312198",
    "lng": "126.83199961910191",
    "region": "전북특별자치도"
  },
  {
    "name": "옥구중학교 운동장",
    "address": "전북특별자치도 군산시 대야면 지경리 877-10",
    "lat": "35.94265529225043",
    "lng": "126.80521658989554",
    "region": "전북특별자치도"
  },
  {
    "name": "군산중앙중학교",
    "address": "전북특별자치도 군산시 성산면 도암리 608-8",
    "lat": "35.99996441264898",
    "lng": "126.78380964841993",
    "region": "전북특별자치도"
  },
  {
    "name": "대흥초등학교",
    "address": "충청남도 예산군 대흥면 동서리 82-1",
    "lat": "36.607159",
    "lng": "126.789932",
    "region": "충청남도"
  },
  {
    "name": "성동초등학교 운동장",
    "address": "충청남도 논산시 성동면 삼산리 108",
    "lat": "36.19905800844084",
    "lng": "127.03362130399724",
    "region": "충청남도"
  },
  {
    "name": "원봉초등학교 운동장",
    "address": "충청남도 논산시 성동면 정지리 100",
    "lat": "36.21224677009147",
    "lng": "127.0605432987213",
    "region": "충청남도"
  },
  {
    "name": "오목초등학��� 운동장",
    "address": "충청남도 아산시 신창면 오목리 310-4",
    "lat": "36.808229",
    "lng": "126.928230",
    "region": "충청남도"
  },
  {
    "name": "철암초등학교",
    "address": "강원특별자치도 태백시 철암동 341-21",
    "lat": "37.12278954013558",
    "lng": "129.04190244362042",
    "region": "강원특별자치도"
  },
  {
    "name": "태안여고",
    "address": "충청남도 태안군 태안읍 남문리 416",
    "lat": "36.76021221782657",
    "lng": "126.28964424133571",
    "region": "충청남도"
  },
  {
    "name": "명지중학교 운동장",
    "address": "충청남도 서산시 대산읍 대로리 313-20",
    "lat": "36.967398316664685",
    "lng": "126.41041018854465",
    "region": "충청남도"
  },
  {
    "name": "경남체육고등학교 운동장",
    "address": "경상남도 진주시 진성면 가진리 75",
    "lat": "35.203013059744514",
    "lng": "128.22497521280818",
    "region": "경상남도"
  },
  {
    "name": "재동초등학교 운동장",
    "address": "서울특별시 종로구 가회동 210",
    "lat": "37.579642085911686",
    "lng": "126.98561310768129",
    "region": "서울특별시"
  },
  {
    "name": "당산중학교 운동장",
    "address": "서울특별시 영등포구 당산동 121",
    "lat": "37.5318502506038",
    "lng": "126.90727114677426",
    "region": "서울특별시"
  },
  {
    "name": "인왕초등학교 운동장",
    "address": "서울특별시 서대문구 홍제동 245-1",
    "lat": "37.59017",
    "lng": "126.94506",
    "region": "서울특별시"
  },
  {
    "name": "용강쉼터",
    "address": "서울특별시 마포구 대흥동 804-3",
    "lat": "37.548640239990426",
    "lng": "126.94064998138596",
    "region": "서울특별시"
  },
  {
    "name": "주성초등학교 운동장",
    "address": "충청북도 청주시 상당구 영동 48-1",
    "lat": "36.64117289814761",
    "lng": "127.4852781519147",
    "region": "충청북도"
  },
  {
    "name": "웅포초등학교 운동장",
    "address": "전북특별자치도 익산시 웅포면 웅포리 871-1",
    "lat": "36.06454949414198",
    "lng": "126.8780773615735",
    "region": "전북특별자치도"
  },
  {
    "name": "이리남창초등학교 운동장",
    "address": "전북특별자치도 익산시 남중동 252-2",
    "lat": "35.94488954960543",
    "lng": "126.95394694804905",
    "region": "전북특별자치도"
  },
  {
    "name": "원광고등학교 운동장",
    "address": "전북특별자치도 익산시 부송동 9-4",
    "lat": "35.97299854538651",
    "lng": "127.0010170340538",
    "region": "전북특별자치도"
  },
  {
    "name": "이리공업고등학교 운동장",
    "address": "전북특별자치도 익산시 남중동 379-2",
    "lat": "35.95310161519755",
    "lng": "126.9536840915733",
    "region": "전북특별자치도"
  },
  {
    "name": " 함열초등학교",
    "address": "전북특별자치도 익산시 함열읍 와리 220-11",
    "lat": "36.078668781135605",
    "lng": "126.96545898914337",
    "region": "전북특별자치도"
  },
  {
    "name": "대야초등학교 운동장",
    "address": "경기도 군포시 대야미동 220-4",
    "lat": "37.32902371851209",
    "lng": "126.91517808485685",
    "region": "경기도"
  },
  {
    "name": "영천초등학교 운동장",
    "address": "경기도 화성시 영천동 671",
    "lat": "37.205721959381016",
    "lng": "127.10465071669302",
    "region": "경기도"
  },
  {
    "name": "대흥중학교",
    "address": "충청남도 예산군 대흥면 상중리 231",
    "lat": "36.604812",
    "lng": "126.792524",
    "region": "충청남도"
  },
  {
    "name": "왕전초등학교 운동장",
    "address": "충청남도 논산시 광석면 왕전리 308",
    "lat": "36.23939715412586",
    "lng": "127.10886061191559",
    "region": "충청남도"
  },
  {
    "name": "노성초등학교 운동장",
    "address": "충청남도 논산시 노성면 송당리 114-4",
    "lat": "36.27795145443749",
    "lng": "127.1217727661133",
    "region": "충청남도"
  },
  {
    "name": "채운초등학교 운동장",
    "address": "충청남도 논산시 채운면 용화리 415-10",
    "lat": "36.16888356090517",
    "lng": "127.06771552562712",
    "region": "충청남도"
  },
  {
    "name": "글벗중학교 운동장",
    "address": "세종특별자치시 세종시 소담동 533",
    "lat": "36.4879625825316",
    "lng": "127.2989594936371",
    "region": "세종특별자치시"
  },
  {
    "name": "은빛초등학교 운동장 ",
    "address": "서울특별시 은평구 진관동 23",
    "lat": "37.64236906578231",
    "lng": "126.91921409235674",
    "region": "서울특별시"
  },
  {
    "name": "참다래어린이공원",
    "address": "서울특별시 은평구 응암동 120-22",
    "lat": "37.595385170516586",
    "lng": "126.91733631152067",
    "region": "서울특별시"
  },
  {
    "name": "진해신항초등학교",
    "address": "경상남도 창원시 진해구 용원동 1341",
    "lat": "35.0892831609086",
    "lng": "128.8105615492518",
    "region": "경상남도"
  },
  {
    "name": "성원어린이 공원",
    "address": "서울특별시 성동구 성수동1가 13-21",
    "lat": "37.550212723317095",
    "lng": "127.0500548519849",
    "region": "서울특별시"
  },
  {
    "name": "백운중학교 운동장",
    "address": "전북특별자치도 진안군 백운면 백암리 631",
    "lat": "35.6887",
    "lng": "127.3974",
    "region": "전북특별자치도"
  },
  {
    "name": "왕궁남초등학교 운동장",
    "address": "전북특별자치도 익산시 왕궁면 온수리 202-4",
    "lat": "35.92671462352123",
    "lng": "127.07576239133829",
    "region": "전북특별자치도"
  },
  {
    "name": "전북과학고 운동장",
    "address": "전북특별자치도 익산시 금마면 용순리 210",
    "lat": "36.01335230527639",
    "lng": "127.0354700088501",
    "region": "전북특별자치도"
  },
  {
    "name": "익산옥야초등학교 운동장",
    "address": "전북특별자치도 익산시 동산동 539-3",
    "lat": "35.92177710762548",
    "lng": "126.95965614142192",
    "region": "전북특별자치도"
  },
  {
    "name": "웅포중학교 운동장",
    "address": "전북특별자치도 익산시 웅포면 고창리 190",
    "lat": "36.08845074371006",
    "lng": "126.88520949951831",
    "region": "전북특별자치도"
  },
  {
    "name": "익산부천중학교 운동장",
    "address": "전북특별자치도 익산시 어양동 7-1",
    "lat": "35.95280415443002",
    "lng": "126.99052691459654",
    "region": "전북특별자치도"
  },
  {
    "name": "군산동고등학교",
    "address": "전북특별자치도 군산시 개정동 171",
    "lat": "35.970643167776146",
    "lng": "126.76734036834594",
    "region": "전북특별자치도"
  },
  {
    "name": "정자 어린이공원",
    "address": "경기도 수원시 장안구 정자동 35-22",
    "lat": "37.295417726304336",
    "lng": "127.00282257626496",
    "region": "경기도"
  },
  {
    "name": "예당초등학교 운동장",
    "address": "경기도 화성시 석우동 54",
    "lat": "37.210390930507586",
    "lng": "127.07538628725811",
    "region": "경기도"
  },
  {
    "name": "신양초등학교",
    "address": "충청남도 예산군 신양면 신양리 346-3",
    "lat": "36.601989",
    "lng": "126.868811",
    "region": "충청남도"
  },
  {
    "name": "삽교중학교",
    "address": "충청남도 예산군 삽교읍 두리 558",
    "lat": "36.686607721639064",
    "lng": "126.74868328933061",
    "region": "충청남도"
  },
  {
    "name": "부창초등학교 운동장",
    "address": "충청남도 논산시 부창동 39",
    "lat": "36.19938664577428",
    "lng": "127.08577752113342",
    "region": "충청남도"
  },
  {
    "name": "안면중 ",
    "address": "충청남도 태안군 안면읍 승언리 60-1",
    "lat": "36.50872638591884",
    "lng": "126.35422646999183",
    "region": "충청남도"
  },
  {
    "name": "보람중학교 운동장",
    "address": "세종특별자치시 세종시 보람동 780",
    "lat": "36.47723567128663",
    "lng": "127.29288160800935",
    "region": "세종특별자치시"
  },
  {
    "name": "덕성여자중학교 운동장",
    "address": "서울특별시 종로구 송현동 34",
    "lat": "37.57783675522489",
    "lng": "126.98212197301434",
    "region": "서울특별시"
  },
  {
    "name": "삼청공원",
    "address": "서울특별시 종로구 삼청동 산2-1",
    "lat": "37.59159163102097",
    "lng": "126.98216378688812",
    "region": "서울특별시"
  },
  {
    "name": "이리송학초등학교 운동장",
    "address": "전북특별자치도 익산시 송학동 111-1",
    "lat": "35.9365115816021",
    "lng": "126.94052249193193",
    "region": "전북특별자치도"
  },
  {
    "name": "왕궁중학교운동장",
    "address": "전북특별자치도 익산시 왕궁면 흥암리 91-1",
    "lat": "35.966611257166925",
    "lng": "127.09180503860796",
    "region": "전북특별자치도"
  },
  {
    "name": "성균관대학교 운동장",
    "address": "경기도 수원시 장안구 천천동 585",
    "lat": "37.29517576066331",
    "lng": "126.97097897529602",
    "region": "경기도"
  },
  {
    "name": "동남보건대학교 운동장",
    "address": "경기도 수원시 장안구 정자동 937",
    "lat": "37.297354301128856",
    "lng": "126.9868576526642",
    "region": "경기도"
  },
  {
    "name": "소꼽놀이 어린이공원",
    "address": "경기도 수원시 영통구 하동 965-8",
    "lat": "37.293469",
    "lng": "127.069661",
    "region": "경기도"
  },
  {
    "name": "우정 어린이공원",
    "address": "경기도 수원시 영통구 매탄동 1201",
    "lat": "37.271322",
    "lng": "127.053806",
    "region": "경기도"
  },
  {
    "name": "미래 어린이공원",
    "address": "경기도 수원시 영통구 매탄동 196-25",
    "lat": "37.271685",
    "lng": "127.047562",
    "region": "경기도"
  },
  {
    "name": "산샘 어린이공원",
    "address": "경기도 수원시 영통구 매탄동 205-32",
    "lat": "37.267231",
    "lng": "127.048411",
    "region": "경기도"
  },
  {
    "name": "꿈틀이 어린이공원",
    "address": "경기도 수원시 영통구 원천동 581",
    "lat": "37.277257",
    "lng": "127.050118",
    "region": "경기도"
  },
  {
    "name": "물봉선 어린이공원",
    "address": "경기도 수원시 영통구 이의동 1311-2",
    "lat": "37.29409",
    "lng": "127.053947",
    "region": "경기도"
  },
  {
    "name": "상월초등학교 운동장",
    "address": "충청남도 논산시 상월면 신충리 25",
    "lat": "36.29327618337056",
    "lng": "127.13978111743928",
    "region": "충청남도"
  },
  {
    "name": "종합운동장",
    "address": "충청남도 태안군 태안읍 평천리 1193",
    "lat": "36.73782659188626",
    "lng": "126.33167982101406",
    "region": "충청남도"
  },
  {
    "name": "방포초 ",
    "address": "충청남도 태안군 안면읍 승언리 1312",
    "lat": "36.50686800444334",
    "lng": "126.34833097457859",
    "region": "충청남도"
  },
  {
    "name": "용산초등학교 운동장",
    "address": "서울특별시 용산구 한강로2가 1",
    "lat": "37.53533100865089",
    "lng": "126.97236595500343",
    "region": "서울특별시"
  },
  {
    "name": "문화소공원",
    "address": "서울특별시 서대문구 홍제동 280-2",
    "lat": "37.59454932179059",
    "lng": "126.94881470585064",
    "region": "서울특별시"
  },
  {
    "name": "춘포초등학교 운동장",
    "address": "전북특별자치도 익산시 춘포면 용연리 811",
    "lat": "35.90188061364554",
    "lng": "127.0115715265269",
    "region": "전북특별자치도"
  },
  {
    "name": "함라중학교 운동장",
    "address": "전북특별자치도 익산시 함라면 금성리 330",
    "lat": "36.06431239224353",
    "lng": "126.91796779632325",
    "region": "전북특별자치도"
  },
  {
    "name": "동그라미 어린이공원",
    "address": "경기도 수원시 영통구 신동 927-2",
    "lat": "37.247838282396216",
    "lng": "127.04294800758363",
    "region": "경기도"
  },
  {
    "name": "장대산 어린이공원",
    "address": "경기도 수원시 권선구 권선동 985",
    "lat": "37.259022",
    "lng": "127.021201",
    "region": "경기도"
  },
  {
    "name": "마루터기 어린이공원",
    "address": "경기도 수원시 영통구 매탄동 861",
    "lat": "37.264067",
    "lng": "127.048806",
    "region": "경기도"
  },
  {
    "name": "월락초등학교 운동장",
    "address": "전북특별자치도 남원시 월락동 162-4",
    "lat": "35.42361432221816",
    "lng": "127.4036449223379",
    "region": "전북특별자치도"
  },
  {
    "name": "노암초등학교 운동장",
    "address": "전북특별자치도 남원시 노암동 270",
    "lat": "35.39558335691892",
    "lng": "127.37614292636987",
    "region": "전북특별자치도"
  },
  {
    "name": "오동초등학교 운동장",
    "address": "전북특별자치도 남원시 이백면 척문리 425-1",
    "lat": "35.426862548172245",
    "lng": "127.4232150036794",
    "region": "전북특별자치도"
  },
  {
    "name": "서원초등학교 운동장",
    "address": "전북특별자치도 남원시 대산면 수덕리 20",
    "lat": "35.404813325428684",
    "lng": "127.34383648394447",
    "region": "전북특별자치도"
  },
  {
    "name": "금지초등학교 운동장",
    "address": "전북특별자치도 남원시 금지면 택내리 57",
    "lat": "35.33293221253408",
    "lng": "127.29360044002534",
    "region": "전북특별자치도"
  },
  {
    "name": "금지동초등학교 운동장",
    "address": "전북특별자치도 남원시 금지면 옹정리 815-1",
    "lat": "35.35663116187851",
    "lng": "127.29982954769164",
    "region": "전북특별자치도"
  },
  {
    "name": "수지초등학교 운동장",
    "address": "전북특별자치도 남원시 수지면 호곡리 800",
    "lat": "35.336653557780544",
    "lng": "127.37424975467941",
    "region": "전북특별자치도"
  },
  {
    "name": "아영초등학교 운동장",
    "address": "전북특별자치도 남원시 아영면 청계리 42-3",
    "lat": "35.5053542403236",
    "lng": "127.60973900556566",
    "region": "전북특별자치도"
  },
  {
    "name": "인월초등학교 운동장",
    "address": "전북특별자치도 남원시 인월면 서무리 688-14",
    "lat": "35.46338861202165",
    "lng": "127.60153828459639",
    "region": "전북특별자치도"
  },
  {
    "name": "보절중학교 운동장",
    "address": "전북특별자치도 남원시 덕과면 만도리 70",
    "lat": "35.51116427685808",
    "lng": "127.40056961774827",
    "region": "전북특별자치도"
  },
  {
    "name": "동화초등학교 운동장",
    "address": "경기도 화성시 봉담읍 동화리 606",
    "lat": "37.21522233392138",
    "lng": "126.96165875402313",
    "region": "경기도"
  },
  {
    "name": "천안월봉초등학교 운동장",
    "address": "충청남도 천안시 서북구 쌍용동 1549",
    "lat": "36.796717450934736",
    "lng": "127.11597820276253",
    "region": "충청남도"
  },
  {
    "name": "천안일봉초등학교 운동장",
    "address": "충청남도 천안시 동남구 다가동 380-8",
    "lat": "36.79964167311374",
    "lng": "127.13888865350171",
    "region": "충청남도"
  },
  {
    "name": "삽량초등학교 운동장",
    "address": "경상남도 양산시 남부동 601-3",
    "lat": "35.331916",
    "lng": "129.029663",
    "region": "경상남도"
  },
  {
    "name": "양산중학교 운동장",
    "address": "경상남도 양산시 북부동 234",
    "lat": "35.349764",
    "lng": "129.043675",
    "region": "경상남도"
  },
  {
    "name": "명덕초등학교 운동장",
    "address": "서울특별시 강동구 고덕동 487-15",
    "lat": "37.55691492006299",
    "lng": "127.14544007403796",
    "region": "서울특별시"
  },
  {
    "name": "이천양정여자고등학교 운동장",
    "address": "경기도 이천시 관고동 77",
    "lat": "37.28432701657599",
    "lng": "127.43691519878838",
    "region": "경기도"
  },
  {
    "name": "한영고등학교 운동장",
    "address": "서울특별시 강동구 상일동 166",
    "lat": "37.54881772556005",
    "lng": "127.15735367535994",
    "region": "서울특별시"
  },
  {
    "name": "강동아트센터(잔디광장)",
    "address": "서울특별시 강동구 상일동 477",
    "lat": "37.55131231211007",
    "lng": "127.15748941864211",
    "region": "서울특별시"
  },
  {
    "name": "아주대학교 옥외운동장",
    "address": "경기도 수원시 영통구 원천동 1",
    "lat": "37.28055166173317",
    "lng": "127.0441094040870",
    "region": "경기도"
  },
  {
    "name": "용성고등학교 운동장",
    "address": "전북특별자치도 남원시 도통동 220",
    "lat": "35.419586568460204",
    "lng": "127.39197805308144",
    "region": "전북특별자치도"
  },
  {
    "name": "남원여자고등학교 운동장",
    "address": "전북특별자치도 남원시 왕정동 100",
    "lat": "35.41013977904012",
    "lng": "127.3704114628029",
    "region": "전북특별자치도"
  },
  {
    "name": "남원국악예술고등학교 운동장",
    "address": "전북특별자치도 남원시 월락동 159",
    "lat": "35.424588120465074",
    "lng": "127.4050451489198",
    "region": "전북특별자치도"
  },
  {
    "name": "동북유치원 주차장",
    "address": "전북특별자치도 남원시 동충동 237",
    "lat": "35.41246417737702",
    "lng": "127.3839524802395",
    "region": "전북특별자치도"
  },
  {
    "name": "한울학교 운동장",
    "address": "전북특별자치도 남원시 이백면 서곡리 430-1",
    "lat": "35.42480146752276",
    "lng": "127.44149439443808",
    "region": "전북특별자치도"
  },
  {
    "name": "군남초등학교 운동장",
    "address": "경기도 연천군 군남면 진상리 704-1",
    "lat": "38.067262190752295",
    "lng": "127.01640681633447",
    "region": "경기도"
  },
  {
    "name": "궁평초등학교 운동장",
    "address": "경기도 연천군 청산면 궁평리 432-1",
    "lat": "38.02764214093528",
    "lng": "127.10478167247557",
    "region": "경기도"
  },
  {
    "name": "상리초등학교 운동장",
    "address": "경기도 연천군 연천읍 상리 161-2",
    "lat": "38.13523638037303",
    "lng": "127.07507871384549",
    "region": "경기도"
  },
  {
    "name": "왕산초등학교 운동장",
    "address": "경기도 연천군 미산면 우정리 397",
    "lat": "38.056231364646116",
    "lng": "127.01142306658296",
    "region": "경기도"
  },
  {
    "name": "예산중학교",
    "address": "충청남도 예산군 예산읍 주교리 350",
    "lat": "36.678438",
    "lng": "126.833068",
    "region": "충청남도"
  },
  {
    "name": "천안구성초등학교 운동장",
    "address": "충청남도 천안시 동남구 구성동 388-71",
    "lat": "36.79306728059818",
    "lng": "127.1582512722981",
    "region": "충청남도"
  },
  {
    "name": "장수초등학교 운동장",
    "address": "전북특별자치도 장수군 장수읍 장수리 195",
    "lat": "35.64827715872592",
    "lng": "127.52194330456341",
    "region": "전북특별자치도"
  },
  {
    "name": "웅상고등학교 운동장",
    "address": "경상남도 양산시 평산동 290",
    "lat": "35.377857",
    "lng": "129.144762",
    "region": "경상남도"
  },
  {
    "name": "경기상업고등학교 운동장",
    "address": "서울특별시 종로구 청운동 89-3",
    "lat": "37.58815017347914",
    "lng": "126.9700402222006",
    "region": "서울특별시"
  },
  {
    "name": "내수1근린공원",
    "address": "서울특별시 종로구 내수동 71-2",
    "lat": "37.57358735670725",
    "lng": "126.97055349193175",
    "region": "서울특별시"
  },
  {
    "name": "제일고등학교",
    "address": "대구광역시 서구 비산동 228",
    "lat": "35.87135800000",
    "lng": "128.57351000000",
    "region": "대구광역시"
  },
  {
    "name": "용답토속공원",
    "address": "서울특별시 성동구 용답동 223",
    "lat": "37.56321453917104",
    "lng": "127.05689251572342",
    "region": "서울특별시"
  },
  {
    "name": "진안제일고등학교 운동장",
    "address": "전북특별자치도 진안군 진안읍 군하리 386",
    "lat": "35.7866",
    "lng": "127.4211",
    "region": "전북특별자치도"
  },
  {
    "name": "원광여중학교 운동장",
    "address": "전북특별자치도 익산시 모현동1가 520",
    "lat": "35.954751742200955",
    "lng": "126.94500982761384",
    "region": "전북특별자치도"
  },
  {
    "name": "송악초등학교운동장",
    "address": "충청남도 당진시 송악읍 중흥리 250-1",
    "lat": "36.93978122115813",
    "lng": "126.74399025027404",
    "region": "충청남도"
  },
  {
    "name": "천안용소초등학교 운동장",
    "address": "충청남도 천안시 동남구 용곡동 476-17",
    "lat": "36.78945224779238",
    "lng": "127.13541060849563",
    "region": "충청남도"
  },
  {
    "name": "웅상중학교 운동장",
    "address": "경상남도 양산시 평산동 297-3",
    "lat": "35.376966",
    "lng": "129.145126",
    "region": "경상남도"
  },
  {
    "name": "소토초등학교 운동장",
    "address": "경상남도 양산시 상북면 소토리 651",
    "lat": "35.379401",
    "lng": "129.053193",
    "region": "경상남도"
  },
  {
    "name": "성내중학교 운동장",
    "address": "서울특별시 강동구 성내동 530",
    "lat": "37.52850446373502",
    "lng": "127.12954454804988",
    "region": "서울특별시"
  },
  {
    "name": "신현고등학교운동장",
    "address": "서울특별시 중랑구 상봉동 482",
    "lat": "37.60485262252904",
    "lng": "127.09256258675087",
    "region": "서울특별시"
  },
  {
    "name": "양남초등학교 운동장",
    "address": "서울특별시 광진구 자양동 692",
    "lat": "37.53059437528325",
    "lng": "127.08967827745681",
    "region": "서울특별시"
  },
  {
    "name": "능동초등학교 운동장",
    "address": "경기도 화성시 능동 1085",
    "lat": "37.213136822641985",
    "lng": "127.05879163786842",
    "region": "경기도"
  },
  {
    "name": "청목초등학교 운동장",
    "address": "경기도 화성시 청계동 539",
    "lat": "37.19575108581678",
    "lng": "127.11735504668353",
    "region": "경기도"
  },
  {
    "name": "고대초등학교운동장",
    "address": "충청남도 당진시 고대면 진관리 770-2",
    "lat": "36.93622672067222",
    "lng": "126.59419678247626",
    "region": "충청남도"
  },
  {
    "name": "관대초등학교 운동장",
    "address": "충청남도 아산시 둔포면 산전리 322",
    "lat": "36.89837561836664",
    "lng": "127.03692105238173",
    "region": "충청남도"
  },
  {
    "name": "신리초등학교 운동장",
    "address": "충청남도 아산시 모종동 732",
    "lat": "36.78651815223779",
    "lng": "127.02434420585496",
    "region": "충청남도"
  },
  {
    "name": "아산남성초등학교 운동장",
    "address": "충청남도 아산시 신창면 남성리 119-4",
    "lat": "36.78754559056738",
    "lng": "126.95654429314897",
    "region": "충청남도"
  },
  {
    "name": "천안수곡초등학교 운동장",
    "address": "충청남도 천안시 서북구 쌍용동 440-27",
    "lat": "36.79033735290041",
    "lng": "127.12270292270588",
    "region": "충청남도"
  },
  {
    "name": "천안삼거리초등학교 운동장",
    "address": "충청남도 천안시 동남구 삼룡동 246-24",
    "lat": "36.789215900952705",
    "lng": "127.16369477597036",
    "region": "충청남도"
  },
  {
    "name": "천안와촌초등학교 운동장",
    "address": "충청남도 천안시 서북구 와촌동 174",
    "lat": "36.805992761906104",
    "lng": "127.14443151053584",
    "region": "충청남도"
  },
  {
    "name": "천안봉서초등학교 운동장",
    "address": "충청남도 천안시 동남구 봉명동 482",
    "lat": "36.81279990768605",
    "lng": "127.13124754880906",
    "region": "충청남도"
  },
  {
    "name": "덕계초등학교 운동장",
    "address": "경상남도 양산시 덕계동 718-4",
    "lat": "35.375527",
    "lng": "129.153365",
    "region": "경상남도"
  },
  {
    "name": "삼성중학교 운동장",
    "address": "경상남도 양산시 북정동 555",
    "lat": "35.360533",
    "lng": "129.046501",
    "region": "경상남도"
  },
  {
    "name": "상일여자고등학교 운동장",
    "address": "서울특별시 강동구 상일동 189",
    "lat": "37.54906602423192",
    "lng": "127.17017694612127",
    "region": "서울특별시"
  },
  {
    "name": "성신여자중학교 운동장",
    "address": "서울특별시 성북구 돈암동 산11-269",
    "lat": "37.59456714596862",
    "lng": "127.02349252279866",
    "region": "서울특별시"
  },
  {
    "name": "오리초등학교 운동장",
    "address": "경기도 성남시 분당구 구미동 115",
    "lat": "37.34393514855457",
    "lng": "127.11540387996655",
    "region": "경기도"
  },
  {
    "name": "용곡초등학교 운동장 ",
    "address": "서울특별시 광진구 중곡동 176-1",
    "lat": "37.56672716355081",
    "lng": "127.08857622776443",
    "region": "서울특별시"
  },
  {
    "name": "오천초등학교 운동장",
    "address": "전북특별자치도 진안군 진안읍 죽산리 4",
    "lat": "35.776473912284835",
    "lng": "127.49306559562687",
    "region": "전북특별자치도"
  },
  {
    "name": "백운초등학교 운동장",
    "address": "전북특별자치도 진안군 백운면 백암리 537",
    "lat": "35.6918",
    "lng": "127.3984",
    "region": "전북특별자치도"
  },
  {
    "name": "웅산초등학교",
    "address": "충청남도 예산군 광시면 광시리 76",
    "lat": "36.55090739923369",
    "lng": "126.77373737096784",
    "region": "충청남도"
  },
  {
    "name": "삽교고등학교",
    "address": "충청남도 예산군 삽교읍 두리 532-40",
    "lat": "36.687629",
    "lng": "126.747993",
    "region": "충청남도"
  },
  {
    "name": "당곡고등학교 운동장",
    "address": "서울특별시 관악구 봉천동 677",
    "lat": "37.49224711928084",
    "lng": "126.93431947949108",
    "region": "서울특별시"
  },
  {
    "name": "중앙어린이공원",
    "address": "서울특별시 관악구 봉천동 890-1",
    "lat": "37.48435017914453",
    "lng": "126.94827008147377",
    "region": "서울특별시"
  },
  {
    "name": "원평초등학교",
    "address": "경상남도 통영시 용남면 원평리 157",
    "lat": "34.894590957348136",
    "lng": "128.45932768186182",
    "region": "경상남도"
  },
  {
    "name": "예촌어린이공원",
    "address": "서울특별시 관악구 남현동 1083-1",
    "lat": "37.47457923054426",
    "lng": "126.97670817375182",
    "region": "서울특별시"
  },
  {
    "name": "난향공원(관악산 난곡공원)",
    "address": "서울특별시 관악구 신림동 685-4",
    "lat": "37.46561222127911",
    "lng": "126.91711281837753",
    "region": "서울특별시"
  },
  {
    "name": "진주제일중학교 운동장",
    "address": "경상남도 진주시 평거동 748-2",
    "lat": "35.1752111284866",
    "lng": "128.0670219490872",
    "region": "경상남도"
  },
  {
    "name": "한산중학교 운동장",
    "address": "서울특별시 강동구 둔촌동 161-1",
    "lat": "37.52824200872395",
    "lng": "127.14005368573422",
    "region": "서울특별시"
  },
  {
    "name": "구로구시설관리공단",
    "address": "서울특별시 구로구 구로동 741-27",
    "lat": "37.48963588065418",
    "lng": "126.88644379377362",
    "region": "서울특별시"
  },
  {
    "name": "구로고등학교 운동장",
    "address": "서울특별시 구로구 구로동 105-1",
    "lat": "37.498496252028055",
    "lng": "126.8900648296757",
    "region": "서울특별시"
  },
  {
    "name": "부귀초등학교 운동장",
    "address": "전북특별자치도 진안군 부귀면 거석리 788",
    "lat": "35.8375",
    "lng": "127.3613",
    "region": "전북특별자치도"
  },
  {
    "name": "외궁초등학교 운동장",
    "address": "전북특별자치도 진안군 성수면 외궁리 687-5",
    "lat": "35.70730402971774",
    "lng": "127.32545315897346",
    "region": "전북특별자치도"
  },
  {
    "name": "장승초등학교 운동장",
    "address": "전북특별자치도 진안군 부귀면 신정리 749",
    "lat": "35.79935434711187",
    "lng": "127.3346972465515",
    "region": "전북특별자치도"
  },
  {
    "name": "주천초등학교 운동장",
    "address": "전북특별자치도 진안군 주천면 주양리 465-3",
    "lat": "35.97576493033289",
    "lng": "127.42642491583545",
    "region": "전북특별자치도"
  },
  {
    "name": "봉림중학교 운동장",
    "address": "서울특별시 관악구 봉천동 1531-38",
    "lat": "37.47931827128091",
    "lng": "126.93875140915034",
    "region": "서울특별시"
  },
  {
    "name": "서진초등학교 운동장",
    "address": "경상남도 진주시 평거동 800",
    "lat": "35.168937941776235",
    "lng": "128.05703948364953",
    "region": "경상남도"
  },
  {
    "name": "태릉중학교운동장",
    "address": "서울특별시 중랑구 묵동 121-278",
    "lat": "37.61246718274416",
    "lng": "127.08251972423726",
    "region": "서울특별시"
  },
  {
    "name": "자양초등학교 운동장",
    "address": "서울특별시 광진구 자양동 222-6",
    "lat": "37.53679468786371",
    "lng": "127.07978380494627",
    "region": "서울특별시"
  },
  {
    "name": "대림어린이공원",
    "address": "서울특별시 영등포구 대림동 862-4",
    "lat": "37.491343648250314",
    "lng": "126.90339616690349",
    "region": "서울특별시"
  },
  {
    "name": "송풍초등학교 운동장",
    "address": "전북특별자치도 진안군 용담면 송풍리 1002",
    "lat": "35.9647",
    "lng": "127.5186",
    "region": "전북특별자치도"
  },
  {
    "name": "동향중학교 운동장",
    "address": "전북특별자치도 진안군 동향면 대량리 188",
    "lat": "35.8362",
    "lng": "127.5714",
    "region": "전북특별자치도"
  },
  {
    "name": "마령중학교 운동장",
    "address": "전북특별자치도 진안군 마령면 평지리 580-4",
    "lat": "35.7326",
    "lng": "127.3721",
    "region": "전북특별자치도"
  },
  {
    "name": "주천중학교 운동장",
    "address": "전북특별자치도 진안군 주천면 주양리 75",
    "lat": "35.9788",
    "lng": "127.4299",
    "region": "전북특별자치도"
  },
  {
    "name": "증포초등학교 운동장",
    "address": "경기도 이천시 증포동 477",
    "lat": "37.29381609599633",
    "lng": "127.45693623386634",
    "region": "경기도"
  },
  {
    "name": "안천고등학교 운동장",
    "address": "전북특별자치도 진안군 안천면 백화리 875-1",
    "lat": "35.9000",
    "lng": "127.5600",
    "region": "전북특별자치도"
  },
  {
    "name": "한방고등학교 운동장",
    "address": "전북특별자치도 진안군 진안읍 연장리 998",
    "lat": "35.7706",
    "lng": "127.3769",
    "region": "전북특별자치도"
  },
  {
    "name": "금마초등학교 운동장",
    "address": "전북특별자치도 익산시 금마면 동고도리 155",
    "lat": "35.9911239412491",
    "lng": "127.0566594600664",
    "region": "전북특별자치도"
  },
  {
    "name": "낭산초등학교 운동장",
    "address": "전북특별자치도 익산시 낭산면 호암리 318-2",
    "lat": "36.06648921653322",
    "lng": "127.01478481292723",
    "region": "전북특별자치도"
  },
  {
    "name": "다송초등학교 운동장",
    "address": "전북특별자치도 익산시 함열읍 다송리 477-1",
    "lat": "36.04098797403249",
    "lng": "126.95544630289079",
    "region": "전북특별자치도"
  },
  {
    "name": "석불초등학교 운동장",
    "address": "전북특별자치도 익산시 삼기면 연동리 643-2",
    "lat": "36.02962902211029",
    "lng": "127.00651019811461",
    "region": "전북특별자치도"
  },
  {
    "name": "성북초등학교 운동장",
    "address": "전북특별자치도 익산시 망성면 신작리 868",
    "lat": "36.14634963244757",
    "lng": "127.00849401308491",
    "region": "전북특별자치도"
  },
  {
    "name": "여산초등학교 운동장",
    "address": "전북특별자치도 익산시 여산면 여산리 490",
    "lat": "36.05887098372044",
    "lng": "127.08683481932493",
    "region": "전북특별자치도"
  },
  {
    "name": "신암중학교",
    "address": "충청남도 예산군 신암면 오산리 1-4",
    "lat": "36.739734",
    "lng": "126.813066",
    "region": "충청남도"
  },
  {
    "name": "백석초등학교 운동장",
    "address": "충청남도 논산시 연산면 백석리 543-7",
    "lat": "36.24722807599069",
    "lng": "127.17883944511414",
    "region": "충청남도"
  },
  {
    "name": "서울관광고등학교 운동장",
    "address": "서울특별시 관악구 봉천동 1694",
    "lat": "37.48844618792431",
    "lng": "126.94358825683592",
    "region": "서울특별시"
  },
  {
    "name": "구암중학교 운동장",
    "address": "서울특별시 관악구 봉천동 1712-5",
    "lat": "37.492765612042845",
    "lng": "126.94756481193737",
    "region": "서울특별시"
  },
  {
    "name": "보명어린이공원",
    "address": "서울특별시 관악구 신림동 610-298",
    "lat": "37.47560949668227",
    "lng": "126.92556917667389",
    "region": "서울특별시"
  },
  {
    "name": "중앙근린공원",
    "address": "서울특별시 서대문구 북가좌동 480",
    "lat": "37.575",
    "lng": "126.9131",
    "region": "서울특별시"
  },
  {
    "name": "자양중학교 운동장",
    "address": "서울특별시 광진구 자양동 524-10",
    "lat": "37.535232570058106",
    "lng": "127.07427662293927",
    "region": "서울특별시"
  },
  {
    "name": "구의중학교 운동장",
    "address": "서울특별시 광진구 화양동 303-18",
    "lat": "37.54345381786398",
    "lng": "127.0790688530043",
    "region": "서울특별시"
  },
  {
    "name": "양진초등학교 운동장",
    "address": "서울특별시 광진구 광장동 414-1",
    "lat": "37.54441345047159",
    "lng": "127.09773190814647",
    "region": "서울특별시"
  },
  {
    "name": "광남고등학교 운동장",
    "address": "서울특별시 광진구 광장동 554-11",
    "lat": "37.5411894202788",
    "lng": "127.10235018439516",
    "region": "서울특별시"
  },
  {
    "name": "용곡중학교 운동장 ",
    "address": "서울특별시 광진구 중곡동 176-77",
    "lat": "37.56567070556857",
    "lng": "127.08881114977612",
    "region": "서울특별시"
  },
  {
    "name": "대림 체육시설(대림운동장)",
    "address": "서울특별시 영등포구 대림동 780",
    "lat": "37.499720904481926",
    "lng": "126.89475059508833",
    "region": "서울특별시"
  },
  {
    "name": "망성초등학교 운동장",
    "address": "전북특별자치도 익산시 망성면 장선리 136-1",
    "lat": "36.12069408831782",
    "lng": "127.02974323506344",
    "region": "전북특별자치도"
  },
  {
    "name": "왕궁초등학교운동장",
    "address": "전북특별자치도 익산시 왕궁면 흥암리 150",
    "lat": "35.96611890129651",
    "lng": "127.09037231130307",
    "region": "전북특별자치도"
  },
  {
    "name": "용남초등학교 운동장",
    "address": "전북특별자치도 익산시 용안면 동지산리 76",
    "lat": "36.09514656309481",
    "lng": "126.9623798131982",
    "region": "전북특별자치도"
  },
  {
    "name": "용북초등학교 운동장",
    "address": "전북특별자치도 익산시 용안면 석동리 321-1",
    "lat": "36.13425499391305",
    "lng": "126.94675594568255",
    "region": "전북특별자치도"
  },
  {
    "name": "용산초등학교 운동장",
    "address": "전북특별자치도 익산시 황등면 죽촌리 27-5",
    "lat": "36.04022020649526",
    "lng": "126.93754792213413",
    "region": "전북특별자치도"
  },
  {
    "name": "율하초등학교 운동장",
    "address": "경상남도 김해시 율하동 1303",
    "lat": "35.171522575169696",
    "lng": "128.80829216358057",
    "region": "경상남도"
  },
  {
    "name": "조림초등학교",
    "address": "충청남도 예산군 신암면 조곡리 158-8",
    "lat": "36.738479",
    "lng": "126.785118",
    "region": "충청남도"
  },
  {
    "name": "덕산중학교",
    "address": "충청남도 예산군 삽교읍 목리 841",
    "lat": "36.66539460097437",
    "lng": "126.68218711457332",
    "region": "충청남도"
  },
  {
    "name": "구암고등학교 운동장",
    "address": "서울특별시 관악구 봉천동 1712-25",
    "lat": "37.492222470130734",
    "lng": "126.9507484399881",
    "region": "서울특별시"
  },
  {
    "name": "중앙분수대 및 중앙도로(관악산휴먼시아아파트)",
    "address": "서울특별시 관악구 신림동 1735",
    "lat": "37.45914275724848",
    "lng": "126.9205441114199",
    "region": "서울특별시"
  },
  {
    "name": "분토골공원",
    "address": "서울특별시 은평구 증산동 163-34",
    "lat": "37.58675581763808",
    "lng": "126.91167953758142",
    "region": "서울특별시"
  },
  {
    "name": "서울여자간호대학교 운동장",
    "address": "서울특별시 서대문구 홍제동 287-89",
    "lat": "37.59752687938539",
    "lng": "126.94733563196071",
    "region": "서울특별시"
  },
  {
    "name": "성남초등학교 운동장",
    "address": "경기도 성남시 수정구 태평동 7326",
    "lat": "37.44575191827372",
    "lng": "127.14430609570644",
    "region": "경기도"
  },
  {
    "name": "숙명여자고등학교 운동장",
    "address": "서울특별시 강남구 도곡동 91",
    "lat": "37.49150145144813",
    "lng": "127.05403771913926",
    "region": "서울특별시"
  },
  {
    "name": "양평동 체련장(가로녹지)",
    "address": "서울특별시 영등포구 양평동5가 128-1",
    "lat": "37.541948712294165",
    "lng": "126.89350068569199",
    "region": "서울특별시"
  },
  {
    "name": "용성초등학교 운동장",
    "address": "전북특별자치도 익산시 낭산면 구평리 598-1",
    "lat": "36.05591674490016",
    "lng": "126.99937820434461",
    "region": "전북특별자치도"
  },
  {
    "name": "전북 혜화학교 운동장",
    "address": "전북특별자치도 익산시 덕기동 738-1",
    "lat": "35.966741054370026",
    "lng": "127.0309480821802",
    "region": "전북특별자치도"
  },
  {
    "name": "용안초등학교 운동장",
    "address": "전북특별자치도 익산시 용안면 교동리 225",
    "lat": "36.11992884467827",
    "lng": "126.95410304814409",
    "region": "전북특별자치도"
  },
  {
    "name": " 함열여자고등학교 운동장",
    "address": "전북특별자치도 익산시 함열읍 남당리 586",
    "lat": "36.08407710101095",
    "lng": "126.96846259836757",
    "region": "전북특별자치도"
  },
  {
    "name": "이리계문초등학교 운동장",
    "address": "전북특별자치도 익산시 신용동 670-2",
    "lat": "35.973252516341184",
    "lng": "126.94384038448335",
    "region": "전북특별자치도"
  },
  {
    "name": "진경여고등학교 운동장",
    "address": "전북특별자치도 익산시 황등면 황등리 955",
    "lat": "36.0042395206933",
    "lng": "126.94097042083742",
    "region": "전북특별자치도"
  },
  {
    "name": "이리남초등학교 운동장",
    "address": "전북특별자치도 익산시 목천동 444-3",
    "lat": "35.9139757031178",
    "lng": "126.92977410639821",
    "region": "전북특별자치도"
  },
  {
    "name": "이리동남초등학교 운동장",
    "address": "전북특별자치도 익산시 동산동 140-1",
    "lat": "35.93120388480143",
    "lng": "126.97058912284176",
    "region": "전북특별자치도"
  },
  {
    "name": "이리동북초등학교 운동장",
    "address": "전북특별자치도 익산시 영등동 260-5",
    "lat": "35.94937915680746",
    "lng": "126.968545865806",
    "region": "전북특별자치도"
  },
  {
    "name": "원광여고등학교 운동장",
    "address": "전북특별자치도 익산시 모현동1가 520",
    "lat": "35.954892869883764",
    "lng": "126.94514125585559",
    "region": "전북특별자치도"
  },
  {
    "name": "이리동산초등학교 운동장",
    "address": "전북특별자치도 익산시 동산동 220",
    "lat": "35.93178895680847",
    "lng": "126.96347234638938",
    "region": "전북특별자치도"
  },
  {
    "name": "이리마한초등학교 운동장",
    "address": "전북특별자치도 익산시 영등동 817",
    "lat": "35.96247014321957",
    "lng": "126.97937006408576",
    "region": "전북특별자치도"
  },
  {
    "name": "성일고등학교 운동장",
    "address": "전북특별자치도 익산시 황등면 황등리 626-1",
    "lat": "36.007663447578814",
    "lng": "126.94735407829283",
    "region": "전북특별자치도"
  },
  {
    "name": "이리모현초등학교 운동장",
    "address": "전북특별자치도 익산시 모현동1가 264-7",
    "lat": "35.94495035069034",
    "lng": "126.9396024942398",
    "region": "전북특별자치도"
  },
  {
    "name": "남성여자고등학교 운동장",
    "address": "전북특별자치도 익산시 영등동 337-5",
    "lat": "35.955490905244595",
    "lng": "126.96674464133142",
    "region": "전북특별자치도"
  },
  {
    "name": "강경중앙초등학교  운동장",
    "address": "충청남도 논산시 강경읍 남교리 87-1",
    "lat": "36.160087634148475",
    "lng": "127.01962351799013",
    "region": "충청남도"
  },
  {
    "name": "천안남산초등학교 운동장",
    "address": "충청남도 천안시 동남구 원성동 304",
    "lat": "36.804489254711804",
    "lng": "127.15391367673874",
    "region": "충청남도"
  },
  {
    "name": "천안신부초등학교 ",
    "address": "충청남도 천안시 동남구 신부동 670",
    "lat": "36.822694480090824",
    "lng": "127.16053176023485",
    "region": "충청남도"
  },
  {
    "name": "소담고등학교 운동장",
    "address": "세종특별자치시 세종시 소담동 588",
    "lat": "36.48195",
    "lng": "127.30305",
    "region": "세종특별자치시"
  },
  {
    "name": "시량초등학교",
    "address": "충청남도 예산군 덕산면 시량리 223",
    "lat": "36.685609",
    "lng": "126.643729",
    "region": "충청남도"
  },
  {
    "name": "봉현초등학교 운동장",
    "address": "서울특별시 관악구 봉천동 1704",
    "lat": "37.49075420442271",
    "lng": "126.95459378234611",
    "region": "서울특별시"
  },
  {
    "name": "까치어린이공원",
    "address": "서울특별시 관악구 봉천동 1678-1",
    "lat": "37.479809174294246",
    "lng": "126.95948570966718",
    "region": "서울특별시"
  },
  {
    "name": "부산조리고등학교 운동장",
    "address": "부산광역시 사상구 삼락동 359-11",
    "lat": "35.18384404934677",
    "lng": "128.98039609196644",
    "region": "부산광역시"
  },
  {
    "name": "명일공원(상일동산)",
    "address": "서울특별시 강동구 상일동 184",
    "lat": "37.54907888354452",
    "lng": "127.16557348540977",
    "region": "서울특별시"
  },
  {
    "name": "동명여자중학교 운동장",
    "address": "서울특별시 서대문구 천연동 31-1",
    "lat": "37.56836572357928",
    "lng": "126.9623922491036",
    "region": "서울특별시"
  },
  {
    "name": "신촌역 동측광장 공영주차장",
    "address": "서울특별시 서대문구 대현동 121-7",
    "lat": "37.55928816149286",
    "lng": "126.94310277700423",
    "region": "서울특별시"
  },
  {
    "name": "성남양지초등학교 운동장",
    "address": "경기도 성남시 수정구 양지동 386",
    "lat": "37.4592751892355",
    "lng": "127.16103376120988",
    "region": "경기도"
  },
  {
    "name": "망원새싹어린이공원",
    "address": "서울특별시 마포구 망원동 509-1",
    "lat": "37.559039994667174",
    "lng": "126.89844035314613",
    "region": "서울특별시"
  },
  {
    "name": "고추말어린이공원",
    "address": "서울특별시 영등포구 도림동 23-1",
    "lat": "37.51162794878133",
    "lng": "126.90712094306946",
    "region": "서울특별시"
  },
  {
    "name": "다사랑어린이공원",
    "address": "서울특별시 영등포구 대림동 703-6",
    "lat": "37.49280049876982",
    "lng": "126.89943104982376",
    "region": "서울특별시"
  },
  {
    "name": "동심어린이공원",
    "address": "서울특별시 영등포구 대림동 742",
    "lat": "37.498435613170365",
    "lng": "126.89731478691104",
    "region": "서울특별시"
  },
  {
    "name": "신길유수지",
    "address": "서울특별시 영등포구 신길동 54-1",
    "lat": "37.51624258800261",
    "lng": "126.91772639751436",
    "region": "서울특별시"
  },
  {
    "name": "두레뜰공원",
    "address": "경기도 수원시 권선구 금곡동 1092",
    "lat": "37.27158726449111",
    "lng": "126.94357145728785",
    "region": "경기도"
  },
  {
    "name": "은하수공원",
    "address": "경기도 수원시 권선구 평동 45-13",
    "lat": "37.256202818597586",
    "lng": "126.99350084836149",
    "region": "경기도"
  },
  {
    "name": "안락중학교 운동장",
    "address": "부산광역시 동래구 안락동 175-9",
    "lat": "35.191403402572476",
    "lng": "129.1090963994239",
    "region": "부산광역시"
  },
  {
    "name": "이리부송초등학교 운동장",
    "address": "전북특별자치도 익산시 부송동 1047",
    "lat": "35.95555508102797",
    "lng": "126.99399769306184",
    "region": "전북특별자치도"
  },
  {
    "name": "청동초등학교 운동장",
    "address": "충청남도 논산시 연산면 청동리 540",
    "lat": "36.21232034937435",
    "lng": "127.1965581178665",
    "region": "충청남도"
  },
  {
    "name": "도산초등학교 운동장",
    "address": "충청남도 논산시 벌곡면 도산리 167-3",
    "lat": "36.16202338295618",
    "lng": "127.31564538897356",
    "region": "충청남도"
  },
  {
    "name": "이화초등학교 운동장",
    "address": "충청남도 논산시 채운면 심암리 351",
    "lat": "36.150238143234155",
    "lng": "127.07144379615787",
    "region": "충청남도"
  },
  {
    "name": "천안미라초등학교 운동장",
    "address": "충청남도 천안시 서북구 쌍용동 1231",
    "lat": "36.80047147327708",
    "lng": "127.12857389625044",
    "region": "충청남도"
  },
  {
    "name": "천안서초등학교 운동장",
    "address": "충청남도 천안시 서북구 성정동 644",
    "lat": "36.8235742434285",
    "lng": "127.13995960621286",
    "region": "충청남도"
  },
  {
    "name": "가득초등학교 운동장",
    "address": "세종특별자치시 세종시 새롬동 552",
    "lat": "36.4870568693875",
    "lng": "127.2441565990448",
    "region": "세종특별자치시"
  },
  {
    "name": "우수영중학교운동장",
    "address": "전라남도 해남군 문내면 동외리 880-1",
    "lat": "34.594663761695465",
    "lng": "126.31228846993672",
    "region": "전라남도"
  },
  {
    "name": "고덕초등학교",
    "address": "충청남도 예산군 고덕면 대천리 650-4",
    "lat": "36.74718911704902",
    "lng": "126.7028492689132",
    "region": "충청남도"
  },
  {
    "name": "구암초등학교 운동장",
    "address": "서울특별시 관악구 봉천동 738-69",
    "lat": "37.489144256796415",
    "lng": "126.9469490647316",
    "region": "서울특별시"
  },
  {
    "name": "이천세무고등학교 운동장",
    "address": "경기도 이천시 설성면 금당리 175",
    "lat": "37.135403527862415",
    "lng": "127.51899808383068",
    "region": "경기도"
  },
  {
    "name": "상신중학교 운동장",
    "address": "서울특별시 은평구 신사동 141",
    "lat": "37.590060932742986",
    "lng": "126.9063594500295",
    "region": "서울특별시"
  },
  {
    "name": "새락골어린이공원",
    "address": "서울특별시 은평구 신사동 5-21",
    "lat": "37.59896108388937",
    "lng": "126.9111901207055",
    "region": "서울특별시"
  },
  {
    "name": "응암어린이공원",
    "address": "서울특별시 은평구 응암동 85-41",
    "lat": "37.6016418765166",
    "lng": "126.92358308126619",
    "region": "서울특별시"
  },
  {
    "name": "이리부천초등학교 운동장",
    "address": "전북특별자치도 익산시 부송동 1070",
    "lat": "35.95614769134981",
    "lng": "126.98565830707513",
    "region": "전북특별자치도"
  },
  {
    "name": "이리여고등학교 운동장",
    "address": "전북특별자치도 익산시 남중동 201-5",
    "lat": "35.94556704475192",
    "lng": "126.9509375095353",
    "region": "전북특별자치도"
  },
  {
    "name": "이리북초등학교 운동장",
    "address": "전북특별자치도 익산시 남중동 7-4",
    "lat": "35.952324306594846",
    "lng": "126.96019113064058",
    "region": "전북특별자치도"
  },
  {
    "name": "이리삼성초등학교 운동장",
    "address": "전북특별자치도 익산시 임상동 227-1",
    "lat": "35.98782517301232",
    "lng": "126.97584986686707",
    "region": "전북특별자치도"
  },
  {
    "name": "이리고등학교 운동장",
    "address": "전북특별자치도 익산시 남중동 218-1",
    "lat": "35.948828494563024",
    "lng": "126.95577621460285",
    "region": "전북특별자치도"
  },
  {
    "name": "이리석암초등학교 운동장",
    "address": "전북특별자치도 익산시 석암동 215-1",
    "lat": "35.93574714010276",
    "lng": "127.00746238231658",
    "region": "전북특별자치도"
  },
  {
    "name": "전북기계공업고등학교 운동장",
    "address": "전북특별자치도 익산시 남중동 55-1",
    "lat": "35.948384206784084",
    "lng": "126.96027314913357",
    "region": "전북특별자치도"
  },
  {
    "name": "대술중학교",
    "address": "충청남도 예산군 대술면 화천리 869-1",
    "lat": "36.656635",
    "lng": "126.891548",
    "region": "충청남도"
  },
  {
    "name": "황산초등학교 운동장",
    "address": "충청남도 논산시 강경읍 황산리 31-2",
    "lat": "36.158203525910835",
    "lng": "127.01315838702932",
    "region": "충청남도"
  },
  {
    "name": "천안용암초등학교 운동장",
    "address": "충청남도 천안시 서북구 쌍용동 1922",
    "lat": "36.803823022283254",
    "lng": "127.11822505800849",
    "region": "충청남도"
  },
  {
    "name": "천안신용초등학교 운동장",
    "address": "충청남도 천안시 동남구 신방동 40",
    "lat": "36.79096886020168",
    "lng": "127.13237535254328",
    "region": "충청남도"
  },
  {
    "name": "천안가온초등학교 운동장",
    "address": "충청남도 천안시 동남구 청당동 469",
    "lat": "36.78504260147119",
    "lng": "127.14918856670475",
    "region": "충청남도"
  },
  {
    "name": "응봉초등학교",
    "address": "충청남도 예산군 응봉면 증곡리 436",
    "lat": "36.656220",
    "lng": "126.770012",
    "region": "충청남도"
  },
  {
    "name": "용남초등학교",
    "address": "경상남도 통영시 용남면 동달리 767",
    "lat": "34.86973506968138",
    "lng": "128.4440044671733",
    "region": "경상남도"
  },
  {
    "name": "북성초등학교 운동장",
    "address": "서울특별시 서대문구 북아현동 215",
    "lat": "37.55908121670244",
    "lng": "126.95206665978459",
    "region": "서울특별시"
  },
  {
    "name": "진경여중학교 운동장",
    "address": "전북특별자치도 익산시 황등면 동연리 620",
    "lat": "36.00046174569861",
    "lng": "126.93278431892395",
    "region": "전북특별자치도"
  },
  {
    "name": "익산궁동초등학교 운동장",
    "address": "전북특별자치도 익산시 부송동 1119",
    "lat": "35.96196976476632",
    "lng": "126.99401355482401",
    "region": "전북특별자치도"
  },
  {
    "name": "원광중학교 운동장",
    "address": "전북특별자치도 익산시 부송동 122-5",
    "lat": "35.97450278963276",
    "lng": "127.00124131902723",
    "region": "전북특별자치도"
  },
  {
    "name": "농업기술센터 공터",
    "address": "경상북도 영덕군 영덕읍 구미리 167-1",
    "lat": "36.434434452431795",
    "lng": "129.35815829751633",
    "region": "경상북도"
  },
  {
    "name": "여산중학교 운동장",
    "address": "전북특별자치도 익산시 여산면 두여리 716",
    "lat": "36.066497993878116",
    "lng": "127.08092998326781",
    "region": "전북특별자치도"
  },
  {
    "name": "익산지원중학교 운동장",
    "address": "전북특별자치도 익산시 마동 291-3",
    "lat": "35.93968918297013",
    "lng": "126.96107959787841",
    "region": "전북특별자치도"
  },
  {
    "name": " 함열중학교 운동장",
    "address": "전북특별자치도 익산시 함열읍 와리 530-65",
    "lat": "36.08233225407025",
    "lng": "126.96029841899875",
    "region": "전북특별자치도"
  },
  {
    "name": "군산서해초등학교 운동장",
    "address": "전북특별자치도 군산시 나운동 155-3",
    "lat": "35.95952077151547",
    "lng": "126.69946884637281",
    "region": "전북특별자치도"
  },
  {
    "name": "덕정초등학교 운동장",
    "address": "경상남도 김해시 관동동 452-4",
    "lat": "35.17770089920889",
    "lng": "128.79862733460274",
    "region": "경상남도"
  },
  {
    "name": "금오초등학교",
    "address": "충청남도 예산군 예산읍 산성리 865",
    "lat": "36.690354",
    "lng": "126.834157",
    "region": "충청남도"
  },
  {
    "name": "신암초등학교",
    "address": "충청남도 예산군 신암면 종경리 215-2",
    "lat": "36.732876",
    "lng": "126.820784",
    "region": "충청남도"
  },
  {
    "name": "천안쌍용초등학교 운동장",
    "address": "충청남도 천안시 서북구 쌍용동 1300",
    "lat": "36.80126443555659",
    "lng": "127.12310717104734",
    "region": "충청남도"
  },
  {
    "name": "송곡초등학교 운동장",
    "address": "경기도 이천시 모가면 송곡리 295-2",
    "lat": "37.152069",
    "lng": "127.483931",
    "region": "경기도"
  },
  {
    "name": "새솔어린이공원",
    "address": "경상남도 양산시 물금읍 증산리 1758-2",
    "lat": "35.306225",
    "lng": "129.004447",
    "region": "경상남도"
  },
  {
    "name": "중동어린이공원",
    "address": "경상남도 양산시 신기동 508-7",
    "lat": "35.35276107685029",
    "lng": "129.03931081295153",
    "region": "경상남도"
  },
  {
    "name": "웅상체육공원",
    "address": "경상남도 양산시 평산동 283",
    "lat": "35.37565787182036",
    "lng": "129.14207160473066",
    "region": "경상남도"
  },
  {
    "name": "순지어린이공원",
    "address": "경상남도 양산시 하북면 순지리 818-1",
    "lat": "35.494113",
    "lng": "129.085325",
    "region": "경상남도"
  },
  {
    "name": "진관초등학교 운동장",
    "address": "서울특별시 은평구 진관동 8",
    "lat": "37.64511213335258",
    "lng": "126.92928805070659",
    "region": "서울특별시"
  },
  {
    "name": "삼각산고등학교 운동장",
    "address": "서울특별시 강북구 미아동 812-4",
    "lat": "37.61566088089218",
    "lng": "127.02049011256756",
    "region": "서울특별시"
  },
  {
    "name": "노들나루공원",
    "address": "서울특별시 동작구 본동 258-1",
    "lat": "37.51357775533881",
    "lng": "126.95482076247205",
    "region": "서울특별시"
  },
  {
    "name": "마포어린이공원",
    "address": "서울특별시 마포구 마포동 350-5",
    "lat": "37.5358",
    "lng": "126.9438",
    "region": "서울특별시"
  },
  {
    "name": "부산맹학교 운동장",
    "address": "부산광역시 동래구 명장동 263-5",
    "lat": "35.20674638272436",
    "lng": "129.09806177788812",
    "region": "부산광역시"
  },
  {
    "name": "흥왕초등학교 운동장",
    "address": "전북특별자치도 익산시 용동면 흥왕리 221",
    "lat": "36.10477976158424",
    "lng": "126.99694141745256",
    "region": "전북특별자치도"
  },
  {
    "name": "세종고등학교 운동장",
    "address": "서울특별시 강남구 수서동 711",
    "lat": "37.48993296209597",
    "lng": "127.10262071756465",
    "region": "서울특별시"
  },
  {
    "name": "신구중학교 운동장",
    "address": "서울특별시 강남구 신사동 621",
    "lat": "37.526757287752545",
    "lng": "127.03221627530155",
    "region": "서울특별시"
  },
  {
    "name": "대림초등학교 운동장",
    "address": "충청북도 충주시 문화동 181",
    "lat": "36.968698836946444",
    "lng": "127.91768342256547",
    "region": "충청북도"
  },
  {
    "name": "양화진역사공원",
    "address": "서울특별시 마포구 합정동 137-2",
    "lat": "37.5457",
    "lng": "126.9113",
    "region": "서울특별시"
  },
  {
    "name": "군산중앙초등학교 운동장",
    "address": "전북특별자치도 군산시 중앙로2가 145",
    "lat": "35.98196256350199",
    "lng": "126.71693620786495",
    "region": "전북특별자치도"
  },
  {
    "name": "군산지곡초등학교 운동장",
    "address": "전북특별자치도 군산시 지곡동 504",
    "lat": "35.95751173088649",
    "lng": "126.70640139143246",
    "region": "전북특별자치도"
  },
  {
    "name": "해성초등학교 운동장",
    "address": "전북특별자치도 군산시 산북동 2803",
    "lat": "35.95844539232737",
    "lng": "126.63029127952207",
    "region": "전북특별자치도"
  },
  {
    "name": "군산옥구초등학교 운동장",
    "address": "전북특별자치도 군산시 옥구읍 선제리 468",
    "lat": "35.92209470165403",
    "lng": "126.68063280349524",
    "region": "전북특별자치도"
  },
  {
    "name": "삽교초등학교",
    "address": "충청남도 예산군 삽교읍 두리 542-2",
    "lat": "36.688296",
    "lng": "126.743185",
    "region": "충청남도"
  },
  {
    "name": "예산여자중학교",
    "address": "충청남도 예산군 예산읍 발연리 135-5",
    "lat": "36.698666",
    "lng": "126.835020",
    "region": "충청남도"
  },
  {
    "name": "광석초등학교 운동장",
    "address": "충청남도 논산시 광석면 신당리 14",
    "lat": "36.243511730781236",
    "lng": "127.08065986633301",
    "region": "충청남도"
  },
  {
    "name": "천안청당초등학교 운동장",
    "address": "충청남도 천안시 동남구 청당동 300",
    "lat": "36.77967238842658",
    "lng": "127.15120131168148",
    "region": "충청남도"
  },
  {
    "name": "새뜸중학교 운동장",
    "address": "세종특별자치시 세종시 새롬동 572",
    "lat": "36.486405611963086",
    "lng": "127.25236952304843",
    "region": "세종특별자치시"
  },
  {
    "name": "여울초등학교 운동장",
    "address": "세종특별자치시 세종시 보람동 735",
    "lat": "36.47588",
    "lng": "127.28550",
    "region": "세종특별자치시"
  },
  {
    "name": "신봉초등학교 운동장",
    "address": "서울특별시 관악구 봉천동 458",
    "lat": "37.48505021526554",
    "lng": "126.94881582595373",
    "region": "서울특별시"
  },
  {
    "name": "금산어린이공원",
    "address": "경상남도 양산시 동면 금산리 1417-2",
    "lat": "35.312391",
    "lng": "129.022719",
    "region": "경상남도"
  },
  {
    "name": "신도초등학교 운동장",
    "address": "서울특별시 은평구 진관동 108",
    "lat": "37.63256606895411",
    "lng": "126.92901982982313",
    "region": "서울특별시"
  },
  {
    "name": "시루뫼어린이공원",
    "address": "서울특별시 은평구 증산동 185-1",
    "lat": "37.58286292331022",
    "lng": "126.90653295359377",
    "region": "서울특별시"
  },
  {
    "name": "파랑새어린이공원",
    "address": "서울특별시 서초구 반포동 4-2",
    "lat": "37.5051269546932",
    "lng": "126.99518493018434",
    "region": "서울특별시"
  },
  {
    "name": "가꿀공원",
    "address": "서울특별시 서초구 방배동 859-1",
    "lat": "37.487972263486604",
    "lng": "126.98757094839041",
    "region": "서울특별시"
  },
  {
    "name": "이촌한우리공원",
    "address": "서울특별시 용산구 이촌동 437",
    "lat": "37.517624153924494",
    "lng": "126.9813445050523",
    "region": "서울특별시"
  },
  {
    "name": "대치초등학교 운동장",
    "address": "서울특별시 강남구 대치동 505",
    "lat": "37.49095969178631",
    "lng": "127.06214396411939",
    "region": "서울특별시"
  },
  {
    "name": "대명중학교 운동장",
    "address": "서울특별시 강남구 대치동 952",
    "lat": "37.505888860821855",
    "lng": "127.06100613064604",
    "region": "서울특별시"
  },
  {
    "name": "대도초등학교 운동장",
    "address": "서울특별시 강남구 도곡동 106-1",
    "lat": "37.49258222510973",
    "lng": "127.05376665650671",
    "region": "서울특별시"
  },
  {
    "name": "강남구보건소 주차장",
    "address": "서울특별시 강남구 삼성동 8",
    "lat": "37.516206797349284",
    "lng": "127.04200428471468",
    "region": "서울특별시"
  },
  {
    "name": "대진디자인고등학교 운동장",
    "address": "서울특별시 강남구 수서동 733",
    "lat": "37.49072096892694",
    "lng": "127.09627543802766",
    "region": "서울특별시"
  },
  {
    "name": "진선여자중학교 운동장",
    "address": "서울특별시 강남구 역삼동 713",
    "lat": "37.501710457602265",
    "lng": "127.04801850733331",
    "region": "서울특별시"
  },
  {
    "name": "대진근린공원",
    "address": "서울특별시 강남구 개포동 13-1",
    "lat": "37.49557965342892",
    "lng": "127.07855391736035",
    "region": "서울특별시"
  },
  {
    "name": "한마음공원",
    "address": "서울특별시 강남구 개포동 12-3",
    "lat": "37.49578594350576",
    "lng": "127.07589356275528",
    "region": "서울특별시"
  },
  {
    "name": "칠금4호 공원",
    "address": "충청북도 충주시 칠금동 965",
    "lat": "36.9814849775829",
    "lng": "127.92059630155563",
    "region": "충청북도"
  },
  {
    "name": "원덕어린이공원",
    "address": "대구광역시 달서구 도원동 670",
    "lat": "35.80568373157541",
    "lng": "128.54723948570603",
    "region": "대구광역시"
  },
  {
    "name": "안진초등학교 운동장",
    "address": "부산광역시 동래구 안락동 1252",
    "lat": "35.19471683413308",
    "lng": "129.09940152076416",
    "region": "부산광역시"
  },
  {
    "name": "천안여자중학교 운동장",
    "address": "충청남도 천안시 동남구 원성동 559-1",
    "lat": "36.80163074176077",
    "lng": "127.15729057788849",
    "region": "충청남도"
  },
  {
    "name": "새롬초등학교 운동장",
    "address": "세종특별자치시 세종시 새롬동 595",
    "lat": "36.485055637083995",
    "lng": "127.24888801574706",
    "region": "세종특별자치시"
  },
  {
    "name": "봉원중학교 운동장",
    "address": "서울특별시 관악구 봉천동 25-19",
    "lat": "37.48436174898818",
    "lng": "126.95791902145328",
    "region": "서울특별시"
  },
  {
    "name": "양산희망학교 운동장",
    "address": "경상남도 양산시 상북면 상삼리 564-3",
    "lat": "35.427200",
    "lng": "129.060028",
    "region": "경상남도"
  },
  {
    "name": "목련어린이공원",
    "address": "경상남도 양산시 동면 금산리 850",
    "lat": "35.300711",
    "lng": "129.026287",
    "region": "경상남도"
  },
  {
    "name": "수질정화공원",
    "address": "경상남도 양산시 동면 금산리 1501-1",
    "lat": "35.30690338532644",
    "lng": "129.02414972151624",
    "region": "경상남도"
  },
  {
    "name": "통새미공원",
    "address": "경상남도 양산시 물금읍 가촌리 1248-2",
    "lat": "35.320589",
    "lng": "128.996865",
    "region": "경상남도"
  },
  {
    "name": "주민쉼터",
    "address": "경상남도 양산시 상북면 석계리 323",
    "lat": "35.41269938354704",
    "lng": "129.06630456447758",
    "region": "경상남도"
  },
  {
    "name": "수송초등학교 운동장",
    "address": "서울특별시 강북구 번동 456",
    "lat": "37.636746026328495",
    "lng": "127.03263042040383",
    "region": "서울특별시"
  },
  {
    "name": "문화원 정자마당",
    "address": "서울특별시 용산구 원효로4가 87-2",
    "lat": "37.53357950714702",
    "lng": "126.95195406674908",
    "region": "서울특별시"
  },
  {
    "name": "산천동 마을마당",
    "address": "서울특별시 용산구 산천동 200",
    "lat": "37.5355442202907",
    "lng": "126.95305032922458",
    "region": "서울특별시"
  },
  {
    "name": "꿈나무공원",
    "address": "서울특별시 용산구 이촌동 301-86",
    "lat": "37.52087533034265",
    "lng": "126.9718488096747",
    "region": "서울특별시"
  },
  {
    "name": "한남동공영주차장",
    "address": "서울특별시 용산구 한남동 685-46",
    "lat": "37.534830738519624",
    "lng": "127.00024195692392",
    "region": "서울특별시"
  },
  {
    "name": "봉은중학교 운동장",
    "address": "서울특별시 강남구 삼성동 82-7",
    "lat": "37.51883270487287",
    "lng": "127.06282663008977",
    "region": "서울특별시"
  },
  {
    "name": "영희초등학교 운동장",
    "address": "서울특별시 강남구 일원동 617",
    "lat": "37.49182096177785",
    "lng": "127.08120520764395",
    "region": "서울특별시"
  },
  {
    "name": "휘문고등학교 운동장",
    "address": "서울특별시 강남구 대치동 952-1",
    "lat": "37.50505329615483",
    "lng": "127.06109254427646",
    "region": "서울특별시"
  },
  {
    "name": "은행나무어린이공원",
    "address": "서울특별시 마포구 연남동 250-9",
    "lat": "37.56446",
    "lng": "126.922",
    "region": "서울특별시"
  },
  {
    "name": "새만금초등학교 운동장",
    "address": "전북특별자치도 군산시 오식도동 805-5",
    "lat": "35.96717712902942",
    "lng": "126.56177126805527",
    "region": "전북특별자치도"
  },
  {
    "name": "개정초등학교 운동장",
    "address": "전북특별자치도 군산시 개정면 아동리 233-3",
    "lat": "35.96289548252283",
    "lng": "126.76862910389517",
    "region": "전북특별자치도"
  },
  {
    "name": "수남초등학교 운동장",
    "address": "경상남도 김해시 율하동 1395",
    "lat": "35.170215897242336",
    "lng": "128.8187799998154",
    "region": "경상남도"
  },
  {
    "name": "보성초등학교",
    "address": "충청남도 예산군 삽교읍 목리 1963",
    "lat": "36.66705367004995",
    "lng": "126.68118589804186",
    "region": "충청남도"
  },
  {
    "name": "봉산초등학교",
    "address": "충청남도 예산군 봉산면 구암리 2",
    "lat": "36.748589",
    "lng": "126.680468",
    "region": "충청남도"
  },
  {
    "name": "고덕중학교",
    "address": "충청남도 예산군 고덕면 대천리 692",
    "lat": "36.745689",
    "lng": "126.699107",
    "region": "충청남도"
  },
  {
    "name": "임성중학교",
    "address": "충청남도 예산군 오가면 역탑리 463-18",
    "lat": "36.68934932088235",
    "lng": "126.78569197654724",
    "region": "충청남도"
  },
  {
    "name": "덕산고등학교",
    "address": "충청남도 예산군 삽교읍 목리 842",
    "lat": "36.666191043228764",
    "lng": "126.68265088087426",
    "region": "충청남도"
  },
  {
    "name": "청어람센터(청남면 기초생활거점시설)",
    "address": "충청남도 청양군 청남면 청소리 218-1",
    "lat": "36.3549381455686",
    "lng": "126.95088118314744",
    "region": "충청남도"
  },
  {
    "name": "낙동초등학교 운동장",
    "address": "충청남도 보령시 천북면 낙동리 293-5",
    "lat": "36.4938235844421",
    "lng": "126.56538605689994",
    "region": "충청남도"
  },
  {
    "name": "순성초등학교운동장",
    "address": "충청남도 당진시 순성면 봉소리 59",
    "lat": "36.8427",
    "lng": "126.7115",
    "region": "충청남도"
  },
  {
    "name": "천안성정초등학교 운동장",
    "address": "충청남도 천안시 서북구 성정동 716-1",
    "lat": "36.81533373089605",
    "lng": "127.14090099628862",
    "region": "충청남도"
  },
  {
    "name": "석산강변어린이공원",
    "address": "경상남도 양산시 동면 석산리 1447-2",
    "lat": "35.323511",
    "lng": "129.024166",
    "region": "경상남도"
  },
  {
    "name": "상신초등학교 운동장 ",
    "address": "서울특별시 은평구 신사동 238-2",
    "lat": "37.597784542193544",
    "lng": "126.90535678524371",
    "region": "서울특별시"
  },
  {
    "name": "동산어린이공원",
    "address": "서울특별시 서초구 양재동 376-3",
    "lat": "37.47119513540254",
    "lng": "127.04516974336391",
    "region": "서울특별시"
  },
  {
    "name": "기와터공원",
    "address": "서울특별시 용산구 한강로3가 63-388",
    "lat": "37.52591908256529",
    "lng": "126.96934051936947",
    "region": "서울특별시"
  },
  {
    "name": "개포은행나무공원",
    "address": "서울특별시 강남구 개포동 1220",
    "lat": "37.47604197764739",
    "lng": "127.04902091470768",
    "region": "서울특별시"
  },
  {
    "name": "학동근린공원",
    "address": "서울특별시 강남구 논현동 26",
    "lat": "37.515439092146444",
    "lng": "127.02542531260724",
    "region": "서울특별시"
  },
  {
    "name": "강남구청 주차장",
    "address": "서울특별시 강남구 삼성동 16-1",
    "lat": "37.51778162637211",
    "lng": "127.04724452610543",
    "region": "서울특별시"
  },
  {
    "name": "대왕중학교 운동장",
    "address": "서울특별시 강남구 수서동 750",
    "lat": "37.48304164637513",
    "lng": "127.08737202702522",
    "region": "서울특별시"
  },
  {
    "name": "합천초등학교 운동장",
    "address": "충청남도 청양군 화성면 산정리 243",
    "lat": "36.425498518790725",
    "lng": "126.71422678942088",
    "region": "충청남도"
  },
  {
    "name": "관창초등학교 운동장",
    "address": "충청남도 보령시 주교면 관창리 130-3",
    "lat": "36.385234224167135",
    "lng": "126.58340546414571",
    "region": "충청남도"
  },
  {
    "name": "성주초등학교 운동장",
    "address": "충청남도 보령시 성주면 성주리 117",
    "lat": "36.34184872948333",
    "lng": "126.65335178374839",
    "region": "충청남도"
  },
  {
    "name": "대천여자고등학교 운동장",
    "address": "충청남도 보령시 대천동 500-2",
    "lat": "36.36013717218253",
    "lng": "126.58442623048559",
    "region": "충청남도"
  },
  {
    "name": "명천초등학교 운동장",
    "address": "충청남도 보령시 명천동 325-1",
    "lat": "36.33900213664804",
    "lng": "126.61119400399758",
    "region": "충청남도"
  },
  {
    "name": "삼기중학교 운동장",
    "address": "전북특별자치도 익산시 삼기면 간촌리 80-2",
    "lat": "36.020992375214995",
    "lng": "126.98321470363486",
    "region": "전북특별자치도"
  },
  {
    "name": "용안중학교 운동장",
    "address": "전북특별자치도 익산시 용안면 교동리 397-2",
    "lat": "36.11616041688769",
    "lng": "126.9529894991984",
    "region": "전북특별자치도"
  },
  {
    "name": "문창초등학교 운동장",
    "address": "전북특별자치도 군산시 산북동 2701",
    "lat": "35.9562355604755",
    "lng": "126.65583029530383",
    "region": "전북특별자치도"
  },
  {
    "name": "미룡초등학교 운동장",
    "address": "전북특별자치도 군산시 미룡동 458-4",
    "lat": "35.950653991983124",
    "lng": "126.68487528417637",
    "region": "전북특별자치도"
  },
  {
    "name": "서수초등학교 운동장",
    "address": "전북특별자치도 군산시 서수면 서수리 760",
    "lat": "35.98303769850231",
    "lng": "126.8770125610614",
    "region": "전북특별자치도"
  },
  {
    "name": "용동초등학교",
    "address": "충청남도 예산군 삽교읍 상성리 95-1",
    "lat": "36.702359",
    "lng": "126.715619",
    "region": "충청남도"
  },
  {
    "name": "신양중학교",
    "address": "충청남도 예산군 신양면 신양리 318-5",
    "lat": "36.603516674728596",
    "lng": "126.8705983245142",
    "region": "충청남도"
  },
  {
    "name": "광시중학교",
    "address": "충청남도 예산군 광시면 하장대리 1-3",
    "lat": "36.548069615512745",
    "lng": "126.77245259284967",
    "region": "충청남도"
  },
  {
    "name": "오봉초등학교 운동장",
    "address": "경상남도 양산시 물금읍 범어리 503",
    "lat": "35.33499547282315",
    "lng": "129.0050189487812",
    "region": "경상남도"
  },
  {
    "name": "금산들어린이공원",
    "address": "경상남도 양산시 동면 금산리 1431",
    "lat": "35.312088",
    "lng": "129.026497",
    "region": "경상남도"
  },
  {
    "name": "1호광장",
    "address": "경상남도 양산시 물금읍 범어리 2711-16",
    "lat": "35.328279",
    "lng": "129.014292",
    "region": "경상남도"
  },
  {
    "name": "다솜어린이공원",
    "address": "경상남도 양산시 물금읍 증산리 1817",
    "lat": "35.307130",
    "lng": "129.007972",
    "region": "경상남도"
  },
  {
    "name": "신기12어린이공원",
    "address": "경상남도 양산시 신기동 645-1",
    "lat": "35.355707",
    "lng": "129.037786",
    "region": "경상남도"
  },
  {
    "name": "마산말어린이공원",
    "address": "서울특별시 서초구 서초동 1343-8",
    "lat": "37.48715334067728",
    "lng": "127.02672311575482",
    "region": "서울특별시"
  },
  {
    "name": "신동근린공원",
    "address": "서울특별시 서초구 잠원동 58-14",
    "lat": "37.5142084361206",
    "lng": "127.01429023676437",
    "region": "서울특별시"
  },
  {
    "name": "개포고등학교 운동장",
    "address": "서울특별시 강남구 개포동 173",
    "lat": "37.4846808091977",
    "lng": "127.05895058452074",
    "region": "서울특별시"
  },
  {
    "name": "달맞이공원",
    "address": "서울특별시 용산��� 보광동 231-17",
    "lat": "37.52797535542099",
    "lng": "126.99802165717345",
    "region": "서울특별시"
  },
  {
    "name": "대치근린공원",
    "address": "서울특별시 강남구 대치동 512",
    "lat": "37.49509252154958",
    "lng": "127.06992077954014",
    "region": "서울특별시"
  },
  {
    "name": "초락초등학교운동장",
    "address": "충청남도 당진시 석문면 초락도리 210-2",
    "lat": "36.99306180967348",
    "lng": "126.51042543221328",
    "region": "충청남도"
  },
  {
    "name": "새움중학교 운동장",
    "address": "세종특별자치시 세종시 다정동 963",
    "lat": "36.49086510616446",
    "lng": "127.24726796150206",
    "region": "세종특별자치시"
  },
  {
    "name": "예산종합운동장",
    "address": "충청남도 예산군 예산읍 향천리 257",
    "lat": "36.677135950952874",
    "lng": "126.86138391494751",
    "region": "충청남도"
  },
  {
    "name": "곡리어린이공원",
    "address": "경상남도 양산시 동면 석산리 864-6",
    "lat": "35.317125",
    "lng": "129.031166",
    "region": "경상남도"
  },
  {
    "name": "텃밭어린이공원",
    "address": "경상남도 양산시 삼호동 478-1",
    "lat": "35.4133755371696",
    "lng": "129.17542749219442",
    "region": "경상남도"
  },
  {
    "name": "선린중학교 운동장 ",
    "address": "서울특별시 용산구 청파동3가 131-2",
    "lat": "37.542271026567796",
    "lng": "126.96559713379735",
    "region": "서울특별시"
  },
  {
    "name": "서울교육대학교 운동장",
    "address": "서울특별시 서초구 서초동 1650",
    "lat": "37.4901847797284",
    "lng": "127.01637198524993",
    "region": "서울특별시"
  },
  {
    "name": "동덕어린이공원",
    "address": "서울특별시 서초구 방배동 593-43",
    "lat": "37.47554045517183",
    "lng": "126.99371669701836",
    "region": "서울특별시"
  },
  {
    "name": "동원중학교운동장",
    "address": "서울특별시 중랑구 망우동 85-3",
    "lat": "37.603508734165814",
    "lng": "127.1081198604706",
    "region": "서울특별시"
  },
  {
    "name": "대치중학교 운동장",
    "address": "서울특별시 강남구 도곡동 460",
    "lat": "37.48406484516881",
    "lng": "127.04782886527185",
    "region": "서울특별시"
  },
  {
    "name": "대왕초등학교 운동장",
    "address": "서울특별시 강남구 세곡동 517",
    "lat": "37.46427757329654",
    "lng": "127.10558273026939",
    "region": "서울특별시"
  },
  {
    "name": "세곡해오름공원",
    "address": "서울특별시 강남구 세곡동 525-1",
    "lat": "37.460398326132555",
    "lng": "127.10336099220282",
    "region": "서울특별시"
  },
  {
    "name": "신사무궁화공원",
    "address": "서울특별시 강남구 신사동 625-5",
    "lat": "37.524116886963306",
    "lng": "127.03191982407556",
    "region": "서울특별시"
  },
  {
    "name": "현대고등학교 운동장",
    "address": "서울특별시 강남구 압구정동 425",
    "lat": "37.52509290090984",
    "lng": "127.02267229995272",
    "region": "서울특별시"
  },
  {
    "name": "대가미공원",
    "address": "충청북도 충주시 교현동 714",
    "lat": "36.980679344860164",
    "lng": "127.92553424835206",
    "region": "충청북도"
  },
  {
    "name": "충주중앙중학교 운동장",
    "address": "충청북도 충주시 교현동 1088",
    "lat": "36.981532115403574",
    "lng": "127.93070554733275",
    "region": "충청북도"
  },
  {
    "name": "서면중학교 운동장",
    "address": "충청남도 서천군 서면 신합리 475-23",
    "lat": "36.15407586683731",
    "lng": "126.54952883720031",
    "region": "충청남도"
  },
  {
    "name": "청소초등학교 운동장",
    "address": "충청남도 보령시 청소면 진죽리 267-1",
    "lat": "36.451486736519314",
    "lng": "126.59230354876513",
    "region": "충청남도"
  },
  {
    "name": "대천초등학교 운동장",
    "address": "충청남도 보령시 대천동 37-2",
    "lat": "36.35405993985876",
    "lng": "126.59967138815188",
    "region": "충청남도"
  },
  {
    "name": "우강초등학교운동장",
    "address": "충청남도 당진시 우강면 송산리 29",
    "lat": "36.8248",
    "lng": "126.7892",
    "region": "충청남도"
  },
  {
    "name": "정미초등학교운동장",
    "address": "충청남도 당진시 정미면 매방리 120",
    "lat": "36.85631735703961",
    "lng": "126.55443154260156",
    "region": "충청남도"
  },
  {
    "name": "회현중학교  운동장",
    "address": "전북특별자치도 군산시 회현면 대정리 102-1",
    "lat": "35.912853904753355",
    "lng": "126.75482511520384",
    "region": "전북특별자치도"
  },
  {
    "name": "서창중학교 운동장",
    "address": "경상남도 양산시 삼호동 158-1",
    "lat": "35.412427",
    "lng": "129.177760",
    "region": "경상남도"
  },
  {
    "name": "소공원<357>",
    "address": "경상남도 양산시 물금읍 물금리 774-51",
    "lat": "35.309163",
    "lng": "128.982040",
    "region": "경상남도"
  },
  {
    "name": "평리4동 공영주차장",
    "address": "대구광역시 서구 평리동 1207-2",
    "lat": "35.86836100000",
    "lng": "128.56125100000",
    "region": "대구광역시"
  },
  {
    "name": "고색중보들",
    "address": "경기도 수원시 권선구 고색동 1129",
    "lat": "37.246647",
    "lng": "126.985278",
    "region": "경기도"
  },
  {
    "name": "안민초등학교 운동장",
    "address": "부산광역시 동래구 낙민동 85-10",
    "lat": "35.193828992385015",
    "lng": "129.09405612969834",
    "region": "부산광역시"
  },
  {
    "name": "동래원예고등학교 운동장",
    "address": "부산광역시 동래구 온천동 406",
    "lat": "35.21509062075015",
    "lng": "129.07520949840705",
    "region": "부산광역시"
  },
  {
    "name": "유락여자중학교 운동장",
    "address": "부산광역시 동래구 온천동 433-3",
    "lat": "35.214569078698155",
    "lng": "129.07622337341468",
    "region": "부산광역시"
  },
  {
    "name": "금암초등학교 운동장",
    "address": "전북특별자치도 군산시 서수면 금암리 261",
    "lat": "36.0054949392503",
    "lng": "126.90802782213571",
    "region": "전북특별자치도"
  },
  {
    "name": "나포초등학교 운동장",
    "address": "전북특별자치도 군산시 나포면 옥곤리 261",
    "lat": "36.03094966424757",
    "lng": "126.8341587080859",
    "region": "전북특별자치도"
  },
  {
    "name": "당북초등학교 운동장",
    "address": "전북특별자치도 군산시 옥산면 당북리 869-7",
    "lat": "35.94640255109077",
    "lng": "126.71730355530788",
    "region": "전북특별자치도"
  },
  {
    "name": "마룡초등학교 운동장",
    "address": "전북특별자치도 군산시 서수면 마룡리 338",
    "lat": "36.00308429237324",
    "lng": "126.87778165445067",
    "region": "전북특별자치도"
  },
  {
    "name": "선유도중학교",
    "address": "전북특별자치도 군산시 옥도면 선유도리 234",
    "lat": "35.81198840317499",
    "lng": "126.41239191715515",
    "region": "전북특별자치도"
  },
  {
    "name": "술산초등학교 운동장",
    "address": "전북특별자치도 군산시 임피면 술산리 408-1",
    "lat": "35.95765068492304",
    "lng": "126.8616593875037",
    "region": "전북특별자치도"
  },
  {
    "name": "회현오봉초등학교 운동장",
    "address": "전북특별자치도 군산시 회현면 월연리 491-1",
    "lat": "35.8887307716087",
    "lng": "126.72595468214584",
    "region": "전북특별자치도"
  },
  {
    "name": "옥봉초등학교",
    "address": "전북특별자치도 군산시 옥서면 옥봉리 88",
    "lat": "35.92707217651867",
    "lng": "126.641071905691",
    "region": "전북특별자치도"
  },
  {
    "name": "옥산초등학교 운동장",
    "address": "전북특별자치도 군산시 옥산면 옥산리 30",
    "lat": "35.94065164877692",
    "lng": "126.7493134856775",
    "region": "전북특별자치도"
  },
  {
    "name": "화성중학교 운동장",
    "address": "충청남도 청양군 화성면 구재리 156-3",
    "lat": "36.43633636525241",
    "lng": "126.72209291015179",
    "region": "충청남도"
  },
  {
    "name": "웅천중고등학교 운동장",
    "address": "충청남도 보령시 웅천읍 대창리 449-1",
    "lat": "36.23410616363357",
    "lng": "126.60444776185176",
    "region": "충청남도"
  },
  {
    "name": "대남초등학교 운동장",
    "address": "충청남도 보령시 대천동 158-2",
    "lat": "36.35207536699034",
    "lng": "126.59455579836526",
    "region": "충청남도"
  },
  {
    "name": "계성초등학교운동장",
    "address": "충청남도 당진시 읍내동 13",
    "lat": "36.8984",
    "lng": "126.6382",
    "region": "충청남도"
  },
  {
    "name": "천안새샘초등학교 운동장",
    "address": "충청남도 천안시 동남구 신방동 1924",
    "lat": "36.77085973524933",
    "lng": "127.13110850250243",
    "region": "충청남도"
  },
  {
    "name": "로봇고등학교 운동장",
    "address": "서울특별시 강남구 일원동 738",
    "lat": "37.4804060771707",
    "lng": "127.08424858700313",
    "region": "서울특별시"
  },
  {
    "name": "달서어린이공원",
    "address": "대구광역시 달서구 두류동 636-3",
    "lat": "35.85207431194364",
    "lng": "128.5522933862067",
    "region": "대구광역시"
  },
  {
    "name": "선원초등학교 운동장",
    "address": "대구광역시 달서구 용산동 504",
    "lat": "35.860872550434436",
    "lng": "128.51536103744093",
    "region": "대구광역시"
  },
  {
    "name": "어울림공원",
    "address": "경기도 수원시 권선구 금곡동 1126",
    "lat": "37.27313548580307",
    "lng": "126.95582857456611",
    "region": "경기도"
  },
  {
    "name": "이현고등학교 운동장",
    "address": "경기도 이천시 갈산동 588",
    "lat": "37.285120797564666",
    "lng": "127.45766580104828",
    "region": "경기도"
  },
  {
    "name": "전주교대군산부설초등학교 운동장",
    "address": "전북특별자치도 군산시 동흥남동 402-3",
    "lat": "35.97402017108636",
    "lng": "126.72199049135683",
    "region": "전북특별자치도"
  },
  {
    "name": "군산동원중학교 운동장",
    "address": "전북특별자치도 군산시 나운동 155-4",
    "lat": "35.95908357495062",
    "lng": "126.70049844510274",
    "region": "전북특별자치도"
  },
  {
    "name": "군산서흥중학교 운동장",
    "address": "전북특별자치도 군산시 서흥남동 853",
    "lat": "35.97103498539712",
    "lng": "126.70961287856441",
    "region": "전북특별자치도"
  },
  {
    "name": "군산남중학교 운동장",
    "address": "전북특별자치도 군산시 문화동 785-10",
    "lat": "35.97306647993106",
    "lng": "126.69940210309046",
    "region": "전북특별자치도"
  },
  {
    "name": "임피중학교 운동장",
    "address": "전북특별자치도 군산시 서수면 서수리 1085-1",
    "lat": "35.98401773410661",
    "lng": "126.86893444106599",
    "region": "전북특별자치도"
  },
  {
    "name": "군산금강중학교 운동장",
    "address": "전북특별자치도 군산시 미룡동 899",
    "lat": "35.94095497068776",
    "lng": "126.6887780687116",
    "region": "전북특별자치도"
  },
  {
    "name": "군산중학교 운동장",
    "address": "전북특별자치도 군산시 송풍동 925-8",
    "lat": "35.977450482047864",
    "lng": "126.70233235248296",
    "region": "전북특별자치도"
  },
  {
    "name": "산북중학교 운동장",
    "address": "전북특별자치도 군산시 산북동 3581",
    "lat": "35.96440259768209",
    "lng": "126.68260918128105",
    "region": "전북특별자치도"
  },
  {
    "name": "군산대성중학교",
    "address": "전북특별자치도 군산시 임피면 읍내리 535-4",
    "lat": "35.98861288760423",
    "lng": "126.84880493187087",
    "region": "전북특별자치도"
  },
  {
    "name": "서면초등학교 운동장",
    "address": "충청남도 서천군 서면 신합리 466-1",
    "lat": "36.153361180853885",
    "lng": "126.55541360377848",
    "region": "충청남도"
  },
  {
    "name": "송학초등학교 운동장",
    "address": "충청남도 보령시 주교면 송학리 110",
    "lat": "36.37988401623229",
    "lng": "126.52702768000647",
    "region": "충청남도"
  },
  {
    "name": "신촌초등학교운동장",
    "address": "충청남도 당진시 합덕읍 신리 273-1",
    "lat": "36.7633",
    "lng": "126.7646",
    "region": "충청남도"
  },
  {
    "name": "합덕초등학교운동장",
    "address": "충청남도 당진시 합덕읍 운산리 3-8",
    "lat": "36.8045",
    "lng": "126.7791",
    "region": "충청남도"
  },
  {
    "name": "성당초등학교운동장",
    "address": "충청남도 당진시 사기소동 644-5",
    "lat": "36.8364",
    "lng": "126.6044",
    "region": "충청남도"
  },
  {
    "name": "금사중학교 운동장",
    "address": "부산광역시 금정구 서동 22",
    "lat": "35.22093143201671",
    "lng": "129.10593712289347",
    "region": "부산광역시"
  },
  {
    "name": "도원근린공원",
    "address": "대구광역시 달서구 도원동 1454",
    "lat": "35.805720715199925",
    "lng": "128.54350060046664",
    "region": "대구광역시"
  },
  {
    "name": "익산한벌초등학교 운동장",
    "address": "전북특별자치도 익산시 부송동 1204",
    "lat": "35.95859900969607",
    "lng": "126.99414253234977",
    "region": "전북특별자치도"
  },
  {
    "name": "성당중학교 운동장",
    "address": "전북특별자치도 익산시 성당면 갈산리 406-2",
    "lat": "36.08810120093731",
    "lng": "126.92973711997637",
    "region": "전북특별자치도"
  },
  {
    "name": "이리북중학교 운동장",
    "address": "전북특별자치도 익산시 신동 426",
    "lat": "35.96329276961753",
    "lng": "126.95143103599548",
    "region": "전북특별자치도"
  },
  {
    "name": "옥산 외류마을",
    "address": "전북특별자치도 군산시 옥산면 금성리 256-1",
    "lat": "35.92711016757437",
    "lng": "126.73290404795563",
    "region": "전북특별자치도"
  },
  {
    "name": "군산고등학교 운동장",
    "address": "전북특별자치도 군산시 동흥남동 402-1",
    "lat": "35.97504617034654",
    "lng": "126.72067643664447",
    "region": "전북특별자치도"
  },
  {
    "name": "군산상일고등학교 운동장",
    "address": "전북특별자치도 군산시 문화동 785-3",
    "lat": "35.97436527061732",
    "lng": "126.70009392615192",
    "region": "전북특별자치도"
  },
  {
    "name": "군산여자고등학교",
    "address": "전북특별자치도 군산시 월명동 37-1",
    "lat": "35.98509435216879",
    "lng": "126.70354906048757",
    "region": "전북특별자치도"
  },
  {
    "name": "전북외국어고등학교 운동장",
    "address": "전북특별자치도 군산시 소룡동 1044-2",
    "lat": "35.98189358485139",
    "lng": "126.6847086834515",
    "region": "전북특별자치도"
  },
  {
    "name": "군산제일고등학교",
    "address": "전북특별자치도 군산시 조촌동 84",
    "lat": "35.97360817938836",
    "lng": "126.74716926806977",
    "region": "전북특별자치도"
  },
  {
    "name": "청라초등학교 운동장",
    "address": "충청남도 보령시 청라면 나원리 916",
    "lat": "36.3903164246013",
    "lng": "126.67252025699068",
    "region": "충청남도"
  },
  {
    "name": "영남이공대학교 운동장",
    "address": "대구광역시 남구 대명동 317-1",
    "lat": "35.84855080564887",
    "lng": "128.58463512519697",
    "region": "대구광역시"
  },
  {
    "name": "서동초등학교 운동장",
    "address": "부산광역시 금정구 서동 505-10",
    "lat": "35.21908753766814",
    "lng": "129.09770250320605",
    "region": "부산광역시"
  },
  {
    "name": "미성초등학교 운동장",
    "address": "서울특별시 관악구 신림동 768-23",
    "lat": "37.477714578150334",
    "lng": "126.9122710181506",
    "region": "서울특별시"
  },
  {
    "name": "미성중학교 운동장",
    "address": "서울특별시 관악구 신림동 745-24",
    "lat": "37.47526166029177",
    "lng": "126.91261698446687",
    "region": "서울특별시"
  },
  {
    "name": "용산고등학교 운동장",
    "address": "서울특별시 용산구 용산동2가 1",
    "lat": "37.54496794234453",
    "lng": "126.98047100264438",
    "region": "서울특별시"
  },
  {
    "name": "성남은행초등학교 운동장",
    "address": "경기도 성남시 중원구 은행동 652",
    "lat": "37.46077348138852",
    "lng": "127.1698946650316",
    "region": "경기도"
  },
  {
    "name": "군산대학교 종합운동장",
    "address": "전북특별자치도 군산시 미룡동 290-2",
    "lat": "35.94694166779479",
    "lng": "126.68155655509929",
    "region": "전북특별자치도"
  },
  {
    "name": "군산간호대학교",
    "address": "전북특별자치도 군산시 개정동 413-11",
    "lat": "35.9710010014924",
    "lng": "126.76001198753741",
    "region": "전북특별자치도"
  },
  {
    "name": "면북초등학교 운동장",
    "address": "서울특별시 중랑구 망우동 119",
    "lat": "37.59406976251712",
    "lng": "127.10355690899993",
    "region": "서울특별시"
  },
  {
    "name": "슬기어린이공원",
    "address": "경기도 군포시 산본동 1239",
    "lat": "37.37094481387769",
    "lng": "126.93598722858174",
    "region": "경기도"
  },
  {
    "name": "한우물근린공원",
    "address": "경기도 군포시 당정동 181-44",
    "lat": "37.35914618139156",
    "lng": "126.9552628141069",
    "region": "경기도"
  },
  {
    "name": "전대초등학교운동장",
    "address": "충청남도 당진시 송악읍 전대리 791-23",
    "lat": "36.9091",
    "lng": "126.7496",
    "region": "충청남도"
  },
  {
    "name": "현곡초등학교 운동장",
    "address": "부산광역시 금정구 부곡동 658-18",
    "lat": "35.227383224597524",
    "lng": "129.0966101777247",
    "region": "부산광역시"
  },
  {
    "name": "덕산초등학교",
    "address": "충청남도 예산군 덕산면 읍내리 348-1",
    "lat": "36.706170",
    "lng": "126.669267",
    "region": "충청남도"
  },
  {
    "name": "수덕초등학교",
    "address": "충청남도 예산군 덕산면 외라리 238",
    "lat": "36.639981",
    "lng": "126.604636",
    "region": "충청남도"
  },
  {
    "name": "초림초등학교 운동장",
    "address": "경기도 성남시 분당구 수내동 35",
    "lat": "37.37652723848499",
    "lng": "127.11802432729293",
    "region": "경기도"
  },
  {
    "name": "일원장미공원",
    "address": "서울특별시 강남구 일원동 732-4",
    "lat": "37.480642399913386",
    "lng": "127.08077195234328",
    "region": "서울특별시"
  },
  {
    "name": "황등초등학교 운동장",
    "address": "전북특별자치도 익산시 황등면 황등리 1739-54",
    "lat": "36.009208288595254",
    "lng": "126.94564282894136",
    "region": "전북특별자치도"
  },
  {
    "name": "이리남중학교 운동장",
    "address": "전북특별자치도 익산시 모현동1가 890",
    "lat": "35.94586236132858",
    "lng": "126.93676203489306",
    "region": "전북특별자치도"
  },
  {
    "name": "익산부송중학교 운동장",
    "address": "전북특별자치도 익산시 부송동 240-2",
    "lat": "35.95546172044835",
    "lng": "126.99591010808636",
    "region": "전북특별자치도"
  },
  {
    "name": "부곡중앙중학교 운동장",
    "address": "경기도 군포시 부곡동 1095",
    "lat": "37.32343550935834",
    "lng": "126.93865637126592",
    "region": "경기도"
  },
  {
    "name": "부곡중앙초등학교 운동장",
    "address": "경기도 군포시 부곡동 1113",
    "lat": "37.32268533678531",
    "lng": "126.94089673614938",
    "region": "경기도"
  },
  {
    "name": "군포국민체육센터 운동장",
    "address": "경기도 군포시 부곡동 1226",
    "lat": "37.33915954918526",
    "lng": "126.93558736770942",
    "region": "경기도"
  },
  {
    "name": "권선구청 한마음광장",
    "address": "경기도 수원시 권선구 탑동 900",
    "lat": "37.25717238325566",
    "lng": "126.9726151227951",
    "region": "경기도"
  },
  {
    "name": "장우 어린이공원",
    "address": "경기도 수원시 장안구 파장동 593-4",
    "lat": "37.307299903774116",
    "lng": "126.99669516294706",
    "region": "경기도"
  },
  {
    "name": "반송초등학교 운동장",
    "address": "경기도 화성시 반송동 199",
    "lat": "37.19071173319946",
    "lng": "127.07016560370305",
    "region": "경기도"
  },
  {
    "name": "개화초등학교 운동장",
    "address": "충청남도 보령시 성주면 개화리 307-3",
    "lat": "36.30647967275311",
    "lng": "126.65423959493631",
    "region": "충청남도"
  },
  {
    "name": "백강초등학교 운동장",
    "address": "충청남도 부여군 규암면 오수리 208",
    "lat": "36.29649816487494",
    "lng": "126.8914518604745",
    "region": "충청남도"
  },
  {
    "name": "은산초등학교 운동장",
    "address": "충청남도 부여군 은산면 신대리 333",
    "lat": "36.313888584911425",
    "lng": "126.85514275568198",
    "region": "충청남도"
  },
  {
    "name": "서정초등학교운동장",
    "address": "충청남도 당진시 신평면 거산리 40",
    "lat": "36.8801",
    "lng": "126.7558",
    "region": "충청남도"
  },
  {
    "name": "목원대학교운동장",
    "address": "대전광역시 서구 도안동 800",
    "lat": "36.324639",
    "lng": "127.339251",
    "region": "대전광역시"
  },
  {
    "name": "영문초등학교 운동장",
    "address": "서울특별시 영등포구 문래동6가 13",
    "lat": "37.51958265137506",
    "lng": "126.88791096210478",
    "region": "서울특별시"
  },
  {
    "name": "청파선린공원",
    "address": "서울특별시 용산구 청파동3가 118-56",
    "lat": "37.543522485834636",
    "lng": "126.96623951196672",
    "region": "서울특별시"
  },
  {
    "name": "천서초등학교 운동장",
    "address": "전북특별자치도 익산시 춘포면 천서리 85-2",
    "lat": "35.94572075536427",
    "lng": "127.03592885301694",
    "region": "전북특별자치도"
  },
  {
    "name": "연꽃 어린이공원",
    "address": "경기도 수원시 장안구 정자동 873-2",
    "lat": "37.29924746063893",
    "lng": "126.99459317710804",
    "region": "경기도"
  },
  {
    "name": "거북 어린이공원",
    "address": "경기도 수원시 장안구 영화동 229-1",
    "lat": "37.29301680723777",
    "lng": "127.01476319194016",
    "region": "경기도"
  },
  {
    "name": "석산 어린이공원",
    "address": "경기도 수원시 장안구 조원동 731",
    "lat": "37.30309299882118",
    "lng": "127.0155007849108",
    "region": "경기도"
  },
  {
    "name": "다람쥐 어린이공원",
    "address": "경기도 수원시 장안구 조원동 758-4",
    "lat": "37.300033691042024",
    "lng": "127.01431520011941",
    "region": "경기도"
  },
  {
    "name": "푸른지대 어린이공원",
    "address": "경기도 수원시 권선구 탑동 829",
    "lat": "37.27025421791283",
    "lng": "126.97325210473434",
    "region": "경기도"
  },
  {
    "name": "칙칙폭폭 어린이공원",
    "address": "경기도 수원시 권선구 구운동 510",
    "lat": "37.27601097527006",
    "lng": "126.97656909108308",
    "region": "경기도"
  },
  {
    "name": "별솔 어린이공원",
    "address": "경기도 수원시 권선구 구운동 955",
    "lat": "37.27851518593622",
    "lng": "126.96988502040001",
    "region": "경기도"
  },
  {
    "name": "사랑 어린이공원",
    "address": "경기도 수원시 권선구 구운동 966",
    "lat": "37.27698548355198",
    "lng": "126.97192011996894",
    "region": "경기도"
  },
  {
    "name": "전원 어린이공원",
    "address": "경기도 수원시 권선구 권선동 1059",
    "lat": "37.25553",
    "lng": "127.022473",
    "region": "경기도"
  },
  {
    "name": "예산초등학교",
    "address": "충청남도 예산군 예산읍 예산리 742-1",
    "lat": "36.68340420306243",
    "lng": "126.84979677200315",
    "region": "충청남도"
  },
  {
    "name": "남양초등학교 운동장",
    "address": "충청남도 청양군 남양면 구룡리 22",
    "lat": "36.40089261347397",
    "lng": "126.77684777106958",
    "region": "충청남도"
  },
  {
    "name": "미당초등학교 운동장",
    "address": "충청남도 청양군 장평면 미당리 38",
    "lat": "36.37498647835111",
    "lng": "126.93362255568597",
    "region": "충청남도"
  },
  {
    "name": "장평초등학교 운동장",
    "address": "충청남도 청양군 장평면 중추리 26-2",
    "lat": "36.34608594558796",
    "lng": "126.8988186812072",
    "region": "충청남도"
  },
  {
    "name": "천북초등학교 운동장",
    "address": "충청남도 보령시 천북면 하만리 246-5",
    "lat": "36.48179777791678",
    "lng": "126.53153049157159",
    "region": "충청남도"
  },
  {
    "name": "북창초등학교운동장",
    "address": "충청남도 당진시 순성면 중방리 15",
    "lat": "36.8498",
    "lng": "126.7648",
    "region": "충청남도"
  },
  {
    "name": "신평초등학교운동장",
    "address": "충청남도 당진시 신평면 금천리 426",
    "lat": "36.88686262290297",
    "lng": "126.77177661317268",
    "region": "충청남도"
  },
  {
    "name": "산이서초등학교운동장",
    "address": "전라남도 해남군 산이면 상공리 231-4",
    "lat": "34.67712719184351",
    "lng": "126.41109773123604",
    "region": "전라남도"
  },
  {
    "name": "영등포여자고등학교 운동장",
    "address": "서울특별시 영등포구 신길동 184-3",
    "lat": "37.51506395670772",
    "lng": "126.91509246826172",
    "region": "서울특별시"
  },
  {
    "name": "일��개나리공원",
    "address": "서울특별시 강남구 일원동 730-3",
    "lat": "37.482914694243775",
    "lng": "127.07642508794055",
    "region": "서울특별시"
  },
  {
    "name": "꿈이랑 어린이공원",
    "address": "경기도 수원시 권선구 권선동 1343",
    "lat": "37.242083",
    "lng": "127.018118",
    "region": "경기도"
  },
  {
    "name": "명당 어린이공원",
    "address": "경기도 수원시 권선구 권선동 1300",
    "lat": "37.252603686060404",
    "lng": "127.04002439975739",
    "region": "경기도"
  },
  {
    "name": "신아 어린이공원",
    "address": "경기도 수원시 권선구 곡반정동 572",
    "lat": "37.237388",
    "lng": "127.029976",
    "region": "경기도"
  },
  {
    "name": "산마루 어린이공원",
    "address": "경기도 수원시 팔달구 화서동 688-4",
    "lat": "37.2860533708355",
    "lng": "126.98764622211456",
    "region": "경기도"
  },
  {
    "name": "무지개 어린이공원",
    "address": "경기도 수원시 영통구 매탄동 101-16",
    "lat": "37.273094",
    "lng": "127.045274",
    "region": "경기도"
  },
  {
    "name": "산남 어린이공원",
    "address": "경기도 수원시 영통구 매탄동 111-107",
    "lat": "37.271574",
    "lng": "127.050615",
    "region": "경기도"
  },
  {
    "name": "풀샘 어린이공원",
    "address": "경기도 수원시 영통구 매탄동 1283",
    "lat": "37.255272351253495",
    "lng": "127.04233646392821",
    "region": "경기도"
  },
  {
    "name": "옹달샘 어린이공원",
    "address": "경기도 수원시 영통구 매탄동 209-25",
    "lat": "37.26563",
    "lng": "127.047192",
    "region": "경기도"
  },
  {
    "name": "동물놀이 어린이공원",
    "address": "경기도 수원시 영통구 원천동 612",
    "lat": "37.274455",
    "lng": "127.052802",
    "region": "경기도"
  },
  {
    "name": "다람쥐 어린이공원(광교)",
    "address": "경기도 수원시 영통구 이의동 1259-3",
    "lat": "37.299616",
    "lng": "127.046127",
    "region": "경기도"
  },
  {
    "name": "수정초등학교 운동장",
    "address": "충청남도 청양군 대치면 주정리 258-5",
    "lat": "36.445417577056176",
    "lng": "126.82855831342583",
    "region": "충청남도"
  },
  {
    "name": "웅천초등학교 운동장",
    "address": "충청남도 보령시 웅천읍 대천리 130",
    "lat": "36.23992567386797",
    "lng": "126.59167644296363",
    "region": "충청남도"
  },
  {
    "name": "보령중학교 운동장",
    "address": "충청남도 보령시 주포면 보령리 266-1",
    "lat": "36.41660837337015",
    "lng": "126.58984690113293",
    "region": "충청남도"
  },
  {
    "name": "대천고등학교 운동장",
    "address": "충청남도 보령시 죽정동 562",
    "lat": "36.36553380821017",
    "lng": "126.60411054105282",
    "region": "충청남도"
  },
  {
    "name": "한내초등학교 운동장",
    "address": "충청남도 보령시 명천동 431",
    "lat": "36.341703826952205",
    "lng": "126.60157689513326",
    "region": "충청남도"
  },
  {
    "name": "한솔근린공원",
    "address": "서울특별시 강남구 일원동 732",
    "lat": "37.48133612529738",
    "lng": "127.07901421663786",
    "region": "서울특별시"
  },
  {
    "name": "염리초등학교 운동장",
    "address": "서울특별시 마포구 염리동 173-4",
    "lat": "37.54232538940831",
    "lng": "126.9457703675432",
    "region": "서울특별시"
  },
  {
    "name": "김제농생명마이스터고등학교",
    "address": "전북특별자치도 김제시 신풍동 436-1",
    "lat": "35.79511994497317",
    "lng": "126.89087559604742",
    "region": "전북특별자치도"
  },
  {
    "name": "김제금산초등학교",
    "address": "전북특별자치도 김제시 금산면 청도리 461-1",
    "lat": "35.720600448114844",
    "lng": "127.03205595466224",
    "region": "전북특별자치도"
  },
  {
    "name": "김제북초등학교",
    "address": "전북특별자치도 김제시 순동 195-8",
    "lat": "35.814940996440036",
    "lng": "126.93423802551986",
    "region": "전북특별자치도"
  },
  {
    "name": "한들중학교",
    "address": "전북특별자치도 김제시 요촌동 72-1",
    "lat": "35.804174240054635",
    "lng": "126.89164374434361",
    "region": "전북특별자치도"
  },
  {
    "name": "만경고등학교",
    "address": "전북특별자치도 김제시 만경읍 만경리 527",
    "lat": "35.84985682231188",
    "lng": "126.81795358657835",
    "region": "전북특별자치도"
  },
  {
    "name": "부용초등학교",
    "address": "전북특별자치도 김제시 백구면 월봉리 57-2",
    "lat": "35.876769389909214",
    "lng": "126.95240146025893",
    "region": "전북특별자치도"
  },
  {
    "name": "성덕초등학교",
    "address": "전북특별자치도 김제시 성덕면 석동리 168-2",
    "lat": "35.819777639519984",
    "lng": "126.80754321694707",
    "region": "전북특별자치도"
  },
  {
    "name": "심창초등학교",
    "address": "전북특별자치도 김제시 진봉면 심포리 357",
    "lat": "35.85817158768644",
    "lng": "126.7210721903956",
    "region": "전북특별자치도"
  },
  {
    "name": "김제용지초등학교",
    "address": "전북특별자치도 김제시 용지면 구암리 138-3",
    "lat": "35.85410050625842",
    "lng": "126.95764839649199",
    "region": "전북특별자치도"
  },
  {
    "name": "진봉초등학교",
    "address": "전북특별자치도 김제시 진봉면 상궐리 76-12",
    "lat": "35.8473688528709",
    "lng": "126.78274795919853",
    "region": "전북특별자치도"
  },
  {
    "name": "강서초등학교 운동장",
    "address": "서울특별시 양천구 신월동 441",
    "lat": "37.52218714576249",
    "lng": "126.8404444175623",
    "region": "서울특별시"
  },
  {
    "name": "꿀벌어린이공원",
    "address": "서울특별시 양천구 신월동 156",
    "lat": "37.534804818543755",
    "lng": "126.82619430827604",
    "region": "서울특별시"
  },
  {
    "name": "화원초등학교 운동장",
    "address": "경기도 화성시 향남읍 하길리 1506",
    "lat": "37.11183551806964",
    "lng": "126.91905642167616",
    "region": "경기도"
  },
  {
    "name": "감천초등학교운동장",
    "address": "부산광역시 사하구 감천동 212",
    "lat": "35.082984374592",
    "lng": "129.00746961095032",
    "region": "부산광역시"
  },
  {
    "name": "합실어린이공원",
    "address": "서울특별시 관악구 신림동 1704-4",
    "lat": "37.465097427936854",
    "lng": "126.92702829837691",
    "region": "서울특별시"
  },
  {
    "name": "개양중학교 운동장",
    "address": "경상남도 진주시 가좌동 669",
    "lat": "35.16012708571098",
    "lng": "128.1097926974604",
    "region": "경상남도"
  },
  {
    "name": "용암초등학교 운동장",
    "address": "서울특별시 용산구 용산동2가 5-1488",
    "lat": "37.544895178981044",
    "lng": "126.98928005553695",
    "region": "서울특별시"
  },
  {
    "name": "금호고등학교 운동장",
    "address": "서울특별시 성동구 금호동1가 1822",
    "lat": "37.553233840625005",
    "lng": "127.02369669498574",
    "region": "서울특별시"
  },
  {
    "name": "성남동초등학교 운동장",
    "address": "경기도 성남시 중원구 금광동 3365",
    "lat": "37.44926778003214",
    "lng": "127.16288455368283",
    "region": "경기도"
  },
  {
    "name": "내정초등학교 운동장",
    "address": "경기도 성남시 분당구 수내동 57",
    "lat": "37.372786621495415",
    "lng": "127.12217606616848",
    "region": "경기도"
  },
  {
    "name": "도화소어린이공원",
    "address": "서울특별시 마포구 도화동 540",
    "lat": "37.54104932608772",
    "lng": "126.94548104684492",
    "region": "서울특별시"
  },
  {
    "name": "태양어린이공원",
    "address": "서울특별시 양천구 신월동 422-1",
    "lat": "37.52436288131915",
    "lng": "126.83864437777838",
    "region": "서울특별시"
  },
  {
    "name": "강신초등학교 운동장",
    "address": "서울특별시 양천구 신월동 6-7",
    "lat": "37.54253674980322",
    "lng": "126.82929619563446",
    "region": "서울특별시"
  },
  {
    "name": "방아다리어린이공원",
    "address": "서울특별시 양천구 신월동 56-1",
    "lat": "37.53866920176992",
    "lng": "126.82838201522826",
    "region": "서울특별시"
  },
  {
    "name": "신오어린이공원",
    "address": "서울특별시 양천구 신월동 73-2",
    "lat": "37.53819660026411",
    "lng": "126.83156989294893",
    "region": "서울특별시"
  },
  {
    "name": "신월중학교 운동장",
    "address": "서울특별시 양천구 신월동 17-6",
    "lat": "37.540469002163015",
    "lng": "126.82895733821216",
    "region": "서울특별시"
  },
  {
    "name": "강신어린이공원",
    "address": "서울특별시 양천구 신월동 1012-2",
    "lat": "37.51555911285084",
    "lng": "126.8384788258984",
    "region": "서울특별시"
  },
  {
    "name": "강신중학교 운동장",
    "address": "서울특별시 양천구 신월동 1010",
    "lat": "37.5143937208987",
    "lng": "126.83919657631964",
    "region": "서울특별시"
  },
  {
    "name": "강월어린이공원",
    "address": "서울특별시 양천구 신월동 1004",
    "lat": "37.51562175574891",
    "lng": "126.83635257917275",
    "region": "서울특별시"
  },
  {
    "name": "신남초등학교 운동장",
    "address": "서울특별시 양천구 신월동 587",
    "lat": "37.51597002053847",
    "lng": "126.84473894882618",
    "region": "서울특별시"
  },
  {
    "name": "강월초등학교 운동장",
    "address": "서울특별시 양천구 신월동 987-3",
    "lat": "37.516043999921465",
    "lng": "126.83412810613746",
    "region": "서울특별시"
  },
  {
    "name": "신월공원",
    "address": "서울특별시 양천구 신월동 987-2",
    "lat": "37.5179931724363",
    "lng": "126.83378943034853",
    "region": "서울특별시"
  },
  {
    "name": "양천중학교 운동장",
    "address": "서울특별시 양천구 신월동 948",
    "lat": "37.52014066248784",
    "lng": "126.83083373607639",
    "region": "서울특별시"
  },
  {
    "name": "오솔길공원",
    "address": "서울특별시 양천구 신월동 977",
    "lat": "37.52124429708421",
    "lng": "126.83676253802128",
    "region": "서울특별시"
  },
  {
    "name": "한울근린공원",
    "address": "서울특별시 양천구 신월동 956",
    "lat": "37.51985394726123",
    "lng": "126.83219503154477",
    "region": "서울특별시"
  },
  {
    "name": "꿈나무어린이공원",
    "address": "서울특별시 양천구 신정동 311-1",
    "lat": "37.5176756479632",
    "lng": "126.85852274964634",
    "region": "서울특별시"
  },
  {
    "name": "송라초등학교 운동장",
    "address": "경기도 화성시 매송면 송라리 585",
    "lat": "37.27279775756103",
    "lng": "126.88873704887196",
    "region": "경기도"
  },
  {
    "name": "화당초등학교  운동장",
    "address": "충청북도 제천시 백운면 화당리 84-1",
    "lat": "37.16885301910598",
    "lng": "127.98660499690467",
    "region": "충청북도"
  },
  {
    "name": "성일초등학교운동장",
    "address": "서울특별시 강동구 성내동 531",
    "lat": "37.5291172216718",
    "lng": "127.12837759636614",
    "region": "서울특별시"
  },
  {
    "name": "여의도고등학교 운동장",
    "address": "서울특별시 영등포구 여의도동 30-1",
    "lat": "37.525009403680855",
    "lng": "126.93354606628418",
    "region": "서울특별시"
  },
  {
    "name": "두텁바위공원",
    "address": "서울특별시 용산구 동자동 50",
    "lat": "37.5521329909746",
    "lng": "126.97314888238907",
    "region": "서울특별시"
  },
  {
    "name": "양영초등학교 운동장",
    "address": "경기도 성남시 분당구 서현동 319",
    "lat": "37.3748",
    "lng": "127.1397",
    "region": "경기도"
  },
  {
    "name": "단지어린이공원",
    "address": "서울특별시 양천구 신정��� 1323-1",
    "lat": "37.519824916007686",
    "lng": "126.85430713785509",
    "region": "서울특별시"
  },
  {
    "name": "신트리공원",
    "address": "서울특별시 양천구 신정동 310-7",
    "lat": "37.51463637953644",
    "lng": "126.85652416985546",
    "region": "서울특별시"
  },
  {
    "name": "신서중학교 운동장",
    "address": "서울특별시 양천구 신정동 310-6",
    "lat": "37.51539496097527",
    "lng": "126.85591728803733",
    "region": "서울특별시"
  },
  {
    "name": "신서초등학교 운동장",
    "address": "서울특별시 양천구 신정동 312-1",
    "lat": "37.520137378872214",
    "lng": "126.86254921341168",
    "region": "서울특별시"
  },
  {
    "name": "양명초등학교 운동장",
    "address": "서울특별시 양천구 신정동 310-6",
    "lat": "37.51567978168025",
    "lng": "126.85669371741713",
    "region": "서울특별시"
  },
  {
    "name": "목동초등학교 운동장",
    "address": "서울특별시 양천구 신정동 86-2",
    "lat": "37.5224363629896",
    "lng": "126.87199941051833",
    "region": "서울특별시"
  },
  {
    "name": "신목초등학교 운동장",
    "address": "서울특별시 양천구 신정동 281-2",
    "lat": "37.516811799052775",
    "lng": "126.87292194587064",
    "region": "서울특별시"
  },
  {
    "name": "신세계어린이공원",
    "address": "서울특별시 양천구 신정동 119-3",
    "lat": "37.52172855947555",
    "lng": "126.8758745586734",
    "region": "서울특별시"
  },
  {
    "name": "금옥중학교 운동장",
    "address": "서울특별시 양천구 신정동 729",
    "lat": "37.510077436578946",
    "lng": "126.84425336743574",
    "region": "서울특별시"
  },
  {
    "name": "넓은들어린이공원",
    "address": "서울특별시 양천구 신정동 767",
    "lat": "37.51117360881554",
    "lng": "126.83907859772306",
    "region": "서울특별시"
  },
  {
    "name": "넘은들공원",
    "address": "서울특별시 양천구 신정동 1286",
    "lat": "37.51299541620125",
    "lng": "126.84047328084021",
    "region": "서울특별시"
  },
  {
    "name": "신기초등학교 운동장",
    "address": "서울특별시 양천구 신정동 1274",
    "lat": "37.5109621137928",
    "lng": "126.85418249783478",
    "region": "서울특별시"
  },
  {
    "name": "신은초등학교 운동장",
    "address": "서울특별시 양천구 신정동 1319",
    "lat": "37.51342712142939",
    "lng": "126.83250979501817",
    "region": "서울특별시"
  },
  {
    "name": "신서고등학교  운동장",
    "address": "서울특별시 양천구 신정동 984-1",
    "lat": "37.52377924983897",
    "lng": "126.85971030644191",
    "region": "서울특별시"
  },
  {
    "name": "앞산어린이공원",
    "address": "서울특별시 양천구 신정동 910-9",
    "lat": "37.52643720035334",
    "lng": "126.85836468535955",
    "region": "서울특별시"
  },
  {
    "name": "양목초등학교 운동장",
    "address": "서울특별시 양천구 신정동 1001",
    "lat": "37.5236215734365",
    "lng": "126.86111055188573",
    "region": "서울특별시"
  },
  {
    "name": "음골어린이공원",
    "address": "서울특별시 양천구 신정동 936-13",
    "lat": "37.527421582798816",
    "lng": "126.85123199437952",
    "region": "서울특별시"
  },
  {
    "name": "새나라어린이공원",
    "address": "서울특별시 용산구 후암동 190-1",
    "lat": "37.54789059668801",
    "lng": "126.97644799947925",
    "region": "서울특별시"
  },
  {
    "name": "청파문화공원",
    "address": "서울특별시 용산구 서계동 226-3",
    "lat": "37.55361489688147",
    "lng": "126.96820577464561",
    "region": "서울특별시"
  },
  {
    "name": "돌모루어린이공원",
    "address": "서울특별시 용산구 청파동3가 118-102",
    "lat": "37.542916905756854",
    "lng": "126.9685015022682",
    "region": "서울특별시"
  },
  {
    "name": "청담목련어린이공원",
    "address": "서울특별시 강남구 청담동 51",
    "lat": "37.52295676121637",
    "lng": "127.04994701893787",
    "region": "서울특별시"
  },
  {
    "name": "잔다리어린이공원",
    "address": "서울특별시 마포구 서교동 479-1",
    "lat": "37.55463490626918",
    "lng": "126.91287575844673",
    "region": "서울특별시"
  },
  {
    "name": "홍익어린이공원",
    "address": "서울특별시 양천구 신정동 896-22",
    "lat": "37.52855842178446",
    "lng": "126.8622618341818",
    "region": "서울특별시"
  },
  {
    "name": "호돌이어린이공원",
    "address": "서울특별시 양천구 신정동 326-2",
    "lat": "37.51232314336598",
    "lng": "126.86109358310942",
    "region": "서울특별시"
  },
  {
    "name": "목일중학교 운동장",
    "address": "서울특별시 양천구 신정동 330-2",
    "lat": "37.51313083099782",
    "lng": "126.87458179035926",
    "region": "서울특별시"
  },
  {
    "name": "신목고등학교 운동장",
    "address": "서울특별시 양천구 신정동 330-3",
    "lat": "37.51246070225423",
    "lng": "126.87393248651843",
    "region": "서울특별시"
  },
  {
    "name": "양천근린공원",
    "address": "서울특별시 양천구 신정동 320",
    "lat": "37.5179551869425",
    "lng": "126.86808943748471",
    "region": "서울특별시"
  },
  {
    "name": "해누리체육공원",
    "address": "서울특별시 양천구 신정동 330-4",
    "lat": "37.51163751833306",
    "lng": "126.87222415047874",
    "region": "서울특별시"
  },
  {
    "name": "갈산초등학교 운동장",
    "address": "서울특별시 양천구 신정동 330-10",
    "lat": "37.51165731662017",
    "lng": "126.870106784564",
    "region": "서울특별시"
  },
  {
    "name": "계남초등학교 운동장",
    "address": "서울특별시 양천구 신정동 325-7",
    "lat": "37.509732111073674",
    "lng": "126.86014964009146",
    "region": "서울특별시"
  },
  {
    "name": "갈산공원",
    "address": "서울특별시 양천구 신정동 163-55",
    "lat": "37.508035397472824",
    "lng": "126.86900187758813",
    "region": "서울특별시"
  },
  {
    "name": "목동고등학교 운동장",
    "address": "서울특별시 양천구 신정동 325-8",
    "lat": "37.508879410103475",
    "lng": "126.86073570875733",
    "region": "서울특별시"
  },
  {
    "name": "성남북초등학교 운동장",
    "address": "경기도 성남시 수정구 산성동 2137",
    "lat": "37.45195140158021",
    "lng": "127.15050849462216",
    "region": "경기도"
  },
  {
    "name": "구룡(근린)공원",
    "address": "서울특별시 마포구 상암동 1583",
    "lat": "37.582995667000745",
    "lng": "126.8839210217494",
    "region": "서울특별시"
  },
  {
    "name": "홍익어린이공원",
    "address": "서울특별시 마포구 서교동 359",
    "lat": "37.552239098588686",
    "lng": "126.92333524160613",
    "region": "서울특별시"
  },
  {
    "name": "증산중학교 운동장",
    "address": "서울특별시 은평구 증산동 207-21",
    "lat": "37.58337935528792",
    "lng": "126.90436138759694",
    "region": "서울특별시"
  },
  {
    "name": "공주대학교옥룡캠퍼스 운동장",
    "address": "충청남도 공주시 옥룡동 201",
    "lat": "36.451913",
    "lng": "127.132499",
    "region": "충청남도"
  },
  {
    "name": "용강중학교 운동장",
    "address": "충청남도 부여군 구룡면 태양리 340",
    "lat": "36.25114463373679",
    "lng": "126.80795915325736",
    "region": "충청남도"
  },
  {
    "name": "양화초등학교 운동장",
    "address": "충청남도 부여군 양화면 족교리 201-2",
    "lat": "36.12816092334788",
    "lng": "126.85703938113342",
    "region": "충청남도"
  },
  {
    "name": "임천초등학교 운동장",
    "address": "충청남도 부여군 임천면 군사리 252",
    "lat": "36.19097087365296",
    "lng": "126.89333392873824",
    "region": "충청남도"
  },
  {
    "name": "온양여자고등학교 운동장",
    "address": "충청남도 아산시 풍기동 214-25",
    "lat": "36.778284410748874",
    "lng": "127.0142962866162",
    "region": "충청남도"
  },
  {
    "name": "온양고등학교 운동장",
    "address": "충청남도 아산시 온천동 261",
    "lat": "36.785280832670054",
    "lng": "126.99542194604874",
    "region": "충청남도"
  },
  {
    "name": "온양여자중학교 운동장",
    "address": "충청남도 아산시 풍기동 214-28",
    "lat": "36.776715",
    "lng": "127.013603",
    "region": "충청남도"
  },
  {
    "name": "성수중학교 운동장",
    "address": "서울특별시 성동구 성수동1가 685-143",
    "lat": "37.54796937678759",
    "lng": "127.03865767848009",
    "region": "서울특별시"
  },
  {
    "name": "경수중학교 운동장",
    "address": "서울특별시 성동구 성수동2가 268",
    "lat": "37.53910481133569",
    "lng": "127.05838882694162",
    "region": "서울특별시"
  },
  {
    "name": "군산산북초등학교 운동장",
    "address": "전북특별자치도 군산시 산북동 3580",
    "lat": "35.96418342849903",
    "lng": "126.68095816351209",
    "region": "전북특별자치도"
  },
  {
    "name": "군산서초등학교 운동장",
    "address": "전북특별자치도 군산시 금동 20-3",
    "lat": "35.990294351851205",
    "lng": "126.70663419999545",
    "region": "전북특별자치도"
  },
  {
    "name": "안천중학교 운동장",
    "address": "서울특별시 금천구 독산동 1089",
    "lat": "37.45913205066769",
    "lng": "126.88780903816526",
    "region": "서울특별시"
  },
  {
    "name": "금나래초등학교 운동장",
    "address": "서울특별시 금천구 독산동 1153",
    "lat": "37.45783403453245",
    "lng": "126.89659471029634",
    "region": "서울특별시"
  },
  {
    "name": "두산초등학교 운동장",
    "address": "서울특별시 금천구 독산동 1002-5",
    "lat": "37.46706910001814",
    "lng": "126.89102481579293",
    "region": "서울특별시"
  },
  {
    "name": "세일중학교 운동장",
    "address": "서울특별시 금천구 독산동 147-2",
    "lat": "37.47416469697902",
    "lng": "126.89597454075158",
    "region": "서울특별시"
  },
  {
    "name": "철쭉어린이공원",
    "address": "서울특별시 금천구 독산동 1112",
    "lat": "37.45306095681338",
    "lng": "126.88988499221034",
    "region": "서울특별시"
  },
  {
    "name": "독산초등학교 운동장",
    "address": "서울특별시 금천구 독산동 1034",
    "lat": "37.46518859315051",
    "lng": "126.9000722684994",
    "region": "서울특별시"
  },
  {
    "name": "독산마을공원",
    "address": "서울특별시 금천구 독산동 1056-5",
    "lat": "37.46383935056323",
    "lng": "126.899294257164",
    "region": "서울특별시"
  },
  {
    "name": "정훈어린이공원",
    "address": "서울특별시 금천구 독산동 378-1",
    "lat": "37.46563140584499",
    "lng": "126.90631371203204",
    "region": "서울특별시"
  },
  {
    "name": "무지개어린이공원",
    "address": "서울특별시 금천구 독산동 1063-14",
    "lat": "37.46296300350081",
    "lng": "126.90103728916985",
    "region": "서울특별시"
  },
  {
    "name": "금천초등학교 운동장",
    "address": "서울특별시 금천�� 시흥동 216",
    "lat": "37.45452651748984",
    "lng": "126.9124899634372",
    "region": "서울특별시"
  },
  {
    "name": "백산초등학교 운동장",
    "address": "서울특별시 금천구 시흥동 438-5",
    "lat": "37.447082324737195",
    "lng": "126.90499491265832",
    "region": "서울특별시"
  },
  {
    "name": "송학초등학교  운동장",
    "address": "충청북도 제천시 송학면 시곡리 1164-2",
    "lat": "37.18544606180167",
    "lng": "128.2620978355408",
    "region": "충청북도"
  },
  {
    "name": "문산중학교 운동장",
    "address": "경상남도 진주시 충무공동 273-1",
    "lat": "35.17685382767941",
    "lng": "128.1519937233213",
    "region": "경상남도"
  },
  {
    "name": "여의도중학교 운동장",
    "address": "서울특별시 영등포구 여의도동 40-1",
    "lat": "37.52375858398005",
    "lng": "126.93535923957825",
    "region": "서울특별시"
  },
  {
    "name": "옥정중학교 운동장",
    "address": "서울특별시 성동구 옥수동 227",
    "lat": "37.54142376954075",
    "lng": "127.01271929554434",
    "region": "서울특별시"
  },
  {
    "name": "동호초등학교 운동장",
    "address": "서울특별시 성동구 옥수동 556-1",
    "lat": "37.546355194492214",
    "lng": "127.01026797294615",
    "region": "서울특별시"
  },
  {
    "name": "시흥초등학교 운동장",
    "address": "서울특별시 금천구 시흥동 841-19",
    "lat": "37.45476920729513",
    "lng": "126.90471407804186",
    "region": "서울특별시"
  },
  {
    "name": "문일고등학교 운동장",
    "address": "서울특별시 금천구 시흥동 559-1",
    "lat": "37.44937737245382",
    "lng": "126.89842938735845",
    "region": "서울특별시"
  },
  {
    "name": "문백초등학교 운동장",
    "address": "서울특별시 금천구 시흥동 564-5",
    "lat": "37.4472002722489",
    "lng": "126.89923188595891",
    "region": "서울특별시"
  },
  {
    "name": "새재미공원",
    "address": "서울특별시 금천구 시흥동 855-1",
    "lat": "37.4589977952477",
    "lng": "126.90415712519265",
    "region": "서울특별시"
  },
  {
    "name": "정심초등학교 운동장",
    "address": "서울특별시 금천구 독산동 182-44",
    "lat": "37.47127359430364",
    "lng": "126.90855879957832",
    "region": "서울특별시"
  },
  {
    "name": "쌈지어린이공원",
    "address": "서울특별시 금천구 독산동 189-1",
    "lat": "37.470855974378324",
    "lng": "126.90398478836472",
    "region": "서울특별시"
  },
  {
    "name": "한사랑어린이공원",
    "address": "서울특별시 금천구 독산동 925-2",
    "lat": "37.46770886276902",
    "lng": "126.9045237638849",
    "region": "서울특별시"
  },
  {
    "name": "신흥초등학교 운동장",
    "address": "서울특별시 금천구 시흥동 704-56",
    "lat": "37.45925441331178",
    "lng": "126.90876297821616",
    "region": "서울특별시"
  },
  {
    "name": "한울중학교 운동장",
    "address": "서울특별시 금천구 시흥동 792-1",
    "lat": "37.46216014643712",
    "lng": "126.90712083151065",
    "region": "서울특별시"
  },
  {
    "name": "금동초등학교 운동장",
    "address": "서울특별시 금천구 시흥동 1013-1",
    "lat": "37.44742414434559",
    "lng": "126.91641257430867",
    "region": "서울특별시"
  },
  {
    "name": "탑동초등학교 운동장",
    "address": "서울특별시 금천구 시흥동 230",
    "lat": "37.45266836833663",
    "lng": "126.91406450893285",
    "region": "서울특별시"
  },
  {
    "name": "석성초등학교 운동장",
    "address": "충청남도 부여군 석성면 석성리 745-1",
    "lat": "36.223321392655684",
    "lng": "126.9891577876899",
    "region": "충청남도"
  },
  {
    "name": "신상중학교",
    "address": "경상북도 경산시 진량읍 신상리 343-1",
    "lat": "35.874906922636015",
    "lng": "128.82117748260563",
    "region": "경상북도"
  },
  {
    "name": "갈곡리어린이공원",
    "address": "서울특별시 은평구 갈현동 436-51",
    "lat": "37.62394599453217",
    "lng": "126.91640284668937",
    "region": "서울특별시"
  },
  {
    "name": "박석어린이공원",
    "address": "서울특별시 은평구 갈현동 416-3",
    "lat": "37.62515268417686",
    "lng": "126.91858970529117",
    "region": "서울특별시"
  },
  {
    "name": "성지중학교 학교운동장",
    "address": "대구광역시 달서구 이곡동 1300-2",
    "lat": "35.85312202517361",
    "lng": "128.51450453522622",
    "region": "대구광역시"
  },
  {
    "name": "난곡중학교 운동장",
    "address": "서울특별시 금천구 독산동 906-41",
    "lat": "37.477591652037155",
    "lng": "126.91104929103571",
    "region": "서울특별시"
  },
  {
    "name": "문성중학교 운동장",
    "address": "서울특별시 금천구 독산동 61",
    "lat": "37.47570946033525",
    "lng": "126.90818249878798",
    "region": "서울특별시"
  },
  {
    "name": "영남초등학교 운동장",
    "address": "서울특별시 금천구 독산동 59-27",
    "lat": "37.475818742460255",
    "lng": "126.90934164254664",
    "region": "서울특별시"
  },
  {
    "name": "문성초등학교 운동장",
    "address": "서울특별시 금천구 독산동 982",
    "lat": "37.474307334715185",
    "lng": "126.89921938275558",
    "region": "서울특별시"
  },
  {
    "name": "목운중학교 운동장",
    "address": "서울특별시 양천구 목동 922",
    "lat": "37.526702697500774",
    "lng": "126.87256604200567",
    "region": "서울특별시"
  },
  {
    "name": "목운초등학교 운동장",
    "address": "서울특별시 양천구 목동 922",
    "lat": "37.52654159253935",
    "lng": "126.87325009637709",
    "region": "서울특별시"
  },
  {
    "name": "서정초등학교 운동장",
    "address": "서울특별시 양천구 목동 927-5",
    "lat": "37.52392044966629",
    "lng": "126.86748081033875",
    "region": "서울특별시"
  },
  {
    "name": "오목공원",
    "address": "서울특별시 양천구 목동 921",
    "lat": "37.527994263694524",
    "lng": "126.87320196896582",
    "region": "서울특별시"
  },
  {
    "name": "진명여자고등학교 운동장",
    "address": "서울특별시 양천구 목동 927-6",
    "lat": "37.523517696392425",
    "lng": "126.86607819085968",
    "region": "서울특별시"
  },
  {
    "name": "달마을근린공원",
    "address": "서울특별시 양천구 목동 904-5",
    "lat": "37.532616430933615",
    "lng": "126.86882086919256",
    "region": "서울특별시"
  },
  {
    "name": "용왕산근린공원 운동장",
    "address": "서울특별시 양천구 목동 202-16",
    "lat": "37.5431931175459",
    "lng": "126.87792995615479",
    "region": "서울특별시"
  },
  {
    "name": "양화초등학교 운동장",
    "address": "서울특별시 양천구 목동 542",
    "lat": "37.543750212063756",
    "lng": "126.87452342849646",
    "region": "서울특별시"
  },
  {
    "name": "효봉어린이공원",
    "address": "서울특별시 금천구 시흥동 4-28",
    "lat": "37.4606616667437",
    "lng": "126.91046178637556",
    "region": "서울특별시"
  },
  {
    "name": "느티나무상상어린이공원",
    "address": "서울특별시 금천구 시흥동 817",
    "lat": "37.45617852067069",
    "lng": "126.90671017537129",
    "region": "서울특별시"
  },
  {
    "name": "백석어린이공원",
    "address": "서울특별시 양천구 목동 646-23",
    "lat": "37.545175761163",
    "lng": "126.8650263183154",
    "region": "서울특별시"
  },
  {
    "name": "양동중학교 운동장",
    "address": "서울특별시 양천구 목동 600-6",
    "lat": "37.54763706585479",
    "lng": "126.86918973956364",
    "region": "서울특별시"
  },
  {
    "name": "한두어린이공원",
    "address": "서울특별시 양천구 목동 611-1",
    "lat": "37.549203452226735",
    "lng": "126.8654570470375",
    "region": "서울특별시"
  },
  {
    "name": "강서고등학교 운동장",
    "address": "서울특별시 양천구 목동 735",
    "lat": "37.5363615735215",
    "lng": "126.86629062111753",
    "region": "서울특별시"
  },
  {
    "name": "은행어린이공원",
    "address": "서울특별시 금천구 시흥동 836",
    "lat": "37.45207628557085",
    "lng": "126.90696537634106",
    "region": "서울특별시"
  },
  {
    "name": "별장길어린이공원",
    "address": "서울특별시 ���천구 시흥동 925-32",
    "lat": "37.44817093043613",
    "lng": "126.90856701110813",
    "region": "서울특별시"
  },
  {
    "name": "산장어린이공원",
    "address": "서울특별시 금천구 시흥동 3-17",
    "lat": "37.460920153703995",
    "lng": "126.9124862137257",
    "region": "서울특별시"
  },
  {
    "name": "이인초등학교 운동장",
    "address": "충청남도 공주시 이인면 이인리 286",
    "lat": "36.36181578020678",
    "lng": "127.06005628493648",
    "region": "충청남도"
  },
  {
    "name": "공주태봉초등학교 운동장",
    "address": "충청남도 공주시 태봉동 407",
    "lat": "36.415877",
    "lng": "127.089196",
    "region": "충청남도"
  },
  {
    "name": "부여여자고등학교 운동장",
    "address": "충청남도 부여군 부여읍 쌍북리 646-10",
    "lat": "36.284594525404415",
    "lng": "126.91648313438648",
    "region": "충청남도"
  },
  {
    "name": "옥산초등학교 운동장",
    "address": "충청남도 부여군 옥산면 안서리 368-2",
    "lat": "36.19041305006881",
    "lng": "126.73276196430567",
    "region": "충청남도"
  },
  {
    "name": "초촌초등학교 운동장",
    "address": "충청남도 부여군 초촌면 응평리 80",
    "lat": "36.26273065506947",
    "lng": "127.02400743850903",
    "region": "충청남도"
  },
  {
    "name": "배방중학교 운동장",
    "address": "충청남도 아산시 배방읍 북수리 257-4",
    "lat": "36.769891",
    "lng": "127.070831",
    "region": "충청남도"
  },
  {
    "name": "아산용연초등학교 운동장",
    "address": "충청남도 아산시 배방읍 장재리 2052",
    "lat": "36.79197171443509",
    "lng": "127.09252960303616",
    "region": "충청남도"
  },
  {
    "name": "기자촌2구역근린공원",
    "address": "서울특별시 은평구 진관동 175-628",
    "lat": "37.63448906901045",
    "lng": "126.93629380378",
    "region": "서울특별시"
  },
  {
    "name": "중부초등학교 운동장",
    "address": "경기도 성남시 중원구 은행동 1932-7",
    "lat": "37.451407961625534",
    "lng": "127.16437206694847",
    "region": "경기도"
  },
  {
    "name": "금빛공원",
    "address": "서울특별시 금천구 시흥동 893",
    "lat": "37.453111370677874",
    "lng": "126.90412111573217",
    "region": "서울특별시"
  },
  {
    "name": "신목중학교 운동장",
    "address": "서울특별시 양천구 목동 902-1",
    "lat": "37.53666325248884",
    "lng": "126.87255005248527",
    "region": "서울특별시"
  },
  {
    "name": "영도초등학교 운동장",
    "address": "서울특별시 양천구 목동 903-1",
    "lat": "37.53576854835098",
    "lng": "126.87152364183305",
    "region": "서울특별시"
  },
  {
    "name": "월촌중학교 운동장",
    "address": "서울특별시 양천구 목동 909",
    "lat": "37.53718931818308",
    "lng": "126.88312361632596",
    "region": "서울특별시"
  },
  {
    "name": "파리공원",
    "address": "서울특별시 양천구 목동 906",
    "lat": "37.53451029464192",
    "lng": "126.87674934475606",
    "region": "서울특별시"
  },
  {
    "name": "신대어린이공원",
    "address": "서울특별시 양천구 신월동 100-1",
    "lat": "37.53479754813231",
    "lng": "126.83274561951873",
    "region": "서울특별시"
  },
  {
    "name": "신월1동휴게공간(마을마당)",
    "address": "서울특별시 양천구 신월동 129-6",
    "lat": "37.53060160264169",
    "lng": "126.83318982133972",
    "region": "서울특별시"
  },
  {
    "name": "신월어린이공원",
    "address": "서울특별시 양천구 신월동 240",
    "lat": "37.52700907218951",
    "lng": "126.83819059379375",
    "region": "서울특별시"
  },
  {
    "name": "신강초등학교 운동장",
    "address": "서울특별시 양천구 신월동 448-5",
    "lat": "37.525866907489124",
    "lng": "126.84168962021988",
    "region": "서울특별시"
  },
  {
    "name": "신남중학교 운동장",
    "address": "서울특별시 양천구 신월동 609-7",
    "lat": "37.52041118072242",
    "lng": "126.84782419230852",
    "region": "서울특별시"
  },
  {
    "name": "신장어린이공원",
    "address": "서울특별시 양천구 신월동 486",
    "lat": "37.524294336745896",
    "lng": "126.84278094023772",
    "region": "서울특별시"
  },
  {
    "name": "양강중학교 운동장",
    "address": "서울특별시 양천구 신월동 499-2",
    "lat": "37.524308853163326",
    "lng": "126.84952345150634",
    "region": "서울특별시"
  },
  {
    "name": "양강초등학교 운동장",
    "address": "서울특별시 양천구 신월동 495-1",
    "lat": "37.52397195803108",
    "lng": "126.84812827882251",
    "region": "서울특별시"
  },
  {
    "name": "경인어린이공원",
    "address": "서울특별시 양천구 신월동 196",
    "lat": "37.53211334012671",
    "lng": "126.82887234211664",
    "region": "서울특별시"
  },
  {
    "name": "남부어린이공원",
    "address": "서울특별시 양천구 신월동 156",
    "lat": "37.53476840933068",
    "lng": "126.82609745075601",
    "region": "서울특별시"
  },
  {
    "name": "서서울호수공원 내 열린풀밭",
    "address": "서울특별시 양천구 신월동 149-20",
    "lat": "37.52766606573875",
    "lng": "126.83212216714094",
    "region": "서울특별시"
  },
  {
    "name": "양서중학교 운동장",
    "address": "서울특별시 양천구 신월동 169-4",
    "lat": "37.53283292693039",
    "lng": "126.8295432709469",
    "region": "서울특별시"
  },
  {
    "name": "구산초등학교 운동장",
    "address": "충청남도 공주시 유구읍 유구리 440-3",
    "lat": "36.551328983179026",
    "lng": "126.95789034746544",
    "region": "충청남도"
  },
  {
    "name": "탄천초등학교 운동장",
    "address": "충청남도 공주시 탄천면 삼각리 458-1",
    "lat": "36.331194537245096",
    "lng": "127.03165054321289",
    "region": "충청남도"
  },
  {
    "name": "공주고등학교 운동장",
    "address": "충청남도 공주시 중학동 137-1",
    "lat": "36.4474176160235",
    "lng": "127.12253008408214",
    "region": "충청남도"
  },
  {
    "name": "송간초등학교 운동장",
    "address": "충청남도 부여군 부여읍 가증리 1",
    "lat": "36.30754510328392",
    "lng": "126.95767566195317",
    "region": "충청남도"
  },
  {
    "name": "탕정중학교 운동장",
    "address": "충청남도 아산시 탕정면 명암리 852",
    "lat": "36.802023441771645",
    "lng": "127.06366125451652",
    "region": "충청남도"
  },
  {
    "name": "음봉중학교 운동장",
    "address": "충청남도 아산시 음봉면 동암리 716",
    "lat": "36.84251238882092",
    "lng": "127.06715891237592",
    "region": "충청남도"
  },
  {
    "name": "무학중학교",
    "address": "경상북도 경산시 하양읍 도리리 76",
    "lat": "35.919629",
    "lng": "128.8176009",
    "region": "경상북도"
  },
  {
    "name": "메낙골근린공원",
    "address": "서울특별시 영등포구 신길동 4934-4",
    "lat": "37.50667045737045",
    "lng": "126.91528558731079",
    "region": "서울특별시"
  },
  {
    "name": "서현초등학교 운동장",
    "address": "경기도 성남시 분당구 서현동 87-1",
    "lat": "37.38235722383834",
    "lng": "127.12826057762054",
    "region": "경기도"
  },
  {
    "name": "노량진근린공원(송학대공원)",
    "address": "서울특별시 동작구 노량진동 325-2",
    "lat": "37.508637405586754",
    "lng": "126.94380040345527",
    "region": "서울특별시"
  },
  {
    "name": "금산동초등학교 운동장",
    "address": "충청남도 금산군 금산읍 중도리 102",
    "lat": "36.10399369510824",
    "lng": "127.4987618385583",
    "region": "충청남도"
  },
  {
    "name": "제원중학교 운동장",
    "address": "충청남도 금산군 제원면 명암리 167-1",
    "lat": "36.11192235655081",
    "lng": "127.54067101059307",
    "region": "충청남도"
  },
  {
    "name": "정안초등학교 운동장",
    "address": "충청남도 공주시 정안면 내촌리 189-1",
    "lat": "36.60241970644888",
    "lng": "127.11711687062005",
    "region": "충청남도"
  },
  {
    "name": "마곡초등학교 운동장",
    "address": "충청남도 공주시 사곡면 운암리 453",
    "lat": "36.55860260844028",
    "lng": "127.01828943093548",
    "region": "충청남도"
  },
  {
    "name": "송남중학교 운동장",
    "address": "충청남도 아산시 송악면 역촌리 353-1",
    "lat": "36.72215881208529",
    "lng": "127.00404074845073",
    "region": "충청남도"
  },
  {
    "name": "장성초등학교",
    "address": "강원특별자치도 태백시 장성동 153-1",
    "lat": "37.10275521671728",
    "lng": "129.00649728544974",
    "region": "강원특별자치도"
  },
  {
    "name": "안면고",
    "address": "충청남도 태안군 안면읍 승언리 60-27",
    "lat": "36.50888592006403",
    "lng": "126.35584384203254",
    "region": "충청남도"
  },
  {
    "name": "명지초등학교 운동장",
    "address": "충청남도 서산시 대산읍 대로리 278",
    "lat": "36.97147205030582",
    "lng": "126.41011030370547",
    "region": "충청남도"
  },
  {
    "name": "백제중학교  운동장",
    "address": "충청남도 부여군 규암면 반산리 276",
    "lat": "36.27274633215933",
    "lng": "126.86509448884397",
    "region": "충청남도"
  },
  {
    "name": "마정초등학교 운동장",
    "address": "충청남도 부여군 남면 마정리 811",
    "lat": "36.21754803630013",
    "lng": "126.83919276620131",
    "region": "충청남도"
  },
  {
    "name": "탕정미래초등학교 운동장",
    "address": "충청남도 아산시 탕정면 갈산리 483",
    "lat": "36.79748584278181",
    "lng": "127.06414942452857",
    "region": "충청남도"
  },
  {
    "name": "금산동중학교 운동장",
    "address": "충청남도 금산군 금산읍 아인리 134-2",
    "lat": "36.10571979655422",
    "lng": "127.48115313296483",
    "region": "충청남도"
  },
  {
    "name": "송남초등학교 운동장",
    "address": "충청남도 아산시 송악면 역촌리 50",
    "lat": "36.732575",
    "lng": "127.010051",
    "region": "충청남도"
  },
  {
    "name": "염작초등학교 운동장",
    "address": "충청남도 아산시 둔포면 석곡리 1785",
    "lat": "36.923872258192965",
    "lng": "127.05167490991491",
    "region": "충청남도"
  },
  {
    "name": "온양신정초등학교 운동장",
    "address": "충청남도 아산시 실옥동 191-24",
    "lat": "36.7880271907853",
    "lng": "126.98618920538492",
    "region": "충청남도"
  },
  {
    "name": "대진초등학교 운동장",
    "address": "충청남도 서산시 대산읍 기은리 612-19",
    "lat": "36.97726472865417",
    "lng": "126.3843316764718",
    "region": "충청남도"
  },
  {
    "name": "화동초 ",
    "address": "충청남도 태안군 태안읍 평천리 679-8",
    "lat": "36.7534237188489",
    "lng": "126.32047355174987",
    "region": "충청남도"
  },
  {
    "name": "대산초등학교 운동장",
    "address": "충청남도 서산시 대산읍 대산리 97-2",
    "lat": "36.93964973090111",
    "lng": "126.43507942605362",
    "region": "충청남도"
  },
  {
    "name": "안흥초",
    "address": "충청남도 태안군 근흥면 정죽리 823-1",
    "lat": "36.69541871737922",
    "lng": "126.17461502551855",
    "region": "충청남도"
  },
  {
    "name": "의성농촌효테마공원",
    "address": "경상북도 의성군 단밀면 주선리 400",
    "lat": "36.371012281223216",
    "lng": "128.37976634502203",
    "region": "경상북도"
  },
  {
    "name": "관악산 만남의 광장",
    "address": "서울특별시 관악구 신림동 210",
    "lat": "37.46858490831128",
    "lng": "126.94529148822308",
    "region": "서울특별시"
  },
  {
    "name": "배화여자고등학교 운동장",
    "address": "서울특별시 종로구 필운동 12",
    "lat": "37.57823700625675",
    "lng": "126.96791589260101",
    "region": "서울특별시"
  },
  {
    "name": "내수2근린공원",
    "address": "서울특별시 종로구 내수동 73-3",
    "lat": "37.57236636158024",
    "lng": "126.97160219583816",
    "region": "서울특별시"
  },
  {
    "name": "대성초등학교 운동장",
    "address": "광주광역시 남구 서동 111",
    "lat": "35.14402048759654",
    "lng": "126.90521121025085",
    "region": "광주광역시"
  },
  {
    "name": "진제초등학교 운동장",
    "address": "광주광역시 남구 진월동 235-1",
    "lat": "35.115994598806466",
    "lng": "126.90322217959788",
    "region": "광주광역시"
  },
  {
    "name": "진남초등학교 운동장",
    "address": "광주광역시 남구 노대동 732",
    "lat": "35.108651190769166",
    "lng": "126.90230459924746",
    "region": "광주광역시"
  },
  {
    "name": "온양초등학교 운동장",
    "address": "충청남도 아산시 읍내동 374-1",
    "lat": "36.760742315055914",
    "lng": "127.01846195998134",
    "region": "충청남도"
  },
  {
    "name": "인헌중학교 운동장",
    "address": "서울특별시 관악구 봉천동 1647",
    "lat": "37.472839102259144",
    "lng": "126.96920179914704",
    "region": "서울특별시"
  },
  {
    "name": "용산구청 광장",
    "address": "서울특별시 용산구 이태원동 34-87",
    "lat": "37.53278216192644",
    "lng": "126.9897927604243",
    "region": "서울특별시"
  },
  {
    "name": "성남수정초등학교 운동장",
    "address": "경기도 성남시 수정구 수진동 4347",
    "lat": "37.436944840443985",
    "lng": "127.13187237799694",
    "region": "경기도"
  },
  {
    "name": "중앙어린이공원",
    "address": "서울특별시 영등포구 영등포동6가 65-1",
    "lat": "37.52136750292721",
    "lng": "126.90368771553042",
    "region": "서울특별시"
  },
  {
    "name": "자매공원",
    "address": "서울특별시 영등포구 여의도동 56",
    "lat": "37.517470131850956",
    "lng": "126.93047761917609",
    "region": "서울특별시"
  },
  {
    "name": "숭의여자고등학교운동장",
    "address": "서울특별시 동작구 대방동 15-46",
    "lat": "37.50795751112499",
    "lng": "126.9293190288092",
    "region": "서울특별시"
  },
  {
    "name": "성곡초등학교 운동장",
    "address": "대구광역시 달서구 이곡동 1306-5",
    "lat": "35.857721836546936",
    "lng": "128.51383152823297",
    "region": "대구광역시"
  },
  {
    "name": "이곡중학교 운동장",
    "address": "대구광역시 달서구 이곡동 1333",
    "lat": "35.86184457432367",
    "lng": "128.51213401271463",
    "region": "대구광역시"
  },
  {
    "name": "열림공원",
    "address": "경기도 수원시 영통구 이의동 1183",
    "lat": "37.30572455477723",
    "lng": "127.04230063258164",
    "region": "경기도"
  },
  {
    "name": "연암공원",
    "address": "경기도 수원시 영통구 이의동 1288",
    "lat": "37.29314062329444",
    "lng": "127.03910346066434",
    "region": "경기도"
  },
  {
    "name": "신동수변공원",
    "address": "경기도 수원시 영통구 신동 942",
    "lat": "37.247944",
    "lng": "127.041586",
    "region": "경기도"
  },
  {
    "name": "방죽공원",
    "address": "경기도 수원시 영통구 망포동 737",
    "lat": "37.244281113511285",
    "lng": "127.0519441366196",
    "region": "경기도"
  },
  {
    "name": "동덕초등학교 운동장",
    "address": "충청남도 아산시 탕정면 동산리 423-1",
    "lat": "36.82045541681177",
    "lng": "127.08455214510916",
    "region": "충청남도"
  },
  {
    "name": "용화초등학교",
    "address": "충청남도 아산시 용화동 708",
    "lat": "36.77323323356519",
    "lng": "126.99589155350732",
    "region": "충청남도"
  },
  {
    "name": "인주초등학교 운동장",
    "address": "충청남도 아산시 인주면 신성리 220",
    "lat": "36.875644",
    "lng": "126.895573",
    "region": "충청남도"
  },
  {
    "name": "송암초",
    "address": "충청남도 태안군 태안읍 송암리 765-1",
    "lat": "36.73498063936382",
    "lng": "126.30064666270873",
    "region": "충청남도"
  },
  {
    "name": "차동초등학교 운동장",
    "address": "충청남도 서산시 인지면 차리 41",
    "lat": "36.776287621326404",
    "lng": "126.40090869570585",
    "region": "충청남도"
  },
  {
    "name": "음암중학교 운동장",
    "address": "충청남도 서산시 음암면 도당리 585-18",
    "lat": "36.7897399424343",
    "lng": "126.51837260858775",
    "region": "충청남도"
  },
  {
    "name": "이원초 ",
    "address": "충청남도 태안군 이원면 포지리 44",
    "lat": "36.868682092941256",
    "lng": "126.2811362743319",
    "region": "충청남도"
  },
  {
    "name": "서산여자중학교 운동장",
    "address": "충청남도 서산시 석림동 420",
    "lat": "36.76816875691411",
    "lng": "126.46758892628083",
    "region": "충청남도"
  },
  {
    "name": "서림초등학교 운동장",
    "address": "충청남도 ��산시 석남동 64-1",
    "lat": "36.76763330510685",
    "lng": "126.46061238574403",
    "region": "충청남도"
  },
  {
    "name": "문영여자고등학교 운동장",
    "address": "서울특별시 관악구 봉천동 1695",
    "lat": "37.47272547771783",
    "lng": "126.95144034822926",
    "region": "서울특별시"
  },
  {
    "name": "청룡초등학교 운동장",
    "address": "서울특별시 관악구 봉천동 738-237",
    "lat": "37.476682320706146",
    "lng": "126.95151686668396",
    "region": "서울특별시"
  },
  {
    "name": "천성초등학교 운동장",
    "address": "경상남도 양산시 평산동 350",
    "lat": "35.379069",
    "lng": "129.145004",
    "region": "경상남도"
  },
  {
    "name": "빛여울초등학교 운동장",
    "address": "광주광역시 남구 임암동 714",
    "lat": "35.10283518964864",
    "lng": "126.86901538626164",
    "region": "광주광역시"
  },
  {
    "name": "홍은중학교 운동장",
    "address": "서울특별시 서대문구 홍은동 182",
    "lat": "37.592531",
    "lng": "126.934834",
    "region": "서울특별시"
  },
  {
    "name": "태안여중 ",
    "address": "충청남도 태안군 태안읍 동문리 350-3",
    "lat": "36.75138855637559",
    "lng": "126.3062471151344",
    "region": "충청남도"
  },
  {
    "name": "태안중",
    "address": "충청남도 태안군 태안읍 동문리 300",
    "lat": "36.7527553662731",
    "lng": "126.30129039287239",
    "region": "충청남도"
  },
  {
    "name": "서령초등학교 운동장",
    "address": "충청남도 서산시 죽성동 77-2",
    "lat": "36.74376766382543",
    "lng": "126.44778073521275",
    "region": "충청남도"
  },
  {
    "name": "의성여자고등학교",
    "address": "경상북도 의성군 의성읍 후죽리 415-1",
    "lat": "36.361035",
    "lng": "128.6962347",
    "region": "경상북도"
  },
  {
    "name": "낙성대공원",
    "address": "서울특별시 관악구 봉천동 227",
    "lat": "37.4720609789427",
    "lng": "126.95936501026154",
    "region": "서울특별시"
  },
  {
    "name": "원동중학교 운동장",
    "address": "경상남도 양산시 원동면 원리 577",
    "lat": "35.375579",
    "lng": "128.920967",
    "region": "경상남도"
  },
  {
    "name": "중마루근린공원",
    "address": "서울특별시 영등포구 영등포동2가 222",
    "lat": "37.51981453557218",
    "lng": "126.91132932901287",
    "region": "서울특별시"
  },
  {
    "name": "푸른어린이공원",
    "address": "서울특별시 강북구 수유동 516-44",
    "lat": "37.63849493853343",
    "lng": "127.00848961360128",
    "region": "서울특별시"
  },
  {
    "name": "영일어린이공원",
    "address": "서울특별시 영등포구 영등포동 647-3",
    "lat": "37.510135509088116",
    "lng": "126.90389111789679",
    "region": "서울특별시"
  },
  {
    "name": "고래등 어린이공원",
    "address": "경기도 수원시 영통구 이의동 1273-1",
    "lat": "37.297879",
    "lng": "127.043628",
    "region": "경기도"
  },
  {
    "name": "삼성초 ",
    "address": "충청남도 태안군 남면 원청리 산33-5",
    "lat": "36.622562957462186",
    "lng": "126.31137013435645",
    "region": "충청남도"
  },
  {
    "name": "서산공업고등학교 운동장",
    "address": "충청남도 서산시 운산면 용장리 246-1",
    "lat": "36.80923832710571",
    "lng": "126.58713301904491",
    "region": "충청남도"
  },
  {
    "name": "백설어린이공원",
    "address": "서울특별시 관악구 봉천동 1606-11",
    "lat": "37.47601290463248",
    "lng": "126.95363034633462",
    "region": "서울특별시"
  },
  {
    "name": "상록어린이공원",
    "address": "서울특별시 관악구 남현동 602-196",
    "lat": "37.47289756728856",
    "lng": "126.98038011789323",
    "region": "서울특별시"
  },
  {
    "name": "해태어린이공원",
    "address": "서울특별시 관악구 신림동 103-141",
    "lat": "37.47251563685071",
    "lng": "126.94059379382057",
    "region": "서울특별시"
  },
  {
    "name": "원신초등학교 운동장",
    "address": "서울특별시 관악구 신림동 336",
    "lat": "37.46681708574013",
    "lng": "126.92717733445456",
    "region": "서울특별시"
  },
  {
    "name": "동산초등학교 운동장",
    "address": "경상남도 양산시 동면 금산리 758-6",
    "lat": "35.303978",
    "lng": "129.026054",
    "region": "경상남도"
  },
  {
    "name": "영천초등학교 운동장",
    "address": "경상남도 양산시 동면 여락리 30",
    "lat": "35.311208",
    "lng": "129.110737",
    "region": "경상남도"
  },
  {
    "name": "선운중학교 운동장",
    "address": "광주광역시 광산구 선암동 580",
    "lat": "35.14743751955425",
    "lng": "126.77440524101254",
    "region": "광주광역시"
  },
  {
    "name": "둔촌고등학교 운동장",
    "address": "서울특별시 강동구 둔촌동 79-3",
    "lat": "37.530951561548115",
    "lng": "127.14391243987443",
    "region": "서울특별시"
  },
  {
    "name": "경복고등학교 운동장",
    "address": "서울특별시 종로구 청운동 89-9",
    "lat": "37.58692001661221",
    "lng": "126.97074294090272",
    "region": "서울특별시"
  },
  {
    "name": "아침뜰 근린공원(2)",
    "address": "세종특별자치시 세종시 한솔동 1246",
    "lat": "36.47739621570168",
    "lng": "127.25457248643916",
    "region": "세종특별자치시"
  },
  {
    "name": "조치원 문화정원",
    "address": "세종특별자치시 세종시 조치원읍 평리 9-3",
    "lat": "36.606655373380136",
    "lng": "127.29994123914027",
    "region": "세종특별자치시"
  },
  {
    "name": "전주화정중학교",
    "address": "전북특별자치도 전주시 덕진구 송천동2가 1340",
    "lat": "35.87109664898094",
    "lng": "127.13045705380556",
    "region": "전북특별자치도"
  },
  {
    "name": "광주건국초등학교 운동장",
    "address": "광주광역시 북구 신용동 742",
    "lat": "35.210234452506484",
    "lng": "126.86562716960904",
    "region": "광주광역시"
  },
  {
    "name": "의성남부초등학교운동장",
    "address": "경상북도 의성군 의성읍 도동리 670",
    "lat": "36.342983",
    "lng": "128.702017",
    "region": "경상북도"
  },
  {
    "name": "의성북부초등학교 운동장",
    "address": "경상북도 의성군 의성읍 후죽리 357-2",
    "lat": "36.361925",
    "lng": "128.692156",
    "region": "경상북도"
  },
  {
    "name": "옥산시장",
    "address": "경상북도 의성군 옥산면 입암리 1105-85",
    "lat": "36.401181364660715",
    "lng": "128.8023863271988",
    "region": "경상북도"
  },
  {
    "name": "난곡초등학교 운동장",
    "address": "서울특별시 관악구 신림동 711-136",
    "lat": "37.46936564398101",
    "lng": "126.917160482942",
    "region": "서울특별시"
  },
  {
    "name": "미림여자고등학교 운동장",
    "address": "서울특별시 관악구 신림동 1557-1",
    "lat": "37.46695744049797",
    "lng": "126.93210334155009",
    "region": "서울특별시"
  },
  {
    "name": "양주중학교 운동장",
    "address": "경상남도 양산시 상북면 석계리 51",
    "lat": "35.415175",
    "lng": "129.066920",
    "region": "경상남도"
  },
  {
    "name": "경남외고 운동장",
    "address": "경상남도 양산시 어곡동 1427-1",
    "lat": "35.39578016408479",
    "lng": "129.01301980018744",
    "region": "경상남도"
  },
  {
    "name": "선유초등학교 운동장",
    "address": "서울특별시 영등포구 양평동3가 91",
    "lat": "37.53249473835718",
    "lng": "126.8926692008972",
    "region": "서울특별시"
  },
  {
    "name": "신길근린공원",
    "address": "서울특별시 영등포구 신길동 341-3",
    "lat": "37.50141260352975",
    "lng": "126.90625190734865",
    "region": "서울특별시"
  },
  {
    "name": "청암어린이공원",
    "address": "서울특별시 강북구 미아동 776-17",
    "lat": "37.62411293208659",
    "lng": "127.01713502397207",
    "region": "서울특별시"
  },
  {
    "name": "가재울고등학교 운동장",
    "address": "서울특별시 서대문구 북가좌동 476",
    "lat": "37.57392741090814",
    "lng": "126.9092375418266",
    "region": "서울특별시"
  },
  {
    "name": "경일초등학교 운동장",
    "address": "서울특별시 성동구 성수동1가 656-32",
    "lat": "37.54035608759097",
    "lng": "127.04698767221625",
    "region": "서울특별시"
  },
  {
    "name": "경수초등학교 운동장",
    "address": "서울특별시 성동구 성수동2가 268",
    "lat": "37.53997243106517",
    "lng": "127.05828742068337",
    "region": "서울특별시"
  },
  {
    "name": "흥업초등학교",
    "address": "강원특별자치도 원주시 흥업면 흥업리 865-3",
    "lat": "37.30716868623355",
    "lng": "127.90941953659056",
    "region": "강원특별자치도"
  },
  {
    "name": "반달공원",
    "address": "경기도 수원시 영통구 영통동 1012-4",
    "lat": "37.25070991708637",
    "lng": "127.07829283531287",
    "region": "경기도"
  },
  {
    "name": "중동고등학교 운동장",
    "address": "서울특별시 강남구 일원동 618",
    "lat": "37.4927475514058",
    "lng": "127.08095666312282",
    "region": "서울특별시"
  },
  {
    "name": "벽적골공원",
    "address": "경기도 수원시 영통구 영통동 969-2",
    "lat": "37.248544356793374",
    "lng": "127.06263631517152",
    "region": "경기도"
  },
  {
    "name": "대진초등학교 운동장",
    "address": "서울특별시 강남구 개포동 13",
    "lat": "37.49643699270524",
    "lng": "127.07805664841496",
    "region": "서울특별시"
  },
  {
    "name": "살구골공원",
    "address": "경기도 수원시 영통구 영통동 989-3",
    "lat": "37.24912787478083",
    "lng": "127.0734822750091",
    "region": "경기도"
  },
  {
    "name": "수서초등학교 운동장",
    "address": "서울특별시 강남구 수서동 709",
    "lat": "37.49061645011338",
    "lng": "127.1017235608068",
    "region": "서울특별시"
  },
  {
    "name": "계수초등학교  운동장",
    "address": "광주광역시 서구 치평동 1166-6",
    "lat": "35.15547290088805",
    "lng": "126.84496879577635",
    "region": "광주광역시"
  },
  {
    "name": "선주리들공원",
    "address": "경기도 수원시 영통구 매탄동 1345",
    "lat": "37.255105829310814",
    "lng": "127.04458951950072",
    "region": "경기도"
  },
  {
    "name": "경일중학교",
    "address": "대구광역시 서구 원대동1가 440",
    "lat": "35.8812600509382",
    "lng": "128.576033358053",
    "region": "대구광역시"
  },
  {
    "name": "삼익공원",
    "address": "대구광역시 서구 내당동 308-1",
    "lat": "35.86006073361411",
    "lng": "128.5502938005172",
    "region": "대구광역시"
  },
  {
    "name": "지정중학교",
    "address": "강원특별자치도 원주시 지정면 간현리 795-1",
    "lat": "37.36579386827784",
    "lng": "127.83861409722913",
    "region": "강원특별자치도"
  },
  {
    "name": "아현초등학교 운동장",
    "address": "서울특별시 마포구 아현동 267-2",
    "lat": "37.55556500693801",
    "lng": "126.95635557174684",
    "region": "서울특별시"
  },
  {
    "name": "영월공설운동장",
    "address": "강원특별자치도 영월군 영월읍 하송리 318",
    "lat": "37.18146673610999",
    "lng": "128.45882083444596",
    "region": "강원특별자치도"
  },
  {
    "name": "도신초등학교 운동장",
    "address": "서울특별시 영등포구 대림동 741-3",
    "lat": "37.4985186045027",
    "lng": "126.9008043408394",
    "region": "서울특별시"
  },
  {
    "name": "불광초등학교 운동장",
    "address": "서울특별시 은평구 불광동 272-2",
    "lat": "37.61261375838465",
    "lng": "126.93083881403618",
    "region": "서울특별시"
  },
  {
    "name": "수색초등학교 운동장",
    "address": "서울특별시 은평구 수색동 129",
    "lat": "37.58459130476839",
    "lng": "126.8955966001382",
    "region": "서울특별시"
  },
  {
    "name": "관인고등학교 운동장",
    "address": "경기도 포천시 관인면 탄동리 607-3",
    "lat": "38.158920701805094",
    "lng": "127.25115062900315",
    "region": "경기도"
  },
  {
    "name": "사선대국민관광단지",
    "address": "전북특별자치도 임실군 관촌면 관촌리 222",
    "lat": "35.67163282439835",
    "lng": "127.27353397787267",
    "region": "전북특별자치도"
  },
  {
    "name": "국궁장",
    "address": "강원특별자치도 철원군 동송읍 이평리 866-2",
    "lat": "38.20158829917917",
    "lng": "127.20899084393722",
    "region": "강원특별자치도"
  },
  {
    "name": "샛별초등학교 운동장",
    "address": "충청북도 청주시 서원구 산남동 1095",
    "lat": "36.60884476874845",
    "lng": "127.47188687324524",
    "region": "충청북도"
  },
  {
    "name": "형석고등학교 운동장",
    "address": "충청북도 증평군 증평읍 미암리 603",
    "lat": "36.79279093756006",
    "lng": "127.59314496391403",
    "region": "충청북도"
  },
  {
    "name": "부산일과학고등학교운동장",
    "address": "부산광역시 사하구 당리동 2",
    "lat": "35.116020865253525",
    "lng": "128.98864388465526",
    "region": "부산광역시"
  },
  {
    "name": "금호초등학교 운동장",
    "address": "서울특별시 성동구 금호동2가 511",
    "lat": "37.55241580867441",
    "lng": "127.0202887058258",
    "region": "서울특별시"
  },
  {
    "name": "남원주중학교",
    "address": "강원특별자치도 원주시 단구동 1565-1",
    "lat": "37.32235431279903",
    "lng": "127.94507010148666",
    "region": "강원특별자치도"
  },
  {
    "name": "상무초등학교  운동장",
    "address": "광주광역시 서구 금호동 446",
    "lat": "35.140631",
    "lng": "126.855587",
    "region": "광주광역시"
  },
  {
    "name": "자곡초등학교 운동장",
    "address": "서울특별시 강남구 자곡동 642",
    "lat": "37.47203125183929",
    "lng": "127.09985769488578",
    "region": "서울특별시"
  },
  {
    "name": "서곡초등학교",
    "address": "강원특별자치도 원주시 판부면 서곡리 1110",
    "lat": "37.29790052979764",
    "lng": "127.93875357538013",
    "region": "강원특별자치도"
  },
  {
    "name": "주월초등학교  운동장",
    "address": "광주광역시 서구 화정동 1325",
    "lat": "35.144424046980554",
    "lng": "126.88402175903319",
    "region": "광주광역시"
  },
  {
    "name": "상록수어린이공원",
    "address": "대구광역시 수성구 중동 127",
    "lat": "35.8441366",
    "lng": "128.615471",
    "region": "대구광역시"
  },
  {
    "name": "사동초등학교운동장",
    "address": "부산광역시 사하구 당리동 467-6",
    "lat": "35.10424252965685",
    "lng": "128.98128390311777",
    "region": "부산광역시"
  },
  {
    "name": "보람공원",
    "address": "대구광역시 수성구 두산동 43",
    "lat": "35.837303860173975",
    "lng": "128.6209390734555",
    "region": "대구광역시"
  },
  {
    "name": "신평레포츠공원",
    "address": "부산광역시 사하구 신평동 651-9",
    "lat": "35.09326202258879",
    "lng": "128.95972113481437",
    "region": "부산광역시"
  },
  {
    "name": "달무리공원",
    "address": "대구광역시 수성구 시지동 487",
    "lat": "35.84098761968095",
    "lng": "128.6930621101911",
    "region": "대구광역시"
  },
  {
    "name": "황제공원",
    "address": "대구광역시 서구 내당동 11-14",
    "lat": "35.86406825675757",
    "lng": "128.565819125",
    "region": "대구광역시"
  },
  {
    "name": "다선초등학교운동장",
    "address": "부산광역시 사하구 다대동 3",
    "lat": "35.0632157141094",
    "lng": "128.98543596268107",
    "region": "부산광역시"
  },
  {
    "name": "삼성중학교운동장",
    "address": "부산광역시 사하구 감천동 564-4",
    "lat": "35.09416552357093",
    "lng": "128.99911522865835",
    "region": "부산광역시"
  },
  {
    "name": "초당초등학교 운동장",
    "address": "서울특별시 도봉구 방학동 514-2",
    "lat": "37.65798399574345",
    "lng": "127.02232995329153",
    "region": "서울특별시"
  },
  {
    "name": "배양초등학교 운동장",
    "address": "경기도 화성시 배양동 76",
    "lat": "37.21865163572353",
    "lng": "126.98920302943439",
    "region": "경기도"
  },
  {
    "name": "동대구로동네체육공원",
    "address": "대구광역시 동구 신천동 742",
    "lat": "35.87256832092355",
    "lng": "128.62578392028837",
    "region": "대구광역시"
  },
  {
    "name": "녹번초등학교 운동장",
    "address": "서울특별시 은평구 녹번동 174",
    "lat": "37.60389396753686",
    "lng": "126.92644955600062",
    "region": "서울특별시"
  },
  {
    "name": "갈현초등학교 운동장",
    "address": "서울특별시 은평구 갈현동 451-15",
    "lat": "37.619220131843804",
    "lng": "126.91670830661432",
    "region": "서울특별시"
  },
  {
    "name": "이평초등학교 운동장",
    "address": "전북특별자치도 정읍시 이평면 두지리 249",
    "lat": "35.66258509776141",
    "lng": "126.83930928413263",
    "region": "전북특별자치도"
  },
  {
    "name": "군산아리울초등학교 운동장",
    "address": "전북특별자치도 군산시 수송동 830-2",
    "lat": "35.96754317184752",
    "lng": "126.72031576475437",
    "region": "전북특별자치도"
  },
  {
    "name": "구운공원",
    "address": "경기도 수원시 권선구 구운동 501",
    "lat": "37.27876544315032",
    "lng": "126.97605373888523",
    "region": "경기도"
  },
  {
    "name": "만대초등학교",
    "address": "강원특별자치도 원주시 무실동 1716-2",
    "lat": "37.33911839824057",
    "lng": "127.92076672188483",
    "region": "강원특별자치도"
  },
  {
    "name": "산운초등학교운동장",
    "address": "경기도 성남시 분당구 운중동 927",
    "lat": "37.389335177401456",
    "lng": "127.07894325256348",
    "region": "경기도"
  },
  {
    "name": "동화초등학교",
    "address": "강원특별자치도 원주시 문막읍 동화리 1534-2",
    "lat": "37.327725133100515",
    "lng": "127.82918735692289",
    "region": "강원특별자치도"
  },
  {
    "name": "압구정초등학교 운동장",
    "address": "서울특별시 강남구 압구정동 461",
    "lat": "37.53132372927448",
    "lng": "127.0309317073804",
    "region": "서울특별시"
  },
  {
    "name": "옥동중학교 운동장",
    "address": "강원특별자치도 영월군 김삿갓면 옥동리 402",
    "lat": "37.12819310872064",
    "lng": "128.5704049568065",
    "region": "강원특별자치도"
  },
  {
    "name": "마차초등학교 운동장",
    "address": "강원특별자치도 영월군 북면 마차리 1141",
    "lat": "37.25719373165753",
    "lng": "128.45434516668337",
    "region": "강원특별자치도"
  },
  {
    "name": "연당중학교 운동장",
    "address": "강원특별자치도 영월군 남면 연당리 992",
    "lat": "37.188684506761376",
    "lng": "128.40784273761568",
    "region": "강원특별자치도"
  },
  {
    "name": "호돌이공원",
    "address": "대구광역시 수성구 수성동4가 1009-2",
    "lat": "35.861067758432874",
    "lng": "128.62010002764845",
    "region": "대구광역시"
  },
  {
    "name": "사남초등학교운동장",
    "address": "부산광역시 사하구 괴정동 1206-9",
    "lat": "35.0963776559909",
    "lng": "128.98224949836953",
    "region": "부산광역시"
  },
  {
    "name": "무릉초등학교 운동장",
    "address": "강원특별자치도 영월군 무릉도원면 무릉리 893-1",
    "lat": "37.289645140653114",
    "lng": "128.2681406985526",
    "region": "강원특별자치도"
  },
  {
    "name": "동산중학교 운동장",
    "address": "강원특별자치도 춘천시 동산면 조양리 703-1",
    "lat": "37.750320306913586",
    "lng": "127.7904477300287",
    "region": "강원특별자치도"
  },
  {
    "name": "조양초등학교 운동장",
    "address": "강원특별자치도 춘천시 동산면 조양리 371-1",
    "lat": "37.75105075802911",
    "lng": "127.79558909735925",
    "region": "강원특별자치도"
  },
  {
    "name": "광판초등학교 운동장",
    "address": "강원특별자치도 춘천시 남산면 광판리 628",
    "lat": "37.73063971475527",
    "lng": "127.69927218273777",
    "region": "강원특별자치도"
  },
  {
    "name": "말뫼공원",
    "address": "대구광역시 수성구 두산동 741-7",
    "lat": "35.8253177",
    "lng": "128.626399",
    "region": "대구광역시"
  },
  {
    "name": "무학공원",
    "address": "대구광역시 수성구 지산동 1293",
    "lat": "35.82504672874667",
    "lng": "128.63966435194044",
    "region": "대구광역시"
  },
  {
    "name": "대동고등학교운동장",
    "address": "부산광역시 사하구 구평동 112-24",
    "lat": "35.08677375695765",
    "lng": "128.9833331108145",
    "region": "부산광역시"
  },
  {
    "name": "수성구구민운동장",
    "address": "대구광역시 수성구 범어동 355",
    "lat": "35.84917783577351",
    "lng": "128.629943917934",
    "region": "대구광역시"
  },
  {
    "name": "응봉초등학교운동장",
    "address": "부산광역시 사하구 다대동 1549-4",
    "lat": "35.05264179879892",
    "lng": "128.96545886993377",
    "region": "부산광역시"
  },
  {
    "name": "광주일곡초등학교 운동장",
    "address": "광주광역시 북구 일곡동 820-1",
    "lat": "35.206868273744654",
    "lng": "126.89837157726285",
    "region": "광주광역시"
  },
  {
    "name": "교문초등학교운동장",
    "address": "경기도 구리시 교문동 732",
    "lat": "37.59790548967807",
    "lng": "127.13368475367024",
    "region": "경기도"
  },
  {
    "name": "남창옹기종기시장 주차장",
    "address": "울산광역시 울주군 온양읍 남창리 125-2",
    "lat": "35.41539467484878",
    "lng": "129.28426623344725",
    "region": "울산광역시"
  },
  {
    "name": "신방학초등학교 운동장",
    "address": "서울특별시 도봉구 방학동 310",
    "lat": "37.66562118994516",
    "lng": "127.0294479751668",
    "region": "서울특별시"
  },
  {
    "name": "누원고등학교 운동장",
    "address": "서울특별시 도봉구 도봉동 646",
    "lat": "37.68491752057144",
    "lng": "127.05061764844248",
    "region": "서울특별시"
  },
  {
    "name": "영중초등학교 운동장",
    "address": "서울특별시 영등포구 영등포동7가 53",
    "lat": "37.52342885760701",
    "lng": "126.90385401248929",
    "region": "서울특별시"
  },
  {
    "name": "교동초등학교",
    "address": "강원특별자치도 원주시 명륜동 235",
    "lat": "37.338250249798065",
    "lng": "127.94726893083552",
    "region": "강원특별자치도"
  },
  {
    "name": "세각단공원",
    "address": "대구광역시 수성구 지산동 1265",
    "lat": "35.826910384811434",
    "lng": "128.6331877519636",
    "region": "대구광역시"
  },
  {
    "name": "망경초등학교 운동장",
    "address": "경상남도 진주시 망경동 490",
    "lat": "35.17948819825648",
    "lng": "128.08286992858183",
    "region": "경상남도"
  },
  {
    "name": "효림초등학교운동장",
    "address": "부산광역시 사하구 장림동 394",
    "lat": "35.075711192134364",
    "lng": "128.97359132766863",
    "region": "부산광역시"
  },
  {
    "name": "고산공원",
    "address": "대구광역시 수성구 시지동 137-5",
    "lat": "35.84487673892062",
    "lng": "128.69485346611435",
    "region": "대구광역시"
  },
  {
    "name": "서도초등학교",
    "address": "대구광역시 서구 평리동 1111-1",
    "lat": "35.86681078012988",
    "lng": "128.56586622704984",
    "region": "대구광역시"
  },
  {
    "name": "누리어린이공원",
    "address": "대구광역시 수성구 매호동 1330-2",
    "lat": "35.84184603715643",
    "lng": "128.70593731470336",
    "region": "대구광역시"
  },
  {
    "name": "구평초등학교운동장",
    "address": "부산광역시 사하구 구평동 24-19",
    "lat": "35.086826432241665",
    "lng": "128.98959875106965",
    "region": "부산광역시"
  },
  {
    "name": "진주기계공업고등학교 운동장",
    "address": "경상남도 진주시 상평동 272-1",
    "lat": "35.17711908714348",
    "lng": "128.10324800426073",
    "region": "경상남도"
  },
  {
    "name": "배영초등학교 운동장",
    "address": "경상남도 진주시 신안동 710-1",
    "lat": "35.17615373708788",
    "lng": "128.06735925523935",
    "region": "경상남도"
  },
  {
    "name": "수택초등학교운동장",
    "address": "경기도 구리시 토평동 1007",
    "lat": "37.59176610641119",
    "lng": "127.15258966301575",
    "region": "경기도"
  },
  {
    "name": "정촌초등학교 운동장",
    "address": "경상남도 진주시 가좌동 691",
    "lat": "35.16018892759599",
    "lng": "128.10868528223506",
    "region": "경상남도"
  },
  {
    "name": "대성여자중학교 운동장",
    "address": "충청북도 청주시 상당구 수동 398-1",
    "lat": "36.64433868930951",
    "lng": "127.49270081520082",
    "region": "충청북도"
  },
  {
    "name": "자운초등학교 운동장",
    "address": "서울특별시 도봉구 창동 181-19",
    "lat": "37.6575309005482",
    "lng": "127.0466554745504",
    "region": "서울특별시"
  },
  {
    "name": "문래초등학교 운동장",
    "address": "서울특별시 영등포구 문래동3가 77-7",
    "lat": "37.51868489107118",
    "lng": "126.89333170652392",
    "region": "서울특별시"
  },
  {
    "name": "지사초등학교 운동장",
    "address": "전북특별자치도 임실군 지사면 방계리 558",
    "lat": "35.5639326278882",
    "lng": "127.3565396888044",
    "region": "전북특별자치도"
  },
  {
    "name": "서울항공비즈니스고등학교 운동장",
    "address": "서울특별시 강서구 마곡동 731-266",
    "lat": "37.569992487441766",
    "lng": "126.81702844575133",
    "region": "서울특별시"
  },
  {
    "name": "전주삼천남초등학교(운동장)",
    "address": "전북특별자치도 전주시 완산구 삼천동1가 635",
    "lat": "35.79594090549521",
    "lng": "127.12351054834309",
    "region": "전북특별자치도"
  },
  {
    "name": "전주용흥초등학교(운동장)",
    "address": "전북특별자치도 전주시 완산구 삼천동1가 765-2",
    "lat": "35.794412717617575",
    "lng": "127.11220347451524",
    "region": "전북특별자치도"
  },
  {
    "name": "가산초등학교 운동장",
    "address": "강원특별자치도 춘천시 동면 지내리 136-2",
    "lat": "37.90865868286784",
    "lng": "127.78234295971862",
    "region": "강원특별자치도"
  },
  {
    "name": "금산초등학교 운동장",
    "address": "강원특별자치도 춘천시 서면 금산리 472-1",
    "lat": "37.90333284771655",
    "lng": "127.69967883825302",
    "region": "강원특별자치도"
  },
  {
    "name": "묘곡초등학교 운동장",
    "address": "서울특별시 강동구 고덕동 498",
    "lat": "37.558112458566036",
    "lng": "127.15331447508414",
    "region": "서울특별시"
  },
  {
    "name": "성림초등학교 운동장",
    "address": "강원특별자치도 춘천시 석사동 868",
    "lat": "37.852108976826635",
    "lng": "127.74016305744682",
    "region": "강원특별자치도"
  },
  {
    "name": "서울정곡초등학교 운동장",
    "address": "서울특별시 강서구 방화동 836",
    "lat": "37.57643399439339",
    "lng": "126.81896040947429",
    "region": "서울특별시"
  },
  {
    "name": "남부초등학교 운동장",
    "address": "강원특별자치도 춘천시 퇴계동 915",
    "lat": "37.85849575231452",
    "lng": "127.72647241666616",
    "region": "강원특별자치도"
  },
  {
    "name": "여흥초등학교 운동장",
    "address": "경기도 여주시 상동 110",
    "lat": "37.29423332429121",
    "lng": "127.64361241275255",
    "region": "경기도"
  },
  {
    "name": "경서중학교 운동장",
    "address": "서울특별시 강서구 가양동 1483",
    "lat": "37.56088498015637",
    "lng": "126.85884766122587",
    "region": "서울특별시"
  },
  {
    "name": "서울공진초등학교 운동장",
    "address": "서울특별시 강서구 마곡동 749-2",
    "lat": "37.55783379316253",
    "lng": "126.82289958000182",
    "region": "서울특별시"
  }
]