[
  {
    "name": "서명어린이공원",
    "address": "부산광역시 금정구 서동 131-12",
    "lat": "35.21632116063732",
    "lng": "129.1064801787566",
    "region": "부산광역시"
  },
  {
    "name": "스포원",
    "address": "부산광역시 금정구 두구동 1641",
    "lat": "35.29202733919998",
    "lng": "129.10525560379202",
    "region": "부산광역시"
  },
  {
    "name": "금정초등학교 운동장",
    "address": "경기도 군포시 금정동 703",
    "lat": "37.36677184636464",
    "lng": "126.9408651110897",
    "region": "경기도"
  },
  {
    "name": "성천초등학교 운동장",
    "address": "부산광역시 남구 우암동 216-6",
    "lat": "35.13067558197073",
    "lng": "129.0717065334331",
    "region": "부산광역시"
  },
  {
    "name": "배정고등학교 운동장",
    "address": "부산광역시 남구 문현동 985-26",
    "lat": "35.13255686536329",
    "lng": "129.0678584570069",
    "region": "부산광역시"
  },
  {
    "name": "동대초등학교 운동장",
    "address": "울산광역시 북구 신천동 125",
    "lat": "35.64080127185277",
    "lng": "129.34946805239258",
    "region": "울산광역시"
  },
  {
    "name": "궁내초등학교 운동장",
    "address": "경기도 군포시 산본동 1149-3",
    "lat": "37.36438023270512",
    "lng": "126.9205802679062",
    "region": "경기도"
  },
  {
    "name": "약수초등학교 운동장",
    "address": "울산광역시 북구 중산동 1313-12",
    "lat": "35.65425600574795",
    "lng": "129.35316950083146",
    "region": "울산광역시"
  },
  {
    "name": "이화중학교 운동장",
    "address": "울산광역시 북구 중산동 803",
    "lat": "35.6577827",
    "lng": "129.3392833",
    "region": "울산광역시"
  },
  {
    "name": "달천고등학교 운동장",
    "address": "울산광역시 북구 달천동 1-17",
    "lat": "35.631235764421824",
    "lng": "129.3287372589179",
    "region": "울산광역시"
  },
  {
    "name": "명호중학교 운동장",
    "address": "부산광역시 강서구 명지동 3235-3",
    "lat": "35.07996079923904",
    "lng": "128.89867186546414",
    "region": "부산광역시"
  },
  {
    "name": "달천중학교 운동장",
    "address": "울산광역시 북구 달천동 11-67",
    "lat": "35.63093297216183",
    "lng": "129.32976133955597",
    "region": "울산광역시"
  },
  {
    "name": "상안중학교 운동장",
    "address": "울산광역시 북구 상안동 838-1",
    "lat": "35.62759499023992",
    "lng": "129.33071136474862",
    "region": "울산광역시"
  },
  {
    "name": "동천고등학교 운동장",
    "address": "울산광역시 북구 천곡동 396-10",
    "lat": "35.631985699704025",
    "lng": "129.33970212936936",
    "region": "울산광역시"
  },
  {
    "name": "정금초등학교 운동장",
    "address": "강원특별자치도 횡성군 우천면 정금리 507-4",
    "lat": "37.504891113097806",
    "lng": "128.10446316791302",
    "region": "강원특별자치도"
  },
  {
    "name": "우천중학교 운동장",
    "address": "강원특별자치도 횡성군 우천면 문암리 24",
    "lat": "37.468300130739394",
    "lng": "128.04889769014568",
    "region": "강원특별자치도"
  },
  {
    "name": "강동중학교 운동장",
    "address": "울산광역시 북구 산하동 1009",
    "lat": "35.6296452",
    "lng": "129.4351231",
    "region": "울산광역시"
  },
  {
    "name": "부산혜남학교 운동장",
    "address": "부산광역시 남구 대연동 1573",
    "lat": "35.141305182761",
    "lng": "129.081729948522",
    "region": "부산광역시"
  },
  {
    "name": "울산교육연수원 주차장",
    "address": "울산광역시 북구 정자동 715",
    "lat": "35.6133354",
    "lng": "129.4451787",
    "region": "울산광역시"
  },
  {
    "name": "부산혜성학교 운동장",
    "address": "부산광역시 남구 대연동 1573-8",
    "lat": "35.1417745553384",
    "lng": "129.08038616181",
    "region": "부산광역시"
  },
  {
    "name": "안흥고등학교 운동장",
    "address": "강원특별자치도 횡성군 안흥면 안흥리 272-2",
    "lat": "37.412431421596395",
    "lng": "128.15320526012889",
    "region": "강원특별자치도"
  },
  {
    "name": "둔내초등학교 운동장",
    "address": "강원특별자치도 횡성군 둔내면 자포곡리 388-2",
    "lat": "37.51334307209722",
    "lng": "128.21646365558337",
    "region": "강원특별자치도"
  },
  {
    "name": "둔내고등학교 운동장",
    "address": "강원특별자치도 횡성군 둔내면 둔방내리 96-3",
    "lat": "37.51170320151239",
    "lng": "128.21293874787386",
    "region": "강원특별자치도"
  },
  {
    "name": "금일초등학교",
    "address": "전라남도 완도군 금일읍 신구리 680",
    "lat": "34.355046218895474",
    "lng": "127.03350010665129",
    "region": "전라남도"
  },
  {
    "name": "현천고등학교 운동장",
    "address": "강원특별자치도 횡성군 둔내면 현천리 1103",
    "lat": "37.48551630285392",
    "lng": "128.17112715053545",
    "region": "강원특별자치도"
  },
  {
    "name": "울산스포츠과학중고등학교 운동장",
    "address": "울산광역시 북구 산하동 799",
    "lat": "35.6232267",
    "lng": "129.4307267",
    "region": "울산광역시"
  },
  {
    "name": "갑천초등학교 운동장",
    "address": "강원특별자치도 횡성군 갑천면 매일리 705-1",
    "lat": "37.557382574744544",
    "lng": "128.10798404552364",
    "region": "강원특별자치도"
  },
  {
    "name": "누리어린이공원",
    "address": "울산광역시 북구 화봉동 1457-3",
    "lat": "35.5911053",
    "lng": "129.3703249",
    "region": "울산광역시"
  },
  {
    "name": "금일동초등학교",
    "address": "전라남도 완도군 금일읍 월송리 250",
    "lat": "34.3401307976331",
    "lng": "127.0555036798488",
    "region": "전라남도"
  },
  {
    "name": "송정초등학교 운동장",
    "address": "울산광역시 북구 화봉동 427",
    "lat": "35.5909181",
    "lng": "129.3657435",
    "region": "울산광역시"
  },
  {
    "name": "갑천고등학교 운동장",
    "address": "강원특별자치도 횡성군 갑천면 매일리 600",
    "lat": "37.560135225529976",
    "lng": "128.11442644202168",
    "region": "강원특별자치도"
  },
  {
    "name": "울산에너지고등학교 운동장",
    "address": "울산광역시 북구 화봉동 453",
    "lat": "35.59007010021641",
    "lng": "129.36878800392068",
    "region": "울산광역시"
  },
  {
    "name": "한솔근린공원",
    "address": "울산광역시 북구 화봉동 1469-1",
    "lat": "35.592255",
    "lng": "129.3656766",
    "region": "울산광역시"
  },
  {
    "name": "노화고등학교",
    "address": "전라남도 완도군 노화읍 이포리 255",
    "lat": "34.181775984583766",
    "lng": "126.57786787879972",
    "region": "전라남도"
  },
  {
    "name": "화동저수지주차장",
    "address": "울산광역시 북구 화봉동 365",
    "lat": "35.591269625739244",
    "lng": "129.3730347266317",
    "region": "울산광역시"
  },
  {
    "name": "강서중학교 운동장",
    "address": "인천광역시 강화군 하점면 이강리 389",
    "lat": "37.77295363672921",
    "lng": "126.38862311840035",
    "region": "인천광역시"
  },
  {
    "name": "하점초등학교 운동장",
    "address": "인천광역시 강화군 하점면 신봉리 산16-6",
    "lat": "37.77352819153771",
    "lng": "126.41536474227883",
    "region": "인천광역시"
  },
  {
    "name": "양사초등학교 운동장",
    "address": "인천광역시 강화군 양사면 덕하리 1278",
    "lat": "37.804655600990735",
    "lng": "126.42475247383098",
    "region": "인천광역시"
  },
  {
    "name": "송해초등학교 운동장",
    "address": "인천광역시 강화군 송해면 솔정리 635-3",
    "lat": "37.768976153335416",
    "lng": "126.46102130413038",
    "region": "인천광역시"
  },
  {
    "name": "난정평화교육원",
    "address": "인천광역시 강화군 교동면 난정리 1282",
    "lat": "37.77053898927426",
    "lng": "126.23944354130099",
    "region": "인천광역시"
  },
  {
    "name": "청도초등학교 운동장",
    "address": "경상북도 청도군 화양읍 범곡리 495",
    "lat": "35.64816570665728",
    "lng": "128.7307343080289",
    "region": "경상북도"
  },
  {
    "name": "청도공설운동장",
    "address": "경상북도 청도군 화양읍 동천리 502",
    "lat": "35.648847469014136",
    "lng": "128.72078987541522",
    "region": "경상북도"
  },
  {
    "name": "청도박물관 앞마당",
    "address": "경상북도 청도군 이서면 양원리 129-5",
    "lat": "35.69401557866145",
    "lng": "128.68660501454687",
    "region": "경상북도"
  },
  {
    "name": "광수중학교 운동장",
    "address": "경기도 광주시 퇴촌면 도수리 585",
    "lat": "37.47303167599988",
    "lng": "127.3197197914123",
    "region": "경기도"
  },
  {
    "name": "번천초등학교 운동장",
    "address": "경기도 광주시 남한산성면 상번천리 537",
    "lat": "37.44568820600003",
    "lng": "127.26658683972286",
    "region": "경기도"
  },
  {
    "name": "광남중학교 운동장",
    "address": "경기도 광주시 태전동 131-6",
    "lat": "37.38016085626027",
    "lng": "127.23647979208224",
    "region": "경기도"
  },
  {
    "name": "태전초등학교 운동장",
    "address": "경기도 광주시 태전동 241-1",
    "lat": "37.388876977808714",
    "lng": "127.22668314923449",
    "region": "경기도"
  },
  {
    "name": "광남고등학교 운동장",
    "address": "경기도 광주시 장지동 229-19",
    "lat": "37.38486259859066",
    "lng": "127.23827960232549",
    "region": "경기도"
  },
  {
    "name": "김해합성초등학교 운동장",
    "address": "경상남도 김해시 서상동 172",
    "lat": "35.2368722098862",
    "lng": "128.880150615959",
    "region": "경상남도"
  },
  {
    "name": "김해시민체육공원",
    "address": "경상남도 김해시 삼계동 9",
    "lat": "35.2581354799308",
    "lng": "128.88101790903372",
    "region": "경상남도"
  },
  {
    "name": "김해운동장",
    "address": "경상남도 김해시 구산동 660",
    "lat": "35.25568893265955",
    "lng": "128.87566764724454",
    "region": "경상남도"
  },
  {
    "name": "어방초등학교 운동장",
    "address": "경상남도 김해시 어방동 767-3",
    "lat": "35.239854585780186",
    "lng": "128.89845762469045",
    "region": "경상남도"
  },
  {
    "name": "김해중학교 운동장",
    "address": "경상남도 김해시 부원동 39",
    "lat": "35.23165920369915",
    "lng": "128.88544428392353",
    "region": "경상남도"
  },
  {
    "name": "부구중학교 운동장",
    "address": "경상북도 울진군 북면 부구리 862-1",
    "lat": "37.09893713862753",
    "lng": "129.3559948370671",
    "region": "경상북도"
  },
  {
    "name": "삼근초등왕피분교 운동장",
    "address": "경상북도 울진군 금강송면 왕피리 594",
    "lat": "36.88262541134824",
    "lng": "129.27706471929187",
    "region": "경상북도"
  },
  {
    "name": "매화중학교 운동장",
    "address": "경상북도 울진군 매화면 매화리 1141",
    "lat": "36.91177175811267",
    "lng": "129.3811427893862",
    "region": "경상북도"
  },
  {
    "name": "경안소공원",
    "address": "경기도 광주시 경안동 254-34",
    "lat": "37.41218879041213",
    "lng": "127.25436839481308",
    "region": "경기도"
  },
  {
    "name": "퇴촌 공설운동장",
    "address": "경기도 광주시 퇴촌면 광동리 530",
    "lat": "37.47269146149092",
    "lng": "127.30142489649741",
    "region": "경기도"
  },
  {
    "name": "월송초등학교 운동장",
    "address": "경상북도 울진군 평해읍 월송리 1007",
    "lat": "36.73607260340823",
    "lng": "129.45914894342917",
    "region": "경상북도"
  },
  {
    "name": "남산초등학교 운동장",
    "address": "부산광역시 금정구 남산동 126-1",
    "lat": "35.26222172702657",
    "lng": "129.088792855793",
    "region": "부산광역시"
  },
  {
    "name": "호원고등학교",
    "address": "경기도 의정부시 호원동 226-154",
    "lat": "37.705018724175936",
    "lng": "127.04443395137785",
    "region": "경기도"
  },
  {
    "name": "민안초등학교 운동장",
    "address": "부산광역시 수영구 민락동 551-12",
    "lat": "35.16282335161795",
    "lng": "129.12118792534054",
    "region": "부산광역시"
  },
  {
    "name": "의정부호동초등학교",
    "address": "경기도 의정부시 호원동 350-1",
    "lat": "37.72969702259412",
    "lng": "127.042514620445",
    "region": "경기도"
  },
  {
    "name": "의순초등학교",
    "address": "경기도 의정부시 금오동 469-3",
    "lat": "37.750880986788886",
    "lng": "127.06609951298881",
    "region": "경기도"
  },
  {
    "name": "주생초등학교운동장",
    "address": "전북특별자치도 남원시 주생면 지당리 480-9",
    "lat": "35.382765728311064",
    "lng": "127.32612669439445",
    "region": "전북특별자치도"
  },
  {
    "name": "아영중학교운동장",
    "address": "전북특별자치도 남원시 아영면 청계리 103",
    "lat": "35.50657043082237",
    "lng": "127.60978728532788",
    "region": "전북특별자치도"
  },
  {
    "name": "안양여자고등학교 운동장",
    "address": "경기도 안양시 만안구 안양동 840-2",
    "lat": "37.403529387686575",
    "lng": "126.91682676683908",
    "region": "경기도"
  },
  {
    "name": "개진초등학교 운동장",
    "address": "경상북도 고령군 개진면 오사리 45-3",
    "lat": "35.716753261641834",
    "lng": "128.36924890747528",
    "region": "경상북도"
  },
  {
    "name": "고령중학교 운동장",
    "address": "경상북도 고령군 대가야읍 쾌빈리 103-4",
    "lat": "35.74071063582488",
    "lng": "128.27182641111625",
    "region": "경상북도"
  },
  {
    "name": "용성중학교운동장",
    "address": "전북특별자치도 남원시 도통동 237",
    "lat": "35.4208678007358",
    "lng": "127.39302121384706",
    "region": "전북특별자치도"
  },
  {
    "name": "장화2리마을회관 공터",
    "address": "인천광역시 강화군 화도면 장화리 1349",
    "lat": "37.6224088585418",
    "lng": "126.3790422677991",
    "region": "인천광역시"
  },
  {
    "name": "신광중학교",
    "address": "전라남도 함평군 신광면 월암리 272",
    "lat": "35.15516323884476",
    "lng": "126.50070116563835",
    "region": "전라남도"
  },
  {
    "name": "엄다초등학교",
    "address": "전라남도 함평군 엄다면 엄다리 811-1",
    "lat": "35.01153672768363",
    "lng": "126.51367761383162",
    "region": "전라남도"
  },
  {
    "name": "나산초등학교",
    "address": "전라남도 함평군 나산면 삼축리 389-5",
    "lat": "35.116358796281055",
    "lng": "126.6063256042049",
    "region": "전라남도"
  },
  {
    "name": "청천초등학교",
    "address": "경상북도 경산시 하양읍 남하리 361-1",
    "lat": "35.8839948497052",
    "lng": "128.7732982637806",
    "region": "경상북도"
  },
  {
    "name": "삼성현초등학교",
    "address": "경상북도 경산시 백천동 438-3",
    "lat": "35.799710224274925",
    "lng": "128.73933350992948",
    "region": "경상북도"
  },
  {
    "name": "청덕초등학교 운동장",
    "address": "경상남도 합천군 청덕면 두곡리 428",
    "lat": "35.55735587018101",
    "lng": "128.3157248351358",
    "region": "경상남도"
  },
  {
    "name": "가회초등학교 운동장",
    "address": "경상남도 합천군 가회면 덕촌리 389",
    "lat": "35.435668356653466",
    "lng": "128.0343706649201",
    "region": "경상남도"
  },
  {
    "name": "영산초등학교 운동장",
    "address": "경상남도 창녕군 영산면 성내리 591-4",
    "lat": "35.45789752368294",
    "lng": "128.52913320064565",
    "region": "경상남도"
  },
  {
    "name": "길곡초등학교 운동장",
    "address": "경상남도 창녕군 길곡면 증산리 704",
    "lat": "35.38461096551373",
    "lng": "128.56819689273854",
    "region": "경상남도"
  },
  {
    "name": "강화공설운동장",
    "address": "인천광역시 강화군 강화읍 국화리 225-4",
    "lat": "37.74585332560308",
    "lng": "126.47470593452437",
    "region": "인천광역시"
  },
  {
    "name": "풍남초등학교",
    "address": "전라남도 고흥군 풍양면 풍남리 955-1",
    "lat": "34.523331971985904",
    "lng": "127.24472978866596",
    "region": "전라남도"
  },
  {
    "name": "대서중학교",
    "address": "전라남도 고흥군 대서면 화산리 1305",
    "lat": "34.77433782037014",
    "lng": "127.28641128957072",
    "region": "전라남도"
  },
  {
    "name": "갑룡초등학교운동장",
    "address": "인천광역시 강화군 강화읍 갑곳리 438-1",
    "lat": "37.74313214350652",
    "lng": "126.50400638580307",
    "region": "인천광역시"
  },
  {
    "name": "운봉중학교운동장",
    "address": "전북특별자치도 남원시 운봉읍 동천리 27",
    "lat": "35.436771153600894",
    "lng": "127.53612220104509",
    "region": "전북특별자치도"
  },
  {
    "name": "선원초등학교운동장",
    "address": "인천광역시 강화군 선원면 냉정리 100",
    "lat": "37.71446563649943",
    "lng": "126.48005962371812",
    "region": "인천광역시"
  },
  {
    "name": "불은초등학교운동장",
    "address": "인천광역시 강화군 불은면 두운리 553-2",
    "lat": "37.68259764718015",
    "lng": "126.48734718561155",
    "region": "인천광역시"
  },
  {
    "name": "삼성초등학교운동장",
    "address": "인천광역시 강화군 불은면 삼성리 809-153",
    "lat": "37.70654236426005",
    "lng": "126.4500564336775",
    "region": "인천광역시"
  },
  {
    "name": "운봉초등학교운동장",
    "address": "전북특별자치도 남원시 운봉읍 서천리 65-4",
    "lat": "35.44063254769589",
    "lng": "127.53269833695364",
    "region": "전북특별자치도"
  },
  {
    "name": "길상초등학교운동장",
    "address": "인천광역시 강화군 길상면 온수리 532-23",
    "lat": "37.63690891382789",
    "lng": "126.49024933576572",
    "region": "인천광역시"
  },
  {
    "name": "강남중학교운동장",
    "address": "인천광역시 강화군 길상면 온수리 24-10",
    "lat": "37.64441273905827",
    "lng": "126.47999525070175",
    "region": "인천광역시"
  },
  {
    "name": "원천초등학교운동장",
    "address": "전북특별자치도 남원시 주천면 장안리 248",
    "lat": "35.38882569662052",
    "lng": "127.44547461953182",
    "region": "전북특별자치도"
  },
  {
    "name": "수지중학교운동장",
    "address": "전북특별자치도 남원시 수지면 산정리 584-10",
    "lat": "35.33392637513081",
    "lng": "127.36319276327121",
    "region": "전북특별자치도"
  },
  {
    "name": "송동초등학교 운동장",
    "address": "전북특별자치도 남원시 송동면 신평리 773",
    "lat": "35.35534121396915",
    "lng": "127.3358559011193",
    "region": "전북특별자치도"
  },
  {
    "name": "동검리 마을회관 공터",
    "address": "인천광역시 강화군 길상면 동검리 445",
    "lat": "37.588881706592296",
    "lng": "126.50684789440612",
    "region": "인천광역시"
  },
  {
    "name": "길직2리 마을회관 공터",
    "address": "인천광역시 강화군 길상면 길직리 1118-6",
    "lat": "37.65095805534611",
    "lng": "126.49314612150178",
    "region": "인천광역시"
  },
  {
    "name": "문현초등학교 운동장",
    "address": "울산광역시 동구 방어동 999",
    "lat": "35.48046711743683",
    "lng": "129.41346361094887",
    "region": "울산광역시"
  },
  {
    "name": "임자초등학교",
    "address": "전라남도 신안군 임자면 대기리 348",
    "lat": "35.08988675868052",
    "lng": "126.10144507790322",
    "region": "전라남도"
  },
  {
    "name": "안좌초등학교",
    "address": "전라남도 신안군 안좌면 읍동리 1014",
    "lat": "34.754382676706726",
    "lng": "126.12459552259334",
    "region": "전라남도"
  },
  {
    "name": "한국전통창조박물관",
    "address": "경상북도 의성군 단북면 이연리 801",
    "lat": "36.39010960706019",
    "lng": "128.4068653681948",
    "region": "경상북도"
  },
  {
    "name": "안계초등학교운동장",
    "address": "경상북도 의성군 안계면 토매리 110-15",
    "lat": "36.381674123583785",
    "lng": "128.44498028625068",
    "region": "경상북도"
  },
  {
    "name": "덕곡체육공원",
    "address": "경상북도 김천시 덕곡동 1076",
    "lat": "36.12058691664133",
    "lng": "128.15288901328628",
    "region": "경상북도"
  },
  {
    "name": "화순중학교 운동장",
    "address": "전라남도 화순군 화순읍 대리 97-5",
    "lat": "35.056597745937836",
    "lng": "126.97807478848908",
    "region": "전라남도"
  },
  {
    "name": "사평초등학교 운동장",
    "address": "전라남도 화순군 사평면 사평리 940-1",
    "lat": "35.0084994699057",
    "lng": "127.093184574304",
    "region": "전라남도"
  },
  {
    "name": "고경초등학교 운동장",
    "address": "경상북도 영천시 고경면 상덕리 345-1",
    "lat": "36.00366234220031",
    "lng": "129.0684369206444",
    "region": "경상북도"
  },
  {
    "name": "중앙교회 주차장",
    "address": "경상북도 영천시 완산동 907-13",
    "lat": "35.962087665618526",
    "lng": "128.93857012111928",
    "region": "경상북도"
  },
  {
    "name": "법성포초등학교",
    "address": "전라남도 영광군 법성면 대덕리 526",
    "lat": "35.359827226621704",
    "lng": "126.45484332492484",
    "region": "전라남도"
  },
  {
    "name": "구림초등학교 운동장",
    "address": "전라남도 영암군 군서면 동구림리 93-1",
    "lat": "34.76332132293246",
    "lng": "126.63233295359491",
    "region": "전라남도"
  },
  {
    "name": "용호초등학교 운동장",
    "address": "전라남도 목포시 용당동 1028-7",
    "lat": "34.799656289159266",
    "lng": "126.400690482557",
    "region": "전라남도"
  },
  {
    "name": "복내초등학교 운동장",
    "address": "전라남도 보성군 복내면 복내리 322",
    "lat": "34.8984352380343",
    "lng": "127.12785936779824",
    "region": "전라남도"
  },
  {
    "name": "화목초등학교 운동장",
    "address": "경상북도 청송군 현서면 구산리 81-2",
    "lat": "36.276117239000676",
    "lng": "128.89538605076712",
    "region": "경상북도"
  },
  {
    "name": "비둘기공원",
    "address": "경상북도 구미시 인의동 274-4",
    "lat": "36.11172058849553",
    "lng": "128.42695944209362",
    "region": "경상북도"
  },
  {
    "name": "당산공원",
    "address": "경상북도 구미시 오태동 80-3",
    "lat": "36.07974360102293",
    "lng": "128.37465035286303",
    "region": "경상북도"
  },
  {
    "name": "두리공원",
    "address": "경상북도 구미시 봉곡동 431-1",
    "lat": "36.144770866476094",
    "lng": "128.30927180397356",
    "region": "경상북도"
  },
  {
    "name": "경구공원",
    "address": "경상북도 구미시 봉곡동 366-1",
    "lat": "36.14803968946731",
    "lng": "128.309160095505",
    "region": "경상북도"
  },
  {
    "name": "싸리골공원",
    "address": "경상북도 구미시 봉곡동 217-1",
    "lat": "36.15329405644857",
    "lng": "128.31569376085676",
    "region": "경상북도"
  },
  {
    "name": "효자공원",
    "address": "경상북도 구미시 사곡동 660",
    "lat": "36.10035015399921",
    "lng": "128.35834622383123",
    "region": "경상북도"
  },
  {
    "name": "청류공원",
    "address": "경상북도 구미시 옥계동 742-1",
    "lat": "36.13755979629501",
    "lng": "128.4235250798896",
    "region": "경상북도"
  },
  {
    "name": "용궁초등학교운동장",
    "address": "경상북도 예천군 용궁면 읍부리 213-3",
    "lat": "36.609188405385325",
    "lng": "128.27731175432908",
    "region": "경상북도"
  },
  {
    "name": "신북초등학교 운동장",
    "address": "전라남도 영암군 신북면 월평리 13",
    "lat": "34.891099098814465",
    "lng": "126.69640700838102",
    "region": "전라남도"
  },
  {
    "name": "북삼초등학교 운동장",
    "address": "경상북도 칠곡군 북삼읍 인평리 327-5",
    "lat": "36.063839583379654",
    "lng": "128.34273626363452",
    "region": "경상북도"
  },
  {
    "name": "북삼중학교 운동장",
    "address": "경상북도 칠곡군 북삼읍 인평리 143",
    "lat": "36.07109273194159",
    "lng": "128.34309012922088",
    "region": "경상북도"
  },
  {
    "name": "신동중·칠곡고등학교 운동장",
    "address": "경상북도 칠곡군 지천면 신리 597",
    "lat": "35.95802834331204",
    "lng": "128.48388496086986",
    "region": "경상북도"
  },
  {
    "name": "산동중학교 운동장",
    "address": "경상북도 구미시 산동읍 동곡리 933",
    "lat": "36.168935527997164",
    "lng": "128.43966007232677",
    "region": "경상북도"
  },
  {
    "name": "야은초등학교 운동장",
    "address": "경상북도 구미시 도량동 산50-11",
    "lat": "36.148305",
    "lng": "128.321556",
    "region": "경상북도"
  },
  {
    "name": "원호초등학교 운동장",
    "address": "경상북도 구미시 고아읍 원호리 452",
    "lat": "36.154195091419666",
    "lng": "128.33199945723726",
    "region": "경상북도"
  },
  {
    "name": "도송중학교 운동장",
    "address": "경상북도 구미시 도량동 산50-14",
    "lat": "36.147484",
    "lng": "128.320656",
    "region": "경상북도"
  },
  {
    "name": "남천초등학교",
    "address": "경상북도 경산시 남천면 삼성리 88",
    "lat": "35.76774514932408",
    "lng": "128.7256988883023",
    "region": "경상북도"
  },
  {
    "name": "용성중학교",
    "address": "경상북도 경산시 용성면 당리리 150-4",
    "lat": "35.79269983008898",
    "lng": "128.87412067806957",
    "region": "경상북도"
  },
  {
    "name": "경산중학교",
    "address": "경상북도 경산시 계양동 112-3",
    "lat": "35.82445344180142",
    "lng": "128.74768638394056",
    "region": "경상북도"
  },
  {
    "name": "경산생활체육공원",
    "address": "경상북도 경산시 상방동 10",
    "lat": "35.8205649",
    "lng": "128.7447951",
    "region": "경상북도"
  },
  {
    "name": "사동고등학교",
    "address": "경상북도 경산시 사동 296",
    "lat": "35.808833993519414",
    "lng": "128.7513574343868",
    "region": "경상북도"
  },
  {
    "name": "김제봉남중학교",
    "address": "전북특별자치도 김제시 봉남면 대송리 578-3",
    "lat": "35.75287385141627",
    "lng": "126.96196126567297",
    "region": "전북특별자치도"
  },
  {
    "name": "김제여자고등학교",
    "address": "전북특별자치도 김제시 신풍동 106-2",
    "lat": "35.80047269541119",
    "lng": "126.89579724464284",
    "region": "전북특별자치도"
  },
  {
    "name": "길안초등학교 길송분교 운동장",
    "address": "경상북도 안동시 길안면 송사리 100-8",
    "lat": "36.36873038708784",
    "lng": "128.92903704442634",
    "region": "경상북도"
  },
  {
    "name": "임동초등학교 운동장",
    "address": "경상북도 안동시 임동면 중평리 949",
    "lat": "36.56966867270322",
    "lng": "128.92079856598446",
    "region": "경상북도"
  },
  {
    "name": "안동초등학교 운동장",
    "address": "경상북도 안동시 남문동 189-5",
    "lat": "36.56389773121882",
    "lng": "128.72820796671357",
    "region": "경상북도"
  },
  {
    "name": "용상초등학교 운동장",
    "address": "경상북도 안동시 용상동 1176-1",
    "lat": "36.557384764846006",
    "lng": "128.75269142625322",
    "region": "경상북도"
  },
  {
    "name": "국립경국대학교 운동장",
    "address": "경상북도 안동시 송천동 388",
    "lat": "36.54142401045373",
    "lng": "128.7939181923872",
    "region": "경상북도"
  },
  {
    "name": "경안여자중학교 운동장",
    "address": "경상북도 안동시 금곡동 1-3",
    "lat": "36.5723",
    "lng": "128.7232",
    "region": "경상북도"
  },
  {
    "name": "안동여자고등학교 운동장",
    "address": "경상북도 안동시 법상동 23-1",
    "lat": "36.57268091831865",
    "lng": "128.72518749749847",
    "region": "경상북도"
  },
  {
    "name": "태화어린이공원",
    "address": "경상북도 안동시 태화동 709-2",
    "lat": "36.57139975464692",
    "lng": "128.70704508706044",
    "region": "경상북도"
  },
  {
    "name": "태화5공원",
    "address": "경상북도 안동시 태화동 648-121",
    "lat": "36.5677127678867",
    "lng": "128.7041612994808",
    "region": "경상북도"
  },
  {
    "name": "몽탄초등학교 운동장",
    "address": "전라남도 무안군 몽탄면 사천리 170",
    "lat": "34.92882818124237",
    "lng": "126.50144676762793",
    "region": "전라남도"
  },
  {
    "name": "옥동12공원",
    "address": "경상북도 안동시 옥동 970",
    "lat": "36.56728059274628",
    "lng": "128.69674203606584",
    "region": "경상북도"
  },
  {
    "name": "옥동근린공원",
    "address": "경상북도 안동시 옥동 938-1",
    "lat": "36.5586100453896",
    "lng": "128.69336754083668",
    "region": "경상북도"
  },
  {
    "name": "안동고등학교 운동장",
    "address": "경상북도 안동시 정상동 784",
    "lat": "36.54289367789254",
    "lng": "128.7590655684476",
    "region": "경상북도"
  },
  {
    "name": "영순초등학교 운동장",
    "address": "경상북도 문경시 영순면 사근리 915-2",
    "lat": "36.57877372763784",
    "lng": "128.24468078920478",
    "region": "경상북도"
  },
  {
    "name": "두모체육공원",
    "address": "전라남도 신안군 자은면 송산리 산65",
    "lat": "34.910369277348906",
    "lng": "126.05273276567361",
    "region": "전라남도"
  },
  {
    "name": "비금동초등학교",
    "address": "전라남도 신안군 비금면 용소리 238-2",
    "lat": "34.7843075",
    "lng": "125.9798055",
    "region": "전라남도"
  },
  {
    "name": "팔금중학교",
    "address": "전라남도 신안군 팔금면 읍리 502-1",
    "lat": "34.78485480848201",
    "lng": "126.14468255839427",
    "region": "전라남도"
  },
  {
    "name": "초전초등학교 운동장",
    "address": "경상북도 성주군 초전면 대장리 592",
    "lat": "35.97614554776047",
    "lng": "128.26244369490274",
    "region": "경상북도"
  },
  {
    "name": "구성초등학교",
    "address": "경상북도 김천시 구성면 상원리 100",
    "lat": "36.03120524875737",
    "lng": "128.03939734776887",
    "region": "경상북도"
  },
  {
    "name": "안평초등학교운동장",
    "address": "경상북도 의성군 안평면 박곡리 911",
    "lat": "36.37628232318301",
    "lng": "128.58095340193228",
    "region": "경상북도"
  },
  {
    "name": "대룡초등학교",
    "address": "경상북도 김천시 대항면 대룡리 769-1",
    "lat": "36.12432043069857",
    "lng": "128.04891187652612",
    "region": "경상북도"
  },
  {
    "name": "예천초등학교",
    "address": "경상북도 예천군 예천읍 서본리 49-6",
    "lat": "36.65581749866684",
    "lng": "128.44926935939066",
    "region": "경상북도"
  },
  {
    "name": "지보초등학교운동장",
    "address": "경상북도 예천군 지보면 소화리 520-2",
    "lat": "36.5476108243593",
    "lng": "128.38929911456466",
    "region": "경상북도"
  },
  {
    "name": "예천스타디움",
    "address": "경상북도 예천군 예천읍 동본리 478-1",
    "lat": "36.657711205558044",
    "lng": "128.46302324092045",
    "region": "경상북도"
  },
  {
    "name": "시안미술관 앞마당",
    "address": "경상북도 영천시 화산면 가상리 633",
    "lat": "36.032390473377255",
    "lng": "128.88934487486742",
    "region": "경상북도"
  },
  {
    "name": "대창면사무소 주차장",
    "address": "경상북도 영천시 대창면 대창리 783-1",
    "lat": "35.87593071173987",
    "lng": "128.89502057688267",
    "region": "경상북도"
  },
  {
    "name": "서부초등학교 운동장",
    "address": "전라남도 목포시 산정동 1061-2",
    "lat": "34.80313443431532",
    "lng": "126.37202003518813",
    "region": "전라남도"
  },
  {
    "name": "다부초등학교 운동장",
    "address": "경상북도 칠곡군 가산면 다부리 337-2",
    "lat": "36.04536927947862",
    "lng": "128.52031104082747",
    "region": "경상북도"
  },
  {
    "name": "약목초등학교 운동장",
    "address": "경상북도 칠곡군 약목면 복성리 1077",
    "lat": "36.031961076150495",
    "lng": "128.36069559712263",
    "region": "경상북도"
  },
  {
    "name": "약목중학교 운동장",
    "address": "경상북도 칠곡군 약목면 복성리 777",
    "lat": "36.035155436994735",
    "lng": "128.36106700488003",
    "region": "경상북도"
  },
  {
    "name": "금장초등학교 운동장",
    "address": "경상북도 경주시 현곡면 금장리 339",
    "lat": "35.87362441815953",
    "lng": "129.2048061738502",
    "region": "경상북도"
  },
  {
    "name": "북일초등학교",
    "address": "전라남도 장성군 북일면 오산리 106-1",
    "lat": "35.38464049234392",
    "lng": "126.79421299756929",
    "region": "전라남도"
  },
  {
    "name": "진평초등학교 운동장",
    "address": "경상북도 구미시 진평동 1057",
    "lat": "36.091419539422084",
    "lng": "128.42679914798316",
    "region": "경상북도"
  },
  {
    "name": "해마루중학교 운동장",
    "address": "경상북도 구미시 옥계동 921",
    "lat": "36.13944789576895",
    "lng": "128.43292724161483",
    "region": "경상북도"
  },
  {
    "name": "오태초등학교 운동장",
    "address": "경상북도 구미시 오태동 743-1",
    "lat": "36.070461756972804",
    "lng": "128.3496750662819",
    "region": "경상북도"
  },
  {
    "name": "도평초등학교 운동장",
    "address": "경상북도 청송군 현동면 도평리 683-3",
    "lat": "36.290380324630355",
    "lng": "129.0198601128281",
    "region": "경상북도"
  },
  {
    "name": "오상중학교 운동장",
    "address": "경상북도 구미시 장천면 상장리 700",
    "lat": "36.12386556888312",
    "lng": "128.49672620498637",
    "region": "경상북도"
  },
  {
    "name": "해평중학교 운동장",
    "address": "경상북도 구미시 해평면 월호리 488",
    "lat": "36.19898997641644",
    "lng": "128.39278539503755",
    "region": "경상북도"
  },
  {
    "name": "송정초등학교 운동장",
    "address": "경상북도 구미시 송정동 485",
    "lat": "36.113986840393004",
    "lng": "128.34854810422019",
    "region": "경상북도"
  },
  {
    "name": "약수중학교",
    "address": "전라남도 장성군 북하면 약수리 428-1",
    "lat": "35.40672859888256",
    "lng": "126.88063079405582",
    "region": "전라남도"
  },
  {
    "name": "감문중학교",
    "address": "경상북도 김천시 감문면 삼성리 676",
    "lat": "36.216943409795334",
    "lng": "128.18679719275005",
    "region": "경상북도"
  },
  {
    "name": "문경관광사격장 공터",
    "address": "경상북도 문경시 불정동 산111",
    "lat": "36.6431",
    "lng": "128.1293",
    "region": "경상북도"
  },
  {
    "name": "벽진중학교 운동장",
    "address": "경상북도 성주군 벽진면 수촌리 63-1",
    "lat": "35.960286661199085",
    "lng": "128.21214168864887",
    "region": "경상북도"
  },
  {
    "name": "토골공원",
    "address": "경상북도 구미시 진평동 175-6",
    "lat": "36.09415974274047",
    "lng": "128.42285179486612",
    "region": "경상북도"
  },
  {
    "name": "도토��공원",
    "address": "경상북도 구미시 인의동 662-1",
    "lat": "36.10064436574973",
    "lng": "128.42843042536697",
    "region": "경상북도"
  },
  {
    "name": "찰밭공원",
    "address": "경상북도 구미시 진평동 1041-1",
    "lat": "36.10083645255505",
    "lng": "128.4225709815221",
    "region": "경상북도"
  },
  {
    "name": "동락공원",
    "address": "경상북도 구미시 진평동 766",
    "lat": "36.095981301025574",
    "lng": "128.40179761489597",
    "region": "경상북도"
  },
  {
    "name": "사거리성당",
    "address": "전라남도 장성군 북이면 사거리 651-4",
    "lat": "35.42777129146984",
    "lng": "126.80893534520858",
    "region": "전라남도"
  },
  {
    "name": "약수교회",
    "address": "전라남도 장성군 북하면 약수리 389-13",
    "lat": "35.40747431912757",
    "lng": "126.88117319637371",
    "region": "전라남도"
  },
  {
    "name": "부림초등학교",
    "address": "경상북도 경산시 진량읍 부기리 171",
    "lat": "35.897697122233346",
    "lng": "128.82487507934061",
    "region": "경상북도"
  },
  {
    "name": "진량고등학교",
    "address": "경상북도 경산시 진량읍 신상리 1114-6",
    "lat": "35.8762453",
    "lng": "128.8110176",
    "region": "경상북도"
  },
  {
    "name": "김제월촌초등학교",
    "address": "전북특별자치도 김제시 입석동 469",
    "lat": "35.78886931310506",
    "lng": "126.8681592447861",
    "region": "전북특별자치도"
  },
  {
    "name": "청계초등학교 운동장",
    "address": "전라남도 무안군 청계면 상마리 36-1",
    "lat": "34.925449388647145",
    "lng": "126.42866365152653",
    "region": "전라남도"
  },
  {
    "name": "현경초등학교 운동장",
    "address": "전라남도 무안군 현경면 외반리 192-3",
    "lat": "35.019208882436715",
    "lng": "126.41405747667953",
    "region": "전라남도"
  },
  {
    "name": "망운초등학교 운동장",
    "address": "전라남도 무안군 망운면 목동리 664-1",
    "lat": "35.015780239236555",
    "lng": "126.39291664993671",
    "region": "전라남도"
  },
  {
    "name": "자은중학교",
    "address": "전라남도 신안군 자은면 구영리 120",
    "lat": "34.88819523928188",
    "lng": "126.04330593282528",
    "region": "전라남도"
  },
  {
    "name": "화순초등학교 운동장",
    "address": "전라남도 화순군 화순읍 교리 84",
    "lat": "35.06542751117789",
    "lng": "126.98478865502958",
    "region": "전라남도"
  },
  {
    "name": "북면중학교 운동장",
    "address": "전라남도 화순군 북면 이천리 26",
    "lat": "35.165755418483364",
    "lng": "127.13469609931234",
    "region": "전라남도"
  },
  {
    "name": "유천초등학교운동장",
    "address": "경상북도 예천군 유천면 가리 746",
    "lat": "36.637410765769665",
    "lng": "128.37881113133497",
    "region": "경상북도"
  },
  {
    "name": "거여초등학교 운동장",
    "address": "경상북도 영천시 금호읍 관정리 449-1",
    "lat": "35.931426472744576",
    "lng": "128.90969866562008",
    "region": "경상북도"
  },
  {
    "name": "석적고등학교  운동장",
    "address": "경상북도 칠곡군 석적읍 중리 15",
    "lat": "36.081650757545816",
    "lng": "128.41823504852513",
    "region": "경상북도"
  },
  {
    "name": "석적체육공원 공터",
    "address": "경상북도 칠곡군 석적읍 남율리 790",
    "lat": "36.071818962244315",
    "lng": "128.39127061832457",
    "region": "경상북도"
  },
  {
    "name": "봉곡초등학교 운동장",
    "address": "경상북도 구미시 봉곡동 190",
    "lat": "36.15342521261105",
    "lng": "128.30394567162583",
    "region": "경상북도"
  },
  {
    "name": "구평남부초등학교 운동장",
    "address": "경상북도 구미시 구평동 474-1",
    "lat": "36.09110753313705",
    "lng": "128.43746618785758",
    "region": "경상북도"
  },
  {
    "name": "옥계중학교 운동장",
    "address": "경상북도 구미시 거의동 610-1",
    "lat": "36.13865669560321",
    "lng": "128.41167122125748",
    "region": "경상북도"
  },
  {
    "name": "인동중학교 운동장",
    "address": "경상북도 구미시 인의동 103",
    "lat": "36.10877691486842",
    "lng": "128.42842405084215",
    "region": "경상북도"
  },
  {
    "name": "형일초등학교 운동장",
    "address": "경상북도 구미시 형곡동 134",
    "lat": "36.11449243766641",
    "lng": "128.32995118576554",
    "region": "경상북도"
  },
  {
    "name": "상모고등학교 운동장",
    "address": "경상북도 구미시 상모동 447-1",
    "lat": "36.08422699811288",
    "lng": "128.3518275277992",
    "region": "경상북도"
  },
  {
    "name": "금오고등학교 운동장",
    "address": "경상북도 구미시 광평동 299-3",
    "lat": "36.10852219525898",
    "lng": "128.35553526878363",
    "region": "경상북도"
  },
  {
    "name": "선산고등학교 운동장",
    "address": "경상북도 구미시 선산읍 노상리 41",
    "lat": "36.24723384431437",
    "lng": "128.29458296304443",
    "region": "경상북도"
  },
  {
    "name": "구미초등학교 운동장",
    "address": "경상북도 구미시 원평동 210-5",
    "lat": "36.13035842517378",
    "lng": "128.33464200088113",
    "region": "경상북도"
  },
  {
    "name": "형곡초등학교 운동장",
    "address": "경상북도 구미시 형곡동 170",
    "lat": "36.10940034133582",
    "lng": "128.33821252739688",
    "region": "경상북도"
  },
  {
    "name": "금오중학교 운동장",
    "address": "경상북도 구미시 임은동 128",
    "lat": "36.085882841865065",
    "lng": "128.37068438529974",
    "region": "경상북도"
  },
  {
    "name": "광평중학교 운동장",
    "address": "경상북도 구미시 광평동 160",
    "lat": "36.1161061984119",
    "lng": "128.3562809228898",
    "region": "경상북도"
  },
  {
    "name": "삼서초등학교",
    "address": "전라남도 장성군 삼서면 대곡리 320-1",
    "lat": "35.229778981744616",
    "lng": "126.65369504376177",
    "region": "전라남도"
  },
  {
    "name": "장성소망교회",
    "address": "전라남도 장성군 장성읍 장안리 252",
    "lat": "35.314806502956614",
    "lng": "126.78374046122713",
    "region": "전라남도"
  },
  {
    "name": "홍길동체육관",
    "address": "전라남도 장성군 장성읍 기산리 388",
    "lat": "35.303118261933506",
    "lng": "126.76681870210221",
    "region": "전라남도"
  },
  {
    "name": "대동초등학교",
    "address": "경상북도 경산시 와촌면 박사리 606",
    "lat": "35.95906439437869",
    "lng": "128.8035306715904",
    "region": "경상북도"
  },
  {
    "name": "사동중학교",
    "address": "경상북도 경산시 사동 660",
    "lat": "35.81403876572684",
    "lng": "128.7593948594893",
    "region": "경상북도"
  },
  {
    "name": "월곡초등학교 삼계분교 운동장",
    "address": "경상북도 안동시 예안면 삼계리 277",
    "lat": "36.718675163373256",
    "lng": "128.92551141085843",
    "region": "경상북도"
  },
  {
    "name": "길주초등학교 운동장",
    "address": "경상북도 안동시 용상동 591-1",
    "lat": "36.55525824084924",
    "lng": "128.75987123943116",
    "region": "경상북도"
  },
  {
    "name": "용상3공원",
    "address": "경상북도 안동시 용상동 1602",
    "lat": "36.55816918340779",
    "lng": "128.74625364406032",
    "region": "경상북도"
  },
  {
    "name": "지례초등학교",
    "address": "경상북도 김천시 지례면 교리 584",
    "lat": "35.98608458313202",
    "lng": "128.0269405245781",
    "region": "경상북도"
  },
  {
    "name": "동면초등학교 운동장",
    "address": "전라남도 화순군 동면 장동리 351",
    "lat": "35.031417667693034",
    "lng": "127.04313425911418",
    "region": "전라남도"
  },
  {
    "name": "간촌공원",
    "address": "인천광역시 서구 연희동 707",
    "lat": "37.549434287462546",
    "lng": "126.67860768905325",
    "region": "인천광역시"
  },
  {
    "name": "포은고등학교 운동장",
    "address": "경상북도 영천시 금호읍 교대리 720",
    "lat": "35.93983203856294",
    "lng": "128.8782951235779",
    "region": "경상북도"
  },
  {
    "name": "금호중·공업고등학교 운동장",
    "address": "경상북도 영천시 금호읍 교대리 172-1",
    "lat": "35.93254920314127",
    "lng": "128.87346369798038",
    "region": "경상북도"
  },
  {
    "name": "금호초등학교 운동장",
    "address": "경상북도 영천시 금호읍 교대리 130-2",
    "lat": "35.93422464859921",
    "lng": "128.88066523803158",
    "region": "경상북도"
  },
  {
    "name": "시종초등학교 운동장",
    "address": "전라남도 영암군 시종면 내동리 10-2",
    "lat": "34.86701567318302",
    "lng": "126.60748520490593",
    "region": "전라남도"
  },
  {
    "name": "인평초등학교 운동장",
    "address": "경상북도 칠곡군 북삼읍 인평리 656-1",
    "lat": "36.07177953763912",
    "lng": "128.336959320816",
    "region": "경상북도"
  },
  {
    "name": "학림초등학교 운동장",
    "address": "경상북도 칠곡군 가산면 학하리 753",
    "lat": "36.10539834676671",
    "lng": "128.4912483756782",
    "region": "경상북도"
  },
  {
    "name": "천생초등학교 운동장",
    "address": "경상북도 구미시 구평동 431-2",
    "lat": "36.09394538312676",
    "lng": "128.43799544303755",
    "region": "경상북도"
  },
  {
    "name": "상모초등학교 운동장",
    "address": "경상북도 구미시 상모동 41",
    "lat": "36.090885207665515",
    "lng": "128.35738526990463",
    "region": "경상북도"
  },
  {
    "name": "형남중학교 운동장",
    "address": "경상북도 구미시 형곡동 803-2",
    "lat": "36.1015845836525",
    "lng": "128.33599739749337",
    "region": "경상북도"
  },
  {
    "name": "동화면행정복지센터",
    "address": "전라남도 장성군 동화면 구림리 9-2",
    "lat": "35.28409633301508",
    "lng": "126.73876875554373",
    "region": "전라남도"
  },
  {
    "name": "남산초등학교",
    "address": "경상북도 경산시 남산면 산양리 165",
    "lat": "35.792817803012696",
    "lng": "128.83588860688965",
    "region": "경상북도"
  },
  {
    "name": "와촌초등학교",
    "address": "경상북도 경산시 와촌면 동강리 91",
    "lat": "35.95011098286537",
    "lng": "128.83727817654668",
    "region": "경상북도"
  },
  {
    "name": "압량초등학교",
    "address": "경상북도 경산시 압량읍 신대리 579",
    "lat": "35.840238124188815",
    "lng": "128.7666052579885",
    "region": "경상북도"
  },
  {
    "name": "경북체육중고등학교",
    "address": "경상북도 경산시 신교동 108-1",
    "lat": "35.81179654360778",
    "lng": "128.73888129107536",
    "region": "경상북도"
  },
  {
    "name": "대구교대 안동부설 초등학교 운동장",
    "address": "경상북도 안동시 명륜동 345",
    "lat": "36.56940517802153",
    "lng": "128.72877861929564",
    "region": "경상북도"
  },
  {
    "name": "서부초등학교 운동장",
    "address": "경상북도 안동시 금곡동 111-1",
    "lat": "36.567211764397435",
    "lng": "128.71900785334049",
    "region": "경상북도"
  },
  {
    "name": "안동여자중학교 운동장",
    "address": "경상북도 안동시 법상동 1",
    "lat": "36.5726",
    "lng": "128.7275",
    "region": "경상북도"
  },
  {
    "name": "안동진명학교 운동장",
    "address": "경상북도 안동시 평화동 382-1",
    "lat": "36.56832540712511",
    "lng": "128.715947564814",
    "region": "경상북도"
  },
  {
    "name": "옥동6공원",
    "address": "경상북도 안동시 옥동 983-5",
    "lat": "36.56043470405933",
    "lng": "128.7027326727418",
    "region": "경상북도"
  },
  {
    "name": "조치원명동초등학교 운동장",
    "address": "세종특별자치시 세종시 조치원읍 명리 19",
    "lat": "36.60074015972884",
    "lng": "127.30474233627316",
    "region": "세종특별자치시"
  },
  {
    "name": "금남초등학교 운동장",
    "address": "세종특별자치시 세종시 금남면 신촌리 134-1",
    "lat": "36.472482762471884",
    "lng": "127.28713495260196",
    "region": "세종특별자치시"
  },
  {
    "name": "세종중학교 운동장",
    "address": "세종특별자치시 세종시 조치원읍 교리 1-1",
    "lat": "36.60665290483581",
    "lng": "127.29763448238371",
    "region": "세종특별자치시"
  },
  {
    "name": "창서초등학교 운동장",
    "address": "서울특별시 서대문구 창천동 53-38",
    "lat": "37.55751555838298",
    "lng": "126.93405522780486",
    "region": "서울특별시"
  },
  {
    "name": "경동고등학교 운동장",
    "address": "서울특별시 성북구 삼선동3가 43-1",
    "lat": "37.585698514669694",
    "lng": "127.0149955498448",
    "region": "서울특별시"
  },
  {
    "name": "상봉초등학교 운동장",
    "address": "경기도 화성시 봉담읍 동화리 569",
    "lat": "37.21800965746041",
    "lng": "126.95473236303457",
    "region": "경기도"
  },
  {
    "name": "경문고등학교운동장",
    "address": "서울특별시 동작구 동작동 산4-2",
    "lat": "37.491750275867254",
    "lng": "126.98161416463124",
    "region": "서울특별시"
  },
  {
    "name": "외북초등학교 운동장",
    "address": "경기도 포천시 신북면 계류리 54-3",
    "lat": "37.946626691250096",
    "lng": "127.1875173979288",
    "region": "경기도"
  },
  {
    "name": "덕현초등학교 운동장",
    "address": "경기도 양주시 고읍동 80-2",
    "lat": "37.79891915195334",
    "lng": "127.08075344153072",
    "region": "경기도"
  },
  {
    "name": "남면초등학교 양덕분교 운동장",
    "address": "경기도 양주시 남면 한산리 272-1",
    "lat": "37.90868163956286",
    "lng": "126.99861199978886",
    "region": "경기도"
  },
  {
    "name": "은현초등학교 운동장",
    "address": "경기도 양주시 은현면 선암리 553-2",
    "lat": "37.86404878023498",
    "lng": "127.02325847473999",
    "region": "경기도"
  },
  {
    "name": "금남초등학교 운동장",
    "address": "경기도 남양주시 화도읍 금남리 372",
    "lat": "37.644137988739644",
    "lng": "127.36237115121772",
    "region": "경기도"
  },
  {
    "name": "전주진북초등학교(운동장)",
    "address": "전북특별자치도 전주시 덕진구 진북동 1046-1",
    "lat": "35.8258147346044",
    "lng": "127.13212979124097",
    "region": "전북특별자치도"
  },
  {
    "name": "공덕소공원(법원및쉼터)",
    "address": "서울특별시 마포구 공덕동 475-1",
    "lat": "37.54840287191604",
    "lng": "126.9545629743362",
    "region": "서울특별시"
  },
  {
    "name": "신암초등학교  운동장",
    "address": "광주광역시 서구 풍암동 1094",
    "lat": "35.122455",
    "lng": "126.881037",
    "region": "광주광역시"
  },
  {
    "name": "여주자영농업고등학교 운동장",
    "address": "경기도 여주시 세종대왕면 왕대리 973-1",
    "lat": "37.29624690205788",
    "lng": "127.62145221233366",
    "region": "경기도"
  },
  {
    "name": "여주시보건소",
    "address": "경기도 여주시 상동 357",
    "lat": "37.29441736804994",
    "lng": "127.63970160563419",
    "region": "경기도"
  },
  {
    "name": "여주종합운동장",
    "address": "경기도 여주시 월송동 1",
    "lat": "37.29353172209395",
    "lng": "127.62414006367571",
    "region": "경기도"
  },
  {
    "name": "신중초등학교 운동장",
    "address": "서울특별시 서초구 서초동 1466-5",
    "lat": "37.48010590626469",
    "lng": "127.00971394458375",
    "region": "서울특별시"
  },
  {
    "name": "동덕여자고등학교 운동장",
    "address": "서울특별시 서초구 방배동 산82",
    "lat": "37.47632642260669",
    "lng": "126.99272086128234",
    "region": "서울특별시"
  },
  {
    "name": "우암초등학교 운동장",
    "address": "서울특별시 서초구 우면동 58",
    "lat": "37.471787284061364",
    "lng": "127.02473771951",
    "region": "서울특별시"
  },
  {
    "name": "창천초등학교 운동장 ",
    "address": "서울특별시 마포구 노고산동 33-1",
    "lat": "37.55446361192416",
    "lng": "126.93954680469731",
    "region": "서울특별시"
  },
  {
    "name": "동교초등학교 운동장",
    "address": "서울특별시 마포구 망원동 426-5",
    "lat": "37.5583",
    "lng": "126.9027",
    "region": "서울특별시"
  },
  {
    "name": "쌈지마당",
    "address": "서울특별시 마포구 망원동 451-1",
    "lat": "37.55764909939678",
    "lng": "126.89852499097434",
    "region": "서울특별시"
  },
  {
    "name": "상지초등학교 운동장",
    "address": "서울특별시 마포구 상암동 1676",
    "lat": "37.57938228350491",
    "lng": "126.8823756284636",
    "region": "서울특별시"
  },
  {
    "name": "군북초등학교 운동장",
    "address": "경상남도 함안군 군북면 덕대리 17",
    "lat": "35.25777218145666",
    "lng": "128.34666130608122",
    "region": "경상남도"
  },
  {
    "name": "서촌초등학교 운동장",
    "address": "충청북도 청주시 흥덕구 서촌동 183",
    "lat": "36.65023473542421",
    "lng": "127.39951454723209",
    "region": "충청북도"
  },
  {
    "name": "남평초등학교 운동장",
    "address": "충청북도 청주시 서원구 분평동 1209",
    "lat": "36.611405600237035",
    "lng": "127.48933185246452",
    "region": "충청북도"
  },
  {
    "name": "신흥고등학교 운동장",
    "address": "충청북도 청주시 청원구 율량동 516",
    "lat": "36.668622964428224",
    "lng": "127.49587327792862",
    "region": "충청북도"
  },
  {
    "name": "상북초등학교 운동장",
    "address": "울산광역시 울주군 상북면 산전리 473-3",
    "lat": "35.59164925661413",
    "lng": "129.09344583749817",
    "region": "울산광역시"
  },
  {
    "name": "의랑초등학교 운동장",
    "address": "세종특별자치시 세종시 장군면 태산리 105",
    "lat": "36.55007029266166",
    "lng": "127.19088313855632",
    "region": "세종특별자치시"
  },
  {
    "name": "덕신소공원",
    "address": "울산광역시 울주군 온산읍 덕신리 269",
    "lat": "35.4335",
    "lng": "129.3111",
    "region": "울산광역시"
  },
  {
    "name": "사천초등학교 운동장",
    "address": "충청북도 청주시 청원구 사천동 26-2",
    "lat": "36.67062006535577",
    "lng": "127.48013256357726",
    "region": "충청북도"
  },
  {
    "name": "청주여자고등학교 운동장",
    "address": "충청북도 청주시 청원구 율량동 534",
    "lat": "36.667166141353476",
    "lng": "127.48970328770626",
    "region": "충청북도"
  },
  {
    "name": "조치원신봉초등학교 운동장",
    "address": "세종특별자치시 세종시 조치원읍 침산리 59",
    "lat": "36.60339298416371",
    "lng": "127.28811800479887",
    "region": "세종특별자치시"
  },
  {
    "name": "경의고등학교 운동장",
    "address": "울산광역시 울주군 상북면 산전리 435",
    "lat": "35.588599973582795",
    "lng": "129.09419685602424",
    "region": "울산광역시"
  },
  {
    "name": "수왕초등학교 운동장",
    "address": "세종특별자치시 세종시 연기면 눌왕리 324",
    "lat": "36.544005607125655",
    "lng": "127.25239634513856",
    "region": "세종특별자치시"
  },
  {
    "name": "율량초등학교 운동장",
    "address": "충청북도 청주시 청원구 율량동 1034",
    "lat": "36.66753356877649",
    "lng": "127.4914778607588",
    "region": "충청북도"
  },
  {
    "name": "한솔중학교 운동장",
    "address": "세종특별자치시 세종시 한솔동 975",
    "lat": "36.47545849234063",
    "lng": "127.25512683391572",
    "region": "세종특별자치시"
  },
  {
    "name": "청량중학교 운동장",
    "address": "울산광역시 울주군 청량읍 상남리 776",
    "lat": "35.48786045788",
    "lng": "129.30456519127367",
    "region": "울산광역시"
  },
  {
    "name": "문수초등학교 운동장",
    "address": "울산광역시 울주군 청량읍 율리 390",
    "lat": "35.519006395241966",
    "lng": "129.24058377742494",
    "region": "울산광역시"
  },
  {
    "name": "조림초등학교 운동장",
    "address": "전북특별자치도 진안군 정천면 봉학리 517",
    "lat": "35.87218122025522",
    "lng": "127.43000425999813",
    "region": "전북특별자치도"
  },
  {
    "name": "당산초등학교 운동장",
    "address": "서울특별시 영등포구 양평동4가 323",
    "lat": "37.5393901960254",
    "lng": "126.89610242843631",
    "region": "서울특별시"
  },
  {
    "name": "실내초등학교 운동장",
    "address": "강원특별자치도 화천군 사내면 명월리 270",
    "lat": "38.12049601124462",
    "lng": "127.53180474042892",
    "region": "강원특별자치도"
  },
  {
    "name": "변산중학교 운동장",
    "address": "전북특별자치도 부안군 진서면 곰소리 427",
    "lat": "35.588735208913775",
    "lng": "126.6061180830001",
    "region": "전북특별자치도"
  },
  {
    "name": "상천초등학교 운동장",
    "address": "강원특별자치도 춘천시 신북읍 천전리 170",
    "lat": "37.933576037172315",
    "lng": "127.78510830649066",
    "region": "강원특별자치도"
  },
  {
    "name": "구일중학교 운동장",
    "address": "서울특별시 구로구 구로동 685-161",
    "lat": "37.494802573812784",
    "lng": "126.87397058965969",
    "region": "서울특별시"
  },
  {
    "name": "오류초등학교 운동장",
    "address": "서울특별시 구로구 오류동 20-1",
    "lat": "37.4979756983295",
    "lng": "126.84230938322963",
    "region": "서울특별시"
  },
  {
    "name": "신도림초등학교 운동장",
    "address": "서울특별시 구로구 신도림동 300-6",
    "lat": "37.512342821667474",
    "lng": "126.8825921416296",
    "region": "서울특별시"
  },
  {
    "name": "세인고등학교 운동장",
    "address": "울산광역시 울주군 웅촌면 검단리 603-3",
    "lat": "35.457429981131696",
    "lng": "129.17763769627186",
    "region": "울산광역시"
  },
  {
    "name": "한국기술부사관고등학교 운동장",
    "address": "전북특별자치도 진안군 진안읍 군상리 1054",
    "lat": "35.80075098039095",
    "lng": "127.4173092842102",
    "region": "전북특별자치도"
  },
  {
    "name": "영원중학교 운동장",
    "address": "서울특별시 영등포구 영등포동 576-6",
    "lat": "37.515844748834475",
    "lng": "126.91424489021301",
    "region": "서울특별시"
  },
  {
    "name": "영동초등학교 운동장",
    "address": "서울특별시 영등포구 당산동 121-22",
    "lat": "37.52662607834688",
    "lng": "126.907228231427",
    "region": "서울특별시"
  },
  {
    "name": "신평초등학교 운동장",
    "address": "전북특별자치도 임실군 신평면 원천리 139",
    "lat": "35.657219684063634",
    "lng": "127.22679711487432",
    "region": "전북특별자치도"
  },
  {
    "name": "유촌초등학교 운동장",
    "address": "강원특별자치도 화천군 간동면 유촌리 604",
    "lat": "38.05533670886366",
    "lng": "127.79131513408633",
    "region": "강원특별자치도"
  },
  {
    "name": "오음초등학교 운동장",
    "address": "강원특별자치도 화천군 간동면 오음리 248",
    "lat": "38.05412415347616",
    "lng": "127.82193497945171",
    "region": "강원특별자치도"
  },
  {
    "name": "전주삼천초등학교(운동장)",
    "address": "전북특별자치도 전주시 완산구 삼천동1가 585-1",
    "lat": "35.800625582848696",
    "lng": "127.12317520166751",
    "region": "전북특별자치도"
  },
  {
    "name": "곤지중학교(운동장)",
    "address": "전북특별자치도 전주시 완산구 동완산동 167",
    "lat": "35.81028237655612",
    "lng": "127.1435351316707",
    "region": "전북특별자치도"
  },
  {
    "name": "효정중학교(운동장)",
    "address": "전북특별자치도 전주시 완산구 효자동1가 62",
    "lat": "35.80679980372126",
    "lng": "127.13310532759631",
    "region": "전북특별자치도"
  },
  {
    "name": "효자초등학교(운동장)",
    "address": "전북특별자치도 전주시 완산구 효자동1가 567",
    "lat": "35.80289307524569",
    "lng": "127.12269917079914",
    "region": "전북특별자치도"
  },
  {
    "name": "명정어린이공원(전곡4호)",
    "address": "경기도 연천군 전곡읍 전곡리 411-11",
    "lat": "38.03211963860876",
    "lng": "127.0727508696542",
    "region": "경기도"
  },
  {
    "name": "당림초등학교 운동장",
    "address": "강원특별자치도 춘천시 서면 당림리 414-1",
    "lat": "37.83763327413576",
    "lng": "127.60805545380495",
    "region": "강원특별자치도"
  },
  {
    "name": "엄사중학교 운동장",
    "address": "충청남도 계룡시 엄사면 엄사리 396-9",
    "lat": "36.287339505241036",
    "lng": "127.22971022128665",
    "region": "충청남도"
  },
  {
    "name": "청동초등학교 운동장",
    "address": "부산광역시 영도구 청학동 71-1",
    "lat": "35.08798422466979",
    "lng": "129.06700451008103",
    "region": "부산광역시"
  },
  {
    "name": "신당초등학교 운동장",
    "address": "충청남도 홍성군 서부면 남당리 664",
    "lat": "36.54752809120601",
    "lng": "126.47362721372484",
    "region": "충청남도"
  },
  {
    "name": "연서초등학교 운동장",
    "address": "세종특별자치시 세종시 연서면 신대리 33-1",
    "lat": "36.58247497990168",
    "lng": "127.25407685216805",
    "region": "세종특별자치시"
  },
  {
    "name": "연봉초등학교 운동장",
    "address": "세종특별자치시 세종시 연서면 봉암리 210-2",
    "lat": "36.56386102158218",
    "lng": "127.28232310201626",
    "region": "세종특별자치시"
  },
  {
    "name": "울산마을교육공동체거점센터 운동장",
    "address": "울산광역시 울주군 상북면 궁근정리 564-1",
    "lat": "35.61547895688055",
    "lng": "129.06753569841536",
    "region": "울산광역시"
  },
  {
    "name": "감성초등학교 운동장",
    "address": "세종특별자치시 세종시 금남면 감성리 55-1",
    "lat": "36.443301504386845",
    "lng": "127.28880222077606",
    "region": "세종특별자치시"
  },
  {
    "name": "하동경로당 공터",
    "address": "울산광역시 울주군 두서면 미호리 11-2",
    "lat": "35.67381614368146",
    "lng": "129.17857646942355",
    "region": "울산광역시"
  },
  {
    "name": "도담고등학교 운동장",
    "address": "세종특별자치시 세종시 도담동 642",
    "lat": "36.513714906258",
    "lng": "127.26354360580443",
    "region": "세종특별자치시"
  },
  {
    "name": "구영근린공원",
    "address": "울산광역시 울주군 범서읍 구영리 801-13",
    "lat": "35.571388323426426",
    "lng": "129.2419463396099",
    "region": "울산광역시"
  },
  {
    "name": "웅촌중학교 운동장",
    "address": "울산광역시 울주군 웅촌면 곡천리 290-1",
    "lat": "35.4622909800707",
    "lng": "129.2096954584164",
    "region": "울산광역시"
  },
  {
    "name": "서원리 마을회관 공터",
    "address": "충청북도 보은군 장안면 서원리 299-1",
    "lat": "36.479771",
    "lng": "127.798349",
    "region": "충청북도"
  },
  {
    "name": "포일초등학교 운동장",
    "address": "경기도 의왕시 포일동 647",
    "lat": "37.39912890717293",
    "lng": "126.98574660099261",
    "region": "경기도"
  },
  {
    "name": "건천리 마을회관 공터 ",
    "address": "충청북도 보은군 회인면 건천리 170-13",
    "lat": "36.478646170226654",
    "lng": "127.62505441904068",
    "region": "충청북도"
  },
  {
    "name": "나래공원(삼산2-7공원)",
    "address": "인천광역시 부평구 삼산동 393-3",
    "lat": "37.51902424573734",
    "lng": "126.74576737281392",
    "region": "인천광역시"
  },
  {
    "name": "햇살공원(삼산1-1공원)",
    "address": "인천광역시 부평구 삼산동 427-6",
    "lat": "37.51621316406662",
    "lng": "126.73319397418999",
    "region": "인천광역시"
  },
  {
    "name": "백봉초등학교 운동장",
    "address": "충청북도 괴산군 청안면 부흥리 428",
    "lat": "36.70703028089109",
    "lng": "127.72750340813946",
    "region": "충청북도"
  },
  {
    "name": "소수주민센터 광장",
    "address": "충청북도 괴산군 소수면 수리 610-3",
    "lat": "36.85658911624646",
    "lng": "127.74420243501665",
    "region": "충청북도"
  },
  {
    "name": "창덕중학교운동장",
    "address": "경상남도 창원시 의창구 동읍 용잠리 282",
    "lat": "35.27742798890795",
    "lng": "128.6893039941791",
    "region": "경상남도"
  },
  {
    "name": "감만중학교 운동장",
    "address": "부산광역시 남구 감만동 2-1",
    "lat": "35.12167245756233",
    "lng": "129.08846497535427",
    "region": "부산광역시"
  },
  {
    "name": "대연중학교 운동장",
    "address": "부산광역시 남구 대연동 1219-80",
    "lat": "35.13253883020113",
    "lng": "129.08452268611953",
    "region": "부산광역시"
  },
  {
    "name": "감만 창의문화촌 입구 공터",
    "address": "부산광역시 남구 감만동 79-1",
    "lat": "35.118267507906076",
    "lng": "129.08110499382073",
    "region": "부산광역시"
  },
  {
    "name": "송정초등학교 운동장",
    "address": "광주광역시 광산구 도산동 865-3",
    "lat": "35.13140706690343",
    "lng": "126.79667319907257",
    "region": "광주광역시"
  },
  {
    "name": "석교초등학교 운동장",
    "address": "전라남도 진도군 임회면 석교리 416",
    "lat": "34.40553023610771",
    "lng": "126.1917263150628",
    "region": "전라남도"
  },
  {
    "name": "남산초등학교운동장",
    "address": "울산광역시 남구 옥동 1396",
    "lat": "35.536496921367856",
    "lng": "129.29543249963157",
    "region": "울산광역시"
  },
  {
    "name": "대현초등학교운동장",
    "address": "울산광역시 남구 야음동 687-2",
    "lat": "35.52785251050029",
    "lng": "129.32494362547325",
    "region": "울산광역시"
  },
  {
    "name": "산정공원",
    "address": "광주광역시 광산구 월곡동 539",
    "lat": "35.16847116060524",
    "lng": "126.80615738174592",
    "region": "광주광역시"
  },
  {
    "name": "신창가족공원",
    "address": "광주광역시 광산구 신창동 1120",
    "lat": "35.19841799957162",
    "lng": "126.83897815588266",
    "region": "광주광역시"
  },
  {
    "name": "모라초등학교 운동장",
    "address": "부산광역시 사상구 모라동 655-3",
    "lat": "35.19012004490923",
    "lng": "128.9856201410305",
    "region": "부산광역시"
  },
  {
    "name": "주양초등학교 운동장",
    "address": "부산광역시 사상구 주례동 10-1",
    "lat": "35.15357816630658",
    "lng": "129.0118771791471",
    "region": "부산광역시"
  },
  {
    "name": "괘법초등학교 운동장",
    "address": "부산광역시 사상구 괘법동 556-2",
    "lat": "35.15965551755282",
    "lng": "128.9860027177824",
    "region": "부산광역시"
  },
  {
    "name": "창진초등학교 운동장",
    "address": "부산광역시 사상구 괘법동 519-2",
    "lat": "35.1657705269963",
    "lng": "128.97783274594238",
    "region": "부산광역시"
  },
  {
    "name": "삼덕초등학교 운동장",
    "address": "부산광역시 사상구 삼락동 409-17",
    "lat": "35.173707662673586",
    "lng": "128.9786742050016",
    "region": "부산광역시"
  },
  {
    "name": "모동중학교 운동장",
    "address": "부산광역시 사상구 모라동 75-12",
    "lat": "35.18478741601817",
    "lng": "129.00299906730774",
    "region": "부산광역시"
  },
  {
    "name": "모라중학교 운동장",
    "address": "부산광역시 사상구 모라동 1348",
    "lat": "35.19008257550534",
    "lng": "128.99243947757327",
    "region": "부산광역시"
  },
  {
    "name": "덕포여자중학교 운동장",
    "address": "부산광역시 사상구 덕포동 136",
    "lat": "35.16994127671663",
    "lng": "128.98620301771533",
    "region": "부산광역시"
  },
  {
    "name": "안양관악초등학교 운동장",
    "address": "경기도 안양시 동안구 관양동 367-2",
    "lat": "37.40652010972335",
    "lng": "126.96844673453971",
    "region": "경기도"
  },
  {
    "name": "양지1공원",
    "address": "부산광역시 사상구 주례동 306",
    "lat": "35.15502177615552",
    "lng": "129.00309778145572",
    "region": "부산광역시"
  },
  {
    "name": "여천초등학교운동장",
    "address": "울산광역시 남구 야음동 256",
    "lat": "35.524794778426966",
    "lng": "129.3369668146938",
    "region": "울산광역시"
  },
  {
    "name": "월봉초등학교운동장",
    "address": "울산광역시 남구 신정동 266",
    "lat": "35.54783221288459",
    "lng": "129.31917192592078",
    "region": "울산광역시"
  },
  {
    "name": "신원초등학교 운동장",
    "address": "경기도 고양시 덕양구 신원동 601",
    "lat": "37.66768087467104",
    "lng": "126.88523040965222",
    "region": "경기도"
  },
  {
    "name": "초장중학교 운동장",
    "address": "부산광역시 서구 초장동 75-56",
    "lat": "35.09491518592053",
    "lng": "129.01828839203145",
    "region": "부산광역시"
  },
  {
    "name": "경화초등학교운동장",
    "address": "경상남도 창원시 진해구 경화동 1186",
    "lat": "35.15733070471804",
    "lng": "128.68697672516583",
    "region": "경상남도"
  },
  {
    "name": "개금고등학교운동장",
    "address": "부산광역시 부산진구 개금동 2-8",
    "lat": "35.16140404940389",
    "lng": "129.02530328563032",
    "region": "부산광역시"
  },
  {
    "name": "인덕원중학교 운동장",
    "address": "경기도 안양시 동안구 관양동 1482",
    "lat": "37.40203667264248",
    "lng": "126.97204806688869",
    "region": "경기도"
  },
  {
    "name": "덕은초등학교 운동장",
    "address": "경기도 고양시 덕양구 화전동 274-6",
    "lat": "37.603492316133824",
    "lng": "126.87144311488797",
    "region": "경기도"
  },
  {
    "name": "연미초등학교 운동장",
    "address": "부산광역시 연제구 연산동 1824-60",
    "lat": "35.171164168291476",
    "lng": "129.09245073795486",
    "region": "부산광역시"
  },
  {
    "name": "나눔초등학교 운동장",
    "address": "경기도 안양시 동안구 평촌동 109-1",
    "lat": "37.39047612848133",
    "lng": "126.97554013225715",
    "region": "경기도"
  },
  {
    "name": "성모여자고등학교운동장",
    "address": "부산광역시 부산진구 양정동 429-5",
    "lat": "35.1667531569328",
    "lng": "129.07186826460796",
    "region": "부산광역시"
  },
  {
    "name": "꿈나무공원",
    "address": "부산광역시 연제구 연산동 1478-1",
    "lat": "35.18460718725285",
    "lng": "129.07618328910553",
    "region": "부산광역시"
  },
  {
    "name": "강림초등학교 운동장",
    "address": "강원특별자치도 횡성군 강림면 강림리 1562",
    "lat": "37.35830614617904",
    "lng": "128.12036986195935",
    "region": "강원특별자치도"
  },
  {
    "name": "남천중학교 운동장",
    "address": "부산광역시 남구 대연동 455-12",
    "lat": "35.13599274932316",
    "lng": "129.10505175590768",
    "region": "부산광역시"
  },
  {
    "name": "부산개성중학교운동장",
    "address": "부산광역시 부산진구 가야동 459-45",
    "lat": "35.14631963828286",
    "lng": "129.03294105140765",
    "region": "부산광역시"
  },
  {
    "name": "시청녹음광장",
    "address": "부산광역시 연제구 연산동 1000",
    "lat": "35.179918336090694",
    "lng": "129.07464269413285",
    "region": "부산광역시"
  },
  {
    "name": "서면중학교운동장",
    "address": "부산광역시 부산진구 부암동 127-1",
    "lat": "35.16021864875724",
    "lng": "129.0524705445371",
    "region": "부산광역시"
  },
  {
    "name": "개포초등학교운동장",
    "address": "부산광역시 부산진구 개금동 58",
    "lat": "35.15849449894538",
    "lng": "129.02658823476006",
    "region": "부산광역시"
  },
  {
    "name": "백양고등학교 운동장",
    "address": "경기도 고양시 덕양구 행신동 897",
    "lat": "37.62934471726304",
    "lng": "126.83835877902331",
    "region": "경기도"
  },
  {
    "name": "정발초등학교 운동장",
    "address": "경기도 고양시 일산동구 마두동 758",
    "lat": "37.655484551574",
    "lng": "126.78386768875967",
    "region": "경기도"
  },
  {
    "name": "부산마케팅고등학교운동장",
    "address": "부산광역시 부산진구 전포동 487",
    "lat": "35.15133750828848",
    "lng": "129.07044078705454",
    "region": "부산광역시"
  },
  {
    "name": "양정초등학교운동장",
    "address": "부산광역시 부산진구 양정동 273-8",
    "lat": "35.17506223061012",
    "lng": "129.0712021094211",
    "region": "부산광역시"
  },
  {
    "name": "너부대어린이공원 ",
    "address": "경기도 광명시 광명동 172-77",
    "lat": "37.47860169732382",
    "lng": "126.8481572463511",
    "region": "경기도"
  },
  {
    "name": "꿈동산어린이공원",
    "address": "경기도 광명시 광명동 755",
    "lat": "37.46969565850531",
    "lng": "126.84744204313681",
    "region": "경기도"
  },
  {
    "name": "우리어린이공원",
    "address": "경기도 광명시 광명동 785-3",
    "lat": "37.47214399957872",
    "lng": "126.84597730636591",
    "region": "경기도"
  },
  {
    "name": "스피돔 경륜장 주차장(P5 대형주차장, P6 남쪽 우수지옆 주차장)",
    "address": "경기도 광명시 광명동 780",
    "lat": "37.46639647017249",
    "lng": "126.84490273516562",
    "region": "경기도"
  },
  {
    "name": "광문초등학교 운동장",
    "address": "경기도 광명시 광명동 735",
    "lat": "37.46653883524311",
    "lng": "126.8515294790268",
    "region": "경기도"
  },
  {
    "name": "신나는어린이공원",
    "address": "경기도 광명시 광명동 731",
    "lat": "37.46825896075573",
    "lng": "126.8544745445251",
    "region": "경기도"
  },
  {
    "name": "만리산체육공원 입구",
    "address": "부산광역시 부산���구 범천동 1272-372",
    "lat": "35.14488901509358",
    "lng": "129.05180454254292",
    "region": "부산광역시"
  },
  {
    "name": "광명북고등학교 운동장",
    "address": "경기도 광명시 철산동 59-1",
    "lat": "37.48791438280676",
    "lng": "126.86711856915359",
    "region": "경기도"
  },
  {
    "name": "광명북초등학교 운동장",
    "address": "경기도 광명시 철산동 87",
    "lat": "37.48675571558865",
    "lng": "126.86804639206368",
    "region": "경기도"
  },
  {
    "name": "도덕초등학교 운동장",
    "address": "경기도 광명시 철산동 237",
    "lat": "37.48428150332706",
    "lng": "126.87033005138848",
    "region": "경기도"
  },
  {
    "name": "철산초등학교 운동장",
    "address": "경기도 광명시 철산동 555",
    "lat": "37.46945439930398",
    "lng": "126.87489459614932",
    "region": "경기도"
  },
  {
    "name": "광덕초등학교 운동장",
    "address": "경기도 광명시 철산동 498",
    "lat": "37.47334468198515",
    "lng": "126.86572961457225",
    "region": "경기도"
  },
  {
    "name": "광명고등학교 운동장",
    "address": "경기도 광명시 철산동 234",
    "lat": "37.47827753427268",
    "lng": "126.86601085594093",
    "region": "경기도"
  },
  {
    "name": "광성초등학교 운동장",
    "address": "경기도 광명시 철산동 243",
    "lat": "37.4783340540685",
    "lng": "126.87286079779886",
    "region": "경기도"
  },
  {
    "name": "안현어린이공원",
    "address": "경기도 광명시 하안동 597",
    "lat": "37.46022535095245",
    "lng": "126.87268599403237",
    "region": "경기도"
  },
  {
    "name": "하안초등학교 운동장",
    "address": "경기도 광명시 하안동 649",
    "lat": "37.46289408209874",
    "lng": "126.8741565942764",
    "region": "경기도"
  },
  {
    "name": "답동소공원",
    "address": "인천광역시 중구 답동 18-5",
    "lat": "37.4695758",
    "lng": "126.6274587",
    "region": "인천광역시"
  },
  {
    "name": "영종하늘체육공원",
    "address": "인천광역시 중구 중산동 1878-3",
    "lat": "37.48916979577775",
    "lng": "126.55653476715075",
    "region": "인천광역시"
  },
  {
    "name": "진안군청",
    "address": "전북특별자치도 진안군 진안읍 군하리 97-4",
    "lat": "35.79160933072278",
    "lng": "127.4250340461731",
    "region": "전북특별자치도"
  },
  {
    "name": "고양신일초등학교 운동장",
    "address": "경기도 고양시 일산서구 일산동 1075",
    "lat": "37.67924724477079",
    "lng": "126.77064646138881",
    "region": "경기도"
  },
  {
    "name": "수백초등학교 운동장",
    "address": "강원특별자치도 횡성군 공근면 수백리 341-3",
    "lat": "37.53372429361075",
    "lng": "128.00707549595765",
    "region": "강원특별자치도"
  },
  {
    "name": "신호초등학교 운동장",
    "address": "부산광역시 강서구 신호동 254",
    "lat": "35.0818602386353",
    "lng": "128.87830159419715",
    "region": "부산광역시"
  },
  {
    "name": "대화중학교 운동장",
    "address": "경기도 고양시 일산서구 대화동 2230",
    "lat": "37.67367902898053",
    "lng": "126.74483190200256",
    "region": "경기도"
  },
  {
    "name": "고양송산중학교 운동장",
    "address": "경기도 고양시 일산서구 가좌동 1100",
    "lat": "37.68780098953799",
    "lng": "126.7223833626449",
    "region": "경기도"
  },
  {
    "name": "충장인조잔디축구장",
    "address": "경기도 고양시 덕양구 행주내동 630",
    "lat": "37.613945608860654",
    "lng": "126.82563074386096",
    "region": "경기도"
  },
  {
    "name": "대화인조잔디축구장",
    "address": "경기도 고양시 일산서구 대화동 2312",
    "lat": "37.66997306923444",
    "lng": "126.73758554908025",
    "region": "경기도"
  },
  {
    "name": "내성중학교 운동장",
    "address": "부산광역시 동래구 온천동 1458-20",
    "lat": "35.20333243234987",
    "lng": "129.0770403520787",
    "region": "부산광역시"
  },
  {
    "name": "부산동성고등학교운동장",
    "address": "부산광역시 부산진구 전포동 358-8",
    "lat": "35.15144215103386",
    "lng": "129.06890630722202",
    "region": "부산광역시"
  },
  {
    "name": "원광대학교 제2운동장",
    "address": "전북특별자치도 익산시 신용동 32",
    "lat": "35.97076486820608",
    "lng": "126.9597887992859",
    "region": "전북특별자치도"
  },
  {
    "name": "소만초등학교 운동장",
    "address": "경기도 고양시 덕양구 행신동 780",
    "lat": "37.617256213073986",
    "lng": "126.839505542415",
    "region": "경기도"
  },
  {
    "name": "마로면사무소 공터",
    "address": "충청북도 보은군 마로면 관기리 293",
    "lat": "36.435506",
    "lng": "127.820381",
    "region": "충청북도"
  },
  {
    "name": "사직고등학교 운동장",
    "address": "부산광역시 동래구 사직동 632-8",
    "lat": "35.20332049430209",
    "lng": "129.05656335406306",
    "region": "부산광역시"
  },
  {
    "name": "회인면사무소 공터",
    "address": "충청북도 보은군 회인면 중앙리 172-2",
    "lat": "36.494646",
    "lng": "127.596464",
    "region": "충청북도"
  },
  {
    "name": "뱃들공원 공터 ",
    "address": "충청북도 보은군 보은읍 이평리 175-1",
    "lat": "36.486351",
    "lng": "127.723292",
    "region": "충청북도"
  },
  {
    "name": "남일중학교 운동장",
    "address": "부산광역시 동래구 안락동 165-1",
    "lat": "35.19244772133555",
    "lng": "129.11147847818282",
    "region": "부산광역시"
  },
  {
    "name": "오동리 마을회관 공터 ",
    "address": "충청북도 보은군 회인면 오동리 131-9",
    "lat": "36.51550845296445",
    "lng": "127.59228587150575",
    "region": "충청북도"
  },
  {
    "name": "새갈공원(갈산2공원)",
    "address": "인천광역시 부평구 갈산동 359-1",
    "lat": "37.51349729392908",
    "lng": "126.72949677784207",
    "region": "인천광역시"
  },
  {
    "name": "죽암리 마을회관 공터",
    "address": "충청북도 보은군 회인면 죽암리 71",
    "lat": "36.47475537388498",
    "lng": "127.59881436824797",
    "region": "충청북도"
  },
  {
    "name": "만월공원",
    "address": "인천광���시 부평구 부평동 산8-1",
    "lat": "37.484087",
    "lng": "126.728122",
    "region": "인천광���시"
  },
  {
    "name": "가족공원(삼산2-4공원)",
    "address": "인천광역시 부평구 삼산동 389-7",
    "lat": "37.52116564781989",
    "lng": "126.74316536374003",
    "region": "인천광역시"
  },
  {
    "name": "동심공원(삼산1-4공원)",
    "address": "인천광역시 부평구 삼산동 456-11",
    "lat": "37.50948972864331",
    "lng": "126.74221830218373",
    "region": "인천광역시"
  },
  {
    "name": "신궁동공원(부개1공원)",
    "address": "인천광역시 부평구 부개동 496-12",
    "lat": "37.504616355740716",
    "lng": "126.73930018523585",
    "region": "인천광역시"
  },
  {
    "name": "안락초등학교 운동장",
    "address": "부산광역시 동래구 명장동 104-5",
    "lat": "35.20194729149713",
    "lng": "129.10353822327292",
    "region": "부산광역시"
  },
  {
    "name": "APEC나루공원",
    "address": "부산광역시 해운대구 우동 1494",
    "lat": "35.170195063698046",
    "lng": "129.12579059601018",
    "region": "부산광역시"
  },
  {
    "name": "용인성산초등학교 운동장",
    "address": "경기도 용인시 처인구 유방동 317-1",
    "lat": "37.25847103796761",
    "lng": "127.21634272110703",
    "region": "경기도"
  },
  {
    "name": "흥덕고등학교 운동장",
    "address": "경기도 용인시 기흥구 영덕동 1020",
    "lat": "37.270477747499086",
    "lng": "127.07430165810008",
    "region": "경기도"
  },
  {
    "name": "석성초등학교 운동장",
    "address": "경기도 용인시 기흥구 중동 955",
    "lat": "37.2701742489585",
    "lng": "127.15826239836372",
    "region": "경기도"
  },
  {
    "name": "어정초등학교 운동장",
    "address": "경기도 용인시 기흥구 중동 614-3",
    "lat": "37.27691073819311",
    "lng": "127.14751207407406",
    "region": "경기도"
  },
  {
    "name": "신일초등학교 운동장",
    "address": "경기도 용인시 수지구 신봉동 920",
    "lat": "37.328992471144346",
    "lng": "127.0777714871849",
    "region": "경기도"
  },
  {
    "name": "목도고등학교 운동장",
    "address": "충청북도 괴산군 불정면 목도리 360",
    "lat": "36.87136465312065",
    "lng": "127.85148057222239",
    "region": "충청북도"
  },
  {
    "name": "상현초등학교 운동장",
    "address": "경기도 용인시 수지구 상현동 53-3",
    "lat": "37.308834870948694",
    "lng": "127.08977937698367",
    "region": "경기도"
  },
  {
    "name": "제일중학교 운동장",
    "address": "대구광역시 중구 봉산동 230-1",
    "lat": "35.8615",
    "lng": "128.5970",
    "region": "대구광역시"
  },
  {
    "name": "강림중학교 운동장",
    "address": "강원특별자치도 횡성군 강림면 강림리 872",
    "lat": "37.363718500878996",
    "lng": "128.12673770321993",
    "region": "강원특별자치도"
  },
  {
    "name": "지산초등학교 운동장",
    "address": "전라남도 진도군 지산면 인지리 240-2",
    "lat": "34.421776668599136",
    "lng": "126.1667545447093",
    "region": "전라남도"
  },
  {
    "name": "우산중학교 운동장",
    "address": "경상북도 울릉군 울릉읍 저동리 452",
    "lat": "37.49479091786723",
    "lng": "130.90636879495634",
    "region": "경상북도"
  },
  {
    "name": "면목고등학교운동장",
    "address": "서울특별시 중랑구 면목동 77",
    "lat": "37.58452245915332",
    "lng": "127.09680140018465",
    "region": "서울특별시"
  },
  {
    "name": "중앙중학교 운동장",
    "address": "충청북도 청주시 청원구 우암동 261-174",
    "lat": "36.654124868642285",
    "lng": "127.47998822061572",
    "region": "충청북도"
  },
  {
    "name": "덕벌초등학교 운동장",
    "address": "충청북도 청주시 청원구 우암동 261-10",
    "lat": "36.65502430718347",
    "lng": "127.47923420678758",
    "region": "충청북도"
  },
  {
    "name": "금성초등학교  운동장",
    "address": "충청북도 제천시 금성면 구룡리 294",
    "lat": "37.06719875510558",
    "lng": "128.16544612145643",
    "region": "충청북도"
  },
  {
    "name": "제천상업고등학교  운동장",
    "address": "충청북도 제천시 신백동 182-3",
    "lat": "37.13319796406564",
    "lng": "128.2282301106867",
    "region": "충청북도"
  },
  {
    "name": "솔밭초등학교 운동장",
    "address": "충청북도 청주시 흥덕구 복대동 288-9",
    "lat": "36.64107050675158",
    "lng": "127.42637515639721",
    "region": "충청북도"
  },
  {
    "name": "제천여자중학교  운동장",
    "address": "충청북도 제천시 청전동 71-1",
    "lat": "37.15323750379251",
    "lng": "128.21895897772126",
    "region": "충청북도"
  },
  {
    "name": "직지초등학교 운동장",
    "address": "충청북도 청주시 흥덕구 복대동 3368",
    "lat": "36.63952052718761",
    "lng": "127.43811786959454",
    "region": "충청북도"
  },
  {
    "name": "청송고등학교 운동장",
    "address": "경상북도 청송군 청송읍 금곡리 815-3",
    "lat": "36.429335020900716",
    "lng": "129.05788129706647",
    "region": "경상북도"
  },
  {
    "name": "인제남초등학교",
    "address": "강원특별자치도 인제군 인제읍 남북리 210",
    "lat": "38.06381897827245",
    "lng": "128.1699475089278",
    "region": "강원특별자치도"
  },
  {
    "name": "이원 다목적회관",
    "address": "충청북도 옥천군 이원면 강청리 91-1",
    "lat": "36.24659978803714",
    "lng": "127.61847308672232",
    "region": "충청북도"
  },
  {
    "name": "가화쌈지숲공원",
    "address": "충청북도 옥천군 옥천읍 금구리 223",
    "lat": "36.30559118049312",
    "lng": "127.56092723265328",
    "region": "충청북도"
  },
  {
    "name": "지산중학교 운동장",
    "address": "경기도 파주시 와동동 1356-1",
    "lat": "37.72454390510514",
    "lng": "126.75226993062977",
    "region": "경기도"
  },
  {
    "name": "금천고등학교 운동장",
    "address": "충청북도 청주시 상당구 금천동 4-6",
    "lat": "36.6273359963585",
    "lng": "127.51184622223956",
    "region": "충청북도"
  },
  {
    "name": "봉정초등학교 운동장",
    "address": "충청북도 청주시 흥덕구 봉명동 2141",
    "lat": "36.64769917355678",
    "lng": "127.45687318433906",
    "region": "충청북도"
  },
  {
    "name": "봉명중학교 운동장",
    "address": "충청북도 청주시 흥덕구 봉명동 1305",
    "lat": "36.64650933198051",
    "lng": "127.46045441921477",
    "region": "충청북도"
  },
  {
    "name": "내수초등학교 운동장",
    "address": "충청북도 청주시 청원구 내수읍 마산리 171",
    "lat": "36.72663122806498",
    "lng": "127.53748135988164",
    "region": "충청북도"
  },
  {
    "name": "현도초등학교 운동장",
    "address": "충청북도 청주시 서원구 현도면 달계리 548-1",
    "lat": "36.47586217303206",
    "lng": "127.42676252926499",
    "region": "충청북도"
  },
  {
    "name": "아양초등학교(운동장) ",
    "address": "대구광역시 동구 신암동 1463",
    "lat": "35.88681763443875",
    "lng": "128.63743279753015",
    "region": "대구광역시"
  },
  {
    "name": "효목초등학교(운동장) ",
    "address": "대구광역시 동구 효목동 633",
    "lat": "35.876579396380485",
    "lng": "128.64229120342407",
    "region": "대구광역시"
  },
  {
    "name": "동부초등학교(운동장) ",
    "address": "대구광역시 동구 신암동 672-1",
    "lat": "35.88816333234853",
    "lng": "128.62035105413128",
    "region": "대구광역시"
  },
  {
    "name": "공산초등학교(운동장)",
    "address": "대구광역시 동구 백안동 649",
    "lat": "35.95665589899807",
    "lng": "128.69004155011336",
    "region": "대구광역시"
  },
  {
    "name": "서촌초등학교(운동장) ",
    "address": "대구광역시 동구 중대동 1082-1",
    "lat": "35.980392594724194",
    "lng": "128.63177193019624",
    "region": "대구광역시"
  },
  {
    "name": "송정초등학교(운동장) ",
    "address": "대구광역시 동구 괴전동 169",
    "lat": "35.870404877640894",
    "lng": "128.73356655990315",
    "region": "대구광역시"
  },
  {
    "name": "숙천초등학교(운동장) ",
    "address": "대구광역시 동구 숙천동 390",
    "lat": "35.87697158241599",
    "lng": "128.75320242986564",
    "region": "대구광역시"
  },
  {
    "name": "덕성초등학교(운동장)",
    "address": "대구광역시 동구 신암동 279-1",
    "lat": "35.88170326642347",
    "lng": "128.6284460511681",
    "region": "대구광역시"
  },
  {
    "name": "방촌초등학교(운동장) ",
    "address": "대구광역시 동구 방촌동 1072-6",
    "lat": "35.880495211825234",
    "lng": "128.66276809655872",
    "region": "대구광역시"
  },
  {
    "name": "효동초등학교(운동장)",
    "address": "대구광역시 동구 효목동 212-10",
    "lat": "35.88413222440982",
    "lng": "128.6448831066137",
    "region": "대구광역시"
  },
  {
    "name": "율하초등학교(운동장)",
    "address": "대구광역시 동구 율하동 950",
    "lat": "35.86788899841415",
    "lng": "128.7013262381128",
    "region": "대구광역시"
  },
  {
    "name": "용호초등학교(운동장)",
    "address": "대구광역시 동구 방촌동 1113-319",
    "lat": "35.87723174006922",
    "lng": "128.67235686800663",
    "region": "대구광역시"
  },
  {
    "name": "동호초등학교(운동장)",
    "address": "대구광역시 동구 동호동 361",
    "lat": "35.86542495139487",
    "lng": "128.7204534934182",
    "region": "대구광역시"
  },
  {
    "name": "묵현초등학교운동장",
    "address": "서울특별시 중랑구 묵동 242-55",
    "lat": "37.60878904963437",
    "lng": "127.07335914575494",
    "region": "서울특별시"
  },
  {
    "name": "서원초등학교 운동장",
    "address": "강원특별자치도 횡성군 서원면 창촌리 577-1",
    "lat": "37.48689176830592",
    "lng": "127.85129708863194",
    "region": "강원특별자치도"
  },
  {
    "name": "삼봉초등학교 운동장",
    "address": "경기도 안양시 만안구 박달동 114-3",
    "lat": "37.40283396486112",
    "lng": "126.89944516492442",
    "region": "경기도"
  },
  {
    "name": "고금초등학교 운동장",
    "address": "전라남도 완도군 고금면 덕암리 644",
    "lat": "34.397150546987554",
    "lng": "126.80030983743015",
    "region": "전라남도"
  },
  {
    "name": "김포초등학교 운동장",
    "address": "경기도 김포시 북변동 365",
    "lat": "37.62511016510144",
    "lng": "126.70925022508467",
    "region": "경기도"
  },
  {
    "name": "고창중학교  운동장",
    "address": "경기도 김포시 장기동 1594",
    "lat": "37.641790422852274",
    "lng": "126.67119467829303",
    "region": "경기도"
  },
  {
    "name": "동광초등학교 운동장",
    "address": "강원특별���치도 고성군 토성면 교암리 86",
    "lat": "38.28835018579581",
    "lng": "128.5441602643492",
    "region": "강원특별���치도"
  },
  {
    "name": "당감초등학교운동장",
    "address": "부산광역시 부산진구 당감동 271",
    "lat": "35.16404012072213",
    "lng": "129.04059131137745",
    "region": "부산광역시"
  },
  {
    "name": "용정초등학교 운동장",
    "address": "경기도 고양시 덕양구 화정동 918",
    "lat": "37.64031083270107",
    "lng": "126.82952045123164",
    "region": "경기도"
  },
  {
    "name": "양정고등학교운동장",
    "address": "부산광역시 부산진구 양정동 33-3",
    "lat": "35.16976951637448",
    "lng": "129.0751009625038",
    "region": "부산광역시"
  },
  {
    "name": "연지초등학교운동장",
    "address": "부산광역시 부산진구 연지동 238-4",
    "lat": "35.172242379902265",
    "lng": "129.052344529721",
    "region": "부산광역시"
  },
  {
    "name": "연학초등학교운동장",
    "address": "부산광역시 부산진구 초읍동 117-1",
    "lat": "35.17686142172273",
    "lng": "129.04658161467722",
    "region": "부산광역시"
  },
  {
    "name": "현대자동차문화회관주차장 및 운동장",
    "address": "울산광역시 북구 양정동 523",
    "lat": "35.54003136763698",
    "lng": "129.38891530037418",
    "region": "울산광역시"
  },
  {
    "name": "광혜원화랑공원",
    "address": "충청북도 진천군 광혜원면 광혜원리 529-2",
    "lat": "36.99418950201514",
    "lng": "127.43792994599754",
    "region": "충청북도"
  },
  {
    "name": "성서초등학교 운동장",
    "address": "경기도 용인시 수지구 성복동 772",
    "lat": "37.32010464887139",
    "lng": "127.06522911787033",
    "region": "경기도"
  },
  {
    "name": "덕산초등학교  운동장",
    "address": "충청북도 제천시 덕산면 도전리 422-1",
    "lat": "36.908184659734836",
    "lng": "128.1696528196335",
    "region": "충청북도"
  },
  {
    "name": "새얼학교 운동장",
    "address": "경기도 파주시 법원읍 금곡리 414",
    "lat": "37.88188643395717",
    "lng": "126.87480032443997",
    "region": "경기도"
  },
  {
    "name": "금천배수지 체육공원(팔각정공원)",
    "address": "충청북도 청주시 상당구 금천동 329",
    "lat": "36.624818557500696",
    "lng": "127.51310617409919",
    "region": "충청북도"
  },
  {
    "name": "반야월초등학교(운동장) ",
    "address": "대구광역시 동구 서호동 25-1",
    "lat": "35.86920512695949",
    "lng": "128.7112617974868",
    "region": "대구광역시"
  },
  {
    "name": "안일초등학교(운동장) ",
    "address": "대구광역시 동구 율하동 254-1",
    "lat": "35.87114638042696",
    "lng": "128.69492150196453",
    "region": "대구광역시"
  },
  {
    "name": "동촌중학교(운동장)",
    "address": "대구광역시 동구 방촌동 1051-2",
    "lat": "35.88263812839274",
    "lng": "128.6592839308112",
    "region": "대구광역시"
  },
  {
    "name": "강동고등학교(운동장)",
    "address": "대구광역시 동구 신서동 560",
    "lat": "35.86590024859927",
    "lng": "128.72954029472453",
    "region": "대구광역시"
  },
  {
    "name": "안심근린공원",
    "address": "대구광역시 동구 신기동 580",
    "lat": "35.869185228423966",
    "lng": "128.70276702924323",
    "region": "대구광역시"
  },
  {
    "name": "신암공원",
    "address": "대구광역시 동구 신암동 647",
    "lat": "35.888678801809164",
    "lng": "128.62345766183972",
    "region": "대구광역시"
  },
  {
    "name": "농수산물종합유통센터(옥외)",
    "address": "울산광역시 북구 진장동 282-1",
    "lat": "35.5785976",
    "lng": "129.3578143",
    "region": "울산광역시"
  },
  {
    "name": "공근중학교 운동장",
    "address": "강원특별자치도 횡성군 공근면 학담리 23-5",
    "lat": "37.54001714753688",
    "lng": "127.96243015326729",
    "region": "강원특별자치도"
  },
  {
    "name": "샛터근린공원",
    "address": "대구광역시 동구 율하동 1460",
    "lat": "35.864690361906355",
    "lng": "128.70303974933532",
    "region": "대구광역시"
  },
  {
    "name": "각산비나리공원",
    "address": "대구광역시 동구 각산동 1064",
    "lat": "35.87942100042429",
    "lng": "128.71501277312908",
    "region": "대구광역시"
  },
  {
    "name": "율하체육공원",
    "address": "대구광역시 동구 율하동 1626",
    "lat": "35.860052239655055",
    "lng": "128.6945134764681",
    "region": "대구광역시"
  },
  {
    "name": "동촌둔치(체육공원)",
    "address": "대구광��시 동구 검사동 966-4",
    "lat": "35.88290078682296",
    "lng": "128.6547748822046",
    "region": "대구광��시"
  },
  {
    "name": "송도중학교 운동장",
    "address": "인천광역시 중구 답동 36",
    "lat": "37.46855192306154",
    "lng": "126.62924927444887",
    "region": "인천광역시"
  },
  {
    "name": "인천연안초등학교 운동장",
    "address": "인천광역시 중구 항동7가 27-74",
    "lat": "37.453557705894696",
    "lng": "126.60797063034171",
    "region": "인천광역시"
  },
  {
    "name": "신흥여자중학교 운동장",
    "address": "인천광역시 중구 신흥동3가 7-210",
    "lat": "37.45388729100187",
    "lng": "126.63157010437034",
    "region": "인천광역시"
  },
  {
    "name": "제물포고등학교 운동장",
    "address": "인천광역시 중구 전동 26",
    "lat": "37.476356571279325",
    "lng": "126.62401140913525",
    "region": "인천광역시"
  },
  {
    "name": "용유중학교 운동장",
    "address": "인천광역시 중구 남북동 584-2",
    "lat": "37.447982437368246",
    "lng": "126.41245606962356",
    "region": "인천광역시"
  },
  {
    "name": "용유초등학교 무의분교장 운동장",
    "address": "인천광역시 중구 무의동 248-3",
    "lat": "37.39038038331301",
    "lng": "126.4252244241731",
    "region": "인천광역시"
  },
  {
    "name": "덕화중학교",
    "address": "대구광역시 수성구 상동 328-1",
    "lat": "35.83327413136937",
    "lng": "128.61513197427513",
    "region": "대구광역시"
  },
  {
    "name": "들안길초등학교",
    "address": "대구광역시 수성구 두산동 28-2",
    "lat": "35.83856821328038",
    "lng": "128.61855536702046",
    "region": "대구광역시"
  },
  {
    "name": "지산초등학교",
    "address": "대구광역시 수성구 지산동 1149",
    "lat": "35.8266",
    "lng": "128.6303",
    "region": "대구광역시"
  },
  {
    "name": "남양학교",
    "address": "대구광역시 수성구 지산동 1022",
    "lat": "35.83326833266367",
    "lng": "128.62910807132747",
    "region": "대구광역시"
  },
  {
    "name": "범일초등학교",
    "address": "대구광역시 수성구 범물동 1364",
    "lat": "35.81644493493506",
    "lng": "128.63969957557117",
    "region": "대구광역시"
  },
  {
    "name": "경남여자고등학교 운동장",
    "address": "부산광역시 동구 수정동 558",
    "lat": "35.131604107508636",
    "lng": "129.04419910419998",
    "region": "부산광역시"
  },
  {
    "name": "내동초등학교 운동장",
    "address": "경상남도 창원시 성산구 중앙동 114",
    "lat": "35.22566536822888",
    "lng": "128.66204738616975",
    "region": "경상남도"
  },
  {
    "name": "용지초등학교 운동장",
    "address": "경상남도 창원시 성산구 중앙동 22",
    "lat": "35.22908498703622",
    "lng": "128.67254458447934",
    "region": "경상남도"
  },
  {
    "name": "수정배수지",
    "address": "부산광역시 동구 수정동 1011-795",
    "lat": "35.12613061997458",
    "lng": "129.04015227556508",
    "region": "부산광역시"
  },
  {
    "name": "부용초등학교 운동장",
    "address": "충청북도 영동군 영동읍 부용리 224",
    "lat": "36.16736911780332",
    "lng": "127.76675993314569",
    "region": "충청북도"
  },
  {
    "name": "울산종합운동장",
    "address": "울산광역시 중구 남외동 865",
    "lat": "35.56235115340275",
    "lng": "129.34786932484116",
    "region": "울산광역시"
  },
  {
    "name": "광주삼정초등학교 운동장",
    "address": "광주광역시 북구 두암동 967-2",
    "lat": "35.16594423218924",
    "lng": "126.93630877593257",
    "region": "광주광역시"
  },
  {
    "name": "문흥중앙초등학교 운동장",
    "address": "광주광역시 북구 문흥동 1010-5",
    "lat": "35.183717633022226",
    "lng": "126.92073047161102",
    "region": "광주광역시"
  },
  {
    "name": "광주문산초등학교 운동장",
    "address": "광주광역시 북구 문흥동 990-1",
    "lat": "35.18682610282076",
    "lng": "126.92506492137908",
    "region": "광주광역시"
  },
  {
    "name": "광주용봉초등학교 운동장",
    "address": "광주광역시 북구 신안동 235-1",
    "lat": "35.16891898528223",
    "lng": "126.90074801445007",
    "region": "광주광역시"
  },
  {
    "name": "광주오정초등학교 운동장",
    "address": "광주광역시 북구 오치동 1038-1",
    "lat": "35.18555466974196",
    "lng": "126.91197574138643",
    "region": "광주광역시"
  },
  {
    "name": "반산초등학교운동장",
    "address": "부산광역시 해운대구 재송동 1033-1",
    "lat": "35.193599436845766",
    "lng": "129.1293847560857",
    "region": "부산광역시"
  },
  {
    "name": "반송여자중학교운동장",
    "address": "부산광역시 해운대구 반송동 622-1",
    "lat": "35.23275195170927",
    "lng": "129.14479585486632",
    "region": "부산광역시"
  },
  {
    "name": "영산고등학교운동장",
    "address": "부산광역시 해운대구 반송동 248-1",
    "lat": "35.225170187016076",
    "lng": "129.15597081184626",
    "region": "부산광역시"
  },
  {
    "name": "양운고등학교운동장",
    "address": "부산광역시 해운대구 좌동 1395",
    "lat": "35.17754916044248",
    "lng": "129.17065401825664",
    "region": "부산광역시"
  },
  {
    "name": "단월초등학교 운동장",
    "address": "경기도 이천시 단월동 182-3",
    "lat": "37.22744216653123",
    "lng": "127.45131742961935",
    "region": "경기도"
  },
  {
    "name": "소계체육공원",
    "address": "경상남도 창원시 의창구 소계동 791-1",
    "lat": "35.26043661928239",
    "lng": "128.5945335030558",
    "region": "경상남도"
  },
  {
    "name": "재송초등학교운동장",
    "address": "부산광역시 해운대구 재송동 1120-3",
    "lat": "35.186094857663214",
    "lng": "129.12765327596912",
    "region": "부산광역시"
  },
  {
    "name": "북평중학교운동장",
    "address": "강원특별자치도 동해시 용정동 470",
    "lat": "37.49803555108992",
    "lng": "129.11633044481914",
    "region": "강원특별자치도"
  },
  {
    "name": "북평산단제1공원",
    "address": "강원특별자치도 동해시 구호동 234",
    "lat": "37.48443642207818",
    "lng": "129.1484659910168",
    "region": "강원특별자치도"
  },
  {
    "name": "삼화초등학교운동장",
    "address": "강원특별자치도 동해시 이로동 32-12",
    "lat": "37.48515581204961",
    "lng": "129.0683859586731",
    "region": "강원특별자치도"
  },
  {
    "name": "경남전자고등학교운동장",
    "address": "경상남도 창원시 마산합포구 상남동 46-1",
    "lat": "35.215020649054836",
    "lng": "128.5735311435891",
    "region": "경상남도"
  },
  {
    "name": "나산초등학교 운동장",
    "address": "경기도 용인시 기흥구 보라동 613",
    "lat": "37.25039235670909",
    "lng": "127.10919779637352",
    "region": "경기도"
  },
  {
    "name": "용인한일초등학교  운동장",
    "address": "경기도 용인시 기흥구 공세동 680",
    "lat": "37.243149798467215",
    "lng": "127.10683698962801",
    "region": "경기도"
  },
  {
    "name": "한경대학교 운동장",
    "address": "경기도 안성시 석정동 63-1",
    "lat": "37.012043140795925",
    "lng": "127.26378906097041",
    "region": "경기도"
  },
  {
    "name": "안청중학교 운동장",
    "address": "경기도 안성시 당왕동 10-1",
    "lat": "37.021706827858736",
    "lng": "127.27466865201171",
    "region": "경기도"
  },
  {
    "name": "양성초등학교 운동장",
    "address": "경기도 안성시 양성면 동항리 420",
    "lat": "37.06154926199189",
    "lng": "127.19458669424058",
    "region": "경기도"
  },
  {
    "name": "구읍 공영주차장",
    "address": "충청북도 옥천군 옥천읍 하계리 60",
    "lat": "36.31423535971082",
    "lng": "127.58081625728674",
    "region": "충청북도"
  },
  {
    "name": "무궁화공원",
    "address": "대구광역시 남구 대명동 1668-10",
    "lat": "35.84270288219733",
    "lng": "128.57833187908028",
    "region": "대구광역시"
  },
  {
    "name": "연천초등학교 운동장",
    "address": "부산광역시 연제구 연산동 378-11",
    "lat": "35.18601063423646",
    "lng": "129.100215733053",
    "region": "부산광역시"
  },
  {
    "name": "매곡초등학교 운동장",
    "address": "충청북도 영동군 매곡면 노천리 53-1",
    "lat": "36.192160475761504",
    "lng": "127.93216169146834",
    "region": "충청북도"
  },
  {
    "name": "학성여자고등학교운동장",
    "address": "울산광역시 중구 약사동 707-5",
    "lat": "35.566326652900734",
    "lng": "129.335104823116",
    "region": "울산광역시"
  },
  {
    "name": "광주용두초등학교 운동장",
    "address": "광주광역시 북구 신용동 642-1",
    "lat": "35.21455154781543",
    "lng": "126.870841383934",
    "region": "광주광역시"
  },
  {
    "name": "양덕초등학교 운동장",
    "address": "경상남도 창원시 마산회원구 양덕동 42",
    "lat": "35.23345893915017",
    "lng": "128.58819810213168",
    "region": "경상남도"
  },
  {
    "name": "두원공과대학교 운동장",
    "address": "경기도 안성시 죽산면 장원리 871",
    "lat": "37.065958983709805",
    "lng": "127.41913973182137",
    "region": "경기도"
  },
  {
    "name": "죽산초등학교 운동장",
    "address": "경기도 안성시 죽산면 죽산리 405-2",
    "lat": "37.07760249421216",
    "lng": "127.42108047008514",
    "region": "경기도"
  },
  {
    "name": "군서면사무소",
    "address": "충청북도 옥천군 군서면 동평리 580",
    "lat": "36.27945828211647",
    "lng": "127.52747234083495",
    "region": "충청북도"
  },
  {
    "name": "개나리공원 ",
    "address": "대구광역시 남구 봉덕동 540-49",
    "lat": "35.84382484456208",
    "lng": "128.60139464006843",
    "region": "대구광역시"
  },
  {
    "name": "동대구초등학교(운동장) ",
    "address": "대구광역시 동구 신암동 208-1",
    "lat": "35.87920454305328",
    "lng": "128.62103708713732",
    "region": "대구광역시"
  },
  {
    "name": "신기중학교(운동장)",
    "address": "대구광역시 동구 신기동 578",
    "lat": "35.867765978082595",
    "lng": "128.7024723138051",
    "region": "대구광역시"
  },
  {
    "name": "단산유적공원",
    "address": "대구광역시 동구 봉무동 1567",
    "lat": "35.91749435818986",
    "lng": "128.64049692261258",
    "region": "대구광역시"
  },
  {
    "name": "인성여자중학교 운동장",
    "address": "인천광역시 중구 송학동2가 18-1",
    "lat": "37.47381252070821",
    "lng": "126.6245812800122",
    "region": "인천광역시"
  },
  {
    "name": "인일여자고등학교 운동장",
    "address": "인천광역시 중구 전동 25-4",
    "lat": "37.47756794922558",
    "lng": "126.62646097392181",
    "region": "인천광역시"
  },
  {
    "name": "수성중학교",
    "address": "대구광역시 수성구 파동 2",
    "lat": "35.825375841230326",
    "lng": "128.60747158532857",
    "region": "대구광역시"
  },
  {
    "name": "복명초등학교",
    "address": "대구광역시 수성구 범물동 1293",
    "lat": "35.81726506818669",
    "lng": "128.64706546070948",
    "region": "대구광역시"
  },
  {
    "name": "범물초등학교",
    "address": "대구광역시 수성구 범물동 1279-1",
    "lat": "35.82151339554194",
    "lng": "128.64502251148252",
    "region": "대구광역시"
  },
  {
    "name": "신매초등학교",
    "address": "대구광역시 수성구 신매동 583",
    "lat": "35.836",
    "lng": "128.7091",
    "region": "대구광역시"
  },
  {
    "name": "욱수초등학교",
    "address": "대구광역시 수성구 신매동 602",
    "lat": "35.8309",
    "lng": "128.7075",
    "region": "대구광역시"
  },
  {
    "name": "시지고등학교",
    "address": "대구광역시 수성구 신매동 602-1",
    "lat": "35.8298",
    "lng": "128.7071",
    "region": "대구광역시"
  },
  {
    "name": "덕원중.고등학교",
    "address": "대구광역시 수성구 욱수동 81",
    "lat": "35.825973169652634",
    "lng": "128.70701372634397",
    "region": "대구광역시"
  },
  {
    "name": "삼례 우수저류지",
    "address": "전북특별자치도 완주군 삼례읍 후정리 273-25",
    "lat": "35.90730336067735",
    "lng": "127.065352499485",
    "region": "전북특별자치도"
  },
  {
    "name": "고산시장",
    "address": "전북특별자치도 완주군 고산면 읍내리 919",
    "lat": "35.97368014080334",
    "lng": "127.20396637916566",
    "region": "전북특별자치도"
  },
  {
    "name": "연안부두 해양광장",
    "address": "인천광역시 중구 항동7가 58-1",
    "lat": "37.45514043827734",
    "lng": "126.60128411660321",
    "region": "인천광역시"
  },
  {
    "name": "매동초등학교",
    "address": "대구광역시 수성구 매호동 1010",
    "lat": "35.8447",
    "lng": "128.709",
    "region": "대구광역시"
  },
  {
    "name": "진안고원시장",
    "address": "전북특별자치도 진안군 진안읍 군상리 406-8",
    "lat": "35.79266234920317",
    "lng": "127.4286389350891",
    "region": "전북특별자치도"
  },
  {
    "name": "진안공설운동장 주차장(국궁장)",
    "address": "전북특별자치도 진안군 진안읍 군하리 58",
    "lat": "35.78799534128932",
    "lng": "127.42834269525093",
    "region": "전북특별자치도"
  },
  {
    "name": "마령고등학교",
    "address": "전북특별자치도 진안군 마령면 평지리 583-1",
    "lat": "35.73178106204528",
    "lng": "127.37217705168037",
    "region": "전북특별자치도"
  },
  {
    "name": "지정초등학교 운동장",
    "address": "경상남도 의령군 지정면 봉곡리 775-1",
    "lat": "35.38289215355633",
    "lng": "128.38758766651162",
    "region": "경상남도"
  },
  {
    "name": "매호중학교",
    "address": "대구광역시 수성구 매호동 1332",
    "lat": "35.8436",
    "lng": "128.7017",
    "region": "대구광역시"
  },
  {
    "name": "임당초등학교 운동장",
    "address": "강원특별자치도 양구군 동면 임당리 580",
    "lat": "38.201020876968414",
    "lng": "128.04297069338438",
    "region": "강원특별자치도"
  },
  {
    "name": "범어재어린이공원",
    "address": "대구광역시 수성구 범어동 966-2",
    "lat": "35.865489023269404",
    "lng": "128.62010413444173",
    "region": "대구광역시"
  },
  {
    "name": "용하초등학교 운동장",
    "address": "강원특별자치도 양구군 국토정중앙면 용하리 406",
    "lat": "38.10979685809847",
    "lng": "128.035569190979",
    "region": "강원특별자치도"
  },
  {
    "name": "광명공원",
    "address": "대구광역시 수성구 만촌동 1023-11",
    "lat": "35.859972155418",
    "lng": "128.6416760087016",
    "region": "대구광역시"
  },
  {
    "name": "충렬중학교운동장",
    "address": "부산광역시 동래구 명장동 149-9",
    "lat": "35.20274181648497",
    "lng": "129.10862259363984",
    "region": "부산광역시"
  },
  {
    "name": "범물중학교",
    "address": "대구광역시 수성구 범물동 1366",
    "lat": "35.81551057312559",
    "lng": "128.63975107669856",
    "region": "대구광역시"
  },
  {
    "name": "시지중학교",
    "address": "대구광역시 수성구 신매동 583-1",
    "lat": "35.835",
    "lng": "128.709",
    "region": "대구광역시"
  },
  {
    "name": "지한초등학교 운동장",
    "address": "광주광역시 동구 내남동 299-5",
    "lat": "35.09369587662098",
    "lng": "126.94017112255095",
    "region": "광주광역시"
  },
  {
    "name": "한울초등학교 운동장",
    "address": "충청남도 홍성군 홍북읍 신경리 1206",
    "lat": "36.64519058313088",
    "lng": "126.68015696430129",
    "region": "충청남도"
  },
  {
    "name": "내포초등학교 운동장",
    "address": "충청남도 홍성군 홍북읍 신경리 1362",
    "lat": "36.64927842164545",
    "lng": "126.6709152638551",
    "region": "충청남도"
  },
  {
    "name": "사월초등학교",
    "address": "대구광역시 수성구 신매동 57-1",
    "lat": "35.83402216660182",
    "lng": "128.71574699878735",
    "region": "대구광역시"
  },
  {
    "name": "장호원중학교 운동장",
    "address": "경기도 이천시 장호원읍 노탑리 717",
    "lat": "37.1258166491026",
    "lng": "127.61760592460635",
    "region": "경기도"
  },
  {
    "name": "고산초등학교",
    "address": "대구광역시 수성구 시지동 161-1",
    "lat": "35.8435",
    "lng": "128.6933",
    "region": "대구광역시"
  },
  {
    "name": "노변초등학교",
    "address": "대구광역시 수성구 시지동 497",
    "lat": "35.8372",
    "lng": "128.6973",
    "region": "대구광역시"
  },
  {
    "name": "청림초등학교",
    "address": "대구광역시 수성구 노변동 367-2",
    "lat": "35.8349",
    "lng": "128.7035",
    "region": "대구광역시"
  },
  {
    "name": "설봉초등학교 운동장",
    "address": "경기도 이천시 창전동 501",
    "lat": "37.2844163952819",
    "lng": "127.45236663726575",
    "region": "경기도"
  },
  {
    "name": "표교초등학교 운동장",
    "address": "경기도 이천시 마장면 목리 228",
    "lat": "37.256750205489645",
    "lng": "127.40583971576896",
    "region": "경기도"
  },
  {
    "name": "노변중학교",
    "address": "대구광역시 수성구 노변동 735",
    "lat": "35.8379",
    "lng": "128.6946",
    "region": "대구광역시"
  },
  {
    "name": "서울염창초등학교 운동장",
    "address": "서울특별시 강서구 염창동 269",
    "lat": "37.552818159644104",
    "lng": "126.86797527957216",
    "region": "서울특별시"
  },
  {
    "name": "염창중학교 운동장",
    "address": "서울특별시 강서구 염창동 85",
    "lat": "37.55354320368547",
    "lng": "126.8719505140699",
    "region": "서울특별시"
  },
  {
    "name": "대구농업마이스터고등학교",
    "address": "대구광역시 수성구 노변동 387",
    "lat": "35.83403376396896",
    "lng": "128.7014490365986",
    "region": "대구광역시"
  },
  {
    "name": "새싹공원",
    "address": "부산광역시 연제구 연산동 2132-1",
    "lat": "35.17560025662153",
    "lng": "129.09273338848965",
    "region": "부산광역시"
  },
  {
    "name": "고양고등학교 운동장",
    "address": "경기도 고양시 덕양구 삼송동 45-2",
    "lat": "37.65502573992406",
    "lng": "126.89214113946504",
    "region": "경기도"
  },
  {
    "name": "동의중학교운동장",
    "address": "부산광역시 부산진구 전포동 12-15",
    "lat": "35.16472101691096",
    "lng": "129.07070149111814",
    "region": "부산광역시"
  },
  {
    "name": "추풍령 초등학교 운동장",
    "address": "충청북도 영동군 추풍령면 추풍령리 375-1",
    "lat": "36.214462",
    "lng": "127.998058",
    "region": "충청북도"
  },
  {
    "name": "상촌 초등학교 운동장",
    "address": "충청북도 영동군 상촌면 임산리 357-1",
    "lat": "36.14722020752415",
    "lng": "127.9118533279602",
    "region": "충청북도"
  },
  {
    "name": "백양초등학교운동장",
    "address": "울산광역시 중구 성안동 463-3",
    "lat": "35.576874520560345",
    "lng": "129.3196666117553",
    "region": "울산광역시"
  },
  {
    "name": "유곡테니스장",
    "address": "울산광역시 중구 유곡동 891-1",
    "lat": "35.564251835856595",
    "lng": "129.28366319972784",
    "region": "울산광역시"
  },
  {
    "name": "밀성여자중학교 운동장",
    "address": "경상남도 밀양시 내이동 590-4",
    "lat": "35.50166843742446",
    "lng": "128.75046104192776",
    "region": "경상남도"
  },
  {
    "name": "밀양여자중학교 운동장",
    "address": "경상남도 밀양시 삼문동 141-14",
    "lat": "35.48282631341179",
    "lng": "128.75801866441148",
    "region": "경상남도"
  },
  {
    "name": "무학초등학교운동장",
    "address": "경상남도 창원시 마산합포구 자산동 119-9",
    "lat": "35.20317417740908",
    "lng": "128.56765255880316",
    "region": "경상남도"
  },
  {
    "name": "안성몽실학교 운동장",
    "address": "경기도 안성시 금산동 119",
    "lat": "37.01080053348596",
    "lng": "127.26747315456723",
    "region": "경기도"
  },
  {
    "name": "새론초등학교(운동장) ",
    "address": "대구광역시 동구 각산동 1059",
    "lat": "35.88450840371612",
    "lng": "128.71712998674218",
    "region": "대구광역시"
  },
  {
    "name": "인성초등학교 운동장",
    "address": "인천광역시 중구 송학동2가 18-1",
    "lat": "37.47361068227704",
    "lng": "126.62414252758019",
    "region": "인천광역시"
  },
  {
    "name": "인천신선초등학교 운동장",
    "address": "인천광역시 중구 신흥동3가 31-8",
    "lat": "37.451202133020395",
    "lng": "126.62779848411697",
    "region": "인천광역시"
  },
  {
    "name": "시지초등학교",
    "address": "대구광역시 수성구 매호동 1332-1",
    "lat": "35.8433",
    "lng": "128.7032",
    "region": "대구광역시"
  },
  {
    "name": "매호초등학교",
    "address": "대구광역시 수성구 매호동 611-1",
    "lat": "35.8413",
    "lng": "128.7125",
    "region": "대구광역시"
  },
  {
    "name": "동원공원",
    "address": "대구광역시 수성구 만촌동 1017-2",
    "lat": "35.862082886364554",
    "lng": "128.64319413900407",
    "region": "대구광역시"
  },
  {
    "name": "청구공원",
    "address": "대구광역시 수성구 만촌동 1006-2",
    "lat": "35.863324082952374",
    "lng": "128.64607751369508",
    "region": "대구광역시"
  },
  {
    "name": "무열공원",
    "address": "대구광역시 수성구 만촌동 991-8",
    "lat": "35.8654651557241",
    "lng": "128.64789068698917",
    "region": "대구광역시"
  },
  {
    "name": "국화공원",
    "address": "대구광역시 수성구 만촌동 852",
    "lat": "35.856495876132875",
    "lng": "128.64888939019204",
    "region": "대구광역시"
  },
  {
    "name": "동아고등학교운동장",
    "address": "부산광역시 사하구 괴정동 619-41",
    "lat": "35.09319989139619",
    "lng": "128.98510336876146",
    "region": "부산광역시"
  },
  {
    "name": "만촌공원",
    "address": "대구광역시 수성구 만촌동 870-13",
    "lat": "35.85072862223276",
    "lng": "128.65300565958054",
    "region": "대구광역시"
  },
  {
    "name": "동아공업고등학교운동장",
    "address": "부산광역시 사하구 괴정동 619-46",
    "lat": "35.09301448075281",
    "lng": "128.98833232855497",
    "region": "부산광역시"
  },
  {
    "name": "봉선화공원",
    "address": "대구광역시 수성구 만촌동 874-2",
    "lat": "35.85061240103224",
    "lng": "128.65031106630428",
    "region": "대구광역시"
  },
  {
    "name": "해동고등학교운동장",
    "address": "부산광역시 사하구 괴정동 613",
    "lat": "35.093078795764995",
    "lng": "128.9911171879909",
    "region": "부산광역시"
  },
  {
    "name": "개금초등학교운동장",
    "address": "부산광역시 부산진구 개금동 467-1",
    "lat": "35.15442878489334",
    "lng": "129.01975620377084",
    "region": "부산광역시"
  },
  {
    "name": "새마을어린이공원",
    "address": "대구광역시 수성구 수성동3가 130-2",
    "lat": "35.85718746969677",
    "lng": "128.61989915370972",
    "region": "대구광역시"
  },
  {
    "name": "서울등원초등학교 운동장",
    "address": "서울특별시 강서구 등촌동 704-1",
    "lat": "37.56031961034425",
    "lng": "126.8496864514022",
    "region": "서울특별시"
  },
  {
    "name": "서울등양초등학교 운동장",
    "address": "서울특별시 강서구 등촌동 691",
    "lat": "37.564685188223855",
    "lng": "126.84466689596546",
    "region": "서울특별시"
  },
  {
    "name": "서울등명초등학교 운동장",
    "address": "서울특별시 강서구 등촌동 690-2",
    "lat": "37.56043060692808",
    "lng": "126.84205770657942",
    "region": "서울특별시"
  },
  {
    "name": "수성어린이공원",
    "address": "대구광역시 수성구 수성동3가 216",
    "lat": "35.85282920131929",
    "lng": "128.61880869890473",
    "region": "대구광역시"
  },
  {
    "name": "김포대명초등학교 운동장",
    "address": "경기도 김포시 대곶면 대명리 366-1",
    "lat": "37.64786617836791",
    "lng": "126.55315771995915",
    "region": "경기도"
  },
  {
    "name": "하성초등학교 운동장",
    "address": "경기도 김포시 하성면 마곡리 617-1",
    "lat": "37.719969435719634",
    "lng": "126.6329202203181",
    "region": "경기도"
  },
  {
    "name": "가람초등학교 운동장",
    "address": "경기도 고양시 덕양구 행신동 926",
    "lat": "37.623451927895594",
    "lng": "126.84227955749091",
    "region": "경기도"
  },
  {
    "name": "평촌과학기술고등학교 운동장",
    "address": "경기도 안양시 동안구 호계동 1105",
    "lat": "37.37462097835857",
    "lng": "126.96277670673464",
    "region": "경기도"
  },
  {
    "name": "성남초등학교 운동장",
    "address": "부산광역시 동구 범일동 305-6",
    "lat": "35.13502762635318",
    "lng": "129.05844935846292",
    "region": "부산광역시"
  },
  {
    "name": "태화중학교운동장",
    "address": "울산광역시 남구 야음동 10-1",
    "lat": "35.53229804556428",
    "lng": "129.33941916918207",
    "region": "울산광역시"
  },
  {
    "name": "기동리 회관앞 공터",
    "address": "충청북도 단양군 적성면 기동리 487-1",
    "lat": "36.99231663736719",
    "lng": "128.28831634149535",
    "region": "충청북도"
  },
  {
    "name": "상원곡리 회관앞 공터",
    "address": "충청북도 단양군 적성면 상원곡리 78-6",
    "lat": "37.046648695286585",
    "lng": "128.23718064777057",
    "region": "충청북도"
  },
  {
    "name": "고수리주차장",
    "address": "충청북도 단양군 단양읍 고수리 105-6",
    "lat": "36.986192404203294",
    "lng": "128.3808343754431",
    "region": "충청북도"
  },
  {
    "name": "매포종합운동장",
    "address": "충청북도 단양군 매포읍 평동리 462",
    "lat": "37.03185198026149",
    "lng": "128.2950094825427",
    "region": "충청북도"
  },
  {
    "name": "미양초등학교 운동장",
    "address": "서울특별시 강북구 미아동 837-687",
    "lat": "37.62087162007398",
    "lng": "127.0137858602576",
    "region": "서울특별시"
  },
  {
    "name": "등원중학교 운동장",
    "address": "서울특별시 강서구 등촌동 707-4",
    "lat": "37.559327880369516",
    "lng": "126.85130838059905",
    "region": "서울특별시"
  },
  {
    "name": "남촌초등학교 운동장",
    "address": "경기도 용인시 처인구 남사읍 진목리 141-5",
    "lat": "37.10143316669026",
    "lng": "127.13763535022736",
    "region": "경기도"
  },
  {
    "name": "노근리 평화공원 주차장",
    "address": "충청북도 영동군 황간면 노근리 657",
    "lat": "36.21142155574802",
    "lng": "127.88211249696744",
    "region": "충청북도"
  },
  {
    "name": "한길학교 주차장",
    "address": "경기도 안성시 고삼면 가유리 337-1",
    "lat": "37.08397704523158",
    "lng": "127.2647425532341",
    "region": "경기도"
  },
  {
    "name": "학성여자중학교운동장",
    "address": "울산광역시 중구 태화동 747-1",
    "lat": "35.5547688091975",
    "lng": "129.2915105891196",
    "region": "울산광역시"
  },
  {
    "name": "번동초등학교운동장",
    "address": "서울특별시 강북구 번동 236",
    "lat": "37.628962780355764",
    "lng": "127.04075044426195",
    "region": "서울특별시"
  },
  {
    "name": "반여중학교운동장",
    "address": "부산광역시 해운대구 반여동 1594-74",
    "lat": "35.20021001703203",
    "lng": "129.13541436195146",
    "region": "부산광역시"
  },
  {
    "name": "부산센텀여자고등학교운동장",
    "address": "부산광역시 해운대구 우동 1025-127",
    "lat": "35.16574145952456",
    "lng": "129.14480547798635",
    "region": "부산광역시"
  },
  {
    "name": "센텀중학교운동장",
    "address": "부산광역시 해운대구 재송동 1206",
    "lat": "35.17504924086651",
    "lng": "129.12329077720622",
    "region": "부산광역시"
  },
  {
    "name": "신도초등학교운동장",
    "address": "부산광역시 해운대구 좌동 1346",
    "lat": "35.16912508864537",
    "lng": "129.1670215129831",
    "region": "부산광역시"
  },
  {
    "name": "해동초등학교운동장",
    "address": "부산광역시 해운대구 우동 350",
    "lat": "35.170006368446614",
    "lng": "129.15555894397627",
    "region": "부산광역시"
  },
  {
    "name": "청운초등학교운동장",
    "address": "강원특별자치도 동해시 쇄운동 75",
    "lat": "37.48475567883883",
    "lng": "129.1039413213747",
    "region": "강원특별자치도"
  },
  {
    "name": "화봉중학교 운동장",
    "address": "울산광역시 북구 화봉동 677-1",
    "lat": "35.588919365931666",
    "lng": "129.36063496883196",
    "region": "울산광역시"
  },
  {
    "name": "약산중고등학교",
    "address": "전라남도 완도군 약산면 장용리 850",
    "lat": "34.39289756226205",
    "lng": "126.89908202822882",
    "region": "전라남도"
  },
  {
    "name": "묵호고등학교운동장",
    "address": "강원특별자치도 동해시 부곡동 217",
    "lat": "37.53801588453615",
    "lng": "129.0960797257046",
    "region": "강원특별자치도"
  },
  {
    "name": "동해중학교운동장",
    "address": "강원특별자치도 동해시 발한동 537-3",
    "lat": "37.54358628676303",
    "lng": "129.09762203693558",
    "region": "강원특별자치도"
  },
  {
    "name": "동진리경로당 주차장",
    "address": "전라남도 완도군 소안면 진산리 1067-1",
    "lat": "34.13493175801176",
    "lng": "126.6478767427506",
    "region": "전라남도"
  },
  {
    "name": "유현초등학교 운동장",
    "address": "경기도 김포시 풍무동 552-8",
    "lat": "37.59883575143603",
    "lng": "126.7265853322794",
    "region": "경기도"
  },
  {
    "name": "양도초등학교 운동장",
    "address": "경기도 김포시 풍무동 416-6",
    "lat": "37.60360927004061",
    "lng": "126.72031696987987",
    "region": "경기도"
  },
  {
    "name": "보길초등학교",
    "address": "전라남도 완도군 보길면 부황리 202",
    "lat": "34.162384411927114",
    "lng": "126.55533230989715",
    "region": "전라남도"
  },
  {
    "name": "푸른솔중학교 운동장",
    "address": "경기도 김포시 장기동 1866-3",
    "lat": "37.65193627726811",
    "lng": "126.66724018151403",
    "region": "경기도"
  },
  {
    "name": "광무여자중학교운동장",
    "address": "부산광역시 부산진구 개금동 55",
    "lat": "35.16192200883757",
    "lng": "129.03007265603597",
    "region": "부산광역시"
  },
  {
    "name": "가람중학교 운동장",
    "address": "경기도 고양시 덕양구 행신동 927",
    "lat": "37.62339260078886",
    "lng": "126.8411864097928",
    "region": "경기도"
  },
  {
    "name": "북구청임시주차장",
    "address": "울산광역시 북구 연암동 1084-1",
    "lat": "35.5835394",
    "lng": "129.3618085",
    "region": "울산광역시"
  },
  {
    "name": "연제중학교 운동장",
    "address": "부산광역시 연제구 연산동 1777-10",
    "lat": "35.178749972552815",
    "lng": "129.08959150314493",
    "region": "부산광역시"
  },
  {
    "name": "상남초등학교 운동장",
    "address": "경상남도 창원시 성산구 상남동 44-2",
    "lat": "35.221328390517925",
    "lng": "128.68924748382383",
    "region": "경상남도"
  },
  {
    "name": "수정산가족 체육공원",
    "address": "부산광역시 동구 수정동 711-1",
    "lat": "35.13292401399881",
    "lng": "129.03746277094024",
    "region": "부산광역시"
  },
  {
    "name": "좌학공원",
    "address": "경상북도 고령군 다산면 좌학리 191",
    "lat": "35.82266021342993",
    "lng": "128.44472207888754",
    "region": "경상북도"
  },
  {
    "name": "능안공원",
    "address": "경기도 군포시 산본동 1065",
    "lat": "37.371301903388584",
    "lng": "126.93132384447252",
    "region": "경기도"
  },
  {
    "name": "만정초등학교 운동장",
    "address": "경기도 안성시 공도읍 만정리 783-1",
    "lat": "37.006433941309886",
    "lng": "127.17164576053621",
    "region": "경기도"
  },
  {
    "name": "양사초등학교운동장",
    "address": "울산광역시 중구 교동 281",
    "lat": "35.557167685700186",
    "lng": "129.31881205980005",
    "region": "울산광역시"
  },
  {
    "name": "연잎공원",
    "address": "부산광역시 연제구 연산동 477-1",
    "lat": "35.185919310191956",
    "lng": "129.10824199717877",
    "region": "부산광역시"
  },
  {
    "name": "삼일초등학교운동장",
    "address": "울산광역시 중구 서동 40",
    "lat": "35.58183361509021",
    "lng": "129.34553435192615",
    "region": "울산광역시"
  },
  {
    "name": "산내남명초등학교 운동장",
    "address": "경상남도 밀양시 산내면 남명리 1109-1",
    "lat": "35.587787102571475",
    "lng": "128.95380020141704",
    "region": "경상남도"
  },
  {
    "name": "홍제중학교 운동장",
    "address": "경상남도 밀양시 단장면 단장리 808",
    "lat": "35.509184263741126",
    "lng": "128.8515186817909",
    "region": "경상남도"
  },
  {
    "name": "상남초등학교 운동장",
    "address": "경상남도 밀양시 상남면 동산리 713-3",
    "lat": "35.394188120999104",
    "lng": "128.77679819167113",
    "region": "경상남도"
  },
  {
    "name": "광주용주초등학교 운동장",
    "address": "광주광역시 북구 용봉동 1428-1",
    "lat": "35.18120534135922",
    "lng": "126.89922988414764",
    "region": "광주광역시"
  },
  {
    "name": "한국나노마이스터고등학교 운동장",
    "address": "경상남도 밀양시 무안면 신법리 327-1",
    "lat": "35.47884238961628",
    "lng": "128.65364402532606",
    "region": "경상남도"
  },
  {
    "name": "광주동운초등학교 운동장",
    "address": "광주광역시 북구 운암동 484-1",
    "lat": "35.17470722161357",
    "lng": "126.88461184501647",
    "region": "광주광역시"
  },
  {
    "name": "밀양종합운동장",
    "address": "경상남도 밀양시 교동 1111",
    "lat": "35.50744055977825",
    "lng": "128.74775080240894",
    "region": "경상남도"
  },
  {
    "name": "덕영고등학교 운동장",
    "address": "경기도 용인시 처인구 고림동 737-1",
    "lat": "37.24099115611256",
    "lng": "127.21620518610548",
    "region": "경기도"
  },
  {
    "name": "명촌둔치주차장",
    "address": "울산광역시 북구 명촌동 786-13",
    "lat": "35.5518971",
    "lng": "129.3526796",
    "region": "울산광역시"
  },
  {
    "name": "고금고등학교 운동장",
    "address": "전라남도 완도군 고금면 덕암리 775",
    "lat": "34.40070325765448",
    "lng": "126.80428887567933",
    "region": "전라남도"
  },
  {
    "name": "안성여자중학교 운동장",
    "address": "경기도 안성시 봉남동 360",
    "lat": "37.00774478877302",
    "lng": "127.27645039558413",
    "region": "경기도"
  },
  {
    "name": "안성여자고등학교 운동장",
    "address": "경기도 안성시 신소현동 110",
    "lat": "37.017613973189704",
    "lng": "127.25815504789354",
    "region": "경기도"
  },
  {
    "name": "대길초등학교 운동장",
    "address": "충청북도 청주시 청원구 북이면 대길리 228",
    "lat": "36.7323584237813",
    "lng": "127.55872753147762",
    "region": "충청북도"
  },
  {
    "name": "월전공원",
    "address": "광주광역시 광산구 장록동 751-1",
    "lat": "35.132352355919366",
    "lng": "126.76795760017836",
    "region": "광주광역시"
  },
  {
    "name": "모동초등학교 운동장",
    "address": "부산광역시 사상구 모라동 75-11",
    "lat": "35.18500663210682",
    "lng": "129.0019422769559",
    "region": "부산광역시"
  },
  {
    "name": "주감초등학교 운동장",
    "address": "부산광역시 사상구 주례동 319",
    "lat": "35.1534593362293",
    "lng": "129.0008665773339",
    "region": "부산광역시"
  },
  {
    "name": "모담공원",
    "address": "경기도 김포시 운양동 1325-1",
    "lat": "37.64924258278472",
    "lng": "126.68147422714826",
    "region": "경기도"
  },
  {
    "name": "남부초등학교운동장",
    "address": "울산광역시 남구 야음동 762",
    "lat": "35.52302943425201",
    "lng": "129.3221248725205",
    "region": "울산광역시"
  },
  {
    "name": "보정초등학교 운동장",
    "address": "경기도 용인시 기흥구 보정동 1299",
    "lat": "37.308942345038155",
    "lng": "127.11081774703403",
    "region": "경기도"
  },
  {
    "name": "신명고등학교 운동장",
    "address": "대구광역시 중구 동산동 206",
    "lat": "35.86876189429675",
    "lng": "128.58443137510716",
    "region": "대구광역시"
  },
  {
    "name": "동덕초등학교 운동장",
    "address": "대구광역시 중구 삼덕동2가 227",
    "lat": "35.86521082489819",
    "lng": "128.60472332448427",
    "region": "대구광역시"
  },
  {
    "name": "면일초등학교운동장",
    "address": "서울특별시 중랑구 망우동 440",
    "lat": "37.591691119522196",
    "lng": "127.09952923272337",
    "region": "서울특별시"
  },
  {
    "name": "거성중학교 운동장",
    "address": "부산광역시 연제구 거제동 643-173",
    "lat": "35.18327480888973",
    "lng": "129.06665861606749",
    "region": "부산광역시"
  },
  {
    "name": "석동초등학교운동장",
    "address": "경상남도 창원시 진해구 석동 634-1",
    "lat": "35.157282338907514",
    "lng": "128.70664473463847",
    "region": "경상남도"
  },
  {
    "name": "덕산초등학교운동장",
    "address": "경상남도 창원시 진해구 자은동 863-1",
    "lat": "35.14516310332843",
    "lng": "128.70581349972974",
    "region": "경상남도"
  },
  {
    "name": "풍산초등학교 운동장",
    "address": "경기도 고양시 일산동구 풍동 1284",
    "lat": "37.66669979147194",
    "lng": "126.79674346524237",
    "region": "경기도"
  },
  {
    "name": "백신중학교 운동장",
    "address": "경기도 고양시 일산동구 마두동 788",
    "lat": "37.65100464042276",
    "lng": "126.78335511413638",
    "region": "경기도"
  },
  {
    "name": "벌말초등학교 운동장",
    "address": "경기도 안양시 동안구 평촌동 75-8",
    "lat": "37.39371630350644",
    "lng": "126.98068503219046",
    "region": "경기도"
  },
  {
    "name": "무룡고등학교 운동장",
    "address": "울산광역시 북구 연암동 1331",
    "lat": "35.58549822319638",
    "lng": "129.3616801500366",
    "region": "울산광역시"
  },
  {
    "name": "광일초등학교 운동장",
    "address": "경기도 광명시 광명동 365-38",
    "lat": "37.47132286731293",
    "lng": "126.84682061700894",
    "region": "경기도"
  },
  {
    "name": "개금건강공원",
    "address": "부산광역시 부산진구 개금동 540-288",
    "lat": "35.14882050890123",
    "lng": "129.02250153672583",
    "region": "부산광역시"
  },
  {
    "name": "신일중학교운동장",
    "address": "울산광역시 남구 신정동 906-7",
    "lat": "35.52734567245599",
    "lng": "129.31074760188625",
    "region": "울산광역시"
  },
  {
    "name": "반송초등학교 운동장",
    "address": "경상남도 창원시 성산구 반림동 7",
    "lat": "35.23706724679221",
    "lng": "128.67050452580466",
    "region": "경상남도"
  },
  {
    "name": "금성고등학교 운동장",
    "address": "부산광역시 동구 좌천동 747-2",
    "lat": "35.135341091813814",
    "lng": "129.05190164681622",
    "region": "부산광역시"
  },
  {
    "name": "월평중학교운동장",
    "address": "울산광역시 남구 신정동 592-3",
    "lat": "35.540388258712156",
    "lng": "129.315600477952",
    "region": "울산광역시"
  },
  {
    "name": "웅남초등학교 운동장",
    "address": "경상남도 창원시 성산구 상남동 44-3",
    "lat": "35.21778083177351",
    "lng": "128.68831570565536",
    "region": "경상남도"
  },
  {
    "name": "사인암리 마을 주차장",
    "address": "충청북도 단양군 대강면 직티리 82-7",
    "lat": "36.89115248995894",
    "lng": "128.34238171161516",
    "region": "충청북도"
  },
  {
    "name": "용진리 마을회관 앞 공터",
    "address": "충청북도 단양군 영춘면 용진리 413",
    "lat": "37.08721541285425",
    "lng": "128.51077199752376",
    "region": "충청북도"
  },
  {
    "name": "부개초등학교 운동장",
    "address": "인천광역시 부평구 부개동 356",
    "lat": "37.48540485264528",
    "lng": "126.73849776186611",
    "region": "인천광역시"
  },
  {
    "name": "하원곡리 회관앞 공터",
    "address": "충청북도 단양군 적성면 하원곡리 148",
    "lat": "37.039734918705875",
    "lng": "128.24341278078788",
    "region": "충청북도"
  },
  {
    "name": "일몰공원",
    "address": "전라남도 완도군 군외면 대문리 189-3",
    "lat": "34.36173831401193",
    "lng": "126.64196689008305",
    "region": "전라남도"
  },
  {
    "name": "소선암오토캠핑장",
    "address": "충청북도 단양군 단성면 상방리 291",
    "lat": "36.92617991555707",
    "lng": "128.31232866802458",
    "region": "충청북도"
  },
  {
    "name": "영문중학교 운동장",
    "address": "경기도 용인시 처인구 포곡읍 영문리 554",
    "lat": "37.27174934004469",
    "lng": "127.20845779672943",
    "region": "경기도"
  },
  {
    "name": "회인중학교 운동장 ",
    "address": "충청북도 보은군 회인면 중앙리 130",
    "lat": "36.494064",
    "lng": "127.596488",
    "region": "충청북도"
  },
  {
    "name": "부들공원",
    "address": "인천광역시 부평구 삼산동 541",
    "lat": "37.5157272038413",
    "lng": "126.74910532404219",
    "region": "인천광역시"
  },
  {
    "name": "고창초등학교 운동장",
    "address": "경기도 김포시 장기동 1952",
    "lat": "37.646037563010516",
    "lng": "126.67356109357186",
    "region": "경기도"
  },
  {
    "name": "마송초등학교 운동장",
    "address": "경기도 김포시 통진읍 마송리 1-2",
    "lat": "37.684111959647794",
    "lng": "126.60714976668389",
    "region": "경기도"
  },
  {
    "name": "소안초등학교",
    "address": "전라남도 완도군 소안면 비자리 940",
    "lat": "34.17198692965162",
    "lng": "126.65376283424702",
    "region": "전라남도"
  },
  {
    "name": "대곶초등학교 운동장",
    "address": "경기도 김포시 대곶면 율생리 446-1",
    "lat": "37.6518",
    "lng": "126.5843",
    "region": "경기도"
  },
  {
    "name": "김포한가람초 운동장",
    "address": "경기도 김포시 구래동 6872-3",
    "lat": "37.64732300952037",
    "lng": "126.6220001152688",
    "region": "경기도"
  },
  {
    "name": "나비초등학교 운동장",
    "address": "경기도 김포시 구래동 6893-5",
    "lat": "37.63998378676621",
    "lng": "126.6263178521126",
    "region": "경기도"
  },
  {
    "name": "솔터고등학교 운동장",
    "address": "경기도 김포시 마산동 615-6",
    "lat": "37.6412307084589",
    "lng": "126.63660159750229",
    "region": "경기도"
  },
  {
    "name": "마송 제1근린공원",
    "address": "경기도 김포시 통진읍 마송리 501",
    "lat": "37.68910583992133",
    "lng": "126.59126325893557",
    "region": "경기도"
  },
  {
    "name": "효정중학교 운동장",
    "address": "울산광역시 북구 양정동 222",
    "lat": "35.55862444598353",
    "lng": "129.37881410122498",
    "region": "울산광역시"
  },
  {
    "name": "하이자동차운전학원 ",
    "address": "부산광역시 연제구 연산동 2022-462",
    "lat": "35.16784638751452",
    "lng": "129.08699923444152",
    "region": "부산광역시"
  },
  {
    "name": "문수고등학교운동장",
    "address": "울산광역시 남구 무거동 266-1",
    "lat": "35.555758390716214",
    "lng": "129.2646539872862",
    "region": "울산광역시"
  },
  {
    "name": "용부원1리 공터",
    "address": "충청북도 단양군 대강면 용부원리 526-1",
    "lat": "36.91406562854327",
    "lng": "128.38018017365064",
    "region": "충청북도"
  },
  {
    "name": "영춘소백농협광장",
    "address": "충청북도 단양군 영춘면 상리 402",
    "lat": "37.078307609791246",
    "lng": "128.4844220402179",
    "region": "충청북도"
  },
  {
    "name": "남천리 마을회관 앞 공터",
    "address": "충청북도 단양군 영춘면 남천리 483-1",
    "lat": "37.05543422658524",
    "lng": "128.5038314867727",
    "region": "충청북도"
  },
  {
    "name": "적성면사무소",
    "address": "충청북도 단양군 적성면 하리 357-2",
    "lat": "36.960693495111244",
    "lng": "128.29295633580625",
    "region": "충청북도"
  },
  {
    "name": "연일초등학교 운동장",
    "address": "부산광역시 연제구 연산동 1016",
    "lat": "35.184857565230615",
    "lng": "129.0952992439287",
    "region": "부산광역시"
  },
  {
    "name": "현곡리 도로변주차장",
    "address": "충청북도 단양군 적성면 현곡리 93",
    "lat": "36.95043612039106",
    "lng": "128.3003399947159",
    "region": "충청북도"
  },
  {
    "name": "상2리 회관앞 공터",
    "address": "충청북도 단양군 적성면 상리 605",
    "lat": "36.97217507435871",
    "lng": "128.27641158883208",
    "region": "충청북도"
  },
  {
    "name": "하방리 체육시설",
    "address": "충청북도 단양군 단성면 하방리 162-2",
    "lat": "36.93845919365405",
    "lng": "128.31971367754844",
    "region": "충청북도"
  },
  {
    "name": "동두천여자중학교 운동장",
    "address": "경기도 동두천시 생연동 산43-1",
    "lat": "37.90713884717106",
    "lng": "127.0607226709365",
    "region": "경기도"
  },
  {
    "name": "고평리마을회관",
    "address": "충청북도 단양군 단성면 고평리 147-1",
    "lat": "36.91561180280943",
    "lng": "128.25073046090088",
    "region": "충청북도"
  },
  {
    "name": "대잠리마을회관",
    "address": "충청북도 단양군 단성면 대잠리 246-1",
    "lat": "36.9030000749664",
    "lng": "128.3114778138129",
    "region": "충청북도"
  },
  {
    "name": "생연초등학교 운동장",
    "address": "경기도 동두천시 생연동 411",
    "lat": "37.90078889984215",
    "lng": "127.05932557582855",
    "region": "경기도"
  },
  {
    "name": "수안초등학교 운동장",
    "address": "부산광역시 동래구 수안동 7-1",
    "lat": "35.20031696111549",
    "lng": "129.08037407280318",
    "region": "부산광역시"
  },
  {
    "name": "동두천송내초등학교 운동장",
    "address": "경기도 동두천시 송내동 665-4",
    "lat": "37.885884304424565",
    "lng": "127.052375937974",
    "region": "경기도"
  },
  {
    "name": "능원초등학교 운동장",
    "address": "경기도 용인시 처인구 모현읍 능원리 57",
    "lat": "37.3434316832072",
    "lng": "127.17384873219501",
    "region": "경기도"
  },
  {
    "name": "레인보우 힐링타운 주차장",
    "address": "충청북도 영동군 영동읍 매천리 131",
    "lat": "36.16423305091236",
    "lng": "127.78469764666917",
    "region": "충청북도"
  },
  {
    "name": "화봉초등학교 운동장",
    "address": "울산광역시 북구 화봉동 1339",
    "lat": "35.5956698",
    "lng": "129.3671896",
    "region": "울산광역시"
  },
  {
    "name": "명촌초등학교 운동장",
    "address": "울산광역시 북구 명촌동 895-6",
    "lat": "35.5527069",
    "lng": "129.3565706",
    "region": "울산광역시"
  },
  {
    "name": "영신중학교 운동장",
    "address": "충청북도 영동군 영동읍 매천리 458-1",
    "lat": "36.16885136016807",
    "lng": "127.77455728615992",
    "region": "충청북도"
  },
  {
    "name": "황간고등학교 운동장",
    "address": "충청북도 영동군 황간면 남성리 409",
    "lat": "36.234667614834876",
    "lng": "127.91025597268165",
    "region": "충청북도"
  },
  {
    "name": "양강초등학교 운동장",
    "address": "충청북도 영동군 양강면 묘동리 331-2",
    "lat": "36.145626369098785",
    "lng": "127.74696351470267",
    "region": "충청북도"
  },
  {
    "name": "문기초등학교 운동장",
    "address": "경기도 안성시 공도읍 양기리 332-25",
    "lat": "37.00727357169919",
    "lng": "127.19436407089233",
    "region": "경기도"
  },
  {
    "name": "미소공원",
    "address": "전라남도 완도군 군외면 당인리 산49-34",
    "lat": "34.32615125415063",
    "lng": "126.66276834800277",
    "region": "전라남도"
  },
  {
    "name": "신지중학교",
    "address": "전라남도 완도군 신지면 대곡리 781-1",
    "lat": "34.33673090199709",
    "lng": "126.82864171226488",
    "region": "전라남도"
  },
  {
    "name": "청산초등학교",
    "address": "전라남도 완도군 청산면 도청리 988",
    "lat": "34.18271974160132",
    "lng": "126.85886086684262",
    "region": "전라남도"
  },
  {
    "name": "윤선도문학체험공원",
    "address": "전라남도 완도군 보길면 부황리 산63",
    "lat": "34.15974964841951",
    "lng": "126.55257582664481",
    "region": "전라남도"
  },
  {
    "name": "운유초등학교 운동장",
    "address": "경기도 김포시 장기동 1885-7",
    "lat": "37.64633694497911",
    "lng": "126.6604325691845",
    "region": "경기도"
  },
  {
    "name": "장기중학교 운동장",
    "address": "경기도 김포시 장기동 1314",
    "lat": "37.64751957731999",
    "lng": "126.66439719904116",
    "region": "경기도"
  },
  {
    "name": "청송현대1공원",
    "address": "경기도 김포시 장기동 1343",
    "lat": "37.64793389300194",
    "lng": "126.66766778512108",
    "region": "경기도"
  },
  {
    "name": "부림중학교 운동장",
    "address": "경기도 안양시 동안구 관양동 1586-1",
    "lat": "37.39771156913431",
    "lng": "126.95339855049197",
    "region": "경기도"
  },
  {
    "name": "범계초등학교 운동장",
    "address": "경기도 안양시 동안구 호계동 1052-1",
    "lat": "37.38721931138144",
    "lng": "126.953900226445",
    "region": "경기도"
  },
  {
    "name": "울산양정초등학교 운동장",
    "address": "울산광역시 북구 양정동 470",
    "lat": "35.5454577",
    "lng": "129.38612",
    "region": "울산광역시"
  },
  {
    "name": "수정초등학교 운동장",
    "address": "부산광역시 동구 수정동 464-2",
    "lat": "35.13143875923754",
    "lng": "129.04621675342446",
    "region": "부산광역시"
  },
  {
    "name": "양곡중학교 운동장",
    "address": "경상남도 창원시 성산구 신촌동 32",
    "lat": "35.19778817980127",
    "lng": "128.62707555518494",
    "region": "경상남도"
  },
  {
    "name": "삼산체육공원",
    "address": "울산광역시 남구 삼산동 1019-15",
    "lat": "35.54656415132536",
    "lng": "129.33727709552275",
    "region": "울산광역시"
  },
  {
    "name": "갈산초등학교 운동장",
    "address": "인천광역시 부평구 갈산동 360-1",
    "lat": "37.51221435611523",
    "lng": "126.72833050536026",
    "region": "인천광역시"
  },
  {
    "name": "양당리마을회관",
    "address": "충청북도 단양군 단성면 양당리 204-2",
    "lat": "36.90296373303736",
    "lng": "128.24776830832883",
    "region": "충청북도"
  },
  {
    "name": "동두천외국어고등학교 운동장",
    "address": "경기도 동두천시 지행동 310-1",
    "lat": "37.89280515802323",
    "lng": "127.06385850906373",
    "region": "경기도"
  },
  {
    "name": "동보초등학교 운동장",
    "address": "경기도 동두천시 동두천동 213",
    "lat": "37.924296521588076",
    "lng": "127.05180017181242",
    "region": "경기도"
  },
  {
    "name": "궁내근린공원",
    "address": "경기도 군포시 산본동 1119-5",
    "lat": "37.36519883883806",
    "lng": "126.92179799079896",
    "region": "경기도"
  },
  {
    "name": "공도중학교 운동장",
    "address": "경기도 안성시 공도읍 만정리 418-1",
    "lat": "37.0016016024728",
    "lng": "127.17358231544496",
    "region": "경기도"
  },
  {
    "name": "양진중학교 운동장",
    "address": "경기도 안성시 공도읍 진사리 135-8",
    "lat": "36.985907235058306",
    "lng": "127.14347183704379",
    "region": "경기도"
  },
  {
    "name": "대송중학교 운동장",
    "address": "경기도 고양시 일산서구 대화동 1492-1",
    "lat": "37.67072182332297",
    "lng": "126.73119457926421",
    "region": "경기도"
  },
  {
    "name": "울산초등학교운동장",
    "address": "울산광역시 중구 유곡동 263",
    "lat": "35.56159552889071",
    "lng": "129.2997380372635",
    "region": "울산광역시"
  },
  {
    "name": "한산초등학교 운동장",
    "address": "경기도 고양시 일산서구 덕이동 379-28",
    "lat": "37.695301068219",
    "lng": "126.75361543893813",
    "region": "경기도"
  },
  {
    "name": "회남초등학교 운동장",
    "address": "충청북도 보은군 회남면 거교리 249",
    "lat": "36.445877",
    "lng": "127.579963",
    "region": "충청북도"
  },
  {
    "name": "미남초등학교 운동장",
    "address": "부산광역시 동래구 온천동 1460-1",
    "lat": "35.203446600492164",
    "lng": "129.07276070139125",
    "region": "부산광역시"
  },
  {
    "name": "다운중학교운동장",
    "address": "울산광역시 중구 다운동 676-1",
    "lat": "35.56736943932099",
    "lng": "129.2703475217155",
    "region": "울산광역시"
  },
  {
    "name": "두원공업고등학교 운동장",
    "address": "경기도 안성시 미양면 신기리 203-4",
    "lat": "36.996340515594596",
    "lng": "127.24283695220949",
    "region": "경기도"
  },
  {
    "name": "보체초등학교 운동장",
    "address": "경기도 안성시 미양면 보체리 31-5",
    "lat": "36.97389778667443",
    "lng": "127.23815676246711",
    "region": "경기도"
  },
  {
    "name": "외솔중학교운동장",
    "address": "울산광역시 중구 서동 622",
    "lat": "35.58404631486343",
    "lng": "129.34377448562665",
    "region": "울산광역시"
  },
  {
    "name": "노화중앙초등학교",
    "address": "전라남도 완도군 노화읍 이포리 674",
    "lat": "34.178801391873",
    "lng": "126.57212379391466",
    "region": "전라남도"
  },
  {
    "name": "노화북초등학교",
    "address": "전라남도 완도군 노화읍 신양리 452-1",
    "lat": "34.21576766900109",
    "lng": "126.57763710127793",
    "region": "전라남도"
  },
  {
    "name": "약사초등학교운동장",
    "address": "울산광역시 중구 약사동 707-16",
    "lat": "35.56722300132685",
    "lng": "129.33405936593954",
    "region": "울산광역시"
  },
  {
    "name": "삼승면사무소 공터",
    "address": "충청북도 보은군 삼승면 원남리 210-5",
    "lat": "36.395494",
    "lng": "127.727728",
    "region": "충청북도"
  },
  {
    "name": "백양근린공원",
    "address": "부산광역시 북구 만덕동 843",
    "lat": "35.20662720089972",
    "lng": "129.0384042263045",
    "region": "부산광역시"
  },
  {
    "name": "은여울중학교 운동장",
    "address": "경기도 김포시 마산동 639-9",
    "lat": "37.63765390525959",
    "lng": "126.63949546841593",
    "region": "경기도"
  },
  {
    "name": "아야진초등학교 운동장",
    "address": "강원특별자치도 고성군 토성면 아야진리 200",
    "lat": "38.27315877414786",
    "lng": "128.5496219576076",
    "region": "강원특별자치도"
  },
  {
    "name": "골드밸리 제5근린공원",
    "address": "경기도 김포시 양촌읍 학운리 3152",
    "lat": "37.62111308548242",
    "lng": "126.62859465094506",
    "region": "경기도"
  },
  {
    "name": "풍무5지구 바다어린이공원",
    "address": "경기도 김포시 풍무동 801",
    "lat": "37.59796119777079",
    "lng": "126.72510631101031",
    "region": "경기도"
  },
  {
    "name": "성신초등학교 운동장",
    "address": "경기도 고양시 덕양구 행신동 929",
    "lat": "37.62655907487391",
    "lng": "126.84023054824719",
    "region": "경기도"
  },
  {
    "name": "부림초등학교 운동장",
    "address": "경기도 안양시 동안구 관양동 1587-3",
    "lat": "37.399984600273065",
    "lng": "126.96018381047642",
    "region": "경기도"
  },
  {
    "name": "양동초등학교운동장",
    "address": "부산광역시 부산진구 양정동 24",
    "lat": "35.17127783570261",
    "lng": "129.08108345162404",
    "region": "부산광역시"
  },
  {
    "name": "꿈동산 어린이공원",
    "address": "부산광역시 부산진구 양정동 91-2",
    "lat": "35.174396810894685",
    "lng": "129.07746715649097",
    "region": "부산광역시"
  },
  {
    "name": "연암초등학교효문분교 운동장",
    "address": "울산광역시 북구 효문동 767",
    "lat": "35.566767380024444",
    "lng": "129.3680691719055",
    "region": "울산광역시"
  },
  {
    "name": "옥동중학교운동장",
    "address": "울산광역시 남구 옥동 648-1",
    "lat": "35.53782281028664",
    "lng": "129.28412449251493",
    "region": "울산광역시"
  },
  {
    "name": "부산중학교 운동장",
    "address": "부산광역시 동구 초량동 773-2",
    "lat": "35.122621230286256",
    "lng": "129.03745236586278",
    "region": "부산광역시"
  },
  {
    "name": "가곡초중학교 운동장",
    "address": "충청북도 단양군 가곡면 사평리 435",
    "lat": "37.027466920041235",
    "lng": "128.38522368054333",
    "region": "충청북도"
  },
  {
    "name": "외동초등학교 운동장",
    "address": "경상남도 창원시 성산구 상남동 62",
    "lat": "35.21648463225348",
    "lng": "128.68104401205434",
    "region": "경상남도"
  },
  {
    "name": "영가대",
    "address": "부산광역시 동구 범일동 358-2",
    "lat": "35.135174893534554",
    "lng": "129.06141446389265",
    "region": "부산광역시"
  },
  {
    "name": "문화공원",
    "address": "울산광역시 남구 달동 1229-18",
    "lat": "35.54488752766964",
    "lng": "129.32750714745504",
    "region": "울산광역시"
  },
  {
    "name": "영천리 마을회관 주차장",
    "address": "충청북도 단양군 매포읍 영천리 193-1",
    "lat": "37.06959964592351",
    "lng": "128.298730535798",
    "region": "충청북도"
  },
  {
    "name": "벌천리마을회관",
    "address": "충청북도 단양군 단성면 벌천리 130-3",
    "lat": "36.858041924953184",
    "lng": "128.27678506671194",
    "region": "충청북도"
  },
  {
    "name": "포곡초등학교 운동장",
    "address": "경기도 용인시 처인구 포곡읍 전대리 167-1",
    "lat": "37.28196240692697",
    "lng": "127.21946641345198",
    "region": "경기도"
  },
  {
    "name": "이담초등학교 운동장",
    "address": "경기도 동두천시 지행동 717-7",
    "lat": "37.88946403705452",
    "lng": "127.05101234169797",
    "region": "경기도"
  },
  {
    "name": "영동미래고등학교 운동장",
    "address": "충청북도 영동군 영동읍 계산리 270-2",
    "lat": "36.17836693118736",
    "lng": "127.77944704381893",
    "region": "충청북도"
  },
  {
    "name": "동천보조운동장 ",
    "address": "울산광역시 중구 남외동 865",
    "lat": "35.562151862483155",
    "lng": "129.34643510661397",
    "region": "울산광역시"
  },
  {
    "name": "창문여자고등학교운동장",
    "address": "서울특별시 강북구 미아동 8-6",
    "lat": "37.612949704071475",
    "lng": "127.0366294620965",
    "region": "서울특별시"
  },
  {
    "name": "함월구민운동장",
    "address": "울산광역시 중구 성안동 924",
    "lat": "35.57807792858426",
    "lng": "129.30788696572512",
    "region": "울산광역시"
  },
  {
    "name": "송중초등학교운동장",
    "address": "서울특별시 강북구 미아동 94-1",
    "lat": "37.6168518994445",
    "lng": "127.03166292748837",
    "region": "서울특별시"
  },
  {
    "name": "십리대밭 축구장",
    "address": "울산광역시 중구 태화동 800",
    "lat": "35.551833671175224",
    "lng": "129.28547859192193",
    "region": "울산광역시"
  },
  {
    "name": "신성중학교 운동장",
    "address": "경기도 안양시 만안구 안양동 587-68",
    "lat": "37.38465379029141",
    "lng": "126.91985943282361",
    "region": "경기도"
  },
  {
    "name": "신호중학교 운동장",
    "address": "부산광역시 강서구 신호동 302-1",
    "lat": "35.08164214258517",
    "lng": "128.8767904043212",
    "region": "부산광역시"
  },
  {
    "name": "고양제일중학교 운동장",
    "address": "경기도 고양시 덕양구 관산동 332",
    "lat": "37.69042242375112",
    "lng": "126.8603565129092",
    "region": "경기도"
  },
  {
    "name": "인덕원초등학교 운동장",
    "address": "경기도 안양시 동안구 관양동 210",
    "lat": "37.39697224644044",
    "lng": "126.97946037131385",
    "region": "경기도"
  },
  {
    "name": "동일중앙초등학교 운동장",
    "address": "부산광역시 동구 수정동 1073-1",
    "lat": "35.1250655024658",
    "lng": "129.0378661421415",
    "region": "부산광역시"
  },
  {
    "name": "유목초등학교 운동장",
    "address": "경상남도 창원시 성산구 반지동 34",
    "lat": "35.24408998539777",
    "lng": "128.66302940085757",
    "region": "경상남도"
  },
  {
    "name": "남산중학교 운동장",
    "address": "경상남도 창원시 성산구 가음동 26",
    "lat": "35.20420853205361",
    "lng": "128.69916344759378",
    "region": "경상남도"
  },
  {
    "name": "토현중학교 운동장",
    "address": "부산광역시 연제구 연산동 2219",
    "lat": "35.181718328688035",
    "lng": "129.1111564636248",
    "region": "부산광역시"
  },
  {
    "name": "다전초등학교운동장",
    "address": "울산광역시 중구 다운동 686-1",
    "lat": "35.56759570909481",
    "lng": "129.26873257259024",
    "region": "울산광역시"
  },
  {
    "name": "남외중학교운동장",
    "address": "울산광역시 중구 남외동 502-1",
    "lat": "35.56649802426173",
    "lng": "129.34848100624646",
    "region": "울산광역시"
  },
  {
    "name": "무룡중학교운동장",
    "address": "울산광역시 중구 약사동 707-7",
    "lat": "35.56545913371148",
    "lng": "129.33579342341608",
    "region": "울산광역시"
  },
  {
    "name": "사포초등학교 운동장",
    "address": "경상남도 밀양시 부북면 전사포리 574-7",
    "lat": "35.47471574579581",
    "lng": "128.73365477178305",
    "region": "경상남도"
  },
  {
    "name": "왕곡초등학교 운동장",
    "address": "경기도 의왕시 왕곡동 604",
    "lat": "37.34549253981848",
    "lng": "126.98048995279318",
    "region": "경기도"
  },
  {
    "name": "산내초등학교 운동장",
    "address": "경상남도 밀양시 산내면 송백리 1308",
    "lat": "35.58599919383332",
    "lng": "128.88064026838117",
    "region": "경상남도"
  },
  {
    "name": "송호국민관광지",
    "address": "충청북도 영동군 양산면 송호리 279",
    "lat": "36.131844719474444",
    "lng": "127.67332615963",
    "region": "충청북도"
  },
  {
    "name": "고천체육공원",
    "address": "경기도 의왕시 왕곡동 270-2",
    "lat": "37.346750405284986",
    "lng": "126.98246341730182",
    "region": "경기도"
  },
  {
    "name": "의왕부곡중학교 운동장",
    "address": "경기도 의왕시 월암동 431",
    "lat": "37.31442098375252",
    "lng": "126.95668519587811",
    "region": "경기도"
  },
  {
    "name": "밀양동강중학교 운동장",
    "address": "경상남도 밀양시 산내면 송백리 2081-21",
    "lat": "35.58565664431869",
    "lng": "128.8756837331236",
    "region": "경상남도"
  },
  {
    "name": "고천중학교 운동장",
    "address": "경기도 의왕시 오전동 413",
    "lat": "37.35265736504902",
    "lng": "126.98279186171402",
    "region": "경기도"
  },
  {
    "name": "광주각화초등학교  운동장",
    "address": "광주광역시 북구 각화동 215",
    "lat": "35.18173586666002",
    "lng": "126.9360136985779",
    "region": "광주광역시"
  },
  {
    "name": "모락고등학교 운동장",
    "address": "경기도 의왕시 오전동 산58-10",
    "lat": "37.36953048095631",
    "lng": "126.9667786359787",
    "region": "경기도"
  },
  {
    "name": "내손초등학교 운동장",
    "address": "경기도 의왕시 내손동 849-1",
    "lat": "37.38832503428875",
    "lng": "126.98211014270781",
    "region": "경기도"
  },
  {
    "name": "미래공원",
    "address": "부산광역시 북구 금곡동 811-2",
    "lat": "35.257527",
    "lng": "129.014132",
    "region": "부산광역시"
  },
  {
    "name": "이월면사무소",
    "address": "충청북도 진천군 이월면 노원리 683-4",
    "lat": "36.925561797197595",
    "lng": "127.42855604898568",
    "region": "충청북도"
  },
  {
    "name": "내손체육공원",
    "address": "경기도 의왕시 내손동 666",
    "lat": "37.38678287912162",
    "lng": "126.98350318944948",
    "region": "경기도"
  },
  {
    "name": "평촌경영고등학교 운동장",
    "address": "경기도 안양시 동안구 관양동 1587-2",
    "lat": "37.400790693300515",
    "lng": "126.95943750302249",
    "region": "경기도"
  },
  {
    "name": "부산진중학교운동장",
    "address": "부산광역시 부산진구 범전동 227-1",
    "lat": "35.16404213611408",
    "lng": "129.05588007880505",
    "region": "부산광역시"
  },
  {
    "name": "울산마이스터고등학교 운동장",
    "address": "울산광역시 북구 효문동 34-1",
    "lat": "35.5606355",
    "lng": "129.3773681",
    "region": "울산광역시"
  },
  {
    "name": "염포초등학교 운동장",
    "address": "울산광역시 북구 염포동 179",
    "lat": "35.5335384",
    "lng": "129.3914793",
    "region": "울산광역시"
  },
  {
    "name": "초량초등학교 운동장",
    "address": "부산광역시 동구 초량동 994-13",
    "lat": "35.116260950178365",
    "lng": "129.0363797110863",
    "region": "부산광역시"
  },
  {
    "name": "대방초등학교 운동장",
    "address": "경상남도 창원시 성산구 대방동 359",
    "lat": "35.21122576201404",
    "lng": "128.70667780253163",
    "region": "경상남도"
  },
  {
    "name": "증산공원",
    "address": "부산광역시 동구 범일동 산81-28",
    "lat": "35.137874732776496",
    "lng": "129.05133515596538",
    "region": "부산광역시"
  },
  {
    "name": "사파초등학교 운동장",
    "address": "경상남도 창원시 성산구 사파동 144",
    "lat": "35.219675674592786",
    "lng": "128.69695081262077",
    "region": "경상남도"
  },
  {
    "name": "용두공원",
    "address": "충청북도 영동군 영동읍 매천리 378-7",
    "lat": "36.1687433126776",
    "lng": "127.78375755766344",
    "region": "충청북도"
  },
  {
    "name": "당정근린공원",
    "address": "경기도 군포시 당정동 762-2",
    "lat": "37.34430235123417",
    "lng": "126.94703215887185",
    "region": "경기도"
  },
  {
    "name": "덕장초등학교 운동장",
    "address": "경기도 의왕시 청계동 975",
    "lat": "37.39195155232134",
    "lng": "126.99735067052855",
    "region": "경기도"
  },
  {
    "name": "광주동림초등학교 운동장",
    "address": "광주광역시 북구 동림동 1157-1",
    "lat": "35.18692693976527",
    "lng": "126.86757445335387",
    "region": "광주광역시"
  },
  {
    "name": "백운중학교 운동장",
    "address": "경기도 의왕시 포일동 170-1",
    "lat": "37.390469442962605",
    "lng": "126.9901008898482",
    "region": "경기도"
  },
  {
    "name": "덕장중학교 운동장",
    "address": "경기도 의왕시 청계동 973",
    "lat": "37.39278571127489",
    "lng": "126.99844047018702",
    "region": "경기도"
  },
  {
    "name": "광주풍향초등학교 운동장",
    "address": "광주광역시 북구 두암동 800",
    "lat": "35.16741923865866",
    "lng": "126.92820847034453",
    "region": "광주광역시"
  },
  {
    "name": "시냇물공원",
    "address": "인천광역시 부평구 삼산동 443-1",
    "lat": "37.513312",
    "lng": "126.736539",
    "region": "인천광역시"
  },
  {
    "name": "샛강어린이공원",
    "address": "서울특별시 강북구 번동 472-39",
    "lat": "37.639334825432144",
    "lng": "127.03298221180428",
    "region": "서울특별시"
  },
  {
    "name": "화랑공원",
    "address": "충청북도 진천군 진천읍 교성리 126",
    "lat": "36.84949506257417",
    "lng": "127.44257105017195",
    "region": "충청북도"
  },
  {
    "name": "덕산근린공원(1호)",
    "address": "충청북도 진천군 덕산읍 용몽리 640-1",
    "lat": "36.91532185856591",
    "lng": "127.5094512104988",
    "region": "충청북도"
  },
  {
    "name": "벌말어린이공원",
    "address": "서울특별시 강북구 번동 235",
    "lat": "37.62973356629697",
    "lng": "127.03981338850188",
    "region": "서울특별시"
  },
  {
    "name": "수산체육공원",
    "address": "제주특별자치도 서귀포시 성산읍 수산리 3105-1",
    "lat": "33.445839934658665",
    "lng": "126.85447722673415",
    "region": "제주특별자치도"
  },
  {
    "name": "오현초등학교운동장",
    "address": "서울특별시 강북구 번동 248",
    "lat": "37.6231755194769",
    "lng": "127.04688144396866",
    "region": "서울특별시"
  },
  {
    "name": "삼달리 마을 운동장",
    "address": "제주특별자치도 서귀포시 성산읍 삼달리 1882-1",
    "lat": "33.38805978191169",
    "lng": "126.82585929910695",
    "region": "제주특별자치도"
  },
  {
    "name": "한림종합운동장",
    "address": "제주특별자치도 제주시 한림읍 한림리 887-2",
    "lat": "33.40957231026137",
    "lng": "126.26868162906848",
    "region": "제주특별자치도"
  },
  {
    "name": "광주본촌초등학교 운동장",
    "address": "광주광역시 북구 본촌동 2999",
    "lat": "35.21490216476583",
    "lng": "126.88184916973117",
    "region": "광주광역시"
  },
  {
    "name": "추자초등학교 운동장",
    "address": "제주특별자치도 제주시 추자면 대서리 31",
    "lat": "33.96394113763168",
    "lng": "126.29555313506185",
    "region": "제주특별자치도"
  },
  {
    "name": "청산중학교",
    "address": "전라남도 완도군 청산면 도청리 220",
    "lat": "34.181400761240944",
    "lng": "126.86379372728875",
    "region": "전라남도"
  },
  {
    "name": "두레봉공원",
    "address": "충청북도 진천군 덕산읍 두촌리 2447",
    "lat": "36.90654609796508",
    "lng": "127.53654956817627",
    "region": "충청북도"
  },
  {
    "name": "강당말공원",
    "address": "충청북도 진천군 덕산읍 두촌리 2609",
    "lat": "36.90132991833032",
    "lng": "127.54033684730527",
    "region": "충청북도"
  },
  {
    "name": "옥죽포어구적치장",
    "address": "인천광역시 옹진군 대청면 대청리 487-44",
    "lat": "37.84543878409281",
    "lng": "124.71011286624189",
    "region": "인천광역시"
  },
  {
    "name": "비아초등학교 운동장",
    "address": "광주광역시 광산구 비아동 68-2",
    "lat": "35.22268547107341",
    "lng": "126.82563543319701",
    "region": "광주광역시"
  },
  {
    "name": "학진초등학교 운동장",
    "address": "부산광역시 사상구 엄궁동 25-21",
    "lat": "35.13308219387903",
    "lng": "128.9747973612267",
    "region": "부산광역시"
  },
  {
    "name": "보길중학교",
    "address": "전라남도 완도군 보길면 부황리 11-3",
    "lat": "34.168278655286684",
    "lng": "126.56337801077446",
    "region": "전라남도"
  },
  {
    "name": "주감중학교 운동장",
    "address": "부산광역시 사상구 주례동 995",
    "lat": "35.15627928725671",
    "lng": "128.99564183894805",
    "region": "부산광역시"
  },
  {
    "name": "가평초등학교운동장",
    "address": "부산광역시 부산진구 가야동 649-19",
    "lat": "35.148777557895436",
    "lng": "129.02499327109322",
    "region": "부산광역시"
  },
  {
    "name": "동주중학교 운동장",
    "address": "부산광역시 사상구 주례동 543",
    "lat": "35.14563471312605",
    "lng": "129.00408267974979",
    "region": "부산광역시"
  },
  {
    "name": "대덕여자고등학교 운동장",
    "address": "부산광역시 사상구 덕포동 산8-41",
    "lat": "35.178747",
    "lng": "128.993367",
    "region": "부산광역시"
  },
  {
    "name": "천가초등학교 운동장",
    "address": "부산광역시 강서구 성북동 369",
    "lat": "35.05164493466673",
    "lng": "128.83119016885826",
    "region": "부산광역시"
  },
  {
    "name": "제황초등학교운동장",
    "address": "경상남도 창원시 진해구 제황산동 28-2",
    "lat": "35.148520938759084",
    "lng": "128.66968095302116",
    "region": "경상남도"
  },
  {
    "name": "능곡고등학교 운동장",
    "address": "경기도 고양시 덕양구 토당동 394-3",
    "lat": "37.62358478907906",
    "lng": "126.82550944897257",
    "region": "경기도"
  },
  {
    "name": "무원고등학교 운동장",
    "address": "경기도 고양시 덕양구 행신동 977",
    "lat": "37.61873918213181",
    "lng": "126.83819772599692",
    "region": "경기도"
  },
  {
    "name": "온신초등학교 운동장",
    "address": "경기도 광명시 노온사동 361-2",
    "lat": "37.442523960900594",
    "lng": "126.84626143905457",
    "region": "경기도"
  },
  {
    "name": "밤골공원",
    "address": "인천광역시 부평구 부평동 944",
    "lat": "37.48069931507968",
    "lng": "126.72971547343984",
    "region": "인천광역시"
  },
  {
    "name": "보은여중고등학교 운동장",
    "address": "충청북도 보은군 보은읍 교사리 174-2",
    "lat": "36.49442959579601",
    "lng": "127.71693181770821",
    "region": "충청북도"
  },
  {
    "name": "성안초등학교운동장",
    "address": "울산광역시 중구 성안동 797-1",
    "lat": "35.57604281752421",
    "lng": "129.3121184580144",
    "region": "울산광역시"
  },
  {
    "name": "감물초등학교 운동장",
    "address": "충청북도 괴산군 감물면 오성리 81-1",
    "lat": "36.83902209305557",
    "lng": "127.87169142964972",
    "region": "충청북도"
  },
  {
    "name": "내북초등학교 운동장 ",
    "address": "충청북도 보은군 내북면 화전리 5-1",
    "lat": "36.575025",
    "lng": "127.652051",
    "region": "충청북도"
  },
  {
    "name": "금강초등학교 운동장",
    "address": "부산광역시 동래구 온천동 1263",
    "lat": "35.20282294373807",
    "lng": "129.06451167114045",
    "region": "부산광역시"
  },
  {
    "name": "개롱공원",
    "address": "서울특별시 송파구 가락동 195",
    "lat": "37.493698145801346",
    "lng": "127.13079599915692",
    "region": "서울특별시"
  },
  {
    "name": "미양초등학교 운동장",
    "address": "경기도 안성시 미양면 양지리 201",
    "lat": "36.97552205762913",
    "lng": "127.2133859551012",
    "region": "경기도"
  },
  {
    "name": "신나는학교 운동장",
    "address": "경기도 안성시 보개면 복평리 162",
    "lat": "37.041827462939814",
    "lng": "127.30781912289399",
    "region": "경기도"
  },
  {
    "name": "수한면사무소 공터",
    "address": "충청북도 보은군 수한면 후평리 238",
    "lat": "36.479568",
    "lng": "127.698658",
    "region": "충청북도"
  },
  {
    "name": "농업기술센터 주차장",
    "address": "충청북도 보은군 보은읍 강산리 342",
    "lat": "36.503851932083386",
    "lng": "127.71492624955421",
    "region": "충청북도"
  },
  {
    "name": "광주두암초등학교 운동장",
    "address": "광주광역시 북구 두암동 400",
    "lat": "35.169028614798506",
    "lng": "126.93395376205444",
    "region": "광주광역시"
  },
  {
    "name": "광주문화초등학교 운동장",
    "address": "광주광역시 북구 두암동 828-1",
    "lat": "35.17331282053879",
    "lng": "126.93211913108827",
    "region": "광주광역시"
  },
  {
    "name": "청일초등학교 운동장",
    "address": "강원특별자치도 횡성군 청일면 유동리 1005-1",
    "lat": "37.581299277450704",
    "lng": "128.14614520570055",
    "region": "강원특별자치도"
  },
  {
    "name": "청일중학교 운동장",
    "address": "강원특별자치도 횡성군 청일면 유동리 1001",
    "lat": "37.58203554935051",
    "lng": "128.14707398414618",
    "region": "강원특별자치도"
  },
  {
    "name": "석정공원",
    "address": "인천광역시 부평구 십정동 445-4",
    "lat": "37.469759319476545",
    "lng": "126.69848775046674",
    "region": "인천광역시"
  },
  {
    "name": "법성공원",
    "address": "인천광역시 부평구 십정동 591",
    "lat": "37.47491876947538",
    "lng": "126.70498371747364",
    "region": "인천광역시"
  },
  {
    "name": "풍동초등학교 운동장",
    "address": "경기도 고양시 일산동구 풍동 1266",
    "lat": "37.669334880605525",
    "lng": "126.80255119094369",
    "region": "경기도"
  },
  {
    "name": "동평여자중학교운동장",
    "address": "부산광역시 부산진구 부암동 450-1",
    "lat": "35.170365846503245",
    "lng": "129.04273921053098",
    "region": "부산광역시"
  },
  {
    "name": "주례초등학교운동장",
    "address": "부산광역시 부산진구 개금동 630-5",
    "lat": "35.14547800491866",
    "lng": "129.01869265189035",
    "region": "부산광역시"
  },
  {
    "name": "애니원고등학교운동장",
    "address": "울산광역시 중구 성안동 480",
    "lat": "35.57833054528518",
    "lng": "129.3213600196339",
    "region": "울산광역시"
  },
  {
    "name": "함월고등학교운동장",
    "address": "울산광역시 중구 유곡동 501-3",
    "lat": "35.56142647872729",
    "lng": "129.29790616765737",
    "region": "울산광역시"
  },
  {
    "name": "다운초등학교운동장",
    "address": "울산광역시 중구 다운동 811",
    "lat": "35.561597052356326",
    "lng": "129.2674298388203",
    "region": "울산광역시"
  },
  {
    "name": "성안생활체육공원",
    "address": "울산광역시 중구 성안동 900-6",
    "lat": "35.57680090259493",
    "lng": "129.30448740721073",
    "region": "울산광역시"
  },
  {
    "name": "부북초등학교 운동장",
    "address": "경상남도 밀양시 부북면 운전리 323-1",
    "lat": "35.5143400561797",
    "lng": "128.73004752934145",
    "region": "경상남도"
  },
  {
    "name": "상꾸지공원(갈산1공원)",
    "address": "인천광역시 부평구 갈산동 361-2",
    "lat": "37.51402418682503",
    "lng": "126.72517070287435",
    "region": "인천광역시"
  },
  {
    "name": "무안중학교 운동장",
    "address": "경상남도 밀양시 무안면 신법리 192",
    "lat": "35.47994322038891",
    "lng": "128.65466326475178",
    "region": "경상남도"
  },
  {
    "name": "광주문흥초등학교 운동장",
    "address": "광주광역시 북구 문흥동 787-3",
    "lat": "35.18044243113734",
    "lng": "126.91446483135222",
    "region": "광주광역시"
  },
  {
    "name": "혜윰공원",
    "address": "충청북도 진천군 덕산읍 두촌리 2406",
    "lat": "36.90923984056983",
    "lng": "127.53085792064665",
    "region": "충청북도"
  },
  {
    "name": "송전초등학교  운동장",
    "address": "경기도 용인시 처인구 이동읍 송전리 705-2",
    "lat": "37.14066260473332",
    "lng": "127.19845211176035",
    "region": "경기도"
  },
  {
    "name": "광주양산초등학교 운동장",
    "address": "광주광역시 북구 양산동 283-1",
    "lat": "35.20680690981584",
    "lng": "126.87138855457306",
    "region": "광주광역시"
  },
  {
    "name": "광주서산초등학교 운동장",
    "address": "광주광역시 북구 오치동 945-1",
    "lat": "35.18861626569259",
    "lng": "126.90436728220055",
    "region": "광주광역시"
  },
  {
    "name": "제주북초등학교 운동장",
    "address": "제주특별자치도 제주시 삼도이동 17-3",
    "lat": "33.51518644962882",
    "lng": "126.52218419592775",
    "region": "제주특별자치도"
  },
  {
    "name": "세모공원",
    "address": "인천광역시 부평구 부개동 511",
    "lat": "37.49245700563287",
    "lng": "126.7373303587123",
    "region": "인천광역시"
  },
  {
    "name": "청도초등학교 운동장",
    "address": "경상남도 밀양시 청도면 두곡리 53",
    "lat": "35.551139457513756",
    "lng": "128.62422552461",
    "region": "경상남도"
  },
  {
    "name": "광주대자초등학교 운동장",
    "address": "광주광역시 북구 운암동 782-6",
    "lat": "35.17327335600941",
    "lng": "126.87284767627712",
    "region": "광주광역시"
  },
  {
    "name": "광주운암초등학교 운동장",
    "address": "광주광역시 북구 운암동 1020",
    "lat": "35.18008289625142",
    "lng": "126.87114179134369",
    "region": "광주광역시"
  },
  {
    "name": "밀성초등학교 운동장",
    "address": "경상남도 밀양시 내이동 593-1",
    "lat": "35.50244360551601",
    "lng": "128.75198185443924",
    "region": "경상남도"
  },
  {
    "name": "광주일신초등학교 운동장",
    "address": "광주광역시 북구 일곡동 814-5",
    "lat": "35.21079546873238",
    "lng": "126.89528167247772",
    "region": "광주광역시"
  },
  {
    "name": "제주종합경기장 주경기장 ",
    "address": "제주특별자치도 제주시 오라일동 1165",
    "lat": "33.497778893646874",
    "lng": "126.5144890611787",
    "region": "제주특별자치도"
  },
  {
    "name": "광주서림초등학교 운동장",
    "address": "광주광역시 북구 임동 32-1",
    "lat": "35.16232571594703",
    "lng": "126.89913626727045",
    "region": "광주광역시"
  },
  {
    "name": "밀성제일고등학교 운동장",
    "address": "경상남도 밀양시 내이동 590-1",
    "lat": "35.502611224639566",
    "lng": "128.75077351606478",
    "region": "경상남도"
  },
  {
    "name": "밀양아리랑아트센터",
    "address": "경상남도 밀양시 교동 487",
    "lat": "35.504789522602834",
    "lng": "128.75910152741417",
    "region": "경상남도"
  },
  {
    "name": "부흥초등학교 운동장",
    "address": "경기도 안양시 동안구 비산동 1102-8",
    "lat": "37.39459662778091",
    "lng": "126.9467816718445",
    "region": "경기도"
  },
  {
    "name": "권선중앙공원",
    "address": "경기도 수원시 권선구 권선동 1269",
    "lat": "37.251134",
    "lng": "127.0310255885124",
    "region": "경기도"
  },
  {
    "name": "에덴어린이공원",
    "address": "대구광역시 수성구 지산동 1272-1",
    "lat": "35.8216128",
    "lng": "128.632475",
    "region": "대구광역시"
  },
  {
    "name": "신촌초등학교운동장",
    "address": "부산광역시 사하구 신평동 39",
    "lat": "35.09061896381498",
    "lng": "128.98044705391473",
    "region": "부산광역시"
  },
  {
    "name": "천마공원",
    "address": "대구광역시 수성구 신매동 579",
    "lat": "35.83681853796808",
    "lng": "128.70637357245906",
    "region": "대구광역시"
  },
  {
    "name": "두리공원",
    "address": "대구광역시 수성구 신매동 598",
    "lat": "35.831902281690326",
    "lng": "128.70372870900317",
    "region": "대구광역시"
  },
  {
    "name": "홍티문화공원",
    "address": "부산광역시 사하구 다대동 1608",
    "lat": "35.06206509150079",
    "lng": "128.95902448135658",
    "region": "부산광역시"
  },
  {
    "name": "서천초등학교운동장",
    "address": "부산광역시 사하구 감천동 506-1",
    "lat": "35.08859322959997",
    "lng": "129.0036696195593",
    "region": "부산광역시"
  },
  {
    "name": "광주청풍수련장 운동장",
    "address": "광주광역시 북구 청풍동 498",
    "lat": "35.17196224575514",
    "lng": "126.96495473384856",
    "region": "광주광역시"
  },
  {
    "name": "교문중학교운동장",
    "address": "경기도 구리시 교문동 808-2",
    "lat": "37.58833157050851",
    "lng": "127.13391997494004",
    "region": "경기도"
  },
  {
    "name": "온양체육공원 주차장",
    "address": "울산광역시 울주군 온양읍 고산리 828-2",
    "lat": "35.42901184026434",
    "lng": "129.28103685379418",
    "region": "울산광역시"
  },
  {
    "name": "남부노인복지회관 주차장",
    "address": "울산광역시 울주군 온양읍 발리 279-2",
    "lat": "35.40705712343379",
    "lng": "129.2981198430093",
    "region": "울산광역시"
  },
  {
    "name": "명산초등학교 운동장",
    "address": "울산광역시 울주군 서생면 명산리 504",
    "lat": "35.35076593965855",
    "lng": "129.29562002421122",
    "region": "울산광역시"
  },
  {
    "name": "법원체육공원",
    "address": "경기도 파주시 법원읍 대능리 448-5",
    "lat": "37.83942816882578",
    "lng": "126.85463547706601",
    "region": "경기도"
  },
  {
    "name": "청석초등학교 운동장",
    "address": "경기도 파주시 다율동 983",
    "lat": "37.7307785055784",
    "lng": "126.7193064248836",
    "region": "경기도"
  },
  {
    "name": "방학초등학교 운동장",
    "address": "서울특별시 도봉구 방학동 302",
    "lat": "37.66367247446375",
    "lng": "127.03234024289009",
    "region": "서울특별시"
  },
  {
    "name": "남양초등학교 운동장",
    "address": "경기도 화성시 남양읍 남양리 650-1",
    "lat": "37.21019232624912",
    "lng": "126.81536915844207",
    "region": "경기도"
  },
  {
    "name": "동양초등학교 운동장",
    "address": "경기도 화성시 남양읍 남양리 1651",
    "lat": "37.20646140581436",
    "lng": "126.82249188423152",
    "region": "경기도"
  },
  {
    "name": "이화금란고등학교 운동장",
    "address": "서울특별시 서대문구 대신동 47",
    "lat": "37.56568092121535",
    "lng": "126.94715419161336",
    "region": "서울특별시"
  },
  {
    "name": "구산초등학교 운동장",
    "address": "서울특별시 은평구 구산동 182-45",
    "lat": "37.609488916825946",
    "lng": "126.90896507341326",
    "region": "서울특별시"
  },
  {
    "name": "창신초등학교 운동장",
    "address": "충청북도 청주시 서원구 사창동 351",
    "lat": "36.629684039258635",
    "lng": "127.46420855824674",
    "region": "충청북도"
  },
  {
    "name": "솔모루공원",
    "address": "경기도 포천시 소흘읍 송우리 728-9",
    "lat": "37.82773604443229",
    "lng": "127.1386055782359",
    "region": "경기도"
  },
  {
    "name": "청평중학교 운동장",
    "address": "경기도 가평군 청평면 청평리 288",
    "lat": "37.74290095506986",
    "lng": "127.42246985435483",
    "region": "경기도"
  },
  {
    "name": "칠봉초등학교 운동장",
    "address": "경기도 양주시 고암동 121",
    "lat": "37.83792796501771",
    "lng": "127.0703889192847",
    "region": "경기도"
  },
  {
    "name": "양오초등학교 운동장",
    "address": "경기도 남양주시 오남읍 양지리 616-5",
    "lat": "37.69730034864163",
    "lng": "127.19198585107749",
    "region": "경기도"
  },
  {
    "name": "와수족구장",
    "address": "강원특별자치도 철원군 서면 와수리 1959-15",
    "lat": "38.24487515636819",
    "lng": "127.42572543637094",
    "region": "강원특별자치도"
  },
  {
    "name": "행정초등학교 운동장",
    "address": "경기도 화성시 향남읍 행정리 493",
    "lat": "37.126506500118474",
    "lng": "126.9237419607601",
    "region": "경기도"
  },
  {
    "name": "활초초등학교 운동장",
    "address": "경기도 화성시 남양읍 안석리 232-1",
    "lat": "37.17863098999271",
    "lng": "126.82551036132486",
    "region": "경기도"
  },
  {
    "name": "어람중학교 운동장",
    "address": "경기도 남양주시 오남읍 오남리 358-1",
    "lat": "37.68209222466436",
    "lng": "127.21467702431282",
    "region": "경기도"
  },
  {
    "name": "동신공원",
    "address": "대구광역시 수성구 황금동 750",
    "lat": "35.8475601",
    "lng": "128.618883",
    "region": "대구광역시"
  },
  {
    "name": "치평초등학교  운동장",
    "address": "광주광역시 서구 치평동 1171-7",
    "lat": "35.14833671464536",
    "lng": "126.84386909008023",
    "region": "광주광역시"
  },
  {
    "name": "상무중학교  운동장",
    "address": "광주광역시 서구 쌍촌동 471",
    "lat": "35.14536275345929",
    "lng": "126.85782194137572",
    "region": "광주광역시"
  },
  {
    "name": "장림초등학교운동장",
    "address": "부산광역시 사하구 장림동 182",
    "lat": "35.081491252817884",
    "lng": "128.97620959584717",
    "region": "부산광역시"
  },
  {
    "name": "괴정초등학교운동장",
    "address": "부산광역시 사하구 괴정동 230",
    "lat": "35.10355625439476",
    "lng": "128.9996496730949",
    "region": "부산광역시"
  },
  {
    "name": "고산중학교",
    "address": "대구광역시 수성구 시지동 62",
    "lat": "35.8453",
    "lng": "128.6981",
    "region": "대구광역시"
  },
  {
    "name": "남창중학교 운동장",
    "address": "울산광역시 울주군 온양읍 동상리 859-1",
    "lat": "35.4186953548511",
    "lng": "129.28670704365152",
    "region": "울산광역시"
  },
  {
    "name": "신촌동 공터 2",
    "address": "경기도 파주시 신촌동 722-3",
    "lat": "37.73062334164606",
    "lng": "126.69475349065014",
    "region": "경기도"
  },
  {
    "name": "쌍문초등학교 운동장",
    "address": "서울특별시 도봉구 쌍문동 360-4",
    "lat": "37.64869293469485",
    "lng": "127.02420623588114",
    "region": "서울특별시"
  },
  {
    "name": "서대문독립공원",
    "address": "서울특별시 서대문구 현저동 101",
    "lat": "37.5741066412824",
    "lng": "126.95640921592717",
    "region": "서울특별시"
  },
  {
    "name": "성북초등학교 운동장",
    "address": "서울특별시 성북구 성북동 66-1",
    "lat": "37.5935588139811",
    "lng": "126.99823935942739",
    "region": "서울특별시"
  },
  {
    "name": "문의초등학교 운동장",
    "address": "충청북도 청주시 상당구 문의면 미천리 228",
    "lat": "36.51815306257508",
    "lng": "127.4935411837257",
    "region": "충청북도"
  },
  {
    "name": "명지고등학교 운동장",
    "address": "서울특별시 서대문구 홍은동 361-30",
    "lat": "37.58407620939742",
    "lng": "126.92708230674548",
    "region": "서울특별시"
  },
  {
    "name": "동작고등학교 운동장",
    "address": "서울특별시 동작구 사당동 236-5",
    "lat": "37.48208349439603",
    "lng": "126.96553026835969",
    "region": "서울특별시"
  },
  {
    "name": "예원초등학교 운동장",
    "address": "경기도 화성시 석우동 52",
    "lat": "37.21091518197197",
    "lng": "127.07637750872517",
    "region": "경기도"
  },
  {
    "name": "응암초등학교 운동장 ",
    "address": "서울특별시 은평구 응암동 340",
    "lat": "37.58838134103432",
    "lng": "126.92122354199124",
    "region": "서울특별시"
  },
  {
    "name": "신사초등학교 운동장",
    "address": "서울특별시 은평구 신사동 98-32",
    "lat": "37.59273124689194",
    "lng": "126.91238721373439",
    "region": "서울특별시"
  },
  {
    "name": "중앙여자고등학교 운동장",
    "address": "충청북도 청주시 서원구 사창동 227",
    "lat": "36.63728256874269",
    "lng": "127.46468448332003",
    "region": "충청북도"
  },
  {
    "name": "송우초등학교 운동장",
    "address": "경기도 포천시 소흘읍 송우리 214",
    "lat": "37.829783981764415",
    "lng": "127.14342692245735",
    "region": "경기도"
  },
  {
    "name": "이곡초등학교 운동장",
    "address": "경기도 포천시 소흘읍 이곡리 197",
    "lat": "37.778260131130374",
    "lng": "127.14900533198929",
    "region": "경기도"
  },
  {
    "name": "내촌중학교 운동장",
    "address": "경기도 포천시 내촌면 음현리 710-1",
    "lat": "37.77962678826458",
    "lng": "127.22453539139347",
    "region": "경기도"
  },
  {
    "name": "정교초등학교 운동장",
    "address": "경기도 포천시 가산면 정교리 549-2",
    "lat": "37.815320416235",
    "lng": "127.16967029858124",
    "region": "경기도"
  },
  {
    "name": "일동체육문화센터",
    "address": "경기도 포천시 일동면 기산리 96-121",
    "lat": "37.95774797692576",
    "lng": "127.31403677889242",
    "region": "경기도"
  },
  {
    "name": "광숭초등학교 운동장",
    "address": "경기도 양주시 삼숭동 186-6",
    "lat": "37.801564885794406",
    "lng": "127.10706082988156",
    "region": "경기도"
  },
  {
    "name": "용담초등학교 운동장",
    "address": "충청북도 청주시 상당구 용담동 186",
    "lat": "36.63570109286813",
    "lng": "127.50148053046327",
    "region": "충청북도"
  },
  {
    "name": "가납초등학교 운동장",
    "address": "경기도 양주시 광적면 가납리 799-2",
    "lat": "37.81926689613924",
    "lng": "126.98318468743265",
    "region": "경기도"
  },
  {
    "name": "덕현중학교 운동장",
    "address": "경기도 양주시 고읍동 79-33",
    "lat": "37.7999822759474",
    "lng": "127.08000436946493",
    "region": "경기도"
  },
  {
    "name": "증평공업고등학교 운동장",
    "address": "충청북도 증평군 증평읍 증천리 714",
    "lat": "36.781427033373355",
    "lng": "127.59124478601575",
    "region": "충청북도"
  },
  {
    "name": "보강천 체육공원 운동장",
    "address": "충청북도 증평군 증평읍 송산리 211-2",
    "lat": "36.78700532698701",
    "lng": "127.5761024866563",
    "region": "충청북도"
  },
  {
    "name": "전주북일초등학교(운동장)",
    "address": "전북특별자치도 전주시 덕진구 인후동1가 750-1",
    "lat": "35.842075509735736",
    "lng": "127.15547421281009",
    "region": "전북특별자치도"
  },
  {
    "name": "군산미장초등학교 운동장",
    "address": "전북특별자치도 군산시 미장동 500",
    "lat": "35.96522056058502",
    "lng": "126.72731101512905",
    "region": "전북특별자치도"
  },
  {
    "name": "부남초등학교 운동장",
    "address": "전북특별자치도 무주군 부남면 대소리 505",
    "lat": "35.973126616311944",
    "lng": "127.559554874897",
    "region": "전북특별자치도"
  },
  {
    "name": "꿈나무공원",
    "address": "대구광역시 수성구 두산동 31-6",
    "lat": "35.83826597304393",
    "lng": "128.6183729767802",
    "region": "대구광역시"
  },
  {
    "name": "중앙공원",
    "address": "대구광역시 수성구 범물동 1348",
    "lat": "35.8179054",
    "lng": "128.638717",
    "region": "대구광역시"
  },
  {
    "name": "서수원체육공원",
    "address": "경기도 수원시 권선구 고색동 904-32",
    "lat": "37.24779985049642",
    "lng": "126.97125256061554",
    "region": "경기도"
  },
  {
    "name": "효광중학교  운동장",
    "address": "광주광역시 서구 쌍촌동 1212",
    "lat": "35.14676735927647",
    "lng": "126.8633229821526",
    "region": "광주광역시"
  },
  {
    "name": "관설초등학교",
    "address": "강원특별자치도 원주시 관설동 1277",
    "lat": "37.3086087328072",
    "lng": "127.9760965704918",
    "region": "강원특별자치도"
  },
  {
    "name": "영남중학교운동장",
    "address": "부산광역시 사하구 장림동 3-4",
    "lat": "35.075324853243224",
    "lng": "128.98189544678098",
    "region": "부산광역시"
  },
  {
    "name": "나래어린이공원",
    "address": "대구광역시 수성구 매호동 1333",
    "lat": "35.84370405130277",
    "lng": "128.70009162297208",
    "region": "대구광역시"
  },
  {
    "name": "서구구민운동장",
    "address": "대구광역시 서구 이현동 산28-12",
    "lat": "35.873363801003684",
    "lng": "128.54353263974488",
    "region": "대구광역시"
  },
  {
    "name": "평리공원",
    "address": "대구광역시 서구 평리동 1230-1",
    "lat": "35.872271005570006",
    "lng": "128.55816651615763",
    "region": "대구광역시"
  },
  {
    "name": "광주중흥초등학교 운동장",
    "address": "광주광역시 북구 중흥동 652-1",
    "lat": "35.16020767299609",
    "lng": "126.91306204319216",
    "region": "광주광역시"
  },
  {
    "name": "삼성여자고등학교운동장",
    "address": "부산광역시 사하구 감천동 593",
    "lat": "35.09327011957388",
    "lng": "128.99785995483498",
    "region": "부산광역시"
  },
  {
    "name": "신안초등학교 운동장",
    "address": "경상남도 진주시 신안동 475",
    "lat": "35.182396640727404",
    "lng": "128.06845898063182",
    "region": "경상남도"
  },
  {
    "name": "신진초등학교 운동장",
    "address": "경상남도 진주시 평거동 748-4",
    "lat": "35.17463189443927",
    "lng": "128.06621222186735",
    "region": "경상남도"
  },
  {
    "name": "온남초등학교 운동장",
    "address": "울산광역시 울주군 온양읍 대안리 250",
    "lat": "35.405710442717876",
    "lng": "129.2885255813673",
    "region": "울산광역시"
  },
  {
    "name": "고운중학교 운동장",
    "address": "울산광역시 울주군 두서면 구량리 1062-7",
    "lat": "35.61736114177577",
    "lng": "129.14689501621808",
    "region": "울산광역시"
  },
  {
    "name": "발안초등학교 운동장",
    "address": "경기도 화성시 향남읍 행정리 392-2",
    "lat": "37.130410068843915",
    "lng": "126.91177293790405",
    "region": "경기도"
  },
  {
    "name": "옥산생활체육공원",
    "address": "충청북도 청주시 흥덕구 옥산면 오산리 776",
    "lat": "36.66635027284507",
    "lng": "127.36583592104877",
    "region": "충청북도"
  },
  {
    "name": "당서초등학교 운동장",
    "address": "서울특별시 영등포구 당산동5가 5-3",
    "lat": "37.531467383954045",
    "lng": "126.89928889274435",
    "region": "서울특별시"
  },
  {
    "name": "가야여자중학교운동장",
    "address": "부산광역시 부산진구 가야동 414-14",
    "lat": "35.148001019380516",
    "lng": "129.03606615958907",
    "region": "부산광역시"
  },
  {
    "name": "경남공업고등학교운동장",
    "address": "부산광역시 부산진구 전포동 696-1",
    "lat": "35.15284387343098",
    "lng": "129.06378669665204",
    "region": "부산광역시"
  },
  {
    "name": "초연중학교운동장",
    "address": "부산광역시 부산진구 초읍동 50",
    "lat": "35.17992017712864",
    "lng": "129.04449082010555",
    "region": "부산광역시"
  },
  {
    "name": "초연공원",
    "address": "부산광역시 부산진구 초읍동 산61-10",
    "lat": "35.1804909131659",
    "lng": "129.04911246488658",
    "region": "부산광역시"
  },
  {
    "name": "부산서중학교 운동장",
    "address": "부산광역시 동구 수정동 1048-689",
    "lat": "35.12517598464078",
    "lng": "129.03680294752257",
    "region": "부산광역시"
  },
  {
    "name": "범일초등학교 운동장",
    "address": "부산광역시 동구 범일�� 1411-3",
    "lat": "35.139309925517665",
    "lng": "129.05020992194113",
    "region": "부산광역시"
  },
  {
    "name": "동산초등학교 운동장",
    "address": "경상남도 창원시 성산구 상남동 46",
    "lat": "35.21407091293038",
    "lng": "128.6903281240263",
    "region": "경상남도"
  },
  {
    "name": "남양초등학교 운동장",
    "address": "경상남도 창원시 성산구 남양동 18",
    "lat": "35.211688565048185",
    "lng": "128.69825020614803",
    "region": "경상남도"
  },
  {
    "name": "영동중학교 운동장",
    "address": "충청북도 영동군 영동읍 계산리 78",
    "lat": "36.170292606148735",
    "lng": "127.78748057878467",
    "region": "충청북도"
  },
  {
    "name": "만정중학교 운동장",
    "address": "경기도 안성시 공도읍 만정리 779-1",
    "lat": "37.00800181503662",
    "lng": "127.17307269573213",
    "region": "경기도"
  },
  {
    "name": "양산초등학교 운동장",
    "address": "충청북도 영동군 양산면 가곡리 293-2",
    "lat": "36.12463865786919",
    "lng": "127.66657968381392",
    "region": "충청북도"
  },
  {
    "name": "무룡초등학교운동장",
    "address": "울산광역시 중구 약사동 762",
    "lat": "35.56961873264322",
    "lng": "129.3348064394973",
    "region": "울산광역시"
  },
  {
    "name": "산동초등학교 운동장",
    "address": "경상남도 밀양시 단장면 범도리 709-3",
    "lat": "35.52532308127214",
    "lng": "128.91228930055865",
    "region": "경상남도"
  },
  {
    "name": "광혜원면사무소",
    "address": "충청북도 진천군 광혜원면 광혜원리 542-10",
    "lat": "36.993291183116376",
    "lng": "127.43564053080915",
    "region": "충청북도"
  },
  {
    "name": "열우물공원",
    "address": "인천광역시 부평구 십정동 280",
    "lat": "37.475196",
    "lng": "126.695837",
    "region": "인천광역시"
  },
  {
    "name": "애월중학교 운동장",
    "address": "제주특별자치도 제주시 애월읍 애월리 419",
    "lat": "33.464881449423835",
    "lng": "126.3243520259854",
    "region": "제주특별자치도"
  },
  {
    "name": "명촌근린공원",
    "address": "울산광역시 북구 명촌동 682-2",
    "lat": "35.55479706845901",
    "lng": "129.35596704482992",
    "region": "울산광역시"
  },
  {
    "name": "갯바람공원",
    "address": "전라남도 완도군 군외면 당인리 427-1",
    "lat": "34.337394491401604",
    "lng": "126.64826240132787",
    "region": "전라남도"
  },
  {
    "name": "세화중학교 운동장",
    "address": "제주특별자치도 제주시 구좌읍 세화리 1198",
    "lat": "33.52124683793796",
    "lng": "126.85397872572355",
    "region": "제주특별자치도"
  },
  {
    "name": "제주서초등학교 운동장",
    "address": "제주특별자치도 제주시 용담이동 603-3",
    "lat": "33.511904237968245",
    "lng": "126.510456555211",
    "region": "제주특별자치도"
  },
  {
    "name": "남산정공원",
    "address": "부산광역시 북구 덕천동 814-7",
    "lat": "35.21574655629604",
    "lng": "129.02280159883665",
    "region": "부산광역시"
  },
  {
    "name": "부산국제고등학교운동장",
    "address": "부산광역시 부산진구 당감동 897",
    "lat": "35.16758349649663",
    "lng": "129.02384548602052",
    "region": "부산광역시"
  },
  {
    "name": "부산컴퓨터과학고등학교운동장",
    "address": "부산광역시 동구 초량동 827-6",
    "lat": "35.121187252798165",
    "lng": "129.0337516289557",
    "region": "부산광역시"
  },
  {
    "name": "경남여자중학교 운동장",
    "address": "부산광역시 동구 수정동 363-4",
    "lat": "35.12355535833687",
    "lng": "129.0429462660672",
    "region": "부산광역시"
  },
  {
    "name": "성주초등학교 운동장",
    "address": "경상남도 창원시 성산구 가음동 25",
    "lat": "35.20521222105452",
    "lng": "128.69767087154804",
    "region": "경상남도"
  },
  {
    "name": "구룡초등학교 운동장",
    "address": "충청북도 영동군 용산면 구촌리 141-1",
    "lat": "36.265731",
    "lng": "127.826841",
    "region": "충청북도"
  },
  {
    "name": "과정초등학교 운동장",
    "address": "부산광역시 연제구 연산동 473-1",
    "lat": "35.18677926560939",
    "lng": "129.10991297649167",
    "region": "부산광역시"
  },
  {
    "name": "성안중학교운동장",
    "address": "울산광역시 중구 성안동 519-8",
    "lat": "35.5723942371529",
    "lng": "129.31794349833345",
    "region": "울산광역시"
  },
  {
    "name": "우정초등학교운동장",
    "address": "울산광역시 중구 우정동 707",
    "lat": "35.55965580449144",
    "lng": "129.3073203699306",
    "region": "울산광역시"
  },
  {
    "name": "유곡중학교운동장",
    "address": "울산광역시 중구 태화동 196",
    "lat": "35.55859826158449",
    "lng": "129.3002039194139",
    "region": "울산광역시"
  },
  {
    "name": "평산초등학교운동장",
    "address": "울산광역시 중구 약사동 612-8",
    "lat": "35.568911226370425",
    "lng": "129.3382372140068",
    "region": "울산광역시"
  },
  {
    "name": "심천초등학교 운동장",
    "address": "충청북도 영동군 심천면 심천리 524-1",
    "lat": "36.234537646201",
    "lng": "127.72465344072407",
    "region": "충청북도"
  }
]