[
  {
    "name": "교리초등학교 운동장",
    "address": "부산광역시 기장군 기장읍 교리 218-6",
    "lat": "35.25475101196377",
    "lng": "129.2163809120716",
    "region": "부산광역시"
  },
  {
    "name": "노형중학교 운동장",
    "address": "제주특별자치도 제주시 노형동 3812",
    "lat": "33.47922751619535",
    "lng": "126.47533357143386",
    "region": "제주특별자치도"
  },
  {
    "name": "제주시 생활체육공원 축구장",
    "address": "제주특별자치도 제주시 회천동 3-21",
    "lat": "33.47344944039033",
    "lng": "126.63625276824222",
    "region": "제주특별자치도"
  },
  {
    "name": "삼도1동 3호 어린이공원",
    "address": "제주특별자치도 제주시 삼도일동 547-11",
    "lat": "33.50219644943187",
    "lng": "126.52181350613036",
    "region": "제주특별자치도"
  },
  {
    "name": "우산각어린이공원",
    "address": "서울특별시 동대문구 신설동 109-4",
    "lat": "37.57339792124036",
    "lng": "127.02434737170573",
    "region": "서울특별시"
  },
  {
    "name": "전일중학교 운동장",
    "address": "서울특별시 동대문구 전농동 60-1",
    "lat": "37.581284863154714",
    "lng": "127.05858379957031",
    "region": "서울특별시"
  },
  {
    "name": "쉼터어린이공원",
    "address": "서울특별시 동대문구 답십리동 952-5",
    "lat": "37.56477526660617",
    "lng": "127.05951750046907",
    "region": "서울특별시"
  },
  {
    "name": "휘경여자고등학교 운동장",
    "address": "서울특별시 동대문구 휘경동 43-7",
    "lat": "37.583213122125514",
    "lng": "127.06753849983218",
    "region": "서울특별시"
  },
  {
    "name": "삼화제1근린공원",
    "address": "제주특별자치도 제주시 삼양이동 2261",
    "lat": "33.517837067429525",
    "lng": "126.58011011660638",
    "region": "제주특별자치도"
  },
  {
    "name": "삼화제5근린공원",
    "address": "제주특별자치도 제주시 도련일동 1895-1",
    "lat": "33.5158336724501",
    "lng": "126.58362507820121",
    "region": "제주특별자치도"
  },
  {
    "name": "아라중학교 운동장",
    "address": "제주특별자치도 제주시 아라이동 1419",
    "lat": "33.48608813435484",
    "lng": "126.54611885954193",
    "region": "제주특별자치도"
  },
  {
    "name": "하귀일초등학교 운동장",
    "address": "제주특별자치도 제주시 애월읍 하귀2리 1908-2",
    "lat": "33.479570204634214",
    "lng": "126.40189277700931",
    "region": "제주특별자치도"
  },
  {
    "name": "관교여자중학교 운동장",
    "address": "인천광역시 미추홀구 관교동 512",
    "lat": "37.445028154046206",
    "lng": "126.68889588342851",
    "region": "인천광역시"
  },
  {
    "name": "인주초등학교 운동장",
    "address": "인천광역시 미추홀구 학익동 40",
    "lat": "37.442390353527614",
    "lng": "126.67364441009308",
    "region": "인천광역시"
  },
  {
    "name": "신광초등학교 운동장",
    "address": "제주특별자치도 제주시 연동 1996-5",
    "lat": "33.491890002783194",
    "lng": "126.48416699918032",
    "region": "제주특별자치도"
  },
  {
    "name": "삼성초등학교 운동장",
    "address": "제주특별자치도 제주시 이도일동 1650-1",
    "lat": "33.50303543529878",
    "lng": "126.52525892517198",
    "region": "제주특별자치도"
  },
  {
    "name": "동광초등학교 운동장",
    "address": "제주특별자치도 제주시 일도이동 75",
    "lat": "33.5013948417459",
    "lng": "126.54754868903203",
    "region": "제주특별자치도"
  },
  {
    "name": "이호운동장",
    "address": "제주특별자치도 제주시 이호이동 1231",
    "lat": "33.486417404869584",
    "lng": "126.45711168826188",
    "region": "제주특별자치도"
  },
  {
    "name": "삼화제7근린공원",
    "address": "제주특별자치도 제주시 화북일동 1011",
    "lat": "33.515672662525425",
    "lng": "126.5771985054015",
    "region": "제주특별자치도"
  },
  {
    "name": "남원초등학교 운동장",
    "address": "제주특별자치도 서귀포시 남원읍 남원리 1344",
    "lat": "33.278663893332286",
    "lng": "126.7156636905999",
    "region": "제주특별자치도"
  },
  {
    "name": "대정초등학교 운동장",
    "address": "제주특별자치도 서귀포시 대정읍 하모리 2121-2",
    "lat": "33.22501779723506",
    "lng": "126.25539345084354",
    "region": "제주특별자치도"
  },
  {
    "name": "안덕생활체육관 운동장",
    "address": "제주특별자치도 서귀포시 안덕면 화순리 2063",
    "lat": "33.256193147806705",
    "lng": "126.32816076278654",
    "region": "제주특별자치도"
  },
  {
    "name": "안덕초등학교 운동장",
    "address": "제주특별자치도 서귀포시 안덕면 화순리 1290",
    "lat": "33.25063432426942",
    "lng": "126.3361305345565",
    "region": "제주특별자치도"
  },
  {
    "name": "표선초등학교 운동장",
    "address": "제주특별자치도 서귀포시 표선면 표선리 456",
    "lat": "33.32970445247786",
    "lng": "126.8349845899027",
    "region": "제주특별자치도"
  },
  {
    "name": "표선중학교 운동장",
    "address": "제주특별자치도 서귀포시 표선면 표선리 317-1",
    "lat": "33.33043524258856",
    "lng": "126.83108602513856",
    "region": "제주특별자치도"
  },
  {
    "name": "삼양초등학교 운동장",
    "address": "제주특별자치도 제주시 삼양이동 2181-28",
    "lat": "33.52032658743223",
    "lng": "126.58649588341343",
    "region": "제주특별자치도"
  },
  {
    "name": "외도제2축구장",
    "address": "제주���별자치도 제주시 외도일동 181-2",
    "lat": "33.485431029262585",
    "lng": "126.43842101097087",
    "region": "제주���별자치도"
  },
  {
    "name": "강정제1호공원",
    "address": "제주특별자치도 서귀포시 강정동 201",
    "lat": "33.25360522859229",
    "lng": "126.50350049471513",
    "region": "제주특별자치도"
  },
  {
    "name": "강창학공원",
    "address": "제주특별자치도 서귀포시 강정동 1479-1",
    "lat": "33.260149596072274",
    "lng": "126.49863123893724",
    "region": "제주특별자치도"
  },
  {
    "name": "동광리 축구장",
    "address": "제주특별자치도 서귀포시 안덕면 동광리 976",
    "lat": "33.306652",
    "lng": "126.337459",
    "region": "제주특별자치도"
  },
  {
    "name": "경원초등학교 운동장",
    "address": "인천광역시 미추홀구 주안동 1620",
    "lat": "37.46126708605888",
    "lng": "126.69558240427651",
    "region": "인천광역시"
  },
  {
    "name": "문학정보고등학교 운동장",
    "address": "인천광역시 미추홀구 문학동 394-4",
    "lat": "37.43531972375563",
    "lng": "126.68649529896399",
    "region": "인천광역시"
  },
  {
    "name": "문화공원",
    "address": "제주특별자치도 서귀포시 강정동 176",
    "lat": "33.25109743264868",
    "lng": "126.50816383648912",
    "region": "제주특별자치도"
  },
  {
    "name": "용학초등학교 운동장",
    "address": "인천광역시 미추홀구 용현동 664-4",
    "lat": "37.4472",
    "lng": "126.6432",
    "region": "인천광역시"
  },
  {
    "name": "상가번영회 주차장",
    "address": "경상북도 포항시 남구 송도동 254-612",
    "lat": "36.036842601136726",
    "lng": "129.37799851942233",
    "region": "경상북도"
  },
  {
    "name": "연학초등학교 운동장",
    "address": "인천광역시 미추홀구 학익동 29-2",
    "lat": "37.44319299053505",
    "lng": "126.67235647237396",
    "region": "인천광역시"
  },
  {
    "name": "인항고등학교 운동장",
    "address": "인천광역시 미추홀구 용현동 627-456",
    "lat": "37.446398",
    "lng": "126.640705",
    "region": "인천광역시"
  },
  {
    "name": "숭의초등학교 운동장",
    "address": "인천광역시 미추홀구 숭의동 42-2",
    "lat": "37.46354813046491",
    "lng": "126.65478719144912",
    "region": "인천광역시"
  },
  {
    "name": "삼도1동 2호 어린이 공원",
    "address": "제주특별자치도 제주시 삼도일동 505",
    "lat": "33.5015068545356",
    "lng": "126.51588107533316",
    "region": "제주특별자치도"
  },
  {
    "name": "일도초등학교 운동장",
    "address": "제주특별자치도 제주시 일도이동 1038-1",
    "lat": "33.50971941009824",
    "lng": "126.52922739544888",
    "region": "제주특별자치도"
  },
  {
    "name": "인화초등학교 운동장",
    "address": "제주특별자치도 제주시 일도이동 352",
    "lat": "33.507233824890456",
    "lng": "126.53818587987813",
    "region": "제주특별자치도"
  },
  {
    "name": "삼다공원",
    "address": "제주특별자치도 제주시 연동 301-9",
    "lat": "33.49045908236131",
    "lng": "126.49612288692414",
    "region": "제주특별자치도"
  },
  {
    "name": "신촌초등학교 운동장",
    "address": "제주특별자치도 제주시 조천읍 신촌리 1828",
    "lat": "33.533868956817244",
    "lng": "126.61933388236548",
    "region": "제주특별자치도"
  },
  {
    "name": "남원중학교 운동장",
    "address": "제주특별자치도 서귀포시 남원읍 남원리 171-1",
    "lat": "33.28178849807584",
    "lng": "126.71775057775396",
    "region": "제주특별자치도"
  },
  {
    "name": "가파초등학교 운동장",
    "address": "제주특별자치도 서귀포시 대정읍 가파리 464",
    "lat": "33.168995367418226",
    "lng": "126.27037342608581",
    "region": "제주특별자치도"
  },
  {
    "name": "관덕공원",
    "address": "제주특별자치도 제주시 삼도이동 43-3",
    "lat": "33.513748072827575",
    "lng": "126.52233530335018",
    "region": "제주특별자치도"
  },
  {
    "name": "삼화���4근린공원",
    "address": "제주특별자치도 제주시 도련일동 1981",
    "lat": "33.5129086120933",
    "lng": "126.57792806625359",
    "region": "제주특별자치도"
  },
  {
    "name": "애월초등학교 운동장",
    "address": "제주특별자치도 제주시 애월읍 애월리 1753-1",
    "lat": "33.46512638081546",
    "lng": "126.32297773790258",
    "region": "제주특별자치도"
  },
  {
    "name": "한천초등학교 운동장",
    "address": "제주특별자치도 제주시 용담일동 254-1",
    "lat": "33.50698254542658",
    "lng": "126.51301734390695",
    "region": "제주특별자치도"
  },
  {
    "name": "보성초등학교 운동장",
    "address": "제주특별자치도 서귀포시 대정읍 보성리 1629-1",
    "lat": "33.249370833241485",
    "lng": "126.27590447087948",
    "region": "제주특별자치도"
  },
  {
    "name": "대정중학교 운동장",
    "address": "제주특별자치도 서귀포시 대정읍 하모리 778",
    "lat": "33.21951939973669",
    "lng": "126.25447585601387",
    "region": "제주특별자치도"
  },
  {
    "name": "김녕초등학교 운동장",
    "address": "제주특별자치도 제주시 구좌읍 김녕리 1654",
    "lat": "33.555115606038186",
    "lng": "126.75043433904644",
    "region": "제주특별자치도"
  },
  {
    "name": "제주대학교사범대학부설고등학교",
    "address": "제주특별자치도 제주시 용담삼동 581",
    "lat": "33.513571628280076",
    "lng": "126.50928231082014",
    "region": "제주특별자치도"
  },
  {
    "name": "제주제일고등학교 운동장",
    "address": "제주특별자치도 제주시 노형동 810",
    "lat": "33.480202",
    "lng": "126.479723",
    "region": "제주특별자치도"
  },
  {
    "name": "삼화제2근린공원",
    "address": "제주특별자치도 제주시 도련일동 2008",
    "lat": "33.5169638881933",
    "lng": "126.58049666758289",
    "region": "제주특별자치도"
  },
  {
    "name": "삼양축구장",
    "address": "제주특별자치도 제주시 삼양일동 745",
    "lat": "33.53310471884123",
    "lng": "126.59820556640616",
    "region": "제주특별자치도"
  },
  {
    "name": "외도축구장",
    "address": "제주특별자치도 제주시 외도일동 585",
    "lat": "33.48788054513486",
    "lng": "126.4357227087019",
    "region": "제주특별자치도"
  },
  {
    "name": "영평초등학교 운동장",
    "address": "제주특별자치도 제주시 영평동 1826",
    "lat": "33.47851522678865",
    "lng": "126.5670764985546",
    "region": "제주특별자치도"
  },
  {
    "name": "함덕초등학교 운동장",
    "address": "제주특별자치도 제주시 조천읍 함덕리 287-2",
    "lat": "33.53833715437913",
    "lng": "126.67212077314244",
    "region": "제주특별자치도"
  },
  {
    "name": "제주고등학교 운동장",
    "address": "제주특별자치도 제주시 노형동 607",
    "lat": "33.472449201581576",
    "lng": "126.48172160755195",
    "region": "제주특별자치도"
  },
  {
    "name": "제주월드컵경기장",
    "address": "제주특별자치도 서귀포시 법환동 914",
    "lat": "33.246131678332716",
    "lng": "126.5092575078341",
    "region": "제주특별자치도"
  },
  {
    "name": "태흥초등학교 운동장",
    "address": "제주특별자치도 서귀포시 남원읍 태흥리 970-3",
    "lat": "33.28621151057877",
    "lng": "126.74293792667098",
    "region": "제주특별자치도"
  },
  {
    "name": "삼화제3근린공원",
    "address": "제주특별자치도 제주시 삼양이동 2332-2",
    "lat": "33.51753096717654",
    "lng": "126.58679813146581",
    "region": "제주특별자치도"
  },
  {
    "name": "제주서중학교 운동장",
    "address": "제주특별자치도 제주시 연동 2405",
    "lat": "33.49459963900522",
    "lng": "126.48106529181773",
    "region": "제주특별자치도"
  },
  {
    "name": "탐라중학교 운동장",
    "address": "제주특별자치도 제주시 아라이동 3006",
    "lat": "33.49169982952895",
    "lng": "126.54538685464317",
    "region": "제주특별자치도"
  },
  {
    "name": "고내공원",
    "address": "제주특별자치도 제주시 애월읍 고내리 1356",
    "lat": "33.463131949779005",
    "lng": "126.33261384277273",
    "region": "제주특별자치도"
  },
  {
    "name": "연동공원",
    "address": "제주특별자치도 제주시 연동 1369",
    "lat": "33.482355230920724",
    "lng": "126.48834239789943",
    "region": "제주특별자치도"
  },
  {
    "name": "사계초등학교 운동장",
    "address": "제주특별자치도 서귀포시 안덕면 사계리 1731-2",
    "lat": "33.233244024816536",
    "lng": "126.29977510137813",
    "region": "제주특별자치도"
  },
  {
    "name": "사라봉축구장",
    "address": "제주특별자치도 제주시 건입동 566",
    "lat": "33.51347693761078",
    "lng": "126.54476582028686",
    "region": "제주특별자치도"
  },
  {
    "name": "상수초등학교 운동장",
    "address": "서울특별시 노원구 상계동 755",
    "lat": "37.651447003198",
    "lng": "127.06482287509758",
    "region": "서울특별시"
  },
  {
    "name": "중원중학교 운동장",
    "address": "서울특별시 노원구 중계동 511-3",
    "lat": "37.64386712099198",
    "lng": "127.06811786624118",
    "region": "서울특별시"
  },
  {
    "name": "청원초등학교 운동장",
    "address": "서울특별시 노원구 상계동 641",
    "lat": "37.665747502620675",
    "lng": "127.0613382367036",
    "region": "서울특별시"
  },
  {
    "name": "혜성여자고등학교 운동장",
    "address": "서울특별시 노원구 하계동 산16-38",
    "lat": "37.64118446672711",
    "lng": "127.07385778427121",
    "region": "서울특별시"
  },
  {
    "name": "불암중학교 운동장",
    "address": "서울특별시 노원구 하계동 288-3",
    "lat": "37.645553623999646",
    "lng": "127.07382316051479",
    "region": "서울특별시"
  },
  {
    "name": "신상계초등학교 운동장",
    "address": "서울특별시 노원구 상계동 86-1",
    "lat": "37.66777961786194",
    "lng": "127.07615139428454",
    "region": "서울특별시"
  },
  {
    "name": "월���중학교 운동장",
    "address": "서울특별시 노원구 월계동 602-1",
    "lat": "37.630254442426285",
    "lng": "127.05173054103277",
    "region": "서울특별시"
  },
  {
    "name": "상천초등학교 운동장",
    "address": "서울특별시 노원구 상계동 768",
    "lat": "37.645922117870256",
    "lng": "127.05788276289864",
    "region": "서울특별시"
  },
  {
    "name": "상원중학교 운동장",
    "address": "서울특별시 노원구 상계동 632",
    "lat": "37.67129005273621",
    "lng": "127.05949625917668",
    "region": "서울특별시"
  },
  {
    "name": "동일초등학교 운동장",
    "address": "서울특별시 노원구 상계동 655",
    "lat": "37.66483377991392",
    "lng": "127.05465650791028",
    "region": "서울특별시"
  },
  {
    "name": "상월초등학교 운동장",
    "address": "서울특별시 노원구 상계동 697",
    "lat": "37.658271290797344",
    "lng": "127.05724093222057",
    "region": "서울특별시"
  },
  {
    "name": "한내근린공원",
    "address": "서울특별시 노원구 월계동 1-1",
    "lat": "37.622104297547246",
    "lng": "127.06941974518597",
    "region": "서울특별시"
  },
  {
    "name": "녹천중학교 운동장",
    "address": "서울특별시 노원구 월계동 321-7",
    "lat": "37.6310158768688",
    "lng": "127.06238259106232",
    "region": "서울특별시"
  },
  {
    "name": "수락초등학교 운동장",
    "address": "서울특별시 노원구 상계동 1171-2",
    "lat": "37.683796384405426",
    "lng": "127.05454391526612",
    "region": "서울특별시"
  },
  {
    "name": "중현어린이공원",
    "address": "서울특별시 노원구 하계동 272-1",
    "lat": "37.63188116057001",
    "lng": "127.06564486026764",
    "region": "서울특별시"
  },
  {
    "name": "흥인초등학교 운동장",
    "address": "서울특별시 중구 신당동 292-66",
    "lat": "37.56039491933979",
    "lng": "127.01426665343259",
    "region": "서울특별시"
  },
  {
    "name": "상계초등학교 운동장",
    "address": "서울특별시 노원구 상계동 402-1",
    "lat": "37.659118",
    "lng": "127.065671",
    "region": "서울특별시"
  },
  {
    "name": "상명초등학교 운동장",
    "address": "서울특별시 노원구 중계동 515-1",
    "lat": "37.64821530804043",
    "lng": "127.06757956991126",
    "region": "서울특별시"
  },
  {
    "name": "용화여자고등학교 운동장",
    "address": "서울특별시 노원구 상계동 696",
    "lat": "37.65875230761021",
    "lng": "127.05852565776695",
    "region": "서울특별시"
  },
  {
    "name": "청구초등학교 운동장",
    "address": "서울특별시 중구 신당동 330-2",
    "lat": "37.55839195546099",
    "lng": "127.01386316631194",
    "region": "서울특별시"
  },
  {
    "name": "봉래초등학교 운동장",
    "address": "서울특별시 중구 만리동2가 2",
    "lat": "37.556289982713395",
    "lng": "126.96408303718829",
    "region": "서울특별시"
  },
  {
    "name": "노일초등학교 운동장",
    "address": "서울특별시 노원구 상계동 1044-2",
    "lat": "37.67308975043717",
    "lng": "127.05476096649996",
    "region": "서울특별시"
  },
  {
    "name": "온곡초등학교 운동장",
    "address": "서울특별시 노원구 상계동 638",
    "lat": "37.667302375860935",
    "lng": "127.06610908913318",
    "region": "서울특별시"
  },
  {
    "name": "온곡중학교운동장",
    "address": "서울특별시 노원구 상계동 687",
    "lat": "37.66006593295609",
    "lng": "127.06468699635884",
    "region": "서울특별시"
  },
  {
    "name": "수락중학교 운동장",
    "address": "서울특별시 노원구 상계동 1254",
    "lat": "37.68264033554212",
    "lng": "127.05456795985675",
    "region": "서울특별시"
  },
  {
    "name": "장충단공원",
    "address": "서울특별시 중구 장충동2가 197-1",
    "lat": "37.55855586693229",
    "lng": "127.00503717681508",
    "region": "서울특별시"
  },
  {
    "name": "성동글로벌경영고등학교 운동장",
    "address": "서울특별시 중구 신당동 250-3",
    "lat": "37.565554445752696",
    "lng": "127.0131046682997",
    "region": "서울특별시"
  },
  {
    "name": "성동공업고등학교 운동장",
    "address": "서울특별시 중구 흥인동 1-1",
    "lat": "37.5687812312606",
    "lng": "127.01648991299032",
    "region": "서울특별시"
  },
  {
    "name": "손기정체육공원 ",
    "address": "서울특별시 중구 만리동2가 6-1",
    "lat": "37.55539560713211",
    "lng": "126.96496546279376",
    "region": "서울특별시"
  },
  {
    "name": "한양공업고등학교 운동장",
    "address": "서울특별시 중구 신당동 224-2",
    "lat": "37.565612306485136",
    "lng": "127.01176721420097",
    "region": "서울특별시"
  },
  {
    "name": "충무초등학교 운동장",
    "address": "서울특별시 중구 장충동2가 173-7",
    "lat": "37.56226090283367",
    "lng": "127.00188262081024",
    "region": "서울특별시"
  },
  {
    "name": "공연초등학교 운동장",
    "address": "서울특별시 노원구 공릉동 371-10",
    "lat": "37.62694986659235",
    "lng": "127.07446140077336",
    "region": "서울특별시"
  },
  {
    "name": "월계고등학교 운동장",
    "address": "서울특별시 노원구 월계동 778",
    "lat": "37.63180469021358",
    "lng": "127.04872548580173",
    "region": "서울특별시"
  },
  {
    "name": "덕수초등학교 운동장",
    "address": "서울특별시 중구 정동 1-76",
    "lat": "37.56846802920922",
    "lng": "126.9745257496834",
    "region": "서울특별시"
  },
  {
    "name": "양지근린공원",
    "address": "대전광역시 중구 선화동 349-27",
    "lat": "36.32588742371234",
    "lng": "127.41574287414552",
    "region": "대전광역시"
  },
  {
    "name": "용두초등학교 운동장",
    "address": "서울특별시 동대문구 용두동 237-1",
    "lat": "37.57562759524617",
    "lng": "127.02893356849147",
    "region": "서울특별시"
  },
  {
    "name": "전농초등학교 운동장",
    "address": "서울특별시 동대문구 전농동 298",
    "lat": "37.57421811912216",
    "lng": "127.05452815558176",
    "region": "서울특별시"
  },
  {
    "name": "간데메공원",
    "address": "서울특별시 동대문구 답십리동 471",
    "lat": "37.573324333279814",
    "lng": "127.04875230789185",
    "region": "서울특별시"
  },
  {
    "name": "안골어린이공원",
    "address": "서울특별시 동대문구 장안동 402",
    "lat": "37.565320084981884",
    "lng": "127.06434935331401",
    "region": "서울특별시"
  },
  {
    "name": "신답초등학교 운동장",
    "address": "서울특별시 동대문구 답십리동 463-13",
    "lat": "37.57288120894829",
    "lng": "127.04333763584953",
    "region": "서울특별시"
  },
  {
    "name": "성일중학교 운동장",
    "address": "서울특별시 동대문구 제기동 271-41",
    "lat": "37.58117786852734",
    "lng": "127.03391454803274",
    "region": "서울특별시"
  },
  {
    "name": "동대문중학교 운동장",
    "address": "서울특별시 동대문구 전농동 332-4",
    "lat": "37.57424578740061",
    "lng": "127.05243396044213",
    "region": "서울특별시"
  },
  {
    "name": "장일어린이공원",
    "address": "서울특별시 동대문구 장안동 164-1",
    "lat": "37.56991338721665",
    "lng": "127.0651859633888",
    "region": "서울특별시"
  },
  {
    "name": "답십리초등학교 운동장",
    "address": "서울특별시 동대문구 답십리동 486-2",
    "lat": "37.56866858035582",
    "lng": "127.0554122328758",
    "region": "서울특별시"
  },
  {
    "name": "장평근린공원",
    "address": "서울특별시 동대문구 장안동 356",
    "lat": "37.56731661967645",
    "lng": "127.07400679488111",
    "region": "서울특별시"
  },
  {
    "name": "경희초등학교 운동장",
    "address": "서울특별시 동대문구 회기동 1-5",
    "lat": "37.59484968533204",
    "lng": "127.04952478408813",
    "region": "서울특별시"
  },
  {
    "name": "늘봄어린이공원",
    "address": "서울특별시 동대문구 장안동 343",
    "lat": "37.57145524343195",
    "lng": "127.07238635830822",
    "region": "서울특별시"
  },
  {
    "name": "서울반도체고등학교 운동장",
    "address": "서울특별시 동대문구 휘경동 49-327",
    "lat": "37.584888049145654",
    "lng": "127.06985592842103",
    "region": "서울특별시"
  },
  {
    "name": "중계중학교 운동장",
    "address": "서울특별시 노원구 중계동 358-3",
    "lat": "37.65509727770769",
    "lng": "127.07525276988892",
    "region": "서울특별시"
  },
  {
    "name": "태랑초등학교 운동장",
    "address": "서울특별시 노원구 공릉동 116",
    "lat": "37.62587115425042",
    "lng": "127.09092830092435",
    "region": "서울특별시"
  },
  {
    "name": "정관중학교 운동장",
    "address": "부산광역시 기장군 정관읍 용수리 1335",
    "lat": "35.32347455952606",
    "lng": "129.1727100024335",
    "region": "부산광역시"
  },
  {
    "name": "기장철마체육공원 축구장",
    "address": "부산광역시 기장군 철마면 연구리 566",
    "lat": "35.2726558269987",
    "lng": "129.15551377228215",
    "region": "부산광역시"
  },
  {
    "name": "한천중학교 운동장",
    "address": "서울특별시 노원구 공릉동 481",
    "lat": "37.630909485555804",
    "lng": "127.07288016151082",
    "region": "서울특별시"
  },
  {
    "name": "노원고등학교 운동장",
    "address": "서울특별시 노원구 상계동 664",
    "lat": "37.66222004012696",
    "lng": "127.0533950319834",
    "region": "서울특별시"
  },
  {
    "name": "태릉초등학교 운동장",
    "address": "서울특별시 노원구 공릉동 250-5",
    "lat": "37.62240513464488",
    "lng": "127.08499609755381",
    "region": "서울특별시"
  },
  {
    "name": "광운인공지능고등학교",
    "address": "서울특별시 노원구 월계동 500",
    "lat": "37.620231269296745",
    "lng": "127.0561283826828",
    "region": "서울특별시"
  },
  {
    "name": "방아다리어린이공원",
    "address": "서울특별시 동대문구 제기동 132-1",
    "lat": "37.58508376539174",
    "lng": "127.03488153127054",
    "region": "서울특별시"
  },
  {
    "name": "숭인중학교 운동장",
    "address": "서울특별시 동대문구 답십리동 463-1",
    "lat": "37.573484113962714",
    "lng": "127.04426892869255",
    "region": "서울특별시"
  },
  {
    "name": "동산어린이공원",
    "address": "서울특별시 동대문구 답십리동 998-1",
    "lat": "37.56697362832202",
    "lng": "127.0575516994099",
    "region": "서울특별시"
  },
  {
    "name": "동답초등학교 운동장",
    "address": "서울특별시 동대문구 답십리동 2-24",
    "lat": "37.57202597553998",
    "lng": "127.06479259072233",
    "region": "서울특별시"
  },
  {
    "name": "안평초등학교 운동장",
    "address": "서울특별시 동대문구 장안동 353-1",
    "lat": "37.56562419743676",
    "lng": "127.07187067509079",
    "region": "서울특별시"
  },
  {
    "name": "대광고등학교",
    "address": "서울특별시 동대문구 신설동 53-3",
    "lat": "37.577650678128585",
    "lng": "127.0245767898968",
    "region": "서울특별시"
  },
  {
    "name": "홍릉초등학교 운동장",
    "address": "서울특별시 동대문구 청량리동 206-44",
    "lat": "37.59074685163965",
    "lng": "127.04703187988936",
    "region": "서울특별시"
  },
  {
    "name": "장평초등학교 운동장",
    "address": "서울특별시 동대문구 장안동 323",
    "lat": "37.573354796027616",
    "lng": "127.07327787748541",
    "region": "서울특별시"
  },
  {
    "name": "경희여자고등학교 운동장",
    "address": "서울���별시 동대문구 회기동 1-5",
    "lat": "37.594708807765166",
    "lng": "127.05102285099326",
    "region": "서울���별시"
  },
  {
    "name": "을지중학교 운동장",
    "address": "서울특별시 노원구 중계동 360-19",
    "lat": "37.65011780112506",
    "lng": "127.07211641462531",
    "region": "서울특별시"
  },
  {
    "name": "재현중학교 운동장",
    "address": "서울특별시 노원구 중계동 129-2",
    "lat": "37.660932272515915",
    "lng": "127.08061410713265",
    "region": "서울특별시"
  },
  {
    "name": "서라벌고등학교 운동장",
    "address": "서울특별시 노원구 중계동 313",
    "lat": "37.645139251632784",
    "lng": "127.07526741231014",
    "region": "서울특별시"
  },
  {
    "name": "정화고등학교 운동장",
    "address": "서울특별시 동대문구 제기동 299",
    "lat": "37.585644634042964",
    "lng": "127.04079451476827",
    "region": "서울특별시"
  },
  {
    "name": "장평중학교 운동장",
    "address": "서울특별시 동대문구 장안동 352",
    "lat": "37.566266752321944",
    "lng": "127.07050496473632",
    "region": "서울특별시"
  },
  {
    "name": "청량초등학교 운동장",
    "address": "서울특별시 동대문구 회기동 1-1",
    "lat": "37.59197007653773",
    "lng": "127.05506272392554",
    "region": "서울특별시"
  },
  {
    "name": "휘봉초등학교 운동장",
    "address": "서울특별시 동대문구 휘경동 49-27",
    "lat": "37.585874282960695",
    "lng": "127.07029581069945",
    "region": "서울특별시"
  },
  {
    "name": "아름드리어린이공원",
    "address": "서울특별시 동대문구 전농동 688-7",
    "lat": "37.579083064051794",
    "lng": "127.05969580324191",
    "region": "서울특별시"
  },
  {
    "name": "종암초등학교 운동장",
    "address": "서울특별시 동대문구 제기동 1157",
    "lat": "37.58178704991123",
    "lng": "127.03142072447295",
    "region": "서울특별시"
  },
  {
    "name": "전곡초등학교 운동장",
    "address": "서울특별시 동대문구 전농동 188",
    "lat": "37.5802677126285",
    "lng": "127.05688280898795",
    "region": "서울특별시"
  },
  {
    "name": "전동초등학교 운동장",
    "address": "서울특별시 동대문구 전농동 45-41",
    "lat": "37.57899458091115",
    "lng": "127.06151177061935",
    "region": "서울특별시"
  },
  {
    "name": "배봉산근린공원 야외무대",
    "address": "서울특별시 동대문구 전농동 산32-20",
    "lat": "37.57849445661705",
    "lng": "127.06304763839032",
    "region": "서울특별시"
  },
  {
    "name": "남산초등학교 운동장",
    "address": "서울특별시 중구 남산동2가 2",
    "lat": "37.56027137515177",
    "lng": "126.98627612666388",
    "region": "서울특별시"
  },
  {
    "name": "배봉초등학교 운동장",
    "address": "서울특별시 동대문구 전농동 3-111",
    "lat": "37.57962757572381",
    "lng": "127.06666064810067",
    "region": "서울특별시"
  },
  {
    "name": "은석초등학교 운동장",
    "address": "서울특별시 동대문구 장안동 328",
    "lat": "37.57835155217225",
    "lng": "127.07522717087582",
    "region": "서울특별시"
  },
  {
    "name": "청량고등학교 운동장",
    "address": "서울특별시 동대문구 청량리동 7",
    "lat": "37.58864151638758",
    "lng": "127.05050552957498",
    "region": "서울특별시"
  },
  {
    "name": "덕수중학교 운동장",
    "address": "서울특별시 중구 인현동2가 3",
    "lat": "37.56506564742995",
    "lng": "126.9971994610443",
    "region": "서울특별시"
  },
  {
    "name": "신계초등학교 운동장",
    "address": "서울특별시 노원구 월계동 602",
    "lat": "37.630028",
    "lng": "127.053159",
    "region": "서울특별시"
  },
  {
    "name": "해성여자고등학교 운동장",
    "address": "서울특별시 동대문구 전농동 90-3",
    "lat": "37.58121130140112",
    "lng": "127.05727343784156",
    "region": "서울특별시"
  },
  {
    "name": "군자초등학교 운동장",
    "address": "서울특별시 동대문구 장안동 239-2",
    "lat": "37.56409914051648",
    "lng": "127.06113863948605",
    "region": "서울특별시"
  },
  {
    "name": "이문초등학교 운동장",
    "address": "서울특별시 동대문구 이문동 164-26",
    "lat": "37.60219008081446",
    "lng": "127.06448163322207",
    "region": "서울특별시"
  },
  {
    "name": "홍파초등학교 운동장",
    "address": "서울특별시 동대문구 제기동 678",
    "lat": "37.586244021586516",
    "lng": "127.03914897956987",
    "region": "서울특별시"
  },
  {
    "name": "청량중학교 운동장",
    "address": "서울특별시 동대문구 청량리동 14",
    "lat": "37.58762082018594",
    "lng": "127.05148365030306",
    "region": "서울특별시"
  },
  {
    "name": "삼육초등학교 운동장",
    "address": "서울특별시 동대문구 회기동 102-48",
    "lat": "37.58913911700216",
    "lng": "127.0478055592124",
    "region": "서울특별시"
  },
  {
    "name": "휘경초등학교 운동장",
    "address": "서울특별시 동대문구 휘경동 302-2",
    "lat": "37.58550019581037",
    "lng": "127.05886960029602",
    "region": "서울특별시"
  },
  {
    "name": "전동중학교 운동장",
    "address": "서울특별시 동대문구 휘경동 49-295",
    "lat": "37.58515586393088",
    "lng": "127.07118093967439",
    "region": "서울특별시"
  },
  {
    "name": "휘봉고등학교 운동장",
    "address": "서울특별시 동대문구 휘경동 43-138",
    "lat": "37.58652893095008",
    "lng": "127.06798911094666",
    "region": "서울특별시"
  },
  {
    "name": "중평중학교 운동장",
    "address": "서울특별시 노원구 하계동 271-2",
    "lat": "37.636860061081514",
    "lng": "127.06241011619568",
    "region": "서울특별시"
  },
  {
    "name": "청계초등학교 운동장",
    "address": "서울특별시 노원구 중계동 513-1",
    "lat": "37.644423829926694",
    "lng": "127.0664352231604",
    "region": "서울특별시"
  },
  {
    "name": "재현고등학교 운동장",
    "address": "서울특별시 노원구 중계동 129-1",
    "lat": "37.659542",
    "lng": "127.07975",
    "region": "서울특별시"
  },
  {
    "name": "원광초등학교 운동장",
    "address": "서울특별시 노원구 중계동 359",
    "lat": "37.65376116645175",
    "lng": "127.07486716483824",
    "region": "서울특별시"
  },
  {
    "name": "신창중학교 운동장",
    "address": "서울특별시 노원구 월계동 805-5",
    "lat": "37.62822681138366",
    "lng": "127.0479559753123",
    "region": "서울특별시"
  },
  {
    "name": "갈울근린공원",
    "address": "서울특별시 노원구 상계동 644",
    "lat": "37.66682811034421",
    "lng": "127.06101804316482",
    "region": "서울특별시"
  },
  {
    "name": "온수근린공원",
    "address": "서울특별시 노원구 상계동 686",
    "lat": "37.66091538935309",
    "lng": "127.06372721100918",
    "region": "서울특별시"
  },
  {
    "name": "상경초등학교 운동장",
    "address": "서울특별시 노원구 상계동 621",
    "lat": "37.67012274335462",
    "lng": "127.05170121112857",
    "region": "서울특별시"
  },
  {
    "name": "하계어린이공원",
    "address": "서울특별시 노원구 하계동 273-3",
    "lat": "37.632235897027606",
    "lng": "127.06895202398303",
    "region": "서울특별시"
  },
  {
    "name": "상계근린공원",
    "address": "서울특별시 노원구 상계동 620",
    "lat": "37.669796553857694",
    "lng": "127.05080756276762",
    "region": "서울특별시"
  },
  {
    "name": "동국대학교사범대학부속고등학교 운동장",
    "address": "서울특별시 동대문구 장안동 328",
    "lat": "37.57756897555853",
    "lng": "127.07510760985042",
    "region": "서울특별시"
  },
  {
    "name": "창덕여자중학교 운동장",
    "address": "서울특별시 중구 정동 27-3",
    "lat": "37.56656385362423",
    "lng": "126.96959872710225",
    "region": "서울특별시"
  },
  {
    "name": "장충초등학교 운동장",
    "address": "서울특별시 중구 신당동 386-86",
    "lat": "37.55957371767694",
    "lng": "127.01114826649895",
    "region": "서울특별시"
  },
  {
    "name": "대전 태평초등학교 운동장",
    "address": "대전광역시 중구 태평동 385-10",
    "lat": "36.32323553397681",
    "lng": "127.39550698719647",
    "region": "대전광역시"
  },
  {
    "name": "태랑중학교 운동장",
    "address": "서울특별시 노원구 공릉동 117",
    "lat": "37.62653546670391",
    "lng": "127.09172049945099",
    "region": "서울특별시"
  },
  {
    "name": "노일중학교 운동장",
    "address": "서울특별시 노원구 상계동 1044",
    "lat": "37.67286619537265",
    "lng": "127.05390186914904",
    "region": "서울특별시"
  },
  {
    "name": "광희초등학교 운동장",
    "address": "서울특별시 중구 신당동 254-16",
    "lat": "37.56719019784779",
    "lng": "127.01514602049349",
    "region": "서울특별시"
  },
  {
    "name": "서울의료보건고등학교(경기여자상업고등학교) 운동장",
    "address": "서울특별시 중구 만리동1가 54-7",
    "lat": "37.55697506400235",
    "lng": "126.9667428958286",
    "region": "서울특별시"
  },
  {
    "name": "한천초등학교 운동장",
    "address": "서울특별시 노원구 월계동 3-7",
    "lat": "37.62010791282164",
    "lng": "127.06905253118686",
    "region": "서울특별시"
  },
  {
    "name": "부산해마루학교 운동장",
    "address": "부산광역시 기장군 정관읍 모전리 678",
    "lat": "35.33973929277586",
    "lng": "129.16563212871762",
    "region": "부산광역시"
  },
  {
    "name": "정관고등학교 운동장",
    "address": "부산광역시 기장군 정관읍 용수리 1395",
    "lat": "35.3218134050016",
    "lng": "129.1707551479361",
    "region": "부산광역시"
  },
  {
    "name": "월계초등학교 운동장",
    "address": "서울특별시 노원구 월계동 561",
    "lat": "37.627519852201296",
    "lng": "127.05087871250218",
    "region": "서울특별시"
  },
  {
    "name": "은계초등학교 운동장",
    "address": "경기도 시흥시 대야동 584",
    "lat": "37.44726686930351",
    "lng": "126.79786462605756",
    "region": "경기도"
  },
  {
    "name": "매화중학교 운동장",
    "address": "경기도 시흥시 매화동 269",
    "lat": "37.41302982370888",
    "lng": "126.81564809581603",
    "region": "경기도"
  },
  {
    "name": "부경대수산과학연구소 공터",
    "address": "부산광역시 기장군 일광읍 동백리 256",
    "lat": "35.28436454115814",
    "lng": "129.25803422928138",
    "region": "부산광역시"
  },
  {
    "name": "함현고등학교 운동장",
    "address": "경기도 시흥시 정왕동 1878-9",
    "lat": "37.36585542271952",
    "lng": "126.73816859722135",
    "region": "경기도"
  },
  {
    "name": "장곡공원",
    "address": "경기도 시흥시 장곡동 815",
    "lat": "37.37901522219201",
    "lng": "126.78410212879017",
    "region": "경기도"
  },
  {
    "name": "양양중학교",
    "address": "강원특별자치도 양양군 양양읍 서문리 224",
    "lat": "38.07251409216976",
    "lng": "128.61352897103623",
    "region": "강원특별자치도"
  },
  {
    "name": "감삼못공원",
    "address": "대구광역시 서구 내당동 463-7",
    "lat": "35.85830048348378",
    "lng": "128.5524151489213",
    "region": "대구광역시"
  },
  {
    "name": "양양초등학교",
    "address": "강원특별자치도 양양군 양양읍 구교리 28",
    "lat": "38.07701896466674",
    "lng": "128.62216569730214",
    "region": "강원특별자치도"
  },
  {
    "name": "군자초등학교 운동장",
    "address": "경기도 시흥시 거모동 1577-1",
    "lat": "37.34363709960617",
    "lng": "126.78709477186203",
    "region": "경기도"
  },
  {
    "name": "능곡초등학교 운동장",
    "address": "경기도 시흥시 능곡동 797",
    "lat": "37.3654191651724",
    "lng": "126.81261960031705",
    "region": "경기도"
  },
  {
    "name": "월곶중학교 운동장",
    "address": "경기도 시흥시 월곶동 1010-2",
    "lat": "37.39246062344503",
    "lng": "126.73785814289077",
    "region": "경기도"
  },
  {
    "name": "경기자동차과학고등학교 운동장",
    "address": "경기도 시흥시 무지내동 341-2",
    "lat": "37.41338492275782",
    "lng": "126.8394649028778",
    "region": "경기도"
  },
  {
    "name": "포동생활체육공원 내 포동시민운동장",
    "address": "경기도 시흥시 포동 67-207",
    "lat": "37.40376818345575",
    "lng": "126.78443319591011",
    "region": "경기도"
  },
  {
    "name": "목감초등학교 운동장",
    "address": "경기도 시흥시 조남동 171-63",
    "lat": "37.386441102333194",
    "lng": "126.85888409614559",
    "region": "경기도"
  },
  {
    "name": "군서초등학교 운동장",
    "address": "경기도 시흥시 정왕동 1175",
    "lat": "37.3468846557079",
    "lng": "126.75151526927944",
    "region": "경기도"
  },
  {
    "name": "옥구공원",
    "address": "경기도 시흥시 정왕동 2138",
    "lat": "37.35590798750512",
    "lng": "126.71348690986632",
    "region": "경기도"
  },
  {
    "name": "매화초등학교 운동장",
    "address": "경기도 시흥시 매화동 303-1",
    "lat": "37.415751765784556",
    "lng": "126.80800259113308",
    "region": "경기도"
  },
  {
    "name": "연성중학교 운동장",
    "address": "경기도 시흥시 하상동 370",
    "lat": "37.392467422327506",
    "lng": "126.81385999231321",
    "region": "경기도"
  },
  {
    "name": "양양고등학교",
    "address": "강원특별자치도 양양군 양양읍 서문리 115",
    "lat": "38.0720689614278",
    "lng": "128.61665881703766",
    "region": "강원특별자치도"
  },
  {
    "name": "송운중학교 운동장",
    "address": "경기도 시흥시 정왕동 1875-4",
    "lat": "37.359246686489904",
    "lng": "126.73111170530314",
    "region": "경기도"
  },
  {
    "name": "비둘기공원",
    "address": "경기도 시흥시 은행동 551",
    "lat": "37.44132555551404",
    "lng": "126.79383571534842",
    "region": "경기도"
  },
  {
    "name": "논곡중학교 운동장",
    "address": "경기도 시흥시 논곡동 160-45",
    "lat": "37.38865433312522",
    "lng": "126.85734775223189",
    "region": "경기도"
  },
  {
    "name": "선곡초등학교",
    "address": "서울특별시 노원구 월계동 446",
    "lat": "37.61845940815554",
    "lng": "127.058145403862",
    "region": "서울특별시"
  },
  {
    "name": "부산성우학교 운동장",
    "address": "부산광역시 기장군 장안읍 명례리 133-1",
    "lat": "35.37420874551768",
    "lng": "129.26323186536604",
    "region": "부산광역시"
  },
  {
    "name": "대전 선화초등학교 운동장",
    "address": "대전광역시 중구 선화동 84",
    "lat": "36.332625442216454",
    "lng": "127.42351002595366",
    "region": "대전광역시"
  },
  {
    "name": "대전 대흥초등학교 운동장",
    "address": "대전광역시 중구 대흥동 365-5",
    "lat": "36.31922127379014",
    "lng": "127.4259655662233",
    "region": "대전광역시"
  },
  {
    "name": "중계초등학교 운동장",
    "address": "서울특별시 노원구 중계동 449-2",
    "lat": "37.65741916273905",
    "lng": "127.07323450613497",
    "region": "서울특별시"
  },
  {
    "name": "노원초등학교 운동장",
    "address": "서울특별시 노원구 상계동 1014",
    "lat": "37.67283230910986",
    "lng": "127.0582908679867",
    "region": "서울특별시"
  },
  {
    "name": "을지초등학교 운동장",
    "address": "서울특별시 노원구 중계동 360",
    "lat": "37.65060528778036",
    "lng": "127.07257113056849",
    "region": "서울특별시"
  }
]