[
  {
    "name": "송월초등학교 운동장",
    "address": "인천광역시 중구 전동 25-37",
    "lat": "37.47893006059842",
    "lng": "126.62521546172503",
    "region": "인천광역시"
  },
  {
    "name": "광주백운초등학교운동장",
    "address": "광주광역시 남구 백운동 217",
    "lat": "35.13768171083521",
    "lng": "126.900914311409",
    "region": "광주광역시"
  },
  {
    "name": "신명여자중학교.남산고등학교",
    "address": "대구광역시 수성구 수성동1가 96-16",
    "lat": "35.857642532970104",
    "lng": "128.60924541961165",
    "region": "대구광역시"
  },
  {
    "name": "동일초등학교",
    "address": "대구광역시 수성구 수성동2가 17-1",
    "lat": "35.857697604194044",
    "lng": "128.6170426011088",
    "region": "대구광역시"
  },
  {
    "name": "광주삼육초등학교 운동장",
    "address": "광주광역시 ���구 주월동 468-2",
    "lat": "35.129455918720275",
    "lng": "126.8940854072571",
    "region": "광주광역시"
  },
  {
    "name": "의신초등학교 운동장",
    "address": "전라남도 진도군 의신면 돈지리 678-1",
    "lat": "34.44052623434555",
    "lng": "126.27791340959541",
    "region": "전라남도"
  },
  {
    "name": "진도중학교 운동장",
    "address": "전라남도 진도군 진도읍 교동리 580-1",
    "lat": "34.48317457374806",
    "lng": "126.25858638652112",
    "region": "전라남도"
  },
  {
    "name": "성동초등학교",
    "address": "대구광역시 수성구 황금동 373",
    "lat": "35.841258607994305",
    "lng": "128.63259851938014",
    "region": "대구광역시"
  },
  {
    "name": "임곡초등학교 운동장",
    "address": "광주광역시 광산구 임곡동 455-1",
    "lat": "35.2202442605407",
    "lng": "126.74651535195177",
    "region": "광주광역시"
  },
  {
    "name": "평동중학교 운동장",
    "address": "광주광역시 광산구 용동 185",
    "lat": "35.12849509200219",
    "lng": "126.75411164760587",
    "region": "광주광역시"
  },
  {
    "name": "주학초등학교 운동장",
    "address": "부산광역시 사상구 주례동 84-192",
    "lat": "35.145720377317076",
    "lng": "129.0124495791179",
    "region": "부산광역시"
  },
  {
    "name": "수정공원",
    "address": "부산광역시 북구 화명동 2321",
    "lat": "35.2227925430429",
    "lng": "129.00630034976447",
    "region": "부산광역시"
  },
  {
    "name": "미라펜션",
    "address": "전라남도 완도군 소안면 미라리 300",
    "lat": "34.146545632581535",
    "lng": "126.66942469709807",
    "region": "전라남도"
  },
  {
    "name": "금파초등학교 운동장",
    "address": "경기도 김포시 북변동 809",
    "lat": "37.624257043450456",
    "lng": "126.71749895465432",
    "region": "경기도"
  },
  {
    "name": "엄궁초등학교 운동장",
    "address": "부산광역시 사상구 엄궁동 47",
    "lat": "35.12894260174654",
    "lng": "128.9742136001598",
    "region": "부산광역시"
  },
  {
    "name": "거학초등학교 운동장",
    "address": "부산광역시 연제구 거제동 240",
    "lat": "35.197075757286775",
    "lng": "129.07700121402897",
    "region": "부산광역시"
  },
  {
    "name": "동백초등학교운동장",
    "address": "울산광역시 남구 달동 194-1",
    "lat": "35.53242865435061",
    "lng": "129.32412443141996",
    "region": "울산광역시"
  },
  {
    "name": "용원초등학교운동장",
    "address": "경상남도 창원시 진해구 용원동 1251",
    "lat": "35.0970687912318",
    "lng": "128.81783434775534",
    "region": "경상남도"
  },
  {
    "name": "연봉공원",
    "address": "부산���역시 연제구 연산동 631-6",
    "lat": "35.18598665533655",
    "lng": "129.08444190729432",
    "region": "부산���역시"
  },
  {
    "name": "북구청광장",
    "address": "울산광역시 북구 연암동 1004-1",
    "lat": "35.58226110662402",
    "lng": "129.36107397079954",
    "region": "울산광역시"
  },
  {
    "name": "광명북중학교 운동장",
    "address": "경기도 광명시 철산동 59",
    "lat": "37.487297596027226",
    "lng": "126.86624817093463",
    "region": "경기도"
  },
  {
    "name": "승봉분교운동장",
    "address": "인천광역시 옹진군 자월면 승봉리 712",
    "lat": "37.170641599300076",
    "lng": "126.29731819084087",
    "region": "인천광역시"
  },
  {
    "name": "천곡중학교 운동장",
    "address": "광주광역시 광산구 월계동 776-10",
    "lat": "35.211452904688805",
    "lng": "126.83533966541289",
    "region": "광주광역시"
  },
  {
    "name": "사우초등학교 운동장",
    "address": "경기도 김포시 사우동 907",
    "lat": "37.62016799658986",
    "lng": "126.7233724530365",
    "region": "경기도"
  },
  {
    "name": "김포호수초등학교 운동장",
    "address": "경기도 김포시 구래동 6875-5",
    "lat": "37.64960253748881",
    "lng": "126.63367134820263",
    "region": "경기도"
  },
  {
    "name": "모산초등학교 운동장",
    "address": "부산광역시 사상구 모라동 550",
    "lat": "35.18536614521211",
    "lng": "128.99544596672177",
    "region": "부산광역시"
  },
  {
    "name": "동궁초등학교 운동장",
    "address": "부산광역시 사상구 엄궁동 680-4",
    "lat": "35.12336610374605",
    "lng": "128.97419214248765",
    "region": "부산광역시"
  },
  {
    "name": "사상초등학교 운동장",
    "address": "부산광역시 사상구 덕포동 692-1",
    "lat": "35.167971901725714",
    "lng": "128.9828297671519",
    "region": "부산광역시"
  },
  {
    "name": "구학초등학교 운동장",
    "address": "부산광역시 사상구 학장동 168-15",
    "lat": "35.13777822186285",
    "lng": "128.99291396141172",
    "region": "부산광역시"
  },
  {
    "name": "남문초등학교 운동장",
    "address": "부산광역시 연제구 거제동 1474",
    "lat": "35.19409481063816",
    "lng": "129.06975924968873",
    "region": "부산광역시"
  },
  {
    "name": "옥산초등학교운동장",
    "address": "울산광역시 남구 무거동 480",
    "lat": "35.541995974834485",
    "lng": "129.2622129329139",
    "region": "울산광역시"
  },
  {
    "name": "부산서여자고등학교 운동장",
    "address": "부산광역시 서구 동대신동2가 75-2",
    "lat": "35.1133945076106",
    "lng": "129.0217185004609",
    "region": "부산광역시"
  },
  {
    "name": "도천초등학교운동장",
    "address": "경상남도 창원시 진해구 도천동 12",
    "lat": "35.15237200440635",
    "lng": "128.6539363861115",
    "region": "경상남도"
  },
  {
    "name": "대야초등학교운동장",
    "address": "경상남도 창원시 진해구 여좌동 150",
    "lat": "35.15926676178915",
    "lng": "128.6636954556729",
    "region": "경상남도"
  },
  {
    "name": "연동초등학교 운동장 ",
    "address": "부산광역시 연제구 연산동 799",
    "lat": "35.18437078690845",
    "lng": "129.08819028799167",
    "region": "부산광역시"
  },
  {
    "name": "진해남중학교운동장",
    "address": "경상남도 창원시 진해구 경화동 781-22",
    "lat": "35.16117698764826",
    "lng": "128.69000122220686",
    "region": "경상남도"
  },
  {
    "name": "시민체육관",
    "address": "경기도 광명시 하안동 577",
    "lat": "37.46184828610512",
    "lng": "126.87162171789399",
    "region": "경기도"
  },
  {
    "name": "충현고등학교 ���동장",
    "address": "경기도 광명시 소하동 991-1",
    "lat": "37.432707194527346",
    "lng": "126.8846417104791",
    "region": "경기도"
  },
  {
    "name": "부개서초등학교 운동장",
    "address": "인천광역시 부평구 부개동 155-1",
    "lat": "37.4895910190357",
    "lng": "126.73518505087854",
    "region": "인천광역시"
  },
  {
    "name": "매호공원",
    "address": "대구광역시 수성구 매호동 1321",
    "lat": "35.845465387751155",
    "lng": "128.7035457276424",
    "region": "대구광역시"
  },
  {
    "name": "보은고등학교 운동장",
    "address": "충청북도 보은군 보은읍 죽전리 61",
    "lat": "36.475325",
    "lng": "127.721263",
    "region": "충청북도"
  },
  {
    "name": "발산중학교 운동장",
    "address": "경기도 고양시 일산서구 주엽동 56",
    "lat": "37.66974325622625",
    "lng": "126.76996264943762",
    "region": "경기도"
  },
  {
    "name": "백송초등학교 운동장",
    "address": "경기도 고양시 일산서구 덕이동 350-2",
    "lat": "37.70128760568844",
    "lng": "126.75358030720709",
    "region": "경기도"
  },
  {
    "name": "회남면사무소 공터",
    "address": "충청북도 보은군 회남면 거교리 251",
    "lat": "36.44515633329154",
    "lng": "127.57907560939813",
    "region": "충청북도"
  },
  {
    "name": "진천읍사무소",
    "address": "충청북도 진천군 진천읍 읍내리 370-1",
    "lat": "36.85497605095984",
    "lng": "127.4413997459511",
    "region": "충청북도"
  },
  {
    "name": "상상공원(삼산2-2공원)",
    "address": "인천광역시 부평구 삼산동 388-37",
    "lat": "37.520044788741295",
    "lng": "126.74247762052376",
    "region": "인천광역시"
  },
  {
    "name": "새울공원(부개3공원)",
    "address": "인천광역시 부평구 부개동 499-3",
    "lat": "37.50340258845873",
    "lng": "126.74060365655708",
    "region": "인천광역시"
  },
  {
    "name": "봉개초등학교 운동장",
    "address": "제주특별자치도 제주시 봉개동 1930-2",
    "lat": "33.49038768483041",
    "lng": "126.59371079750164",
    "region": "제주특별자치도"
  },
  {
    "name": "삼계초등학교 운동장",
    "address": "경상남도 창원시 마산회원구 내서읍 삼계리 19",
    "lat": "35.23274306175907",
    "lng": "128.50061727237528",
    "region": "경상남도"
  },
  {
    "name": "명동초등학교 운동장",
    "address": "부산광역시 동래구 명장동 433-2",
    "lat": "35.20690879523497",
    "lng": "129.10644203503455",
    "region": "부산광역시"
  },
  {
    "name": "화봉고등학교 운동장",
    "address": "울산광역시 북구 화봉동 1441",
    "lat": "35.5953546",
    "lng": "129.3697014",
    "region": "울산광역시"
  },
  {
    "name": "재송여자중학교운동장",
    "address": "부산광역시 해운대구 재송동 1157",
    "lat": "35.189456590861134",
    "lng": "129.1306614875826",
    "region": "부산광역시"
  },
  {
    "name": "장기초등학교 운동장",
    "address": "경기도 김포시 장기동 1639",
    "lat": "37.64247194952775",
    "lng": "126.66492145903995",
    "region": "경기도"
  },
  {
    "name": "김포과학기술고등학교 운동장",
    "address": "경기도 김포시 북변동 477",
    "lat": "37.62115207916505",
    "lng": "126.70937722192284",
    "region": "경기도"
  },
  {
    "name": "야생조류생태공원",
    "address": "경기도 김포시 운양동 1246-1",
    "lat": "37.658",
    "lng": "126.6901",
    "region": "경기도"
  },
  {
    "name": "도장근린공원",
    "address": "경기도 군포시 산본동 1145-7",
    "lat": "37.356187588961305",
    "lng": "126.92891353969257",
    "region": "경기도"
  },
  {
    "name": "용머리초등학교 운동장",
    "address": "경기도 안성시 공도읍 용두리 517-2",
    "lat": "37.00226135478074",
    "lng": "127.15905547142027",
    "region": "경기도"
  },
  {
    "name": "제주동초등학교 운동장",
    "address": "제주특별자치도 제주시 건입동 1105",
    "lat": "33.51406673328105",
    "lng": "126.53352804704981",
    "region": "제주특별자치도"
  },
  {
    "name": "갈전운동장",
    "address": "경상남도 창원시 의창구 대산면 갈전리 691-2",
    "lat": "35.36690811210735",
    "lng": "128.68063645799842",
    "region": "경상남도"
  },
  {
    "name": "사화초등학교운동장",
    "address": "경상남도 창원시 의창구 팔용동 75",
    "lat": "35.252302469795445",
    "lng": "128.61648898933444",
    "region": "경상남도"
  },
  {
    "name": "재송중학교운동장",
    "address": "부산광역시 해운대구 재송동 1033-1",
    "lat": "35.1936783461518",
    "lng": "129.12809729575875",
    "region": "부산광역시"
  },
  {
    "name": "해운대공업고등학교운동장",
    "address": "부산광역시 해운대구 우동 934-2",
    "lat": "35.167287680620944",
    "lng": "129.14474844932448",
    "region": "부산광역시"
  },
  {
    "name": "해운대여자중학교운동장",
    "address": "부산광역시 해운대구 우동 908",
    "lat": "35.16802878813637",
    "lng": "129.15395915508475",
    "region": "부산광역시"
  },
  {
    "name": "북삼초등학교운동장",
    "address": "강원특별자치도 동해시 지흥동 124-1",
    "lat": "37.495478207737776",
    "lng": "129.10143963327772",
    "region": "강원특별자치도"
  },
  {
    "name": "동해상업고등학교운동장",
    "address": "강원특별자치도 동해시 발한동 620-3",
    "lat": "37.54413497250179",
    "lng": "129.0946125984209",
    "region": "강원특별자치도"
  },
  {
    "name": "서룡초등학교 운동장",
    "address": "경기도 용인시 처인구 역북동 416",
    "lat": "37.23763593271641",
    "lng": "127.18681247940123",
    "region": "경기도"
  },
  {
    "name": "용마초등학교 운동장",
    "address": "경기도 용인시 처���구 마평동 675-4",
    "lat": "37.23682594154178",
    "lng": "127.21474931318077",
    "region": "경기도"
  },
  {
    "name": "흥덕중학교 운동장",
    "address": "경기도 용인시 기흥구 영덕동 959",
    "lat": "37.27664361845086",
    "lng": "127.0795473047614",
    "region": "경기도"
  },
  {
    "name": "갈곡초등학교 운동장",
    "address": "경기도 용인시 기흥구 구갈동 601",
    "lat": "37.271183160492484",
    "lng": "127.13354852818084",
    "region": "경기도"
  },
  {
    "name": "기흥초등학교  운동장",
    "address": "경기도 용인시 기흥구 공세동 198-1",
    "lat": "37.23194388512476",
    "lng": "127.1096480858008",
    "region": "경기도"
  },
  {
    "name": "언동초등학교  운동장",
    "address": "경기도 용인시 기흥구 언남동 132-10",
    "lat": "37.29501334952704",
    "lng": "127.13175196112796",
    "region": "경기도"
  },
  {
    "name": "중일초등학교 운동장",
    "address": "경기도 용인시 기흥구 중동 1098",
    "lat": "37.28561156912171",
    "lng": "127.14319476112637",
    "region": "경기도"
  },
  {
    "name": "용인백현중학교 운동장",
    "address": "경기도 용인시 기흥구 동백동 591",
    "lat": "37.28098604369628",
    "lng": "127.16444539932793",
    "region": "경기도"
  },
  {
    "name": "독정초등학교 운동장",
    "address": "경기도 용인시 기흥구 보정동 1256",
    "lat": "37.31857905974813",
    "lng": "127.11618744929137",
    "region": "경기도"
  },
  {
    "name": "이현초등학교 운동장",
    "address": "경기도 용인시 기흥구 보정동 1164",
    "lat": "37.31004332789477",
    "lng": "127.0929788236813",
    "region": "경기도"
  },
  {
    "name": "신리초등학교 운동장",
    "address": "경기도 용인시 수지구 신봉동 882",
    "lat": "37.322187026188814",
    "lng": "127.08075563193451",
    "region": "경기도"
  },
  {
    "name": "신봉중학교 운동장",
    "address": "경기도 용인시 수지구 신봉동 981",
    "lat": "37.32735152325217",
    "lng": "127.06436236721629",
    "region": "경기도"
  },
  {
    "name": "대청초등학교 운동장",
    "address": "경기도 용인시 수지구 죽전동 1389",
    "lat": "37.334033798398394",
    "lng": "127.12881887794471",
    "region": "경기도"
  },
  {
    "name": "현암초등학교 운동장",
    "address": "경기도 용인시 수지구 죽전동 1229",
    "lat": "37.32901218235027",
    "lng": "127.12462252327863",
    "region": "경기도"
  },
  {
    "name": "대구가톨릭대학교 유스티노캠퍼스 운동장",
    "address": "대구광역시 중구 남산동 219",
    "lat": "35.86221060373497",
    "lng": "128.58728347166084",
    "region": "대구광역시"
  },
  {
    "name": "2.28기념 중앙공원",
    "address": "대구광역시 중구 공평동 15",
    "lat": "35.869614600367136",
    "lng": "128.59775341518218",
    "region": "대구광역시"
  },
  {
    "name": "천부초등학교 운동장",
    "address": "경상북도 울릉군 북면 천부리 694",
    "lat": "37.53684860699092",
    "lng": "130.87129175672015",
    "region": "경상북도"
  },
  {
    "name": "금성초등학교 운동장",
    "address": "전라남도 진도군 군내면 둔전리 356-2",
    "lat": "34.537438419934304",
    "lng": "126.29301462057671",
    "region": "전라남도"
  },
  {
    "name": "풍무초등학교 운동장",
    "address": "경기도 김포시 풍무동 136-10",
    "lat": "37.60456100794758",
    "lng": "126.72632179058762",
    "region": "경기도"
  },
  {
    "name": "북이초등학교 운동장",
    "address": "충청북도 청주시 청원구 북이면 내추리 2-3",
    "lat": "36.76165220274669",
    "lng": "127.55554832230935",
    "region": "충청북도"
  },
  {
    "name": "진보면 종합운동장",
    "address": "경상북도 청송군 진보면 진안리 7",
    "lat": "36.53258929987398",
    "lng": "129.04865237201616",
    "region": "경상북도"
  },
  {
    "name": "어론초���학교",
    "address": "강원특별자치도 인제군 남면 어론리 686-1",
    "lat": "37.93270292690714",
    "lng": "128.06196120728075",
    "region": "강원특별자치도"
  },
  {
    "name": "원통중고등학교",
    "address": "강원특별자치도 인제군 북면 원통리 398-1",
    "lat": "38.12821396228144",
    "lng": "128.21375431147038",
    "region": "강원특별자치도"
  },
  {
    "name": "운광초등학교 운동장",
    "address": "경기도 파주시 동패동 1769",
    "lat": "37.7093282021601",
    "lng": "126.74119696491829",
    "region": "경기도"
  },
  {
    "name": "상당고등학교 운동장",
    "address": "충청북도 청주시 상당구 용암동 2033",
    "lat": "36.60603848132935",
    "lng": "127.50897499587212",
    "region": "충청북도"
  },
  {
    "name": "현도중학교 운동장",
    "address": "충청북도 청주시 서원구 현도면 선동리 256-3",
    "lat": "36.48354605265062",
    "lng": "127.42575824260712",
    "region": "충청북도"
  },
  {
    "name": "현도정보고등학교 운동장",
    "address": "충청북도 청주시 서원구 현도면 죽암리 262",
    "lat": "36.52133832022437",
    "lng": "127.43657594779737",
    "region": "충청북도"
  },
  {
    "name": "강동초등학교(운동장)",
    "address": "대구광역시 동구 신서동 544",
    "lat": "35.86822874454837",
    "lng": "128.73029553124178",
    "region": "대구광역시"
  },
  {
    "name": "동부고등학교(운동장)",
    "address": "대구광역시 동구 각산동 199",
    "lat": "35.87416684754799",
    "lng": "128.7189801123664",
    "region": "대구광역시"
  },
  {
    "name": "위남공원",
    "address": "대구광역시 동구 봉무동 1525",
    "lat": "35.9263496293702",
    "lng": "128.63747362788095",
    "region": "대구광역시"
  },
  {
    "name": "경북고등학교",
    "address": "대구광역시 수성구 황금동 9",
    "lat": "35.8437",
    "lng": "128.6396",
    "region": "대구광역시"
  },
  {
    "name": "영종초등학교 운동장",
    "address": "인천광역시 중구 중산동 1871-2",
    "lat": "37.4886395738294",
    "lng": "126.55315702545124",
    "region": "인천광역시"
  },
  {
    "name": "유수지공원",
    "address": "인천광역시 중구 운서동 2746-4",
    "lat": "37.49763974288972",
    "lng": "126.48042440414412",
    "region": "인천광역시"
  },
  {
    "name": "영마루공원",
    "address": "인천광역시 중구 운서동 2709-1",
    "lat": "37.496804256649156",
    "lng": "126.48783681322024",
    "region": "인천광역시"
  },
  {
    "name": "광주송원중학교 운동장",
    "address": "광주광역시 남구 송하동 365-1",
    "lat": "35.11327390939881",
    "lng": "126.87277793884276",
    "region": "광주광역시"
  },
  {
    "name": "광주대촌중학교 운동장",
    "address": "광주광역시 남구 지석동 268-2",
    "lat": "35.08496521798643",
    "lng": "126.83221220970154",
    "region": "광주광역시"
  },
  {
    "name": "중앙시장 공영주차장",
    "address": "대구광역시 남구 대명동 982-7",
    "lat": "35.836980895585285",
    "lng": "128.5683819651606",
    "region": "대구광역시"
  },
  {
    "name": "성당시장공영주차장",
    "address": "대구광역시 남구 대명동 3024-6",
    "lat": "35.849722363277536",
    "lng": "128.57370364334142",
    "region": "대구광역시"
  },
  {
    "name": "고산골공영주차장",
    "address": "대구광역시 남구 봉덕동 1257-1",
    "lat": "35.830481155931984",
    "lng": "128.603114334975",
    "region": "대구광역시"
  },
  {
    "name": "관문시장공영주차장",
    "address": "대구광역시 남구 대명동 1158-9",
    "lat": "35.836031984520126",
    "lng": "128.55894883048305",
    "region": "대구광역시"
  },
  {
    "name": "앞산맛둘레길 제1주차장",
    "address": "대구광역시 남구 대명동 산200-8",
    "lat": "35.831168897948494",
    "lng": "128.57453832461343",
    "region": "대구광역시"
  },
  {
    "name": "수성초등학교",
    "address": "대구광역시 수성구 상동 89-2",
    "lat": "35.8364807751671",
    "lng": "128.6101752520156",
    "region": "대구광역시"
  },
  {
    "name": "파동초등학교",
    "address": "대구광역시 수성구 파동 8",
    "lat": "35.82424496438515",
    "lng": "128.6079651117873",
    "region": "대구광역시"
  },
  {
    "name": "지봉초등학교",
    "address": "대구광역시 수성구 지산동 1296",
    "lat": "35.824975686621606",
    "lng": "128.64088118076353",
    "region": "대구광역시"
  },
  {
    "name": "두산초등학교",
    "address": "대구광역시 수성구 지산동 1043",
    "lat": "35.832636266380064",
    "lng": "128.6250454187396",
    "region": "대구광역시"
  },
  {
    "name": "능인중.고등학교",
    "address": "대구광역시 수성구 지산동 800",
    "lat": "35.83120974965759",
    "lng": "128.632031679372",
    "region": "대구광역시"
  },
  {
    "name": "용지초등학교",
    "address": "대구광역시 수성구 지산동 1272",
    "lat": "35.82266170981651",
    "lng": "128.6326271296096",
    "region": "대구광역시"
  },
  {
    "name": "지산중학교",
    "address": "대구광역시 수성구 지산동 1256-1",
    "lat": "35.825138068471475",
    "lng": "128.62879335880308",
    "region": "대구광역시"
  },
  {
    "name": "면동초등학교운동장",
    "address": "서울특별시 중랑구 면목동 551",
    "lat": "37.58512154061705",
    "lng": "127.08665581102393",
    "region": "서울특별시"
  },
  {
    "name": "수성고등학교",
    "address": "대구광역시 수성구 지산동 1184-3",
    "lat": "35.82169318319844",
    "lng": "128.62576782703428",
    "region": "대구광역시"
  },
  {
    "name": "어상천 삼구인화원",
    "address": "충청북도 단양군 어상천면 임현리 311",
    "lat": "37.10126425476379",
    "lng": "128.3601049331437",
    "region": "충청북도"
  },
  {
    "name": "신정고등학교운동장",
    "address": "울산광역시 남구 신정동 1650-1",
    "lat": "35.53160563159216",
    "lng": "129.30233749452063",
    "region": "울산광역시"
  },
  {
    "name": "단양한옥학교 운동장",
    "address": "충청북도 단양군 적성면 하리 59",
    "lat": "36.96072987555389",
    "lng": "128.2937935367471",
    "region": "충청북도"
  },
  {
    "name": "각기리 회관앞 공터",
    "address": "충청북도 단양군 적성면 각기리 249-3",
    "lat": "37.015522743311024",
    "lng": "128.28347937857205",
    "region": "충청북도"
  },
  {
    "name": "하방리마을회관",
    "address": "충청북도 단양군 단성면 하방리 165-1",
    "lat": "36.93902978924642",
    "lng": "128.3207802151865",
    "region": "충청북도"
  },
  {
    "name": "생연중학교 운동장",
    "address": "경기도 동두천시 생연동 714-4",
    "lat": "37.896578473402364",
    "lng": "127.04961865988263",
    "region": "경기도"
  },
  {
    "name": "가산2리마을회관",
    "address": "충청북도 단양군 단성면 가산리 737-9",
    "lat": "36.87203847071865",
    "lng": "128.29481911100214",
    "region": "충청북도"
  },
  {
    "name": "백운고등학교 운동장",
    "address": "경기도 의왕시 내손동 665-5",
    "lat": "37.387280775151105",
    "lng": "126.98619003823191",
    "region": "경기도"
  },
  {
    "name": "동백초등학교운동장",
    "address": "부산광역시 해운대구 중동 1518-1",
    "lat": "35.16385394048087",
    "lng": "129.18048083781994",
    "region": "부산광역시"
  },
  {
    "name": "상당중학교운동장",
    "address": "부산광역시 해운대구 좌동 1406",
    "lat": "35.17852197025513",
    "lng": "129.17593181133515",
    "region": "부산광역시"
  },
  {
    "name": "대월중학교 운동장",
    "address": "경기도 이천시 대월면 초지리 306-3",
    "lat": "37.223871298631586",
    "lng": "127.49134077536598",
    "region": "경기도"
  },
  {
    "name": "온천초등학교운동장",
    "address": "경상남도 창원시 의창구 북면 신촌리 612-2",
    "lat": "35.349147376233276",
    "lng": "128.60551432515035",
    "region": "경상남도"
  },
  {
    "name": "도계초등학교운동장",
    "address": "경상남도 창원시 의창구 도계동 357-1",
    "lat": "35.25915524653533",
    "lng": "128.63910469389427",
    "region": "경상남도"
  },
  {
    "name": "좌산초등학교운동장",
    "address": "부산광역시 해운대구 좌동 1444",
    "lat": "35.16867509095814",
    "lng": "129.18404647152022",
    "region": "부산광역시"
  },
  {
    "name": "용인초등학교 운동장",
    "address": "경기도 용인시 처인구 김량장동 228-1",
    "lat": "37.23808022287457",
    "lng": "127.2051914751996",
    "region": "경기도"
  },
  {
    "name": "청덕초등학교  운동장",
    "address": "경기도 용인시 기흥구 청덕동 507",
    "lat": "37.29434920411676",
    "lng": "127.14942853428195",
    "region": "경기도"
  },
  {
    "name": "교동초등학교 운동장",
    "address": "경기도 용인시 기흥구 마북동 618",
    "lat": "37.30012909873181",
    "lng": "127.12230416332889",
    "region": "경기도"
  },
  {
    "name": "동막초등학교 운동장",
    "address": "경기도 용인시 기흥구 동백동 576",
    "lat": "37.28584929409675",
    "lng": "127.15533506577286",
    "region": "경기도"
  },
  {
    "name": "대현초등학교 운동장",
    "address": "경기도 용인시 수지구 죽전동 869-1",
    "lat": "37.333550637911344",
    "lng": "127.10687748656729",
    "region": "경기도"
  },
  {
    "name": "수창초등학교 운동장",
    "address": "대구광역시 중구 수창동 73",
    "lat": "35.874498324339854",
    "lng": "128.5842096805575",
    "region": "대구광역시"
  },
  {
    "name": "남산어린이공원",
    "address": "대구광역시 중구 남산동 2507",
    "lat": "35.8582",
    "lng": "128.5813",
    "region": "대구광역시"
  },
  {
    "name": "삼광중학교 운동장",
    "address": "경기도 파주시 적성면 식현리 284",
    "lat": "37.945151804241135",
    "lng": "126.88513375677407",
    "region": "경기도"
  },
  {
    "name": "용암중학교 운동장",
    "address": "충청북도 청주시 상당구 용암동 2081",
    "lat": "36.61102909031023",
    "lng": "127.50991756234495",
    "region": "충청북도"
  },
  {
    "name": "용유초등학교 운동장",
    "address": "인천광역시 중구 남북동 584-2",
    "lat": "37.44797684501742",
    "lng": "126.41240358352636",
    "region": "인천광역시"
  },
  {
    "name": "범일중학교",
    "address": "대구광역시 수성구 범물동 1279-2",
    "lat": "35.82056805358468",
    "lng": "128.6443930864883",
    "region": "대구광역시"
  },
  {
    "name": "가장 어린이공원",
    "address": "경상북도 상주시 가장동 724",
    "lat": "36.377329339232546",
    "lng": "128.1495817310787",
    "region": "경상북도"
  },
  {
    "name": "학성중학교운동장",
    "address": "울산광역시 남구 신정동 1632-1",
    "lat": "35.532245828830995",
    "lng": "129.2988425087786",
    "region": "울산광역시"
  },
  {
    "name": "덕상초등학교 운동장",
    "address": "부산광역시 사상구 덕포동 775-1",
    "lat": "35.17451132464068",
    "lng": "128.99050004425743",
    "region": "부산광역시"
  },
  {
    "name": "덕두초등학교 운동장",
    "address": "부산광역시 강서구 대저2동 2489-1",
    "lat": "35.175079934830855",
    "lng": "128.95599603653056",
    "region": "부산광역시"
  },
  {
    "name": "부산항공고등학교 운동장",
    "address": "부산광역시 사상구 덕포동 45-6",
    "lat": "35.17208550569681",
    "lng": "128.99214084185417",
    "region": "부산광역시"
  },
  {
    "name": "신정초등학교운동장",
    "address": "울산광역시 남구 신정동 1245",
    "lat": "35.53886727214534",
    "lng": "129.30435165741747",
    "region": "울산광역시"
  },
  {
    "name": "동평중학교운동장",
    "address": "울산광역시 남구 달동 119-8",
    "lat": "35.5336349720097",
    "lng": "129.32491473017467",
    "region": "울산광역시"
  },
  {
    "name": "무거중학교운동장",
    "address": "울산광역시 남구 무거동 996",
    "lat": "35.53730246553199",
    "lng": "129.25176839889343",
    "region": "울산광역시"
  },
  {
    "name": "벽제초등학교 운동장",
    "address": "경기도 고양시 일산동구 사리현동 122-2",
    "lat": "37.69580356673295",
    "lng": "126.84336230153934",
    "region": "경기도"
  },
  {
    "name": "신기중학교 운동장",
    "address": "경기도 안양시 동안구 호계동 1075-1",
    "lat": "37.37874522334099",
    "lng": "126.9590787806642",
    "region": "경기도"
  },
  {
    "name": "광안초등학교 운동장",
    "address": "부산광역시 수영구 광안동 154",
    "lat": "35.156861",
    "lng": "129.117096",
    "region": "부산광역시"
  },
  {
    "name": "해안중학교 운동장",
    "address": "강원특별자치도 양구군 해안면 현리 143",
    "lat": "38.28377504657236",
    "lng": "128.1363970843407",
    "region": "강원특별자치도"
  },
  {
    "name": "가림초등학교 운동장",
    "address": "경기도 광명시 하안동 297",
    "lat": "37.4583154218665",
    "lng": "126.87911044079186",
    "region": "경기도"
  },
  {
    "name": "구름산초등학교 운동장",
    "address": "경기도 광명시 소하동 1287",
    "lat": "37.45258109811878",
    "lng": "126.88415263765847",
    "region": "경기도"
  },
  {
    "name": "영춘초등학교 운동장",
    "address": "충청북도 단양�� 영춘면 상리 640",
    "lat": "37.08004556853466",
    "lng": "128.4832818331923",
    "region": "충청북도"
  },
  {
    "name": "울산여자상업고등학교운동장",
    "address": "울산광역시 남구 신정동 905",
    "lat": "35.52906650478861",
    "lng": "129.3108073980921",
    "region": "울산광역시"
  },
  {
    "name": "도전제3공원(천사어린이집앞)",
    "address": "충청북도 단양군 단양읍 도전리 10",
    "lat": "36.98283390474042",
    "lng": "128.3671441487249",
    "region": "충청북도"
  },
  {
    "name": "하진리 주차장",
    "address": "충청북도 단양군 적성면 하진리 58-3",
    "lat": "36.94115623267441",
    "lng": "128.30181767008182",
    "region": "충청북도"
  },
  {
    "name": "소야리 회관앞 공터",
    "address": "충청북도 단양군 적성면 소야리 62-8",
    "lat": "37.02203613679934",
    "lng": "128.277493474252",
    "region": "충청북도"
  },
  {
    "name": "탑동초등학교 운동장",
    "address": "경기도 동두천시 탑동동 395-1",
    "lat": "37.89129382204503",
    "lng": "127.10383951663974",
    "region": "경기도"
  },
  {
    "name": "삼산초등학교 운동장 ",
    "address": "충청북도 보은군 보은읍 삼산리 156-3",
    "lat": "36.484427",
    "lng": "127.717019",
    "region": "충청북도"
  },
  {
    "name": "교통공원",
    "address": "인천광역시 부평구 삼산동 517",
    "lat": "37.519492955737476",
    "lng": "126.74978785411116",
    "region": "인천광역시"
  },
  {
    "name": "종합운동장보조구장",
    "address": "경기도 동두천시 생연동 70",
    "lat": "37.89952747543967",
    "lng": "127.07063376903531",
    "region": "경기도"
  },
  {
    "name": "명륜초등학교 운동장",
    "address": "부산광역시 동래구 명륜동 228",
    "lat": "35.20803753217152",
    "lng": "129.0829651489659",
    "region": "부산광역시"
  },
  {
    "name": "일산초등학교 운동장",
    "address": "경기도 고양시 일산서구 일산동 630-1",
    "lat": "37.68256302985417",
    "lng": "126.7718415531529",
    "region": "경기도"
  },
  {
    "name": "문화초등학교 운동장",
    "address": "경기도 고양시 일산서구 주엽동 37",
    "lat": "37.67471008897015",
    "lng": "126.76752093496178",
    "region": "경기도"
  },
  {
    "name": "덕이초등학교 운동장",
    "address": "경기도 고양시 일산서구 덕이동 528",
    "lat": "37.6928369960534",
    "lng": "126.74811314385722",
    "region": "경기도"
  },
  {
    "name": "세중초등학교 운동장",
    "address": "충청북도 보은군 마로면 세중리 575-2",
    "lat": "36.387963",
    "lng": "127.829288",
    "region": "충청북도"
  },
  {
    "name": "장안면사무소 공터",
    "address": "충청북도 보은군 장안면 장안리 265-3",
    "lat": "36.469794",
    "lng": "127.789081",
    "region": "충청북도"
  },
  {
    "name": "탄부면사무소 공터 ",
    "address": "충청북도 보은군 탄부면 하장리 347",
    "lat": "36.430468",
    "lng": "127.795919",
    "region": "충청북도"
  },
  {
    "name": "여명중학교 운동장",
    "address": "부산광역시 동래구 사직동 130-1",
    "lat": "35.19559780981302",
    "lng": "129.07035652310913",
    "region": "부산광역시"
  },
  {
    "name": "영훈고등학교운동장",
    "address": "서울특별시 강북구 미아동 471-2",
    "lat": "37.61399341094595",
    "lng": "127.0279016940412",
    "region": "서울특별시"
  },
  {
    "name": "우성고등학교 운동장",
    "address": "경기도 의왕시 고천동 496",
    "lat": "37.348673406968956",
    "lng": "126.98012410408036",
    "region": "경기도"
  },
  {
    "name": "백운초등학교 운동장",
    "address": "경기도 의왕시 내손동 622",
    "lat": "37.38602789436173",
    "lng": "126.97469603024187",
    "region": "경기도"
  },
  {
    "name": "학장초등학교 운동장",
    "address": "부산광역시 사상구 학장동 242-1",
    "lat": "35.145873621342965",
    "lng": "128.98375509001323",
    "region": "부산광역시"
  },
  {
    "name": "부민초등학교 운동장",
    "address": "부산광역시 서구 부용동2가 11",
    "lat": "35.106431521033414",
    "lng": "129.0195072556931",
    "region": "부산광역시"
  },
  {
    "name": "엄궁중학교 운동장",
    "address": "부산광역시 사상구 엄궁동 2",
    "lat": "35.13499660199708",
    "lng": "128.97554207993727",
    "region": "부산광역시"
  },
  {
    "name": "도산초등학교운동장",
    "address": "울산광역시 남구 야음동 540",
    "lat": "35.53042224392709",
    "lng": "129.33406560588165",
    "region": "울산광역시"
  },
  {
    "name": "부산관광고등학교 운동장",
    "address": "부산광역시 서구 남부민동 611",
    "lat": "35.08320931654375",
    "lng": "129.0216243267054",
    "region": "부산광역시"
  },
  {
    "name": "삼송초등학교 운동장",
    "address": "경기도 고양시 덕양구 원흥동 675",
    "lat": "37.65400850027821",
    "lng": "126.88244948963485",
    "region": "경기도"
  },
  {
    "name": "고양관산초등학교 운동장",
    "address": "경기도 고양시 덕양구 관산동 995",
    "lat": "37.692021878032776",
    "lng": "126.8664144606196",
    "region": "경기도"
  },
  {
    "name": "성석초등학교 운동장",
    "address": "경기도 고양시 일산동구 문봉동 203-6",
    "lat": "37.70712259398245",
    "lng": "126.81266281037122",
    "region": "경기도"
  },
  {
    "name": "부산시민공원",
    "address": "부산광역시 부산진구 범전동 200",
    "lat": "35.16647640132833",
    "lng": "129.05578494072105",
    "region": "부산광역시"
  },
  {
    "name": "하안남초등학교 운동장",
    "address": "경기도 광명시 하안동 111",
    "lat": "37.46184203790189",
    "lng": "126.88550787817032",
    "region": "경기도"
  },
  {
    "name": "가림중학교 운동장",
    "address": "경기도 광명시 하안동 261",
    "lat": "37.457345386389754",
    "lng": "126.87999469284989",
    "region": "경기도"
  },
  {
    "name": "안서중&경영회계고등학교 운동장",
    "address": "경기도 광명시 소하동 883-13",
    "lat": "37.4381108742461",
    "lng": "126.8821946980913",
    "region": "경기도"
  },
  {
    "name": "전북대익산캠퍼스 대운동장",
    "address": "전북특별자치도 익산시 마동 199-1",
    "lat": "35.94289611674575",
    "lng": "126.96106016635895",
    "region": "전북특별자치도"
  },
  {
    "name": "삼례역 앞 주차장",
    "address": "전북특별자치도 완주군 삼례읍 후정리 279-7",
    "lat": "35.906419549981415",
    "lng": "127.0650649579302",
    "region": "전북특별자치도"
  },
  {
    "name": "세영공원",
    "address": "인천광역시 부평구 부개동 500-2",
    "lat": "37.499856813858635",
    "lng": "126.73681017943483",
    "region": "인천광역시"
  },
  {
    "name": "괴산고등학교 운동장",
    "address": "충청북도 괴산군 괴산읍 대사리 201",
    "lat": "36.79641235308766",
    "lng": "127.780761130948",
    "region": "충청북도"
  },
  {
    "name": "백신고등학교 운동장",
    "address": "경기도 고양시 일산동구 백석동 1347",
    "lat": "37.64235096710756",
    "lng": "126.78167294804493",
    "region": "경기도"
  },
  {
    "name": "판동초등학교 운동장 ",
    "address": "충청북도 보은군 삼승면 내망리 536-1",
    "lat": "36.397918",
    "lng": "127.741573",
    "region": "충청북도"
  },
  {
    "name": "일산은행초등학교 운동장",
    "address": "경기도 고양시 일산동구 식사동 916",
    "lat": "37.66911092938295",
    "lng": "126.80649884553458",
    "region": "경기도"
  },
  {
    "name": "감물면사무소",
    "address": "충청북도 괴산군 감물면 광전리 90",
    "lat": "36.836724037437655",
    "lng": "127.87490195261246",
    "region": "충청북도"
  },
  {
    "name": "온천중학교 운동장",
    "address": "부산광역시 동래구 온천동 1622",
    "lat": "35.20397054838407",
    "lng": "129.0590619423378",
    "region": "부산광역시"
  },
  {
    "name": "여고초등학교 운동장",
    "address": "부산광역시 동래구 사직동 126-1",
    "lat": "35.19790720658614",
    "lng": "129.06955626268137",
    "region": "부산광역시"
  },
  {
    "name": "강북구민운동장",
    "address": "서울특별시 강북구 번동 317",
    "lat": "37.62931618435064",
    "lng": "127.03727922398163",
    "region": "서울특별시"
  },
  {
    "name": "안흥초등학교 운동장",
    "address": "강원특별자치도 횡성군 안흥면 안흥리 89-1",
    "lat": "37.420611039011554",
    "lng": "128.16381088786187",
    "region": "강원특별자치도"
  },
  {
    "name": "동평초등학교운동장",
    "address": "울산광역시 남구 달동 119-9",
    "lat": "35.532750360152455",
    "lng": "129.32527083252054",
    "region": "울산광역시"
  },
  {
    "name": "백합초등학교운동장",
    "address": "울산광역시 남구 삼산동 1533",
    "lat": "35.54536195625744",
    "lng": "129.3430318515651",
    "region": "울산광역시"
  },
  {
    "name": "경기게임마이스터고등학교 운동장",
    "address": "경기도 안양시 동안구 비산동 1101",
    "lat": "37.3976742568724",
    "lng": "126.94751068099004",
    "region": "경기도"
  },
  {
    "name": "개화초등학교운동장",
    "address": "부산광역시 부산진구 개금동 404",
    "lat": "35.15833989095592",
    "lng": "129.02060130549998",
    "region": "부산광역시"
  },
  {
    "name": "개성고등학교운동장",
    "address": "부산광역시 부산진구 당감동 642",
    "lat": "35.16925985638229",
    "lng": "129.03070313912093",
    "region": "부산광역시"
  },
  {
    "name": "중앙초등학교운동장",
    "address": "울산광역시 남구 신정동 592-2",
    "lat": "35.54157411743845",
    "lng": "129.31528747204112",
    "region": "울산광역시"
  },
  {
    "name": "아미초등학교 운동장",
    "address": "부산광역시 서구 아미동2가 89",
    "lat": "35.09837101905532",
    "lng": "129.01599992854702",
    "region": "부산광역시"
  },
  {
    "name": "능곡초등학교 운동장",
    "address": "경기도 고양시 덕양구 토당동 278-2",
    "lat": "37.62441844935624",
    "lng": "126.81613103323053",
    "region": "경기도"
  },
  {
    "name": "경원고등학교운동장",
    "address": "부산광역시 부산진구 당감동 611-1",
    "lat": "35.163292946907895",
    "lng": "129.03165299311502",
    "region": "부산광역시"
  },
  {
    "name": "개금여자중학교운동장",
    "address": "부산광역시 부산진구 당감동 611-2",
    "lat": "35.163415601422436",
    "lng": "129.03297845878987",
    "region": "부산광역시"
  },
  {
    "name": "화수고등학교 운동장",
    "address": "경기도 고양시 덕양구 화정동 854",
    "lat": "37.64474676615217",
    "lng": "126.83610711458915",
    "region": "경기도"
  },
  {
    "name": "백양초등학교 운동장",
    "address": "경기도 고양시 덕양구 화정동 990",
    "lat": "37.631975833183326",
    "lng": "126.83607642786822",
    "region": "경기도"
  },
  {
    "name": "연제문화체육공원",
    "address": "부산광역시 연제구 연산동 952-46",
    "lat": "35.18484043089612",
    "lng": "129.09114360396188",
    "region": "부산광역시"
  },
  {
    "name": "덕현초등학교 운동장",
    "address": "경기도 안양시 동안구 호계동 1101",
    "lat": "37.37578188004823",
    "lng": "126.96214096725683",
    "region": "경기도"
  },
  {
    "name": "광문고등학교 운동장",
    "address": "경기도 광명시 광명동 492-1",
    "lat": "37.46470796510215",
    "lng": "126.849936246871",
    "region": "경기도"
  },
  {
    "name": "가림2어린이공원",
    "address": "경기도 광명시 하안동 703",
    "lat": "37.46672191979119",
    "lng": "126.86417341232297",
    "region": "경기도"
  },
  {
    "name": "안서초등학교 운동장",
    "address": "경기도 광명시 가학동 1052-1",
    "lat": "37.402636083146305",
    "lng": "126.87124663646806",
    "region": "경기도"
  },
  {
    "name": "부개공원",
    "address": "인천광역시 부평구 부개동 497-2",
    "lat": "37.50598208912559",
    "lng": "126.74124514622413",
    "region": "인천광역시"
  },
  {
    "name": "주엽고등학교 운동장",
    "address": "경기도 고양시 일산서구 대화동 2168",
    "lat": "37.67578593802277",
    "lng": "126.75465740130878",
    "region": "경기도"
  },
  {
    "name": "탄부초등학교 운동장",
    "address": "충청북도 보은군 탄부면 덕동리 77",
    "lat": "36.424829",
    "lng": "127.776924",
    "region": "충청북도"
  },
  {
    "name": "보덕중학교 운동장",
    "address": "충청북도 보은군 탄부면 하장리 27-1",
    "lat": "36.435745",
    "lng": "127.80578",
    "region": "충청북도"
  },
  {
    "name": "달북초등학교 운동장",
    "address": "부산광역시 동래구 온천동 1602",
    "lat": "35.20376933737901",
    "lng": "129.06011939048915",
    "region": "부산광역시"
  },
  {
    "name": "칠성중학교 운동장",
    "address": "충청북도 괴산군 칠성면 사평리 240",
    "lat": "36.78862465767487",
    "lng": "127.87348420835514",
    "region": "충청북도"
  },
  {
    "name": "서원중학교 운동장",
    "address": "강원특별자치도 횡성군 서원면 창촌리 728",
    "lat": "37.48679476811393",
    "lng": "127.84659887413382",
    "region": "강원특별자치도"
  },
  {
    "name": "건어장",
    "address": "인천광역시 옹진군 북도면 장봉리 957-6",
    "lat": "37.54174879814031",
    "lng": "126.32922559976548",
    "region": "인천광역시"
  },
  {
    "name": "사랑샘공원",
    "address": "인천광역시 부평구 삼산동 496",
    "lat": "37.52103866865175",
    "lng": "126.73611571163138",
    "region": "인천광역시"
  },
  {
    "name": "송정서초등학교 운동장",
    "address": "광주광역시 광산구 도산동 1008-3",
    "lat": "35.12964018556245",
    "lng": "126.78770899772641",
    "region": "광주광역시"
  },
  {
    "name": "응암공원",
    "address": "광주광역시 광산구 월계동 286",
    "lat": "35.21718552060968",
    "lng": "126.83286935091016",
    "region": "광주광역시"
  },
  {
    "name": "장덕공원",
    "address": "광주광역시 광산구 장덕동 1596",
    "lat": "35.1881376793431",
    "lng": "126.813105803371",
    "region": "광주광역시"
  },
  {
    "name": "주례여자고등학교 운동장",
    "address": "부산광역시 사상구 주례동 84-176",
    "lat": "35.145082019945626",
    "lng": "129.01376545429358",
    "region": "부산광역시"
  },
  {
    "name": "삼호초등학교운동장",
    "address": "울산광역시 남구 무거동 292-5",
    "lat": "35.55251475461926",
    "lng": "129.26506740664874",
    "region": "울산광역시"
  },
  {
    "name": "옥서초등학교운동장",
    "address": "울산광역시 남구 옥동 638",
    "lat": "35.53792837892828",
    "lng": "129.2855680268527",
    "region": "울산광역시"
  },
  {
    "name": "청솔초등학교운동장",
    "address": "울산광역시 남구 달동 813",
    "lat": "35.532796801527546",
    "lng": "129.31798370371533",
    "region": "울산광역시"
  },
  {
    "name": "동부초등학교운동장",
    "address": "경상남도 창원시 진해구 석동 169-3",
    "lat": "35.15512255671933",
    "lng": "128.70176267762432",
    "region": "경상남도"
  },
  {
    "name": "옛골공원",
    "address": "부산광역시 연제구 연산동 2274",
    "lat": "35.18727736526573",
    "lng": "129.09027602331247",
    "region": "부산광역시"
  },
  {
    "name": "연산초등학교 운동장",
    "address": "부산광역시 연제구 연산동 774-1",
    "lat": "35.177886191248135",
    "lng": "129.0843451023118",
    "region": "부산광역시"
  },
  {
    "name": "광명동초등학교 운동장",
    "address": "경기도 광명시 철산동 78-4",
    "lat": "37.48345513538493",
    "lng": "126.86323918452239",
    "region": "경기도"
  },
  {
    "name": "하안중학교 운동장",
    "address": "경기도 광명시 하안동 25",
    "lat": "37.4670362914976",
    "lng": "126.8810713644503",
    "region": "경기도"
  },
  {
    "name": "느티나무어린이공원",
    "address": "서울특별시 마포구 연남동 563-5",
    "lat": "37.55966229006346",
    "lng": "126.91881131646694",
    "region": "서울특별시"
  },
  {
    "name": "안양천 영롱이 억새 1~3구장",
    "address": "서울특별시 영등포구 문래동6가 52",
    "lat": "37.52039743395942",
    "lng": "126.88068509101868",
    "region": "서울특별시"
  },
  {
    "name": "매봉소공원",
    "address": "서울특별시 성동구 옥수동 528-6",
    "lat": "37.54571738842783",
    "lng": "127.01112327430903",
    "region": "서울특별시"
  },
  {
    "name": "증포중학교 운동장",
    "address": "경기도 이천시 증포동 476",
    "lat": "37.2877550",
    "lng": "127.4555390",
    "region": "경기도"
  },
  {
    "name": "율목초등학교 운동장",
    "address": "경기도 화성시 반월동 879",
    "lat": "37.236648930150714",
    "lng": "127.0644815414839",
    "region": "경기도"
  },
  {
    "name": "팔탄초등학교 운동장",
    "address": "경기도 화성시 팔탄면 구장리 522-1",
    "lat": "37.15938468534515",
    "lng": "126.90256181224359",
    "region": "경기도"
  },
  {
    "name": "벌말초등학교 운동장",
    "address": "경기도 화성시 병점동 415-2",
    "lat": "37.202476461446714",
    "lng": "127.037824493242",
    "region": "경기도"
  },
  {
    "name": "무봉초등학교 운동장",
    "address": "경기도 화성시 청계동 549",
    "lat": "37.20304824013772",
    "lng": "127.11680520408243",
    "region": "경기도"
  },
  {
    "name": "와우초등학교 운동장",
    "address": "경기도 화성시 봉담읍 동화리 188",
    "lat": "37.220219069727854",
    "lng": "126.97213304745901",
    "region": "경기도"
  },
  {
    "name": "주포초등학교 운동장",
    "address": "충청남도 보령시 주포면 보령리 170-4",
    "lat": "36.41553251419517",
    "lng": "126.59063905477512",
    "region": "충청남도"
  },
  {
    "name": "한내여자중학교 운동장",
    "address": "충청남도 보령시 동대동 4-1",
    "lat": "36.348982759422746",
    "lng": "126.62380779903185",
    "region": "충청남도"
  },
  {
    "name": "삼봉초등학교운동장",
    "address": "충청남도 당진시 석문면 삼봉리 960",
    "lat": "37.0131",
    "lng": "126.5394",
    "region": "충청남도"
  },
  {
    "name": "평산초등학교",
    "address": "경상북도 경산시 사동 188",
    "lat": "35.8074839",
    "lng": "128.7570943",
    "region": "경상북도"
  },
  {
    "name": "한마음어린이공원",
    "address": "경상남도 양산시 신기동 511-2",
    "lat": "35.351604",
    "lng": "129.039850",
    "region": "경상남도"
  },
  {
    "name": "냉천초등학교 운동장",
    "address": "경상남도 창원시 진해구 자은동 111",
    "lat": "35.15656304800475",
    "lng": "128.718032809966",
    "region": "경상남도"
  },
  {
    "name": "새꿈어린이공원",
    "address": "서울특별시 용산구 동자동 8-5",
    "lat": "37.55258592406713",
    "lng": "126.97414666414261",
    "region": "서울특별시"
  },
  {
    "name": "함라초등학교 운동장",
    "address": "전북특별자치도 익산시 함라면 함열리 139-1",
    "lat": "36.05923434689763",
    "lng": "126.91185235977726",
    "region": "전북특별자치도"
  },
  {
    "name": "이리영등중학교 운동장",
    "address": "전북특별자치도 익산시 어양동 622-1",
    "lat": "35.96394405561396",
    "lng": "126.98147177696231",
    "region": "전북특별자치도"
  },
  {
    "name": "어양중학교 운동장",
    "address": "전북특별자치도 익산시 어양동 191",
    "lat": "35.964786377539404",
    "lng": "126.98458313941765",
    "region": "전북특별자치도"
  },
  {
    "name": "우정초등학교 운동장",
    "address": "경기도 화성시 우정읍 조암리 619",
    "lat": "37.08128306573511",
    "lng": "126.80067747831345",
    "region": "경기도"
  },
  {
    "name": "마령초등학교 운동장",
    "address": "전북특별자치도 진안군 마령면 평지리 991",
    "lat": "35.735048178106254",
    "lng": "127.36959654078564",
    "region": "전북특별자치도"
  },
  {
    "name": "정산고등학교 운동장",
    "address": "충청남도 청양군 정산면 서정리 91-1",
    "lat": "36.41332227454549",
    "lng": "126.9497738631394",
    "region": "충청남도"
  },
  {
    "name": "청남초등학교 운동장",
    "address": "충청남도 청양군 청남면 청소리 216-1",
    "lat": "36.3550068757586",
    "lng": "126.95176467490228",
    "region": "충청남도"
  },
  {
    "name": "신주중학교 운동장",
    "address": "경상남도 양산시 물금읍 범어리 2673-10",
    "lat": "35.33493820034566",
    "lng": "129.0150856805077",
    "region": "경상남도"
  },
  {
    "name": "석금산어린이공원",
    "address": "경상남도 양산시 동면 석산리 1448-4",
    "lat": "35.318171",
    "lng": "129.028027",
    "region": "경상남도"
  },
  {
    "name": "삼성어린이공원",
    "address": "경상남도 양산시 북정동 532-1",
    "lat": "35.361334",
    "lng": "129.048805",
    "region": "경상남도"
  },
  {
    "name": "명동공원",
    "address": "경상남도 양산시 명동 452-1",
    "lat": "35.402777",
    "lng": "129.166579",
    "region": "경상남도"
  },
  {
    "name": "동북중고등학교 운동장",
    "address": "서울특별시 강동구 둔촌동 180-2",
    "lat": "37.5197741094754",
    "lng": "127.14014581985178",
    "region": "서울특별시"
  },
  {
    "name": "돈암초등학교 운동장",
    "address": "서울특별시 성북구 동소문동6가 27-1",
    "lat": "37.593152617297534",
    "lng": "127.01335020874373",
    "region": "서울특별시"
  },
  {
    "name": "광양중학교 운동장",
    "address": "서울특별시 광진구 자양동 674",
    "lat": "37.53025819906329",
    "lng": "127.08606911025346",
    "region": "서울특별시"
  },
  {
    "name": "건국대부속중학교 운동장",
    "address": "서울특별시 광진구 화양동 528",
    "lat": "37.540650998707456",
    "lng": "127.08235183293301",
    "region": "서울특별시"
  },
  {
    "name": "광남중학교 운동장",
    "address": "서울특별시 광진구 광장동 554-15",
    "lat": "37.54017225697886",
    "lng": "127.10164127741656",
    "region": "서울특별시"
  },
  {
    "name": "신우어린이공원",
    "address": "서울특별시 영등포구 대림동 657",
    "lat": "37.50331704904674",
    "lng": "126.89918965101242",
    "region": "서울특별시"
  },
  {
    "name": "화성행궁광장",
    "address": "경기도 수원시 팔달구 신풍동 363-31",
    "lat": "37.2818065477804",
    "lng": "127.0157477259636",
    "region": "경기도"
  },
  {
    "name": "월드컵경기장 중앙광장",
    "address": "경기도 수원시 팔달구 우만동 222",
    "lat": "37.28792061667394",
    "lng": "127.03509181737898",
    "region": "경기도"
  },
  {
    "name": "중앙초등학교 운동장",
    "address": "전북특별자치도 남원시 도통동 374",
    "lat": "35.41249079335223",
    "lng": "127.3892626116828",
    "region": "전북특별자치도"
  },
  {
    "name": "장평중학교 운동장",
    "address": "충청남도 청양군 장평면 중추리 14",
    "lat": "36.34767051240129",
    "lng": "126.90174361104607",
    "region": "충청남도"
  },
  {
    "name": "청양중학교 운동장",
    "address": "충청남도 청양군 청양읍 송방리 133-1",
    "lat": "36.45164541546615",
    "lng": "126.79583750917615",
    "region": "충청남도"
  },
  {
    "name": "청송초등학교 운동장",
    "address": "충청남도 청양군 청양읍 송방리 292-1",
    "lat": "36.44929467980413",
    "lng": "126.78772395425938",
    "region": "충청남도"
  },
  {
    "name": "주산산업고등학교 운동장",
    "address": "충청남도 보령시 주산면 금암리 506",
    "lat": "36.1981516105394",
    "lng": "126.63628179534811",
    "region": "충청남도"
  },
  {
    "name": "청룡초등학교 학교운동장",
    "address": "충청남도 보령시 신흑동 350",
    "lat": "36.31945479897706",
    "lng": "126.5387385915049",
    "region": "충청남도"
  },
  {
    "name": "청파초등학교 운동장",
    "address": "충청남도 보령시 신흑동 835",
    "lat": "36.31839422033395",
    "lng": "126.51158396591997",
    "region": "충청남도"
  },
  {
    "name": "송산초등학교운동장",
    "address": "충청남도 당진시 송산면 상거리 322-2",
    "lat": "36.9317",
    "lng": "126.6801",
    "region": "충청남도"
  },
  {
    "name": "은하면 행정복지센터 주차장",
    "address": "충청남도 홍성군 은하면 대천리 238-2",
    "lat": "36.53186034934759",
    "lng": "126.59031651997033",
    "region": "충청남도"
  },
  {
    "name": "명일초등학교 운동장",
    "address": "서울특별시 강동구 암사동 418-18",
    "lat": "37.554016308405245",
    "lng": "127.14197065292373",
    "region": "서울특별시"
  },
  {
    "name": "인헌초등학교 운동장",
    "address": "서울특별시 관악구 봉천동 212-3",
    "lat": "37.47637100437855",
    "lng": "126.9602365477372",
    "region": "서울특별시"
  },
  {
    "name": "승학초등학교운동장",
    "address": "부산광역시 사하구 괴정동 354-111",
    "lat": "35.101618063541885",
    "lng": "129.00337457656715",
    "region": "부산광역시"
  },
  {
    "name": "동주여자중학교운동장",
    "address": "부산광역시 사하구 괴정동 380-1",
    "lat": "35.100687630516965",
    "lng": "129.00084257125906",
    "region": "부산광역시"
  },
  {
    "name": "하단초등학교운동장",
    "address": "부산광역시 사하구 하단동 593-1",
    "lat": "35.10504111365199",
    "lng": "128.96459216822956",
    "region": "부산광역시"
  },
  {
    "name": "단산중학교 운동장",
    "address": "경상북도 영주시 단산면 옥대리 183-4",
    "lat": "36.95232609808612",
    "lng": "128.6165281493491",
    "region": "경상북도"
  },
  {
    "name": "구)복대초등학교 운동장",
    "address": "충청북도 청주시 흥덕구 복대동 709-4",
    "lat": "36.62915410658191",
    "lng": "127.4477869161157",
    "region": "충청북도"
  },
  {
    "name": "경덕초등학교 운동장",
    "address": "충청북도 청주시 흥덕구 가경동 1504",
    "lat": "36.6212084171375",
    "lng": "127.4381042032088",
    "region": "충청북도"
  },
  {
    "name": "서생중학교 운동장",
    "address": "울산광역시 울주군 서생면 신암리 8-1",
    "lat": "35.350179639974755",
    "lng": "129.33056384325107",
    "region": "울산광역시"
  },
  {
    "name": "남성초등학교 운동장",
    "address": "충청북도 청주시 서원구 분평동 219-1",
    "lat": "36.60798244927178",
    "lng": "127.48376291927732",
    "region": "충청북도"
  },
  {
    "name": "봉명초등학교 운동장",
    "address": "충청북도 청주시 흥덕구 봉명동 205",
    "lat": "36.639684979276424",
    "lng": "127.45652955860781",
    "region": "충청북도"
  },
  {
    "name": "분평초등학교 운동장",
    "address": "충청북도 청주시 서원구 분평동 1198",
    "lat": "36.613309857837535",
    "lng": "127.49311274672401",
    "region": "충청북도"
  },
  {
    "name": "사직초등학교 운동장",
    "address": "충청북도 청주시 서원구 사직동 38-4",
    "lat": "36.6307003682622",
    "lng": "127.47773474948418",
    "region": "충청북도"
  },
  {
    "name": "수곡초등학교 운동장",
    "address": "충청북도 청주시 서원구 수곡동 779",
    "lat": "36.6180989116588",
    "lng": "127.4712498743902",
    "region": "충청북도"
  },
  {
    "name": "한솔초등학교 운동장",
    "address": "충청북도 청주시 서원구 수곡동 322",
    "lat": "36.61843539364645",
    "lng": "127.4761645072923",
    "region": "충청북도"
  },
  {
    "name": "낭성초등학교 운동장",
    "address": "충청북도 청주시 상당구 낭성면 이목리 108-1",
    "lat": "36.62314611752259",
    "lng": "127.60211131746065",
    "region": "충청북도"
  },
  {
    "name": "남이면사무소 주차장",
    "address": "충청북도 청주시 서원구 남이면 척산리 608-1",
    "lat": "36.5605884842585",
    "lng": "127.43363040261198",
    "region": "충청북도"
  },
  {
    "name": "갈원초등학교 운동장",
    "address": "충청북도 청주시 서원구 남이면 갈원리 143-1",
    "lat": "36.568710927640474",
    "lng": "127.39654559649644",
    "region": "충청북도"
  },
  {
    "name": "남이초등학교 운동장",
    "address": "충청북도 청주시 서원구 남이면 대련리 255",
    "lat": "36.57700330708442",
    "lng": "127.45416037691402",
    "region": "충청북도"
  },
  {
    "name": "지봉공원",
    "address": "대구광역시 수성구 지산동 1287",
    "lat": "35.8231729",
    "lng": "128.639677",
    "region": "대구광역시"
  },
  {
    "name": "거성어린이공원",
    "address": "대구광역시 수성구 지산동 1211-2",
    "lat": "35.81968359778066",
    "lng": "128.63564372062712",
    "region": "대구광역시"
  },
  {
    "name": "중현초등학교 운동장",
    "address": "부산광역시 사하구 다대동 1550-4",
    "lat": "35.0505690103822",
    "lng": "128.96658539772676",
    "region": "부산광역시"
  },
  {
    "name": "백문초등학교운동장",
    "address": "경기도 구리시 교문동 808-1",
    "lat": "37.588315823289",
    "lng": "127.13267061859504",
    "region": "경기도"
  },
  {
    "name": "들안길공원",
    "address": "대구광역시 수성구 상동 343",
    "lat": "35.8339103",
    "lng": "128.613338",
    "region": "대구광역시"
  },
  {
    "name": "마산공원",
    "address": "대구광역시 수성구 범물동 1288-2",
    "lat": "35.81914005936039",
    "lng": "128.6489785668077",
    "region": "대구광역시"
  },
  {
    "name": "구암중학교 운동장",
    "address": "경상남도 창원시 마산회원구 구암동 1346",
    "lat": "35.25585433961195",
    "lng": "128.5969182948929",
    "region": "경상남도"
  },
  {
    "name": "완월초등학교운동장",
    "address": "경상남도 창원시 마산합포구 완월동 12-8",
    "lat": "35.1999730598415",
    "lng": "128.5631589738477",
    "region": "경상남도"
  },
  {
    "name": "대길초등학교 운동장",
    "address": "서울특별시 영등포구 신길동 4482",
    "lat": "37.49813982279982",
    "lng": "126.91441386938097",
    "region": "서울특별시"
  },
  {
    "name": "영림초등학교 운동장",
    "address": "서울특별시 영등포구 대림동 993-16",
    "lat": "37.48717347239798",
    "lng": "126.90296620130542",
    "region": "서울특별시"
  },
  {
    "name": "신영초등학교 운동장",
    "address": "서울특별시 영등포구 대림동 781",
    "lat": "37.500346518405536",
    "lng": "126.89609706401662",
    "region": "서울특별시"
  },
  {
    "name": "이동중학교 운동장",
    "address": "경기도 포천시 이동면 장암리 180-1",
    "lat": "38.03063784111308",
    "lng": "127.37324259416019",
    "region": "경기도"
  },
  {
    "name": "다목초등학교 운동장",
    "address": "강원특별자치도 화천군 상서면 다목리 508",
    "lat": "38.175678227152204",
    "lng": "127.53525370791655",
    "region": "강원특별자치도"
  },
  {
    "name": "사내 중,고등학교 운동장",
    "address": "강원특별자치도 화천군 사내면 사창리 351",
    "lat": "38.06409996514502",
    "lng": "127.51999497413635",
    "region": "강원특별자치도"
  },
  {
    "name": "증평초등학교 운동장",
    "address": "충청북도 증평군 증평읍 증평리 479",
    "lat": "36.782552952848604",
    "lng": "127.58780329005862",
    "region": "충청북도"
  },
  {
    "name": "전주상업정보고등학교(운동장)",
    "address": "전북특별자치도 전주시 완산구 중화산동2가 546",
    "lat": "35.80998959356401",
    "lng": "127.12542643484181",
    "region": "전북특별자치도"
  },
  {
    "name": "행안초등학교 운동장",
    "address": "전북특별자치도 부안군 행안면 진동리 199-1",
    "lat": "35.71847747796911",
    "lng": "126.71621203422197",
    "region": "전북특별자치도"
  },
  {
    "name": "현가근린공원",
    "address": "경기도 연천군 연천읍 현가리 57-1",
    "lat": "38.10877146714432",
    "lng": "127.07868415703065",
    "region": "경기도"
  },
  {
    "name": "행당초등학교 운동장",
    "address": "서울특별시 성동구 행당동 320-60",
    "lat": "37.55700484299493",
    "lng": "127.0345479174985",
    "region": "서울특별시"
  },
  {
    "name": "야탑초등학교운동장",
    "address": "경기도 성남시 분당구 야탑동 333",
    "lat": "37.41614789069807",
    "lng": "127.12589779449736",
    "region": "경기도"
  },
  {
    "name": "소초초등학교",
    "address": "강원특별자치도 원주시 소초면 평장리 792",
    "lat": "37.41774039414995",
    "lng": "128.0036921436395",
    "region": "강원특별자치도"
  },
  {
    "name": "우석초등학교 운동장",
    "address": "강원특별자치도 춘천시 석사동 754",
    "lat": "37.864222574767",
    "lng": "127.74982174658544",
    "region": "강원특별자치도"
  },
  {
    "name": "신암초등학교 운동장",
    "address": "서울특별시 강동구 암사동 517",
    "lat": "37.548929862530294",
    "lng": "127.12416340506171",
    "region": "서울특별시"
  },
  {
    "name": "금강신관공원",
    "address": "충청남도 공주시 신관동 553",
    "lat": "36.46819099999853",
    "lng": "127.13001200000134",
    "region": "충청남도"
  },
  {
    "name": "홍동중학교 운동장",
    "address": "충청남도 홍성군 홍동면 구정리 716-1",
    "lat": "36.56250759304513",
    "lng": "126.69223614388646",
    "region": "충청남도"
  },
  {
    "name": "서현초등학교 운동장",
    "address": "충청북도 청주시 흥덕구 가경동 1917",
    "lat": "36.618918319910925",
    "lng": "127.42982402256281",
    "region": "충청북도"
  },
  {
    "name": "산외초등학교 운동장",
    "address": "경상남도 밀양시 산외면 금천리 489-4",
    "lat": "35.503771199967275",
    "lng": "128.79626512527523",
    "region": "경상남도"
  },
  {
    "name": "밀양여자고등학교 운동장",
    "address": "경상남도 밀양시 내일동 326",
    "lat": "35.495412323811415",
    "lng": "128.75619651696587",
    "region": "경상남도"
  },
  {
    "name": "부귀중학교 운동장",
    "address": "전북특별자치도 진안군 부귀면 거석리 475",
    "lat": "35.839903646555605",
    "lng": "127.36592623128",
    "region": "전북특별자치도"
  },
  {
    "name": "여의도초등학교 운동장",
    "address": "서울특별시 영등포구 여의도동 40-3",
    "lat": "37.522839601037646",
    "lng": "126.93624973297577",
    "region": "서울특별시"
  },
  {
    "name": "오지리생활체육공원",
    "address": "강원특별자치도 철원군 동송읍 오지리 1031-3",
    "lat": "38.1854532533474",
    "lng": "127.23105070095586",
    "region": "강원특별자치도"
  },
  {
    "name": "고수초등학교 운동장",
    "address": "전북특별자치도 고창군 고수면 황산리 215",
    "lat": "35.40420217297669",
    "lng": "126.68595256800542",
    "region": "전북특별자치도"
  },
  {
    "name": "우림초등학교(운동장)",
    "address": "전북특별자치도 전주시 완산구 효자동2가 1193-6",
    "lat": "35.80641181995864",
    "lng": "127.09827485960477",
    "region": "전북특별자치도"
  },
  {
    "name": "매봉초등학교 운동장",
    "address": "서울특별시 구로구 개봉동 3",
    "lat": "37.50429622879246",
    "lng": "126.84474990673837",
    "region": "서울특별시"
  },
  {
    "name": "대명초등학교 운동장",
    "address": "서울특별시 강동구 명일동 234",
    "lat": "37.54713703078921",
    "lng": "127.15328987594476",
    "region": "서울특별시"
  },
  {
    "name": "성베드로학교 운동장",
    "address": "서울특별시 구로구 항동 1-1",
    "lat": "37.487209564596036",
    "lng": "126.82547860078155",
    "region": "서울특별시"
  },
  {
    "name": "남도여자중학교 운동장",
    "address": "부산광역시 영도구 신선동2가 102",
    "lat": "35.08715965041744",
    "lng": "129.04569886671885",
    "region": "부산광역시"
  },
  {
    "name": "계룡고등학교 운동장",
    "address": "충청남도 계룡시 두마면 농소리 778",
    "lat": "36.26764102737419",
    "lng": "127.25841522217003",
    "region": "충청남도"
  },
  {
    "name": "동삼초등학교 운동장",
    "address": "부산광역시 영도구 동삼동 258",
    "lat": "35.079396439748756",
    "lng": "129.07350702995953",
    "region": "부산광역시"
  },
  {
    "name": "금마초등학교 운동장",
    "address": "충청남도 홍성군 금마면 부평리 108",
    "lat": "36.61324276057495",
    "lng": "126.73290596162579",
    "region": "충청남도"
  },
  {
    "name": "염경초등학교운동장",
    "address": "서울특별시 강서구 염창동 79",
    "lat": "37.55463022123125",
    "lng": "126.87139478667387",
    "region": "서울특별시"
  },
  {
    "name": "구로초등학교 운동장",
    "address": "서울특별시 구로구 구로동 443",
    "lat": "37.496899427495364",
    "lng": "126.88624803916221",
    "region": "서울특별시"
  },
  {
    "name": "석교초등학교",
    "address": "충청북도 청주시 상당구 석교동 10",
    "lat": "36.626288176646554",
    "lng": "127.49425806824719",
    "region": "충청북도"
  },
  {
    "name": "대림중학교 운동장",
    "address": "서울특별시 영등포구 대림동 959",
    "lat": "37.492064157095655",
    "lng": "126.90760374069217",
    "region": "서울특별시"
  },
  {
    "name": "철원공설운동장 ",
    "address": "강원특별자치도 철원군 갈말읍 군탄리 산99",
    "lat": "38.15937955818337",
    "lng": "127.29992320888127",
    "region": "강원특별자치도"
  },
  {
    "name": "전주고등학교(운동장)",
    "address": "전북특별자치도 전주시 완산구 중노송동 449-1",
    "lat": "35.825912804452315",
    "lng": "127.15163691250112",
    "region": "전북특별자치도"
  },
  {
    "name": "무학초등학교 운동장",
    "address": "서울특별시 성동구 하왕십리동 950-1",
    "lat": "37.56272901720127",
    "lng": "127.0299571121897",
    "region": "서울특별시"
  },
  {
    "name": "조흥어린이공원(전곡6호)",
    "address": "경기도 연천군 전곡읍 전곡리 263-3",
    "lat": "38.01984525155171",
    "lng": "127.06975762441226",
    "region": "경기도"
  },
  {
    "name": "원주초등학교",
    "address": "강원특별자치도 원주시 봉산동 1120",
    "lat": "37.34727843012514",
    "lng": "127.9587502697857",
    "region": "강원특별자치도"
  },
  {
    "name": "춘성중학교 운동장",
    "address": "강원특별자치도 춘천시 신북읍 율문리 306",
    "lat": "37.92695594512616",
    "lng": "127.74915759233365",
    "region": "강원특별자치도"
  },
  {
    "name": "개봉중학교 운동장",
    "address": "서울특별시 구로구 개봉동 24-2",
    "lat": "37.5024745009179",
    "lng": "126.84205892789613",
    "region": "서울특별시"
  },
  {
    "name": "소양중학교 운동장",
    "address": "강원특별자치도 춘천시 사농동 82",
    "lat": "37.90598455755448",
    "lng": "127.72584436687808",
    "region": "강원특별자치도"
  },
  {
    "name": "영서중학교 운동장",
    "address": "서울특별시 구로구 구로동 145-20",
    "lat": "37.48890820255657",
    "lng": "126.89437517152344",
    "region": "서울특별시"
  },
  {
    "name": "간성초등학교 운동장",
    "address": "강원특별자치도 고성군 간성읍 신안리 188-34",
    "lat": "38.377612548026754",
    "lng": "128.46967399120342",
    "region": "강원특별자치도"
  },
  {
    "name": "대영초등학교 운동장",
    "address": "서울특별시 영등포구 신길동 341-1",
    "lat": "37.502340361827365",
    "lng": "126.90546065568927",
    "region": "서울특별시"
  },
  {
    "name": "창도초등학교 운동장",
    "address": "서울특별시 도봉구 방학동 722-2",
    "lat": "37.663726169022674",
    "lng": "127.04919575672083",
    "region": "서울특별시"
  },
  {
    "name": "신방학중학교 운동장",
    "address": "서울특별시 도봉구 방학동 307-1",
    "lat": "37.663868902815395",
    "lng": "127.02936276862349",
    "region": "서울특별시"
  },
  {
    "name": "창동고등학교 운동장",
    "address": "서울특별시 도봉구 창동 694-10",
    "lat": "37.650481128000564",
    "lng": "127.03860235882154",
    "region": "서울특별시"
  },
  {
    "name": "관인체육문화센터",
    "address": "경기도 포천시 관인면 초과리 127",
    "lat": "38.15282709402524",
    "lng": "127.24480748868393",
    "region": "경기도"
  },
  {
    "name": "오수의견공원",
    "address": "전북특별자치도 임실군 오수면 오수리 33",
    "lat": "35.54431737294928",
    "lng": "127.33257447857052",
    "region": "전북특별자치도"
  },
  {
    "name": "상승초등학교 운동장",
    "address": "강원특별자치도 화천군 상서면 파포리 291",
    "lat": "38.15738203105772",
    "lng": "127.64977832394622",
    "region": "강원특별자치도"
  },
  {
    "name": "전주초등학교(운동장)",
    "address": "전북특별자치도 전주시 완산구 태평동 22-2",
    "lat": "35.822154249761155",
    "lng": "127.13987231254576",
    "region": "전북특별자치도"
  },
  {
    "name": "증평중학교 운동장",
    "address": "충청북도 증평군 증평읍 증천리 726",
    "lat": "36.782045341731454",
    "lng": "127.58993008897198",
    "region": "충청북도"
  },
  {
    "name": "형석중학교 운동장",
    "address": "충청북도 증평군 증평읍 미암리 603",
    "lat": "36.79279093756006",
    "lng": "127.59314496391403",
    "region": "충청북도"
  },
  {
    "name": "전주서신초등학교(운동장)",
    "address": "전북특별자치도 전주시 완산구 서신동 31-1",
    "lat": "35.82953275628634",
    "lng": "127.1249916701594",
    "region": "전북특별자치도"
  },
  {
    "name": "옥포2근린공원",
    "address": "경상남도 거제시 옥포동 875",
    "lat": "34.90186044392077",
    "lng": "128.69707674694348",
    "region": "경상남도"
  },
  {
    "name": "낙생초등학교운동장",
    "address": "경기도 성남시 분당구 판교동 551",
    "lat": "37.39383175124737",
    "lng": "127.09906227554119",
    "region": "경기도"
  },
  {
    "name": "화접초등학교 운동장",
    "address": "경기도 남양주시 별내동 1075",
    "lat": "37.653123005475415",
    "lng": "127.11589666815341",
    "region": "경기도"
  },
  {
    "name": "추곡초등학교 운동장",
    "address": "강원특별자치도 춘천시 북산면 추곡리 562",
    "lat": "38.02439948236349",
    "lng": "127.88251571645529",
    "region": "강원특별자치도"
  },
  {
    "name": "춘천초등학교 운동장",
    "address": "강원특별자치도 춘천시 중앙로3가 40",
    "lat": "37.874614570171396",
    "lng": "127.72114413179675",
    "region": "강원특별자치도"
  },
  {
    "name": "소양초등학교 운동장",
    "address": "강원특별자치도 춘천시 우두동 282-1",
    "lat": "37.90442876718128",
    "lng": "127.73962197364786",
    "region": "강원특별자치도"
  },
  {
    "name": "등명중학교 운동장",
    "address": "서울특별시 강서구 등촌동 690-4",
    "lat": "37.55964522970441",
    "lng": "126.84316710327823",
    "region": "서울특별시"
  },
  {
    "name": "등촌고등학교 운동장",
    "address": "서울특별시 강서구 등촌동 691-2",
    "lat": "37.562550424347805",
    "lng": "126.84441828413453",
    "region": "서울특별시"
  },
  {
    "name": "천동초등학교 운동장",
    "address": "서울특별시 강동구 길동 371-1",
    "lat": "37.54050463559753",
    "lng": "127.13753045042299",
    "region": "서울특별시"
  },
  {
    "name": "두마초등학교 운동장",
    "address": "충청남도 계룡시 두마면 두계리 60-1",
    "lat": "36.269768961914444",
    "lng": "127.2702598571832",
    "region": "충청남도"
  },
  {
    "name": "엄사초등학교 운동장",
    "address": "충청남도 계룡시 엄사면 엄사리 286",
    "lat": "36.28622821960739",
    "lng": "127.23777294159096",
    "region": "충청남도"
  },
  {
    "name": "홍주종합경기장",
    "address": "충청남도 홍성군 홍성읍 소향리 397-118",
    "lat": "36.60667578217304",
    "lng": "126.64384313161383",
    "region": "충청남도"
  },
  {
    "name": "마포고등학교 운동장",
    "address": "서울특별시 강서구 등촌동 82-1",
    "lat": "37.55895468247804",
    "lng": "126.85285855587432",
    "region": "서울특별시"
  },
  {
    "name": "노을공원",
    "address": "서울특별시 강서구 화곡동 105-194",
    "lat": "37.539841172771325",
    "lng": "126.8439428539616",
    "region": "서울특별시"
  },
  {
    "name": "결성초등학교 운동장",
    "address": "충청남도 홍성군 결성면 읍내리 459-1",
    "lat": "36.52535129696486",
    "lng": "126.54453419105545",
    "region": "충청남도"
  },
  {
    "name": "월정초등학교운동장",
    "address": "서울특별시 강서구 화곡동 374-1",
    "lat": "37.53443295493032",
    "lng": "126.8363053116681",
    "region": "서울특별시"
  },
  {
    "name": "들마을공원",
    "address": "대구광역시 서구 평리동 1057-3",
    "lat": "35.87396375630686",
    "lng": "128.5638102799948",
    "region": "대구광역시"
  },
  {
    "name": "백운중학교 운동장",
    "address": "서울특별시 도봉구 쌍문동 68-2",
    "lat": "37.65584387896941",
    "lng": "127.03592104514425",
    "region": "서울특별시"
  },
  {
    "name": "구봉초등학교 운동장",
    "address": "경기도 화성시 병점동 862",
    "lat": "37.20549229196225",
    "lng": "127.04493955760148",
    "region": "경기도"
  },
  {
    "name": "은명초등학교 운동장",
    "address": "서울특별시 은평구 응암동 114-12",
    "lat": "37.597324753151995",
    "lng": "126.91860648296029",
    "region": "서울특별시"
  },
  {
    "name": "김화생활체육공원 풋살장",
    "address": "강원특별자치도 철원군 김화읍 청양리 1",
    "lat": "38.24983660303248",
    "lng": "127.41292533856776",
    "region": "강원특별자치도"
  },
  {
    "name": "와수테니스장",
    "address": "강원특별자치도 철원군 서면 와수리 1959-15",
    "lat": "38.244861112804976",
    "lng": "127.42568073291466",
    "region": "강원특별자치도"
  },
  {
    "name": "동신중학교 운동장",
    "address": "서울특별시 강동구 천호동 447-9",
    "lat": "37.53646491369113",
    "lng": "127.13398588572696",
    "region": "서울특별시"
  },
  {
    "name": "신현초등학교 운동장",
    "address": "경상남도 거제시 고현동 931-34",
    "lat": "34.88836865243159",
    "lng": "128.6171828730746",
    "region": "경상남도"
  },
  {
    "name": "난우초등학교 운동장",
    "address": "서울특별시 관악구 신림동 589-1",
    "lat": "37.4768248519636",
    "lng": "126.91775266252466",
    "region": "서울특별시"
  },
  {
    "name": "도이초등학교 운동장",
    "address": "경기도 화성시 향남읍 행정리 476",
    "lat": "37.13253430553054",
    "lng": "126.92613757411515",
    "region": "경기도"
  },
  {
    "name": "화성매송초등학교 운동장",
    "address": "경기도 화성시 매송면 원평리 67-1",
    "lat": "37.24921694485577",
    "lng": "126.92811786952875",
    "region": "경기도"
  },
  {
    "name": "반석초등학교 운동장",
    "address": "경기도 화성시 반송동 223",
    "lat": "37.193463178403604",
    "lng": "127.07800447940826",
    "region": "경기도"
  },
  {
    "name": "진안초등학교 운동장",
    "address": "전북특별자치도 진안군 진안읍 군하리 129",
    "lat": "35.79070279477248",
    "lng": "127.42417788307657",
    "region": "전북특별자치도"
  },
  {
    "name": "관악고등학교 운동장",
    "address": "서울특별시 영등포구 양평동2가 24",
    "lat": "37.52133984762979",
    "lng": "126.88298374414434",
    "region": "서울특별시"
  },
  {
    "name": "남관초등학교 운동장",
    "address": "전북특별자치도 완주군 상관면 용암리 410-2",
    "lat": "35.72298754661741",
    "lng": "127.2336065221427",
    "region": "전북특별자치도"
  },
  {
    "name": "정읍수성초등학교 운동장",
    "address": "전북특별자치도 정읍시 수성동 917-3",
    "lat": "35.58418816675888",
    "lng": "126.85667193228787",
    "region": "전북특별자치도"
  },
  {
    "name": "서원초등학교(운동장)",
    "address": "전북특별자치도 전주시 완산구 효자동1가 633",
    "lat": "35.80967918790285",
    "lng": "127.11914277633123",
    "region": "전북특별자치도"
  },
  {
    "name": "휴먼시아어린이공원",
    "address": "경기도 연천군 전곡읍 전곡리 704-1",
    "lat": "38.01789255290594",
    "lng": "127.07137195992455",
    "region": "경기도"
  },
  {
    "name": "구래초등학교 운동장",
    "address": "강원특별자치도 영월군 상동읍 구래리 102-171",
    "lat": "37.142575221656",
    "lng": "128.83910011904823",
    "region": "강원특별자치도"
  },
  {
    "name": "주천초등학교 운동장",
    "address": "강원특별자치도 영월군 주천면 주천리 1382",
    "lat": "37.27242873308295",
    "lng": "128.2677863457473",
    "region": "강원특별자치도"
  },
  {
    "name": "평내초등학교 운동장",
    "address": "경기도 남양주시 평내동 203-6",
    "lat": "37.64929267916181",
    "lng": "127.23766718614368",
    "region": "경기도"
  },
  {
    "name": "동내초등학교 운동장",
    "address": "강원특별자치도 춘천시 동내면 신촌리 491",
    "lat": "37.851038077415915",
    "lng": "127.76592643067129",
    "region": "강원특별자치도"
  },
  {
    "name": "창촌중학교 운동장",
    "address": "강원특별자치도 춘천시 남산면 강촌리 331",
    "lat": "37.807232690106886",
    "lng": "127.63567618395254",
    "region": "강원특별자치도"
  },
  {
    "name": "남산초등학교서천분교 운동장",
    "address": "강원특별자치도 춘천시 남산면 백양리 431-2",
    "lat": "37.835647772629784",
    "lng": "127.55520962754649",
    "region": "강원특별자치도"
  },
  {
    "name": "봉의초등학교 운동장",
    "address": "강원특별자치도 춘천시 약사동 1",
    "lat": "37.87565982454475",
    "lng": "127.72956198967431",
    "region": "강원특별자치도"
  },
  {
    "name": "성원초등학교 운동장",
    "address": "강원특별자치도 춘천시 퇴계동 1035",
    "lat": "37.848340504335965",
    "lng": "127.74434026454763",
    "region": "강원특별자치도"
  },
  {
    "name": "상리초등학교 운동장",
    "address": "부산광역시 영도구 동삼동 1123-11",
    "lat": "35.08396478070864",
    "lng": "129.06781106188743",
    "region": "부산광역시"
  },
  {
    "name": "소망공원",
    "address": "경기도 시흥시 정왕동 1368",
    "lat": "37.33345852382501",
    "lng": "126.72567486762995",
    "region": "경기도"
  },
  {
    "name": "부산남중학교 운동장",
    "address": "부산광역시 영도구 남항동2가 217-1",
    "lat": "35.08810186818085",
    "lng": "129.03982760052932",
    "region": "부산광역시"
  },
  {
    "name": "청학초등학교 운동장",
    "address": "부산광역시 영도구 청학동 412-3",
    "lat": "35.09317423200913",
    "lng": "129.0590340569336",
    "region": "부산광역시"
  },
  {
    "name": "남이면복지회관쉼터 주차장",
    "address": "충청북도 청주시 서원구 남이면 척산리 609-1",
    "lat": "36.56048024472492",
    "lng": "127.43297726819178",
    "region": "충청북도"
  },
  {
    "name": "대평중학교",
    "address": "대구광역시 서구 평리동 730-1",
    "lat": "35.88000186766135",
    "lng": "128.56218438776312",
    "region": "대구광역시"
  },
  {
    "name": "일신공원",
    "address": "대구광역시 서구 중리동 721-2",
    "lat": "35.85641375773075",
    "lng": "128.54443337104954",
    "region": "대구광역시"
  },
  {
    "name": "남강초등학교 운동장",
    "address": "경상남도 진주시 상대동 645-9",
    "lat": "35.183233167701545",
    "lng": "128.10896244062627",
    "region": "경상남도"
  },
  {
    "name": "금성초등학교 운동장",
    "address": "경상남도 진주시 초전동 686-1",
    "lat": "35.19800968997686",
    "lng": "128.1149400649384",
    "region": "경상남도"
  },
  {
    "name": "촉석초등학교 운동장",
    "address": "경상남도 진주시 이현동 25-1",
    "lat": "35.190706192935245",
    "lng": "128.06205386688362",
    "region": "경상남도"
  },
  {
    "name": "두서초등학교 운동장",
    "address": "울산광역시 울주군 두서면 인보리 459-2",
    "lat": "35.642752163448975",
    "lng": "129.1583713889173",
    "region": "울산광역시"
  },
  {
    "name": "자운고등학교 운동장",
    "address": "서울특별시 도봉구 창동 1",
    "lat": "37.65884233220486",
    "lng": "127.05027138738507",
    "region": "서울특별시"
  },
  {
    "name": "사창초등학교 운동장",
    "address": "경기도 화성시 양감면 사창리 409",
    "lat": "37.09161559242045",
    "lng": "126.97305400183868",
    "region": "경기도"
  },
  {
    "name": "연광초등학교 운동장",
    "address": "서울특별시 은평구 불광동 400-6",
    "lat": "37.623649802720806",
    "lng": "126.92386068454881",
    "region": "서울특별시"
  },
  {
    "name": "역촌초등학교 운동장",
    "address": "서울특별시 은평구 역촌동 82-1",
    "lat": "37.60162900582249",
    "lng": "126.91440779558263",
    "region": "서울특별시"
  },
  {
    "name": "광천초등학교  운동장",
    "address": "광주광역시 서구 농성동 438",
    "lat": "35.15907803788044",
    "lng": "126.89022302627565",
    "region": "광주광역시"
  },
  {
    "name": "서부초등학교",
    "address": "대구광역시 서구 비산동 405-1",
    "lat": "35.87366372603998",
    "lng": "128.57402285979973",
    "region": "대구광역시"
  },
  {
    "name": "봉원중학교 운동장",
    "address": "경상남도 진주시 상봉동 1445",
    "lat": "35.20452283702469",
    "lng": "128.0735426437569",
    "region": "경상남도"
  },
  {
    "name": "상도초등학교 운동장",
    "address": "서울특별시 동작구 상도동 238-2",
    "lat": "37.49949201783027",
    "lng": "126.93739811305777",
    "region": "서울특별시"
  },
  {
    "name": "송산초등학교 운동장",
    "address": "경기도 화성시 송산면 사강리 701",
    "lat": "37.2143491154057",
    "lng": "126.73267798236157",
    "region": "경기도"
  },
  {
    "name": "추산초등학교 운동장",
    "address": "경기도 포천시 소흘읍 송우리 728-11",
    "lat": "37.825843752114764",
    "lng": "127.13690503660509",
    "region": "경기도"
  },
  {
    "name": "축석초등학교 운동장",
    "address": "경기도 포천시 소흘읍 이동교리 645",
    "lat": "37.78824288127255",
    "lng": "127.12219109450714",
    "region": "경기도"
  },
  {
    "name": "덕계초등학교 운동장",
    "address": "경기도 양주시 덕계동 524-9",
    "lat": "37.82305690202212",
    "lng": "127.04803419190331",
    "region": "경기도"
  },
  {
    "name": "조종생활체육공원",
    "address": "경기도 가평군 조종면 현리 420-13",
    "lat": "37.8172978288442",
    "lng": "127.35190093517302",
    "region": "경기도"
  },
  {
    "name": "중리공원",
    "address": "대구광역시 서구 중리동 120-5",
    "lat": "35.86313316125568",
    "lng": "128.54947859200965",
    "region": "대구광역시"
  },
  {
    "name": "개미산공원",
    "address": "대구광역시 서구 평리동 694-7",
    "lat": "35.87726158569962",
    "lng": "128.55697250240598",
    "region": "대구광역시"
  },
  {
    "name": "옥산초등학교",
    "address": "충청북도 청주시 흥덕구 옥산면 오산리 223",
    "lat": "36.66380881183167",
    "lng": "127.37308904444974",
    "region": "충청북도"
  },
  {
    "name": "문래중학교 운동장",
    "address": "서울특별시 영등포구 문래동6가 44",
    "lat": "37.520125131631275",
    "lng": "126.88421487808229",
    "region": "서울특별시"
  },
  {
    "name": "삼계초등학교 운동장",
    "address": "전북특별자치도 임실군 삼계면 삼계리 181-2",
    "lat": "35.507108397043595",
    "lng": "127.27715486928018",
    "region": "전북특별자치도"
  },
  {
    "name": "광덕초등학교 운동장",
    "address": "강원특별자치도 화천군 사내면 광덕리 329-2",
    "lat": "38.06708604366719",
    "lng": "127.49463533902173",
    "region": "강원특별자치도"
  },
  {
    "name": "부안동초등학교",
    "address": "전북특별자치도 부안군 부안읍 봉덕리 446",
    "lat": "35.71663514540899",
    "lng": "126.73904836177823",
    "region": "전북특별자치도"
  },
  {
    "name": "만천초등학교 운동장",
    "address": "강원특별자치도 춘천시 동면 만천리 978",
    "lat": "37.884057180361374",
    "lng": "127.75787761249083",
    "region": "강원특별자치도"
  },
  {
    "name": "금병초등학교 운동장",
    "address": "강원특별자치도 춘천시 신동면 증리 360-1",
    "lat": "37.81522755571598",
    "lng": "127.71452780121228",
    "region": "강원특별자치도"
  },
  {
    "name": "남양주체육문화센터 운동장",
    "address": "경기도 남양주시 이패동 산87",
    "lat": "37.607358358807346",
    "lng": "127.1773711100395",
    "region": "경기도"
  },
  {
    "name": "���내초등학교 운동장",
    "address": "강원특별자치도 춘천시 석��동 815",
    "lat": "37.856057259263146",
    "lng": "127.74204931187238",
    "region": "강원특별자치도"
  },
  {
    "name": "신선초등학교 운동장",
    "address": "부산광역시 영도구 신선동3가 76-6",
    "lat": "35.08317543187265",
    "lng": "129.0474724180096",
    "region": "부산광역시"
  },
  {
    "name": "봉학초등학교 운동장",
    "address": "부산광역시 영도구 청학동 389-53",
    "lat": "35.095854048923876",
    "lng": "129.05464710648067",
    "region": "부산광역시"
  },
  {
    "name": "홍북초등학교 운동장",
    "address": "충청남도 홍성군 홍북읍 대동리 48-3",
    "lat": "36.65086568979501",
    "lng": "126.69478118419643",
    "region": "충청남도"
  },
  {
    "name": "중앙초등학교 운동장",
    "address": "충청북도 청주시 청원구 율량동 2105",
    "lat": "36.666766123174035",
    "lng": "127.50122887237616",
    "region": "충청북도"
  },
  {
    "name": "한성중고등학교 운동장",
    "address": "서울특별시 서대문구 북아현동 170-1",
    "lat": "37.560387873574896",
    "lng": "126.95454829474255",
    "region": "서울특별시"
  },
  {
    "name": "노량진초등학교 운동장",
    "address": "서울특별시 동작구 노량진동 49-12",
    "lat": "37.51129539063438",
    "lng": "126.9406211653219",
    "region": "서울특별시"
  },
  {
    "name": "신상도초등학교 운동장",
    "address": "서울특별시 동작구 상도동 산65-59",
    "lat": "37.49992598925956",
    "lng": "126.9437847750389",
    "region": "서울특별시"
  },
  {
    "name": "강현중학교운동장",
    "address": "서울특별시 동작구 상도동 335-5",
    "lat": "37.50310038472509",
    "lng": "126.93142498200356",
    "region": "서울특별시"
  },
  {
    "name": "문창중학교 운동장",
    "address": "서울특별시 동작구 신대방동 364-58",
    "lat": "37.495748642102754",
    "lng": "126.92165132160036",
    "region": "서울특별시"
  },
  {
    "name": "포천일고등학교 운동장",
    "address": "경기도 포천시 군내면 하성북리 663",
    "lat": "37.895642118534774",
    "lng": "127.20637580436104",
    "region": "경기도"
  },
  {
    "name": "삼정초등학교 운동장",
    "address": "경기도 포천시 신북면 삼정리 405-1",
    "lat": "37.96413336417376",
    "lng": "127.13148871708476",
    "region": "경기도"
  },
  {
    "name": "상패초등학교 운동장",
    "address": "경기도 양주시 은현면 하패리 796-4",
    "lat": "37.89786608211604",
    "lng": "127.02665727157733",
    "region": "경기도"
  },
  {
    "name": "광동고등학교 운동장",
    "address": "경기도 남양주시 진접읍 장현리 603-5",
    "lat": "37.71605974315048",
    "lng": "127.17681495730986",
    "region": "경기도"
  },
  {
    "name": "전라중학교(운동장)",
    "address": "전북특별자치도 전주시 덕진구 송천동2가 1297",
    "lat": "35.87987169037155",
    "lng": "127.1315436031117",
    "region": "전북특별자치도"
  },
  {
    "name": "무주초등학교 운동장",
    "address": "전북특별자치도 무주군 무주읍 읍내리 343",
    "lat": "36.01076611727891",
    "lng": "127.6608109474182",
    "region": "전북특별자치도"
  },
  {
    "name": "무주중학교 운동장",
    "address": "전북특별자치도 무주군 무주읍 읍내리 355-5",
    "lat": "36.01081384970516",
    "lng": "127.66457676887512",
    "region": "전북특별자치도"
  },
  {
    "name": "숙지공원",
    "address": "경기도 수원시 팔달구 화서동 264",
    "lat": "37.28447631225811",
    "lng": "126.99714660644534",
    "region": "경기도"
  },
  {
    "name": "서빙고초등학교 운동장",
    "address": "서울특별시 용산구 서빙고동 235-1",
    "lat": "37.52126594441502",
    "lng": "126.99152442727079",
    "region": "서울특별시"
  },
  {
    "name": "화개초등학교  운동장",
    "address": "광주광역시 서구 금호동 820",
    "lat": "35.124669222044716",
    "lng": "126.85683488845825",
    "region": "광주광역시"
  },
  {
    "name": "이포초등학교 운동장",
    "address": "경기도 여주시 금사면 이포리 311-2",
    "lat": "37.388638163332544",
    "lng": "127.53019885163869",
    "region": "경기도"
  },
  {
    "name": " 율촌1리 마을회관",
    "address": "경기도 여주시 대신면 율촌리 399-3",
    "lat": "37.37770623736332",
    "lng": "127.58446724058622",
    "region": "경기도"
  },
  {
    "name": " 율촌3리 마을회관",
    "address": "경기도 여주시 대신면 율촌리 309-5",
    "lat": "37.371035771861536",
    "lng": "127.5859934312672",
    "region": "경기도"
  },
  {
    "name": " 가산1리 마을회관",
    "address": "경기도 여주시 대신면 가산리 431-17",
    "lat": "37.3426997605827",
    "lng": "127.61522129704571",
    "region": "경기도"
  },
  {
    "name": "서초중학교 운동장",
    "address": "서울특별시 서초구 서초동 1528",
    "lat": "37.485204032148395",
    "lng": "127.0086533531487",
    "region": "서울특별시"
  },
  {
    "name": "성포중학교 운동장",
    "address": "경상남도 거제시 사등면 성포리 41-1",
    "lat": "34.918488484042086",
    "lng": "128.53051876620594",
    "region": "경상남도"
  },
  {
    "name": "외포초등학교 운동장",
    "address": "경상남도 거제시 장목면 외포리 215",
    "lat": "34.942764708606816",
    "lng": "128.7176692945587",
    "region": "경상남도"
  },
  {
    "name": "아주운동장",
    "address": "경상남도 거제시 아주동 295-30",
    "lat": "34.86285953647472",
    "lng": "128.68966515238077",
    "region": "경상남도"
  },
  {
    "name": "아라초등학교 운동장",
    "address": "경상남도 함안군 가야읍 말산리 257-1",
    "lat": "35.271065751471745",
    "lng": "128.4090124674269",
    "region": "경상남도"
  },
  {
    "name": "강서초등학교 운동장",
    "address": "충청북도 청주시 흥덕구 비하동 121-1",
    "lat": "36.628246348836754",
    "lng": "127.4231308277131",
    "region": "충청북도"
  },
  {
    "name": "평리1동 공영주차장",
    "address": "대구광역시 서구 평리동 791-5",
    "lat": "35.876080544319464",
    "lng": "128.56613829732044",
    "region": "대구광역시"
  },
  {
    "name": "경진고등학교 운동장",
    "address": "경상남도 진주시 상봉동 1196",
    "lat": "35.200049851650284",
    "lng": "128.06671707901586",
    "region": "경상남도"
  },
  {
    "name": "서대구초등학교",
    "address": "대구광역시 서구 비산동 1484",
    "lat": "35.889303736330035",
    "lng": "128.55734602071635",
    "region": "대구광역시"
  },
  {
    "name": "주약초등학교 운동장",
    "address": "경상남도 진주시 주약동 360-12",
    "lat": "35.17247309648318",
    "lng": "128.09191514579078",
    "region": "경상남도"
  },
  {
    "name": "청주중앙여자중학교운동장",
    "address": "충청북도 청주시 청원구 사천동 229-5",
    "lat": "36.66359713494487",
    "lng": "127.47790421209773",
    "region": "충청북도"
  },
  {
    "name": "연동초등학교 운동장",
    "address": "세종특별자치시 세종시 연동면 내판리 2",
    "lat": "36.559686719298355",
    "lng": "127.32665700348015",
    "region": "세종특별자치시"
  },
  {
    "name": "새터초등학교 운동장",
    "address": "충청북도 청주시 청원구 사천동 200",
    "lat": "36.666781315057044",
    "lng": "127.4713541719574",
    "region": "충청북도"
  },
  {
    "name": "두서면행정복지센터 광장",
    "address": "울산광역시 울주군 두서면 인보리 285",
    "lat": "35.6477915646508",
    "lng": "129.16167855262964",
    "region": "울산광역시"
  },
  {
    "name": "삼동면행정복지센터 광장",
    "address": "울산광역시 울주군 삼동면 하잠리 966-1",
    "lat": "35.523647555425825",
    "lng": "129.15785640478342",
    "region": "울산광역시"
  },
  {
    "name": "울산산업고등학교 운동장",
    "address": "울산광역시 울주군 삼남읍 교동리 950",
    "lat": "35.55336162080455",
    "lng": "129.11564608356815",
    "region": "울산광역시"
  },
  {
    "name": "문의중학교 운동장",
    "address": "충청북도 청주시 상당구 문의면 미천리 108-2",
    "lat": "36.51571539799041",
    "lng": "127.50137507915602",
    "region": "충청북도"
  },
  {
    "name": "영북중학교 운동장",
    "address": "경기도 포천시 영북면 운천리 385-1",
    "lat": "38.09408280905448",
    "lng": "127.27750342194146",
    "region": "경기도"
  },
  {
    "name": "숭신초등학교 운동장",
    "address": "서울특별시 성동구 하왕십리동 1068",
    "lat": "37.5674555960269",
    "lng": "127.02759863848719",
    "region": "서울특별시"
  },
  {
    "name": "동명초등학교 운동장",
    "address": "서울특별시 성동구 마장동 556",
    "lat": "37.568377492584126",
    "lng": "127.03572825730035",
    "region": "서울특별시"
  },
  {
    "name": "초전초등학교 운동장",
    "address": "경상남도 진주시 초전동 1634-1",
    "lat": "35.207501144554556",
    "lng": "128.11441884697746",
    "region": "경상남도"
  },
  {
    "name": "부강중학교 운동장",
    "address": "세종특별자치시 세종시 부강면 부강리 500",
    "lat": "36.52691547169377",
    "lng": "127.36576795578003",
    "region": "세종특별자치시"
  },
  {
    "name": "방기초등학교 운동장",
    "address": "울산광역시 울주군 삼남읍 방기리 117",
    "lat": "35.506659149777406",
    "lng": "129.09289707619467",
    "region": "울산광역시"
  },
  {
    "name": "영중중학교 운동장",
    "address": "경기도 포천시 영중면 양문리 611-3",
    "lat": "38.0001650011596",
    "lng": "127.24530917976406",
    "region": "경기도"
  },
  {
    "name": "영중체육문화센터",
    "address": "경기도 포천시 영중면 양문리 833",
    "lat": "38.00604383940024",
    "lng": "127.24516655269686",
    "region": "경기도"
  },
  {
    "name": "일동고등학교 운동장",
    "address": "경기도 포천시 일동면 기산리 96-59",
    "lat": "37.96026995510018",
    "lng": "127.31516772045097",
    "region": "경기도"
  },
  {
    "name": "주곡중학교 운동장",
    "address": "경기도 남양주시 진접읍 금곡리 1003",
    "lat": "37.72526089991619",
    "lng": "127.20695238200167",
    "region": "경기도"
  },
  {
    "name": "강원외국어고등학교운동장",
    "address": "강원특별자치도 양구군 양구읍 하리 500",
    "lat": "38.119846087684884",
    "lng": "127.9903793334961",
    "region": "강원특별자치도"
  },
  {
    "name": "나누리공원",
    "address": "경기도 양주시 광사동 714",
    "lat": "37.79225207082867",
    "lng": "127.07695874850987",
    "region": "경기도"
  },
  {
    "name": "도제원초등학교 운동장",
    "address": "경기도 남양주시 퇴계원읍 퇴계원리 189",
    "lat": "37.6455872006996",
    "lng": "127.14573025703433",
    "region": "경기도"
  },
  {
    "name": "퇴계원고등학교 운동장",
    "address": "경기도 남양주시 퇴계원읍 퇴계원리 44-5",
    "lat": "37.6599404672381",
    "lng": "127.14557468891147",
    "region": "경기도"
  },
  {
    "name": "치평중학교  운동장",
    "address": "광주광역시 서구 쌍촌동 472",
    "lat": "35.145441709585356",
    "lng": "126.85908257961273",
    "region": "광주광역시"
  },
  {
    "name": "전주온고을중학교(운동장)",
    "address": "전북특별자치도 전주시 덕진구 인후동1가 117",
    "lat": "35.82902225150568",
    "lng": "127.16601256993881",
    "region": "전북특별자치도"
  },
  {
    "name": "금양초등학교 운동장",
    "address": "서울특별시 용산구 효창동 126-4",
    "lat": "37.5403525193455",
    "lng": "126.96121298315255",
    "region": "서울특별시"
  },
  {
    "name": "예술공원",
    "address": "경기도 수원시 팔달구 인계동 1128",
    "lat": "37.25858136480467",
    "lng": "127.0359367132186",
    "region": "경기도"
  },
  {
    "name": "도곡초등학교 운동장",
    "address": "서울특별시 강남구 대치동 924-10",
    "lat": "37.49905524723655",
    "lng": "127.05466431467862",
    "region": "서울특별시"
  },
  {
    "name": " 상백1리 마을회관",
    "address": "경기도 여주시 흥천면 상백리 208-8",
    "lat": "37.35860459089834",
    "lng": "127.5568324606432",
    "region": "경기도"
  },
  {
    "name": "세화여자고등학교 운동장",
    "address": "서울특별시 서초구 반포동 753",
    "lat": "37.501659655287575",
    "lng": "126.99189081080866",
    "region": "서울특별시"
  },
  {
    "name": "봉현초등학교 운동장",
    "address": "경상북도 영주시 봉현면 대촌리 170",
    "lat": "36.84707081771864",
    "lng": "128.52581262588524",
    "region": "경상북도"
  },
  {
    "name": "천전초등학교 운동장",
    "address": "경상남도 진주시 칠암동 237-2",
    "lat": "35.186133627746095",
    "lng": "128.09102981527872",
    "region": "경상남도"
  },
  {
    "name": "대성초등학교",
    "address": "대구광역시 서구 비산동 169-1",
    "lat": "35.87076658071297",
    "lng": "128.57733892329455",
    "region": "대구광역시"
  },
  {
    "name": "신평공원",
    "address": "대구광역시 서구 평리동 1198-5",
    "lat": "35.8663432850342",
    "lng": "128.56249519231756",
    "region": "대구광역시"
  },
  {
    "name": "이동초등학교 운동장",
    "address": "경기도 포천시 이동면 장암리 252-3",
    "lat": "38.029339971822495",
    "lng": "127.36780181511833",
    "region": "경기도"
  },
  {
    "name": "이동생태공원",
    "address": "경기도 포천시 이동면 장암리 614-1",
    "lat": "38.04144336934839",
    "lng": "127.36865845761702",
    "region": "경기도"
  },
  {
    "name": "영북초등학교 운동장",
    "address": "경기도 포천시 영북면 운천리 342-2",
    "lat": "38.090411186363454",
    "lng": "127.27680775813457",
    "region": "경기도"
  },
  {
    "name": "선단초등학교 운동장",
    "address": "경기도 포천시 선단동 765-1",
    "lat": "37.861820142338104",
    "lng": "127.1553329150856",
    "region": "경기도"
  },
  {
    "name": "증평여자중학교 운동장",
    "address": "충청북도 증평군 증평읍 초중리 11-8",
    "lat": "36.77909620511682",
    "lng": "127.57928581219832",
    "region": "충청북도"
  },
  {
    "name": "금북초등학교 운동장",
    "address": "서울특별시 성동구 금호동1가 48-2",
    "lat": "37.55699706298223",
    "lng": "127.02342463176745",
    "region": "서울특별시"
  },
  {
    "name": "미래고등학교",
    "address": "강원특별자치도 원주시 행구동 125-2",
    "lat": "37.339267736765215",
    "lng": "128.0071064159065",
    "region": "강원특별자치도"
  },
  {
    "name": "상일초등학교 운동장",
    "address": "서울특별시 강동구 상일동 325-1",
    "lat": "37.54698826449913",
    "lng": "127.17236388290215",
    "region": "서울특별시"
  },
  {
    "name": "고명초등학교 운동장",
    "address": "서울특별시 강동구 명일동 296-1",
    "lat": "37.552649725618345",
    "lng": "127.1468647533083",
    "region": "서울특별시"
  },
  {
    "name": "천호초등학교 운동장",
    "address": "서울특별시 강동구 천호동 224-21",
    "lat": "37.54706019566405",
    "lng": "127.13620698309232",
    "region": "서울특별시"
  },
  {
    "name": "이태원초등학교 운동장",
    "address": "서울특별시 용산구 이태원동 406",
    "lat": "37.53569965268051",
    "lng": "126.98790081481008",
    "region": "서울특별시"
  },
  {
    "name": "동아리공원",
    "address": "대구광역시 서구 비산동 1025-6",
    "lat": "35.88574088270784",
    "lng": "128.5694936665889",
    "region": "대구광역시"
  },
  {
    "name": "화랑체육공원 주경기장",
    "address": "울산광역시 울주군 두서면 서하리 100",
    "lat": "35.627952534688525",
    "lng": "129.16208624839496",
    "region": "울산광역시"
  },
  {
    "name": "아름초등학교 운동장",
    "address": "세종특별자치시 세종시 아름동 1275",
    "lat": "36.514181261121344",
    "lng": "127.25130155682564",
    "region": "세종특별자치시"
  },
  {
    "name": "도담중학교 운동장",
    "address": "세종특별자치시 세종시 도담동 644",
    "lat": "36.515287854709975",
    "lng": "127.26309254768242",
    "region": "세종특별자치시"
  },
  {
    "name": "세종고등학교 운동장",
    "address": "세종특별자치시 세종시 조치원읍 서창리 30-2",
    "lat": "36.610614800155254",
    "lng": "127.29959186031938",
    "region": "세종특별자치시"
  },
  {
    "name": "아름고등학교 운동장",
    "address": "세종특별자치시 세종시 아름동 1322",
    "lat": "36.51333980830189",
    "lng": "127.24468767642973",
    "region": "세종특별자치시"
  },
  {
    "name": "오송초교 운동장",
    "address": "충청북도 청주시 흥덕구 오송읍 오송리 60-1",
    "lat": "36.61270071078473",
    "lng": "127.32570626607759",
    "region": "충청북도"
  },
  {
    "name": "동신초등학교 운동장",
    "address": "서울특별시 성북구 보문동3가 228",
    "lat": "37.582851741239416",
    "lng": "127.01720303678196",
    "region": "서울특별시"
  },
  {
    "name": "홍은초등학교 운동장",
    "address": "서울특별시 서대문구 홍제동 286-5",
    "lat": "37.59722901247491",
    "lng": "126.94966073614601",
    "region": "서울특별시"
  },
  {
    "name": "안화초등학교 운동장",
    "address": "경기도 화성시 병점동 851",
    "lat": "37.21261599274089",
    "lng": "127.04721892447242",
    "region": "경기도"
  },
  {
    "name": "수도여자고등학교 운동장",
    "address": "서울특별시 동작구 신대방동 470-13",
    "lat": "37.49285275367314",
    "lng": "126.91553111088547",
    "region": "서울특별시"
  },
  {
    "name": "북가좌초등학교 운동장",
    "address": "서울특별시 서대문구 북가좌동 186-108",
    "lat": "37.57810813445619",
    "lng": "126.90793286817673",
    "region": "서울특별시"
  },
  {
    "name": "신북초등학교 운동장",
    "address": "경기도 포천시 신북면 신평리 375",
    "lat": "37.93840412613648",
    "lng": "127.21999798843588",
    "region": "경기도"
  },
  {
    "name": "봉암초등학교 운동장",
    "address": "경기도 양주시 은현면 봉암리 403-3",
    "lat": "37.91066380556738",
    "lng": "127.00582676743306",
    "region": "경기도"
  },
  {
    "name": "상면초등학교 운동장",
    "address": "경기도 가평군 상면 임초리 445-3",
    "lat": "37.775521077672956",
    "lng": "127.3712396621704",
    "region": "경기도"
  },
  {
    "name": "진접고등학교 운동장",
    "address": "경기도 남양주시 진접읍 금곡리 1079",
    "lat": "37.71571262082503",
    "lng": "127.19019080620689",
    "region": "경기도"
  },
  {
    "name": "비봉초등학교운동장",
    "address": "강원특별자치도 양구군 양구읍 하리 43",
    "lat": "38.110115520540745",
    "lng": "127.98782070711643",
    "region": "강원특별자치도"
  },
  {
    "name": "토리근린공원",
    "address": "경기도 양주시 광사동 683",
    "lat": "37.79039602764256",
    "lng": "127.08223481387375",
    "region": "경기도"
  },
  {
    "name": "한마음초등학교 운동장",
    "address": "경기도 화성시 능동 1117",
    "lat": "37.208457495384835",
    "lng": "127.05618128148095",
    "region": "경기도"
  },
  {
    "name": "적상초등학교 운동장",
    "address": "전북특별자치도 무주군 적상면 사산리 1200",
    "lat": "35.932233220167035",
    "lng": "127.65570402145387",
    "region": "전북특별자치도"
  },
  {
    "name": "운천초등학교  운동장",
    "address": "광주광역시 서구 치평동 1168-6",
    "lat": "35.15221410552994",
    "lng": "126.84662640094753",
    "region": "광주광역시"
  },
  {
    "name": "수동중학교 운동장",
    "address": "경기도 남양주시 수동면 입석리 333-3",
    "lat": "37.708959327937684",
    "lng": "127.32442170381545",
    "region": "경기도"
  },
  {
    "name": "조안초등학교 운동장",
    "address": "경기도 남양주시 조안면 조안리 47",
    "lat": "37.546379635447714",
    "lng": "127.30040567010981",
    "region": "경기도"
  },
  {
    "name": "운리초등학교  운동장",
    "address": "광주광역시 서구 풍암동 950",
    "lat": "35.123088",
    "lng": "126.865829",
    "region": "광주광역시"
  },
  {
    "name": "원촌중학교 운동장",
    "address": "서울특별시 서초구 반포동 22",
    "lat": "37.50601756740796",
    "lng": "127.01426437884513",
    "region": "서울특별시"
  },
  {
    "name": "성산중학교 운동장 ",
    "address": "서울특별시 마포구 합정동 365-1",
    "lat": "37.547135329671335",
    "lng": "126.9157873438475",
    "region": "서울특별시"
  },
  {
    "name": "송정초등학교 운동장",
    "address": "경상남도 거제시 연초면 송정리 541",
    "lat": "34.9180057158383",
    "lng": "128.67375283240756",
    "region": "경상남도"
  },
  {
    "name": "연동중학교 운동장",
    "address": "세종특별자치시 세종시 연동면 내판리 96-1",
    "lat": "36.553551163204816",
    "lng": "127.3307490348816",
    "region": "세종특별자치시"
  },
  {
    "name": "화원유원지",
    "address": "대구광역시 달성군 화원읍 성산리 310",
    "lat": "35.81355724450982",
    "lng": "128.48129888860962",
    "region": "대구광역시"
  },
  {
    "name": "동남고등학교 운동장",
    "address": "경기도 포천시 소흘읍 송우리 537-1",
    "lat": "37.827560875761186",
    "lng": "127.13486074019045",
    "region": "경기도"
  },
  {
    "name": "청성역사공원",
    "address": "경기도 포천시 군내면 하성북리 637-5",
    "lat": "37.892737057256426",
    "lng": "127.20994971620374",
    "region": "경기도"
  },
  {
    "name": "내촌초등학교 운동장",
    "address": "경기도 포천시 내촌면 내리 334-5",
    "lat": "37.78709738380579",
    "lng": "127.23054861885534",
    "region": "경기도"
  },
  {
    "name": "내촌체육문화센터",
    "address": "경기도 포천시 내촌면 내리 503",
    "lat": "37.78695419500877",
    "lng": "127.22749053904646",
    "region": "경기도"
  },
  {
    "name": "창수초등학교 운동장",
    "address": "경기도 포천시 창수면 추동리 117-2",
    "lat": "37.9896478874295",
    "lng": "127.18210313867755",
    "region": "경기도"
  },
  {
    "name": "와부중학교 운동장",
    "address": "경기도 남양주시 와부읍 덕소리 75-4",
    "lat": "37.58688896433114",
    "lng": "127.2198144803398",
    "region": "경기도"
  },
  {
    "name": "거창스포츠파크",
    "address": "경상남도 거창군 거창읍 양평리 1160",
    "lat": "35.6939904",
    "lng": "127.9279695",
    "region": "경상남도"
  },
  {
    "name": "주상초등학교",
    "address": "경상남도 거창군 주상면 도평리 536",
    "lat": "35.74936830992417",
    "lng": "127.91477322578422",
    "region": "경상남도"
  },
  {
    "name": "국토정중앙면풋살경기장",
    "address": "강원특별자치도 양구군 국토정중앙면 용하리 407-2",
    "lat": "38.10969977773915",
    "lng": "128.03619414567947",
    "region": "강원특별자치도"
  },
  {
    "name": "남상초등학교",
    "address": "경상남도 거창군 남상면 무촌리 589-4",
    "lat": "35.64488319470094",
    "lng": "127.91009902959559",
    "region": "경상남도"
  },
  {
    "name": "한울초등학교 운동장",
    "address": "경기도 화성시 향남읍 행정리 442",
    "lat": "37.12671727002986",
    "lng": "126.91779012161271",
    "region": "경기도"
  },
  {
    "name": "오남중���교 운동장",
    "address": "경기도 남양주시 오남읍 양지리 49",
    "lat": "37.70125986526674",
    "lng": "127.20543122199257",
    "region": "경기도"
  },
  {
    "name": "오남초등학교 운동장",
    "address": "경기도 남양주시 오남읍 오남리 134-1",
    "lat": "37.69518412352143",
    "lng": "127.21439007538496",
    "region": "경기도"
  },
  {
    "name": "전주용소초,중등학교(운동장)",
    "address": "전북특별자치도 전주시 덕진구 송천동1가 842",
    "lat": "35.862336688574736",
    "lng": "127.11721065972985",
    "region": "전북특별자치도"
  },
  {
    "name": "유덕초등학교  운동장",
    "address": "광주광역시 서구 유촌동 873-1",
    "lat": "35.16463016261999",
    "lng": "126.86278939247127",
    "region": "광주광역시"
  },
  {
    "name": "신구초등학교 운동장",
    "address": "서울특별시 강남구 신사동 550-11",
    "lat": "37.52309327661425",
    "lng": "127.02427827322406",
    "region": "서울특별시"
  },
  {
    "name": "광주중학교  운동장",
    "address": "광주광역시 서구 금호동 821",
    "lat": "35.12545898056365",
    "lng": "126.85559034347534",
    "region": "광주광역시"
  },
  {
    "name": "언주중학교 운동장",
    "address": "서울특별시 강남구 삼성동 28",
    "lat": "37.514276890399316",
    "lng": "127.04691428879151",
    "region": "서울특별시"
  },
  {
    "name": "아현녹지쉼터",
    "address": "서울특별시 마포구 아현동 704",
    "lat": "37.55702417104749",
    "lng": "126.96276628869693",
    "region": "서울특별시"
  },
  {
    "name": "세명초등학교 운동장",
    "address": "서울특별시 강남구 세곡동 529",
    "lat": "37.468731855809764",
    "lng": "127.09131290754691",
    "region": "서울특별시"
  },
  {
    "name": "영흥숲공원",
    "address": "경기도 수원시 영통구 영통동 36-12",
    "lat": "37.26081860256872",
    "lng": "127.0726776123047",
    "region": "경기도"
  },
  {
    "name": " 현암2통 마을회관 ",
    "address": "경기도 여주시 현암동 77-22",
    "lat": "37.32261434731284",
    "lng": "127.64309827822575",
    "region": "경기도"
  },
  {
    "name": "신동중학교 운동장",
    "address": "서울특별시 서초구 잠원동 54-6",
    "lat": "37.51624213229475",
    "lng": "127.01302720777569",
    "region": "서울특별시"
  },
  {
    "name": "남정초등학교 운동장",
    "address": "서울특별시 용산구 원효로2가 54-1",
    "lat": "37.53596157247567",
    "lng": "126.96506466100053",
    "region": "서울특별시"
  },
  {
    "name": "군북공설운동장",
    "address": "경상남도 함안군 군북면 중암리 1111-18",
    "lat": "35.26498975360617",
    "lng": "128.3488994836808",
    "region": "경상남도"
  },
  {
    "name": "쌍류초등학교 운동장",
    "address": "세종특별자치시 세종시 연서면 쌍류리 365-3",
    "lat": "36.598931363492156",
    "lng": "127.21022665500641",
    "region": "세종특별자치시"
  },
  {
    "name": "상북중학교 운동장",
    "address": "울산광역시 울주군 상북면 향산리 344",
    "lat": "35.58209750224328",
    "lng": "129.099676609041",
    "region": "울산광역시"
  },
  {
    "name": "청주하이텍고등학교 운동장",
    "address": "충청북도 청주시 서원구 분평동 1257",
    "lat": "36.60895952932116",
    "lng": "127.49240662608352",
    "region": "충청북도"
  },
  {
    "name": "조치원교동초등학교 운동장",
    "address": "세종특별자치시 세종시 조치원읍 교리 1-12",
    "lat": "36.605427614939956",
    "lng": "127.29865516283704",
    "region": "세종특별자치시"
  },
  {
    "name": "울산학생교육원 내와수련장 ",
    "address": "울산광역시 울주군 두서면 내와리 972-1",
    "lat": "35.701677586055524",
    "lng": "129.11441346553207",
    "region": "울산광역시"
  },
  {
    "name": "세종여자고등학교 운동장",
    "address": "세종���별자치시 세종시 조치원읍 서창리 167",
    "lat": "36.60691558729325",
    "lng": "127.28749573230743",
    "region": "세종���별자치시"
  },
  {
    "name": "세종미래고등학교 운동장",
    "address": "세종특별자치시 세종시 부강면 문곡리 997-1",
    "lat": "36.5269672003741",
    "lng": "127.3827302455902",
    "region": "세종특별자치시"
  },
  {
    "name": "한솔고등학교 운동장",
    "address": "세종특별자치시 세종시 한솔동 972",
    "lat": "36.4778956327022",
    "lng": "127.25300252437593",
    "region": "세종특별자치시"
  },
  {
    "name": "서울탑산초등학교 운동장",
    "address": "서울특별시 강서구 가양동 1473",
    "lat": "37.56668694323266",
    "lng": "126.85240916272687",
    "region": "서울특별시"
  },
  {
    "name": "화곡보건경영고등학교 운동장",
    "address": "서울특별시 강서구 내발산동 715",
    "lat": "37.54864814502284",
    "lng": "126.83295134444273",
    "region": "서울특별시"
  },
  {
    "name": "대전법동초등학교 운동장",
    "address": "대전광역시 대덕구 법동 191-3",
    "lat": "36.368945",
    "lng": "127.432570",
    "region": "대전광역시"
  },
  {
    "name": "잠실초등학교 운동장",
    "address": "서울특별시 송파구 신천동 20-2",
    "lat": "37.51992522321809",
    "lng": "127.11101465014667",
    "region": "서울특별시"
  },
  {
    "name": "가락중학교 운동장",
    "address": "서울특별시 송파구 송파동 168",
    "lat": "37.50211571670922",
    "lng": "127.11829774599943",
    "region": "서울특별시"
  },
  {
    "name": "마산초등학교 운동장",
    "address": "경기도 화성시 송산면 마산리 326-3",
    "lat": "37.231212804079895",
    "lng": "126.6925263918176",
    "region": "경기도"
  },
  {
    "name": "제암초등학교 운동장",
    "address": "경기도 화성시 향남읍 발안리 299",
    "lat": "37.13103200868281",
    "lng": "126.9023270220845",
    "region": "경기도"
  },
  {
    "name": "반월초등학교 운동장",
    "address": "경기도 화성시 반월동 947",
    "lat": "37.223478025285054",
    "lng": "127.0593051362499",
    "region": "경기도"
  },
  {
    "name": "정남초등학교 운동장",
    "address": "경기도 화성시 정남면 발산리 409-1",
    "lat": "37.16758003822672",
    "lng": "126.98486076383091",
    "region": "경기도"
  },
  {
    "name": "학동초등학교 운동장",
    "address": "경기도 화성시 반송동 81",
    "lat": "37.20519817712526",
    "lng": "127.06586702228478",
    "region": "경기도"
  },
  {
    "name": "서울공항초등학교 운동장",
    "address": "서울특별시 강서구 마곡동 743-5",
    "lat": "37.562915453541756",
    "lng": "126.82161211967464",
    "region": "서울특별시"
  },
  {
    "name": "마곡중학교 운동장",
    "address": "서울특별시 강서구 마곡동 736-1",
    "lat": "37.567788419011634",
    "lng": "126.8214029073715",
    "region": "서울특별시"
  },
  {
    "name": "한서고등학교 운동장",
    "address": "서울특별시 강서구 방화동 478-34",
    "lat": "37.57442556315691",
    "lng": "126.80842074435296",
    "region": "서울특별시"
  },
  {
    "name": "양평생활체육공원",
    "address": "경기도 양평군 양평읍 창대리 722-10",
    "lat": "37.4833935071636",
    "lng": "127.496598064899",
    "region": "경기도"
  },
  {
    "name": "금곡초등학교 운동장",
    "address": "경기도 화성시 반송동 78",
    "lat": "37.19870521862995",
    "lng": "127.06659757001617",
    "region": "경기도"
  },
  {
    "name": "마곡나루근린공원",
    "address": "서울특별시 강서구 마곡동 743-3",
    "lat": "37.56637248546085",
    "lng": "126.8219661712646",
    "region": "서울특별시"
  },
  {
    "name": "서울방화초등학교 운동장",
    "address": "서울특별시 강서구 방화동 542-2",
    "lat": "37.568496",
    "lng": "126.806964",
    "region": "서울특별시"
  },
  {
    "name": "청계초등학교 운동장",
    "address": "경기도 화성시 청계동 518",
    "lat": "37.19900692890522",
    "lng": "127.10200991211231",
    "region": "경기도"
  },
  {
    "name": "청운레포츠공원",
    "address": "경기도 양평군 청운면 여물리 113",
    "lat": "37.55257316542615",
    "lng": "127.70238518714906",
    "region": "경기도"
  },
  {
    "name": "송전초등학교 운동장",
    "address": "서울특별시 송파구 잠실동 44-2",
    "lat": "37.508370240801554",
    "lng": "127.09455525451786",
    "region": "서울특별시"
  },
  {
    "name": "오성초등학교 운동장",
    "address": "전라남도 화순군 화순읍 벽라리 229",
    "lat": "35.0523797937287",
    "lng": "126.96427903088131",
    "region": "전라남도"
  },
  {
    "name": "문정중학교 운동장",
    "address": "경기도 용인시 수지구 풍덕천동 105",
    "lat": "37.32319756454203",
    "lng": "127.09897122211392",
    "region": "경기도"
  },
  {
    "name": "보성고등학교 운동장",
    "address": "서울특별시 송파구 방이동 89-22",
    "lat": "37.51961960691095",
    "lng": "127.13400073064516",
    "region": "서울특별시"
  },
  {
    "name": "강서공업고등학교 운동장",
    "address": "서울특별시 강서구 방화동 834",
    "lat": "37.57545384842717",
    "lng": "126.81566035548838",
    "region": "서울특별시"
  },
  {
    "name": "강남근린공원",
    "address": "경기도 용인시 기흥구 구갈동 598",
    "lat": "37.27286609535269",
    "lng": "127.13156819343568",
    "region": "경기도"
  },
  {
    "name": "구산초등학교운동장",
    "address": "경상남도 창원시 마산합포구 구산면 수정리 594-1",
    "lat": "35.12025581103347",
    "lng": "128.57931637476696",
    "region": "경상남도"
  },
  {
    "name": "도현어린이공원",
    "address": "경기도 용인시 기흥구 신갈동 165-1",
    "lat": "37.2856093468354",
    "lng": "127.1081984473509",
    "region": "경기도"
  },
  {
    "name": "냇가소공원",
    "address": "경기도 용인시 수지구 상현동 23-1",
    "lat": "37.31419728834026",
    "lng": "127.08987058821354",
    "region": "경기도"
  },
  {
    "name": "북면초등학교운동장",
    "address": "경상남도 창원시 의창구 북면 감계리 231-2",
    "lat": "35.305310208877955",
    "lng": "128.6004219076041",
    "region": "경상남도"
  },
  {
    "name": "하천초등학교 운동장",
    "address": "경상남도 창원시 의창구 북면 하천리 944",
    "lat": "35.36924214391857",
    "lng": "128.6040578787858",
    "region": "경상남도"
  },
  {
    "name": "신가초등학교 운동장",
    "address": "서울특별시 송파구 가락동 43-1",
    "lat": "37.4999962709",
    "lng": "127.12005497063299",
    "region": "서울특별시"
  },
  {
    "name": "생극보건지소 앞",
    "address": "충청북도 음성군 생극면 신양리 376-5",
    "lat": "37.03350453400574",
    "lng": "127.6087778641587",
    "region": "충청북도"
  },
  {
    "name": "대전비래초등학교 운동장",
    "address": "대전광역시 대덕구 비래동 245-1",
    "lat": "36.3612231035989",
    "lng": "127.45145896944493",
    "region": "대전광역시"
  },
  {
    "name": "구성초등학교 운동장",
    "address": "경기도 용인시 기흥구 마북동 333",
    "lat": "37.29561126272028",
    "lng": "127.11461817024559",
    "region": "경기도"
  },
  {
    "name": "죽전중학교 운동장",
    "address": "경기도 용인시 수지구 죽전동 873-4",
    "lat": "37.332584521193404",
    "lng": "127.10751747899539",
    "region": "경기도"
  },
  {
    "name": "중대초등학교 운동장",
    "address": "서울특별시 송파구 송파동 191",
    "lat": "37.50051281827145",
    "lng": "127.11421885272736",
    "region": "서울특별시"
  },
  {
    "name": "가동초등학교 운동장",
    "address": "서울특별시 송파구 가락동 163",
    "lat": "37.49709937630143",
    "lng": "127.13035225865889",
    "region": "서울특별시"
  },
  {
    "name": "청룡1리 회관 앞",
    "address": "충청북도 음성군 삼성면 청용리 313-3",
    "lat": "36.99657766622897",
    "lng": "127.46824358961332",
    "region": "충청북도"
  },
  {
    "name": "용촌3리 경로당 앞",
    "address": "충청북도 음성군 맹동면 용촌리 443-7",
    "lat": "36.9314544695628",
    "lng": "127.51949079671327",
    "region": "충청북도"
  },
  {
    "name": "대소보건지소 앞",
    "address": "충청북도 음성군 대소면 오류리 70-3",
    "lat": "36.97161327030841",
    "lng": "127.48344176092145",
    "region": "충청북도"
  },
  {
    "name": "충도보건진료소 앞",
    "address": "충청북도 음성군 소이면 충도리 662-4",
    "lat": "36.895344542575835",
    "lng": "127.72830021184257",
    "region": "충청북도"
  },
  {
    "name": "금왕보건지소 앞",
    "address": "충청북도 음성군 금왕읍 무극리 507-7",
    "lat": "36.992246684216255",
    "lng": "127.58618792647412",
    "region": "충청북도"
  },
  {
    "name": "새일초등학교 운동장",
    "address": "대전광역시 대덕구 덕암동 110-1",
    "lat": "36.432266",
    "lng": "127.419152",
    "region": "대전광역시"
  },
  {
    "name": "토월초등학교 운동장",
    "address": "경기도 용인시 수지구 풍덕천동 698-1",
    "lat": "37.324944255898835",
    "lng": "127.09174262998745",
    "region": "경기도"
  },
  {
    "name": "오금초등학교 운동장",
    "address": "서울특별시 송파구 오금동 7",
    "lat": "37.50904611540238",
    "lng": "127.131996269495",
    "region": "서울특별시"
  },
  {
    "name": "송파초등학교 운동장",
    "address": "서울특별시 송파구 송파동 114",
    "lat": "37.507050218975536",
    "lng": "127.11068383827713",
    "region": "서울특별시"
  },
  {
    "name": "덕정5리 회관 앞",
    "address": "충청북도 음성군 삼성면 덕정리 436",
    "lat": "37.02373268245145",
    "lng": "127.50083083314084",
    "region": "충청북도"
  },
  {
    "name": "위례별초등학교 운동장",
    "address": "서울특별시 송파구 장지동 886",
    "lat": "37.47856766323174",
    "lng": "127.14510209137133",
    "region": "서울특별시"
  },
  {
    "name": "소이보건지소 앞",
    "address": "충청북도 음성군 소이면 대장리 145-3",
    "lat": "36.92346797975359",
    "lng": "127.7576210011674",
    "region": "충청북도"
  },
  {
    "name": "맹동보건지소 앞",
    "address": "충청북도 음성군 맹동면 쌍정리 137-9",
    "lat": "36.929705481061596",
    "lng": "127.56236993602855",
    "region": "충청북도"
  },
  {
    "name": "유포보건진료소 앞",
    "address": "충청북도 음성군 금왕읍 유포리 123",
    "lat": "36.96462546087464",
    "lng": "127.54863381253818",
    "region": "충청북도"
  },
  {
    "name": "조촌보건진료소 앞",
    "address": "충청북도 음성군 원남면 조촌리 565",
    "lat": "36.876054012181996",
    "lng": "127.60768965260898",
    "region": "충청북도"
  },
  {
    "name": "삼생보건진료소 앞",
    "address": "충청북도 음성군 음성읍 삼생리 767-6",
    "lat": "36.90796533116827",
    "lng": "127.6070442231799",
    "region": "충청북도"
  },
  {
    "name": "구산초등학교 구서분교운동장",
    "address": "경상남도 창원시 마산합포구 구산면 마전리 82",
    "lat": "35.12107817709317",
    "lng": "128.53801020427414",
    "region": "경상남도"
  },
  {
    "name": "대전삼천중학교운동장",
    "address": "대전광역시 서구 둔산동 911",
    "lat": "36.358331464348026",
    "lng": "127.39436545178818",
    "region": "대전광역시"
  },
  {
    "name": "오류4리 회관 앞",
    "address": "충청북도 음성군 대소면 오류리 30-65",
    "lat": "36.980030388032134",
    "lng": "127.48156730804361",
    "region": "충청북도"
  },
  {
    "name": "소이면사무소 앞",
    "address": "충청북도 음성군 소이면 대장리 145-3",
    "lat": "36.92346797975359",
    "lng": "127.7576210011674",
    "region": "충청북도"
  },
  {
    "name": "생2리 회관 앞",
    "address": "충청북도 음성군 생극면 생리 609-6",
    "lat": "37.02841338344149",
    "lng": "127.63274394967901",
    "region": "충청북도"
  },
  {
    "name": "신탄진용정초등학교 운동장",
    "address": "대전광역시 대덕구 신탄진동 686-8",
    "lat": "36.45351972782086",
    "lng": "127.43560413354575",
    "region": "대전광역시"
  },
  {
    "name": "반동초등학교운동장",
    "address": "경상남도 창원시 마산합포구 구산면 반동리 411",
    "lat": "35.08750632898973",
    "lng": "128.58401818854514",
    "region": "경상남도"
  },
  {
    "name": "방산초등학교 운동장",
    "address": "서울특별시 송파구 방이동 220-4",
    "lat": "37.50923355585432",
    "lng": "127.12085081533282",
    "region": "서울특별시"
  },
  {
    "name": "세륜초등학교 운동장",
    "address": "서울특별시 송파구 방이동 89-23",
    "lat": "37.51860073850248",
    "lng": "127.13352923324526",
    "region": "서울특별시"
  },
  {
    "name": "거여초등학교 운동장",
    "address": "서울특별시 송파구 오금동 108",
    "lat": "37.504483098972294",
    "lng": "127.14071452617647",
    "region": "서울특별시"
  },
  {
    "name": "가주초등학교 운동장",
    "address": "서울특별시 송파구 가락동 140-6",
    "lat": "37.49669342734919",
    "lng": "127.12868380757949",
    "region": "서울특별시"
  },
  {
    "name": "건강생활지원센터 앞",
    "address": "충청북도 음성군 맹동면 동성리 241",
    "lat": "36.913702983603876",
    "lng": "127.54508611513414",
    "region": "충청북도"
  },
  {
    "name": "신정고등학교 운동장",
    "address": "서울특별시 강서구 화곡동 477-1",
    "lat": "37.53795168639533",
    "lng": "126.8573565288358",
    "region": "서울특별시"
  },
  {
    "name": "천평1리 회관 앞",
    "address": "충청북도 음성군 삼성면 천평리 475-8",
    "lat": "36.985607417891444",
    "lng": "127.49907503817262",
    "region": "충청북도"
  },
  {
    "name": "원남면사무소 앞",
    "address": "충청북도 음성군 원남면 보천리 374-3",
    "lat": "36.87533299745274",
    "lng": "127.64894898966894",
    "region": "충청북도"
  },
  {
    "name": "수명중학교 운동장",
    "address": "서울특별시 강서구 내발산동 757",
    "lat": "37.549144287387435",
    "lng": "126.82385834253743",
    "region": "서울특별시"
  },
  {
    "name": "대소스포츠문화회관 앞",
    "address": "충청북도 음성군 대소면 태생리 604",
    "lat": "36.96570847552579",
    "lng": "127.4960743793379",
    "region": "충청북도"
  },
  {
    "name": " 상평보건진료소 앞",
    "address": "충청북도 음성군 감곡면 상평리 716",
    "lat": "37.07038475668193",
    "lng": "127.63434171498926",
    "region": "충청북도"
  },
  {
    "name": "만골근린공원",
    "address": "경기도 용인시 기흥구 신갈동 산14",
    "lat": "37.28652138389289",
    "lng": "127.11501321430039",
    "region": "경기도"
  },
  {
    "name": "동천체육공원",
    "address": "경기도 용인시 수지구 동천동 872",
    "lat": "37.33476352246934",
    "lng": "127.09595946860088",
    "region": "경기도"
  },
  {
    "name": "맹동면사무소 앞",
    "address": "충청북도 음성군 맹동면 쌍정리 137-9",
    "lat": "36.92998357332462",
    "lng": "127.56270133044444",
    "region": "충청북도"
  },
  {
    "name": "용촌보건지소 앞",
    "address": "충청북도 음성군 맹동면 용촌리 149-6",
    "lat": "36.92974597545705",
    "lng": "127.53050658064508",
    "region": "충청북도"
  },
  {
    "name": "두성보건진료소 앞",
    "address": "충청북도 음성군 맹동면 두성리 63-2",
    "lat": "36.91330451505816",
    "lng": "127.55869727989013",
    "region": "충청북도"
  },
  {
    "name": "삼성보건지소 앞",
    "address": "충청북도 음성군 삼성면 덕정리 529-1",
    "lat": "37.01797274517739",
    "lng": "127.4950358561133",
    "region": "충청북도"
  },
  {
    "name": "오궁보건진료소 앞",
    "address": "충청북도 음성군 감곡면 오궁리 108",
    "lat": "37.11504267905054",
    "lng": "127.67101599356616",
    "region": "충청북도"
  },
  {
    "name": "도장초등학교 운동장",
    "address": "경기도 군포시 산본동 1155-5",
    "lat": "37.34859473713309",
    "lng": "126.92421734333037",
    "region": "경기도"
  },
  {
    "name": "금왕생활체육공원",
    "address": "충청북도 음성군 금왕읍 금석리 98",
    "lat": "36.99388967632009",
    "lng": "127.60408685632557",
    "region": "충청북도"
  },
  {
    "name": "전주홍산초등학교(운동장)",
    "address": "전북특별자치도 전주시 완산구 효자동3가 1685",
    "lat": "35.82042503262412",
    "lng": "127.09868262731158",
    "region": "전북특별자치도"
  },
  {
    "name": "아주중학교 운동장",
    "address": "서울특별시 송파구 잠실동 115",
    "lat": "37.50481979253269",
    "lng": "127.07596269703343",
    "region": "서울특별시"
  },
  {
    "name": "인천부내초등학교 운동장",
    "address": "인천광역시 부평구 부개동 501-12",
    "lat": "37.49787401962021",
    "lng": "126.7416263613214",
    "region": "인천광역시"
  },
  {
    "name": "부광중학교 운동장",
    "address": "인천광역시 부평구 부개동 22-1",
    "lat": "37.50147776327431",
    "lng": "126.73682905056373",
    "region": "인천광역시"
  },
  {
    "name": "전주동신초등학교(운동장)",
    "address": "전북특별자치도 전주시 덕진구 우아동3가 743-149",
    "lat": "35.8515198627479",
    "lng": "127.1564663739215",
    "region": "전북특별자치도"
  },
  {
    "name": "문정중학교 운동장",
    "address": "서울특별시 송파구 문정동 12-1",
    "lat": "37.48809584941059",
    "lng": "127.12955637226001",
    "region": "서울특별시"
  },
  {
    "name": "문정고등학교 운동장",
    "address": "서울특별시 송파구 문정동 90",
    "lat": "37.4855967453185",
    "lng": "127.12747877855931",
    "region": "서울특별시"
  },
  {
    "name": "봉동초등학교 운동장",
    "address": "전북특별자치도 완주군 봉동읍 장기리 301",
    "lat": "35.93783494627402",
    "lng": "127.1631562106449",
    "region": "전북특별자치도"
  },
  {
    "name": "잠신고등학교 운동장",
    "address": "서울특별시 송파구 잠실동 22-2",
    "lat": "37.5151012295534",
    "lng": "127.08921674784924",
    "region": "서울특별시"
  },
  {
    "name": "부광여자고등학교 운동장",
    "address": "인천광역시 부평구 부개동 19-6",
    "lat": "37.502159683546616",
    "lng": "126.73542695896691",
    "region": "인천광역시"
  },
  {
    "name": "남사초등학교 운동장",
    "address": "경기도 용인시 처인구 남사읍 봉무리 662",
    "lat": "37.11352322201831",
    "lng": "127.14853048324586",
    "region": "경기도"
  },
  {
    "name": "고운중학교 운동장",
    "address": "세종특별자치시 세종시 고운동 1710",
    "lat": "36.50513",
    "lng": "127.23790",
    "region": "세종특별자치시"
  },
  {
    "name": "신천중학교 운동장",
    "address": "서울특별시 송파구 잠실동 19-4",
    "lat": "37.51598048287503",
    "lng": "127.07846070555186",
    "region": "서울특별시"
  },
  {
    "name": "잠실중학교 운동장",
    "address": "서울특별시 송파구 신천동 7-1",
    "lat": "37.51713647832574",
    "lng": "127.09945391834293",
    "region": "서울특별시"
  },
  {
    "name": "가락고등학교 운동장",
    "address": "서울특별시 송파구 송파동 172",
    "lat": "37.50109607383529",
    "lng": "127.1172450544881",
    "region": "서울특별시"
  },
  {
    "name": "보람초등학교 운동장",
    "address": "세종특별자치시 세종시 보람동 772",
    "lat": "36.47939238711038",
    "lng": "127.29398667812347",
    "region": "세종특별자치시"
  },
  {
    "name": "송례중학교 운동장",
    "address": "서울특별시 송파구 장지동 899",
    "lat": "37.477309876837765",
    "lng": "127.13962536229621",
    "region": "서울특별시"
  },
  {
    "name": "한국체육대학교 운동장",
    "address": "서울특별시 송파구 방이동 88-15",
    "lat": "37.51929821063024",
    "lng": "127.13095835070374",
    "region": "서울특별시"
  },
  {
    "name": "금산종합운동장",
    "address": "충청남도 금산군 금산읍 하옥리 73",
    "lat": "36.08141868412079",
    "lng": "127.49066207657081",
    "region": "충청남도"
  },
  {
    "name": "창덕여자고등학교 운동장",
    "address": "서울특별시 송파구 방이동 89-6",
    "lat": "37.51552649766307",
    "lng": "127.13986639343557",
    "region": "서울특별시"
  },
  {
    "name": "세종과학예술영재학교 운동장",
    "address": "세종특별자치시 세종시 아름동 807",
    "lat": "36.5224925416104",
    "lng": "127.2481691837311",
    "region": "세종특별자치시"
  },
  {
    "name": "삼정2리 회관 앞",
    "address": "충청북도 음성군 대소면 삼정리 196-3",
    "lat": "36.95722156374668",
    "lng": "127.49907255343324",
    "region": "충청북도"
  },
  {
    "name": "대소부윤진료소 앞",
    "address": "충청북도 음성군 대소면 부윤리 82",
    "lat": "36.95262598555503",
    "lng": "127.52324358431657",
    "region": "충청북도"
  },
  {
    "name": "양서문화체육공원",
    "address": "경기도 양평군 양서면 용담리 625",
    "lat": "37.5399",
    "lng": "127.3231",
    "region": "경기도"
  },
  {
    "name": "늘봄초등학교 운동장",
    "address": "세종특별자치시 세종시 도담동 688",
    "lat": "36.51353",
    "lng": "127.25481",
    "region": "세종특별자치시"
  },
  {
    "name": "삼성 공용주차장 1",
    "address": "충청북도 음성군 삼성면 덕정리 520-5",
    "lat": "37.019663923914756",
    "lng": "127.49951846839228",
    "region": "충청북도"
  },
  {
    "name": "선정2리 회관 앞",
    "address": "충청북도 음성군 삼성면 선정리 169",
    "lat": "36.98897181333198",
    "lng": "127.50946815828928",
    "region": "충청북도"
  },
  {
    "name": "왕장3리 회관 앞",
    "address": "충청북도 음성군 감곡면 왕장리 470-5",
    "lat": "37.11882919894535",
    "lng": "127.63880409731739",
    "region": "충청북도"
  },
  {
    "name": "금왕읍사무소 앞",
    "address": "충청북도 음성군 금왕읍 무극리 507-7",
    "lat": "36.992246684216255",
    "lng": "127.58618792647412",
    "region": "충청북도"
  },
  {
    "name": "내곡보건진료소 앞",
    "address": "충청북도 음성군 금왕읍 내곡리 71-7",
    "lat": "37.00850596554398",
    "lng": "127.53829536787077",
    "region": "충청북도"
  },
  {
    "name": "나래초등학교 운동장",
    "address": "세종특별자치시 세종시 아름동 1354",
    "lat": "36.50888550081031",
    "lng": "127.24711400216668",
    "region": "세종특별자치시"
  },
  {
    "name": "두루초등학교 운동장",
    "address": "세종특별자치시 세종시 고운동 1384",
    "lat": "36.519147155585195",
    "lng": "127.23820745944975",
    "region": "세종특별자치시"
  },
  {
    "name": "으뜸초등학교 운동장",
    "address": "세종특별자치시 세종시 고운동 1413",
    "lat": "36.509377455646664",
    "lng": "127.23158776760104",
    "region": "세종특별자치시"
  },
  {
    "name": "세종대성고등학교 운동장",
    "address": "세종특별자치시 세종시 어진동 680",
    "lat": "36.496290334158545",
    "lng": "127.25603342056274",
    "region": "세종특별자치시"
  },
  {
    "name": "풍납초등학교 운동장",
    "address": "서울특별시 송파구 풍납동 165",
    "lat": "37.5347605440514",
    "lng": "127.11799471998904",
    "region": "서울특별시"
  },
  {
    "name": "문덕초등학교 운동장",
    "address": "서울특별시 송파구 문정동 90-3",
    "lat": "37.48497880074059",
    "lng": "127.1274936085519",
    "region": "서울특별시"
  },
  {
    "name": "석촌중학교 운동장",
    "address": "서울특별시 송파구 가락동 43",
    "lat": "37.50062780407063",
    "lng": "127.12128502015273",
    "region": "서울특별시"
  },
  {
    "name": "문현중학교 운동장",
    "address": "서울특별시 송파구 장지동 838-3",
    "lat": "37.480256211071115",
    "lng": "127.12773831386117",
    "region": "서울특별시"
  },
  {
    "name": "서울인공지능고등학교 운동장",
    "address": "서울특별시 송파구 거여동 331",
    "lat": "37.491308654480335",
    "lng": "127.14267253875735",
    "region": "서울특별시"
  },
  {
    "name": "소담중학교 운동장",
    "address": "세종특별자치시 세종시 소담동 589",
    "lat": "36.481734512504595",
    "lng": "127.30191528797153",
    "region": "세종특별자치시"
  },
  {
    "name": "종촌고등학교 운동장",
    "address": "세종특별자치시 세종시 종촌동 678",
    "lat": "36.50424",
    "lng": "127.24565",
    "region": "세종특별자치시"
  },
  {
    "name": "세종국제고등학교 운동장",
    "address": "세종특별자치시 세종시 아름동 810",
    "lat": "36.52117983972413",
    "lng": "127.24655449390413",
    "region": "세종특별자치시"
  },
  {
    "name": "대전금동초등학교운동장",
    "address": "대전광역시 서구 관저동 1141",
    "lat": "36.29825255520915",
    "lng": "127.32591659170103",
    "region": "대전광역시"
  },
  {
    "name": "문정초등학교 운동장",
    "address": "서울특별시 송파구 문정동 12",
    "lat": "37.48888012041959",
    "lng": "127.12861990137382",
    "region": "서울특별시"
  },
  {
    "name": "잠신초등학교 운동장",
    "address": "서울특별시 송파구 잠실동 22-4",
    "lat": "37.51381965298201",
    "lng": "127.08845839460233",
    "region": "서울특별시"
  },
  {
    "name": "영동일고등학교 운동장",
    "address": "서울특별시 송파구 잠실동 35-1",
    "lat": "37.509645317947516",
    "lng": "127.08938067594043",
    "region": "서울특별시"
  },
  {
    "name": "잠실고등학교 운동장",
    "address": "서울특별시 송파구 신천동 17-1",
    "lat": "37.52222324812201",
    "lng": "127.10616457928751",
    "region": "서울특별시"
  },
  {
    "name": "대구스타디움",
    "address": "대구광역시 수성구 대흥동 504",
    "lat": "35.8287915712668",
    "lng": "128.68506073951755",
    "region": "대구광역시"
  },
  {
    "name": "관성보건진료소 앞",
    "address": "충청북도 음성군 생극면 관성리 688-1",
    "lat": "37.02522692417808",
    "lng": "127.56810840073551",
    "region": "충청북도"
  },
  {
    "name": "다빛초등학교 운동장",
    "address": "세종특별자치시 세종시 종촌동 687",
    "lat": "36.50007871194692",
    "lng": "127.24377349021778",
    "region": "세종특별자치시"
  },
  {
    "name": "양지중학교 운동장",
    "address": "세종특별자치시 세종시 도담동 896",
    "lat": "36.50816",
    "lng": "127.26887",
    "region": "세종특별자치시"
  },
  {
    "name": "대전도안초등학교운동장",
    "address": "대전광역시 서구 도안동 1363",
    "lat": "36.321210278816096",
    "lng": "127.34467994441334",
    "region": "대전광역시"
  },
  {
    "name": "대전신계초등학교운동장",
    "address": "대전광역시 서구 복수동 452",
    "lat": "36.301412186925724",
    "lng": "127.37807545784754",
    "region": "대전광역시"
  },
  {
    "name": "송파중학교 운동장",
    "address": "서울특별시 송파구 가락동 139",
    "lat": "37.49555775546282",
    "lng": "127.12976794056284",
    "region": "서울특별시"
  },
  {
    "name": "서울체육고등학교 운동장",
    "address": "서울특별시 송파구 방이동 88-14",
    "lat": "37.52237718681862",
    "lng": "127.12864774979971",
    "region": "서울특별시"
  },
  {
    "name": "오금고등학교 운동장",
    "address": "서울특별시 송파구 오금동 34-3",
    "lat": "37.504171849921136",
    "lng": "127.12925063359735",
    "region": "서울특별시"
  },
  {
    "name": "방산고등학교 운동장",
    "address": "서울특별시 송파구 방이동 220-5",
    "lat": "37.508119792764504",
    "lng": "127.12114722932353",
    "region": "서울특별시"
  },
  {
    "name": "문현고등학교 운동장",
    "address": "서울특별시 송파구 장지동 838",
    "lat": "37.4808253121087",
    "lng": "127.128976038423",
    "region": "서울특별시"
  },
  {
    "name": "잠일고등학교 운동장",
    "address": "서울특별시 송파구 잠실동 19-2",
    "lat": "37.51413954017055",
    "lng": "127.08237814147782",
    "region": "서울특별시"
  },
  {
    "name": "태생3리 회관 앞",
    "address": "충청북도 음성군 대소면 태생리 142-19",
    "lat": "36.969544742333014",
    "lng": "127.49521711995065",
    "region": "충청북도"
  },
  {
    "name": "왕장1리 회관 앞",
    "address": "충청북도 음성군 감곡면 왕장리 420-3",
    "lat": "37.12209138199302",
    "lng": "127.63920499931596",
    "region": "충청북도"
  },
  {
    "name": "대소면사무소 앞",
    "address": "충청북도 음성군 대소면 오류리 70-3",
    "lat": "36.97159722104517",
    "lng": "127.48343087702321",
    "region": "충청북도"
  },
  {
    "name": "감곡보건지소 앞",
    "address": "충청북도 음성군 감곡면 왕장리 529-1",
    "lat": "37.117651672547304",
    "lng": "127.63687634615769",
    "region": "충청북도"
  },
  {
    "name": "차평보건진료소 앞",
    "address": "충청북도 음성군 생극면 차평리 500-1",
    "lat": "37.053702548678885",
    "lng": "127.60373383864416",
    "region": "충청북도"
  },
  {
    "name": "선정보건진료소 앞",
    "address": "충청북도 음성군 삼성면 천평리 275",
    "lat": "36.98749488344854",
    "lng": "127.5052823019612",
    "region": "충청북도"
  },
  {
    "name": "대소내산진료소 앞",
    "address": "충청북도 음성군 대소면 내산리 483-7",
    "lat": "36.94940589926916",
    "lng": "127.44872141860745",
    "region": "충청북도"
  },
  {
    "name": "주봉보건진료소 앞",
    "address": "충청북도 음성군 원남면 주봉리 648",
    "lat": "36.87537289219027",
    "lng": "127.67487698437247",
    "region": "충청북도"
  },
  {
    "name": " 음성군보건소 앞",
    "address": "충청북도 음성군 음성읍 읍내리 406-4",
    "lat": "36.92853744859496",
    "lng": "127.6886982302831",
    "region": "충청북도"
  },
  {
    "name": "계산초등학교 운동장",
    "address": "대전광역시 유성구 계산동 720",
    "lat": "36.34383205031808",
    "lng": "127.29908287525176",
    "region": "대전광역시"
  },
  {
    "name": "청봉초등학교 운동장",
    "address": "강원특별자치도 속초시 조양동 1540-2",
    "lat": "38.18780679632142",
    "lng": "128.58686632992143",
    "region": "강원특별자치도"
  },
  {
    "name": "대구대덕초등학교 운동장",
    "address": "대구광역시 남구 대명동 1571-1",
    "lat": "35.830301306702296",
    "lng": "128.56216291177816",
    "region": "대구광역시"
  },
  {
    "name": "세종도원초등학교 운동장",
    "address": "세종특별자치시 세종시 연서면 월하리 859",
    "lat": "36.58543295944818",
    "lng": "127.28688418865205",
    "region": "세종특별자치시"
  },
  {
    "name": "종촌중학교 운동장",
    "address": "세종특별자치시 세종시 종촌동 675",
    "lat": "36.50240",
    "lng": "127.24549",
    "region": "세종특별자치시"
  },
  {
    "name": "양지고등학교 운동장",
    "address": "세종특별자치시 세종시 도담동 895",
    "lat": "36.50926966302321",
    "lng": "127.26845741271974",
    "region": "세종특별자치시"
  },
  {
    "name": "토성초등학교 운동장",
    "address": "서울특별시 송파구 풍납동 251",
    "lat": "37.53180235920987",
    "lng": "127.11516581214673",
    "region": "서울특별시"
  },
  {
    "name": "차평1리 회관 앞",
    "address": "충청북도 음성군 생극면 차평리 144-20",
    "lat": "37.0518054336198",
    "lng": "127.61453266728526",
    "region": "충청북도"
  },
  {
    "name": "팔성 2리 회관 앞",
    "address": "충청북도 음성군 생극면 팔성리 601-3",
    "lat": "37.04523828102687",
    "lng": "127.58663246534283",
    "region": "충청북도"
  },
  {
    "name": "미곡1리 회관 앞",
    "address": "충청북도 음성군 대소면 미곡리 92-8",
    "lat": "36.94002520025957",
    "lng": "127.48301502453467",
    "region": "충청북도"
  },
  {
    "name": "중앙공원",
    "address": "전라남도 순천시 동외동 176",
    "lat": "34.95769336003892",
    "lng": "127.48627043700466",
    "region": "전라남도"
  },
  {
    "name": "남선초등학교 운동장",
    "address": "대전광역시 유성구 송정동 150-1",
    "lat": "36.28735524053729",
    "lng": "127.26462005575473",
    "region": "대전광역시"
  },
  {
    "name": "대구남덕초등학교 운동장",
    "address": "대구광역시 남구 대명동 531-1",
    "lat": "35.83322895558704",
    "lng": "128.57430448443213",
    "region": "대구광역시"
  },
  {
    "name": "옥천레포츠공원",
    "address": "경기도 양평군 옥천면 옥천리 773-4",
    "lat": "37.52146323273489",
    "lng": "127.45775699615157",
    "region": "경기도"
  },
  {
    "name": "용문다문초등학교학교운동장",
    "address": "경기도 양평군 용문면 다문리 626",
    "lat": "37.48569002911658",
    "lng": "127.59201496839574",
    "region": "경기도"
  },
  {
    "name": " 마산2리 회관 앞",
    "address": "충청북도 음성군 맹동면 마산리 373-5",
    "lat": "36.934650087527466",
    "lng": "127.54873895413172",
    "region": "충청북도"
  },
  {
    "name": "선정3리 회관 앞",
    "address": "충청북도 음성군 삼성면 선정리 597-3",
    "lat": "36.99457695884009",
    "lng": "127.4998400312275",
    "region": "충청북도"
  },
  {
    "name": "고운고등학교 운동장",
    "address": "세종특별자치시 세종시 고운동 1415",
    "lat": "36.50979137792575",
    "lng": "127.23277866840364",
    "region": "세종특별자치시"
  },
  {
    "name": "석촌초등학교 운동장",
    "address": "서울특별시 송파구 석촌동 267",
    "lat": "37.50256189678664",
    "lng": "127.10467367879967",
    "region": "서울특별시"
  },
  {
    "name": "가원초등학교 운동장",
    "address": "서울특별시 송파구 문정동 150-10",
    "lat": "37.48905751523204",
    "lng": "127.11145018668454",
    "region": "서울특별시"
  },
  {
    "name": "잠전초등학교 운동장",
    "address": "서울특별시 송파구 잠실동 229",
    "lat": "37.50668341739185",
    "lng": "127.08416355090796",
    "region": "서울특별시"
  },
  {
    "name": "봉덕시장공영주차장",
    "address": "대구광역시 남구 봉덕동 976-5",
    "lat": "35.845105812954145",
    "lng": "128.60253587480324",
    "region": "대구광역시"
  },
  {
    "name": "상곡보건진료소 앞",
    "address": "충청북도 음성군 삼성면 상곡리 275-4",
    "lat": "37.004198809533975",
    "lng": "127.45883067090968",
    "region": "충청북도"
  },
  {
    "name": " 원남보건지소 앞",
    "address": "충청북도 음성군 원남면 보천리 374-3",
    "lat": "36.87530386143046",
    "lng": "127.64881926707531",
    "region": "충청북도"
  },
  {
    "name": "양평초등학교 학교운동장",
    "address": "경기도 양평군 양평읍 양근리 491-9",
    "lat": "37.4937368765403",
    "lng": "127.486006021499",
    "region": "경기도"
  },
  {
    "name": "오산1리 회관 앞",
    "address": "충청북도 음성군 대소면 오산리 211-1",
    "lat": "36.9643631074894",
    "lng": "127.48331643078569",
    "region": "충청북도"
  },
  {
    "name": "봉현보건진료소 앞",
    "address": "충청북도 음성군 맹동면 봉현리 333",
    "lat": "36.93740332652127",
    "lng": "127.53460615255213",
    "region": "충청북도"
  },
  {
    "name": "대정초등학교 운동장",
    "address": "대전광역시 유성구 대정동 310",
    "lat": "36.31512819757992",
    "lng": "127.32335731420068",
    "region": "대전광역시"
  },
  {
    "name": "새미래초등학교 운동장",
    "address": "대전광역시 유성구 지족동 1044",
    "lat": "36.37928689133298",
    "lng": "127.30312468178585",
    "region": "대전광역시"
  },
  {
    "name": "종촌초등학교 운동장",
    "address": "세종특별자치시 세종시 종촌동 678",
    "lat": "36.504184797926946",
    "lng": "127.24567285418482",
    "region": "세종특별자치시"
  },
  {
    "name": "세종누리학교 운동장",
    "address": "세종특별자치시 세종시 고운동 470-5",
    "lat": "36.52554831263677",
    "lng": "127.24291353170983",
    "region": "세종특별자치시"
  },
  {
    "name": "명지초등학교  운동장",
    "address": "충청북도 제천시 명지동 46",
    "lat": "37.11844776230591",
    "lng": "128.2054072656209",
    "region": "충청북도"
  },
  {
    "name": "삼성 공용주차장 2",
    "address": "충청북도 음성군 삼성면 덕정리 535-16",
    "lat": "37.01924979822358",
    "lng": "127.49933476843842",
    "region": "충청북도"
  },
  {
    "name": "오생2리 회관 앞",
    "address": "충청북도 음성군 생극면 오생리 299",
    "lat": "37.005116527597494",
    "lng": "127.64763708601033",
    "region": "충청북도"
  },
  {
    "name": "어은초등학교 운동장",
    "address": "대전광역시 유성구 어은동 98",
    "lat": "36.364778440856576",
    "lng": "127.35362216547297",
    "region": "대전광역시"
  },
  {
    "name": "대구남명초등학교 운동장",
    "address": "대구광역시 남구 대명동 483",
    "lat": "35.83476018533758",
    "lng": "128.58197852737348",
    "region": "대구광역시"
  },
  {
    "name": "대구대봉초등학교 운동장",
    "address": "대구광역시 남구 이천동 253-2",
    "lat": "35.85093722286778",
    "lng": "128.60492810182103",
    "region": "대구광역시"
  },
  {
    "name": "대구성명초등학교 운동장",
    "address": "대구광역시 남구 대명동 3050",
    "lat": "35.84571053555836",
    "lng": "128.57103846852078",
    "region": "대구광역시"
  },
  {
    "name": "삼성면 체육공원",
    "address": "충청북도 음성군 삼성면 덕정리 497-4",
    "lat": "37.02245169054234",
    "lng": "127.49112964108498",
    "region": "충청북도"
  },
  {
    "name": "쌍정1리 경로당 앞",
    "address": "충청북도 음성군 맹동면 쌍정리 69-5",
    "lat": "36.92619181103914",
    "lng": "127.5642137996019",
    "region": "충청북도"
  },
  {
    "name": "속초공설운동장 인조잔디구장",
    "address": "강원특별자치도 속초시 중앙동 506",
    "lat": "38.209115831670054",
    "lng": "128.58587515796475",
    "region": "강원특별자치도"
  },
  {
    "name": "대구대명중학교 운동장",
    "address": "대구광역시 남구 대명동 519",
    "lat": "35.83283252448724",
    "lng": "128.5776051217614",
    "region": "대구광역시"
  },
  {
    "name": "강하체육공원",
    "address": "경기도 양평군 강하면 운심리 55-5",
    "lat": "37.49698431394101",
    "lng": "127.41300165653014",
    "region": "경기도"
  },
  {
    "name": "반석초등학교 운동장",
    "address": "대전광역시 유성구 반석동 648",
    "lat": "36.389932246243035",
    "lng": "127.31291441484966",
    "region": "대전광역시"
  },
  {
    "name": "개군중학교 학교운동장",
    "address": "경기도 양평군 개군면 부리 453-1",
    "lat": "37.428110967510634",
    "lng": "127.53932297230253",
    "region": "경기도"
  },
  {
    "name": "두룡초등학교",
    "address": "경상남도 통영시 도천동 110-33",
    "lat": "34.837364",
    "lng": "128.412455",
    "region": "경상남도"
  },
  {
    "name": "관평초등학교 운동장",
    "address": "대전광역시 유성구 관평동 900",
    "lat": "36.42385136471902",
    "lng": "127.38733185838656",
    "region": "대전광역시"
  },
  {
    "name": "대구영선초등학교 운동장",
    "address": "대구광역시 남구 이천동 447",
    "lat": "35.85305750545008",
    "lng": "128.59573334502042",
    "region": "대구광역시"
  },
  {
    "name": "서종초등학교 학교운동장",
    "address": "경기도 양평군 서종면 문호리 733",
    "lat": "37.608766538016674",
    "lng": "127.348110973835",
    "region": "경기도"
  },
  {
    "name": "단월레포츠공원",
    "address": "경기도 양평군 단월면 보룡리 441-7",
    "lat": "37.54455180082987",
    "lng": "127.67066538333893",
    "region": "경기도"
  },
  {
    "name": "원신흥초등학교 운동장",
    "address": "대전광역시 유성구 원신흥동 496",
    "lat": "36.34098768554641",
    "lng": "127.34254823700749",
    "region": "대전광역시"
  },
  {
    "name": "대구남도초등학교 운동장",
    "address": "대구광역시 남구 대명동 1709",
    "lat": "35.84465208570443",
    "lng": "128.5813558596523",
    "region": "대구광역시"
  },
  {
    "name": "지평면사무소 주차장",
    "address": "경기도 양평군 지평면 지평리 584-1",
    "lat": "37.47419394142017",
    "lng": "127.63880342244926",
    "region": "경기도"
  },
  {
    "name": "봉래초등학교 운동장",
    "address": "경상남도 진주시 봉래동 27-2",
    "lat": "35.199878762565454",
    "lng": "128.08734432221658",
    "region": "경상남도"
  },
  {
    "name": "금천고등학교 운동장",
    "address": "서울특별시 금천구 시흥동 산24-4",
    "lat": "37.444908",
    "lng": "126.905853",
    "region": "서울특별시"
  },
  {
    "name": "영등포공업고등학교 운동장",
    "address": "서울특별시 강서구 가양동 1468",
    "lat": "37.56936829696582",
    "lng": "126.85028796401166",
    "region": "서울특별시"
  },
  {
    "name": "양동중고등학교 학교운동장",
    "address": "경기도 양평군 양동면 쌍학리 215-2",
    "lat": "37.421100853726415",
    "lng": "127.75551974773408",
    "region": "경기도"
  },
  {
    "name": "하기초등학교 운동장",
    "address": "대전광역시 유성구 하기동 514",
    "lat": "36.388642117009745",
    "lng": "127.32162785776556",
    "region": "대전광역시"
  },
  {
    "name": "흥도초등학교 운동장",
    "address": "대전광역시 유성구 원신흥동 555",
    "lat": "36.33415015241579",
    "lng": "127.33878298616386",
    "region": "대전광역시"
  },
  {
    "name": "상지초등학교 운동장",
    "address": "대전광역시 유성구 지족동 915",
    "lat": "36.375364435987656",
    "lng": "127.32191438868415",
    "region": "대전광역시"
  },
  {
    "name": "송림초등학교 운동장",
    "address": "대전광역시 유성구 하기동 548",
    "lat": "36.38866950169189",
    "lng": "127.33254754977253",
    "region": "대전광역시"
  },
  {
    "name": "대덕초등학교 운동장",
    "address": "대전광역시 유성구 도룡동 396",
    "lat": "36.385096934572935",
    "lng": "127.3813053327172",
    "region": "대전광역시"
  },
  {
    "name": "속초종합운동장",
    "address": "강원특별자치도 속초시 노학동 1000-332",
    "lat": "38.19274646378249",
    "lng": "128.53470966003266",
    "region": "강원특별자치도"
  },
  {
    "name": "풍성중학교 운동장",
    "address": "서울특별시 송파구 풍납동 388-16",
    "lat": "37.525342274510464",
    "lng": "127.11246556611144",
    "region": "서울특별시"
  },
  {
    "name": "세륜중학교 운동장",
    "address": "서울특별시 송파구 오금동 7-3",
    "lat": "37.508474839190605",
    "lng": "127.13145313012159",
    "region": "서울특별시"
  },
  {
    "name": "마곡하늬공원",
    "address": "서울특별시 강서구 마곡동 749-4",
    "lat": "37.556838682685694",
    "lng": "126.82111322879791",
    "region": "서울특별시"
  },
  {
    "name": "용호고등학교 운동장",
    "address": "경기도 군포시 당동 875",
    "lat": "37.3423205402282",
    "lng": "126.9394688557478",
    "region": "경기도"
  },
  {
    "name": "송강초등학교 운동장",
    "address": "대전광역시 유성구 송강동 196",
    "lat": "36.433940492340085",
    "lng": "127.38409289983544",
    "region": "대전광역시"
  },
  {
    "name": "대구봉덕초등학교 운동장",
    "address": "대구광역시 남구 봉덕동 1319-1",
    "lat": "35.83937084069465",
    "lng": "128.59790556457838",
    "region": "대구광역시"
  },
  {
    "name": "대구대명초등학교 운동장",
    "address": "대구광역시 남구 대명동 960",
    "lat": "35.838785651587244",
    "lng": "128.56879234313988",
    "region": "대구광역시"
  },
  {
    "name": "영파여자고등학교 운동장",
    "address": "서울특별시 송파구 풍납동 501",
    "lat": "37.532523633245994",
    "lng": "127.12035275140232",
    "region": "서울특별시"
  },
  {
    "name": "오주중학교 운동장",
    "address": "서울특별시 송파구 오금동 59",
    "lat": "37.50104190516312",
    "lng": "127.13621190435407",
    "region": "서울특별시"
  },
  {
    "name": "오금중학교 운동장",
    "address": "서울특별시 송파구 오금동 34",
    "lat": "37.504939631638294",
    "lng": "127.12836612844447",
    "region": "서울특별시"
  },
  {
    "name": "버들초등학교 운동장",
    "address": "서울특별시 송파구 잠실동 35-6",
    "lat": "37.51004490859931",
    "lng": "127.08900540977699",
    "region": "서울특별시"
  },
  {
    "name": "신천초등학교 운동장",
    "address": "서울특별시 송파구 잠실동 27-5",
    "lat": "37.513581827084856",
    "lng": "127.09515870227143",
    "region": "서울특별시"
  },
  {
    "name": "진부고등학교 운동장",
    "address": "강원특별자치도 평창군 진부면 하진부리 258-2",
    "lat": "37.63539561706049",
    "lng": "128.55275638271982",
    "region": "강원특별자치도"
  },
  {
    "name": "횡계초등학교 운동장",
    "address": "강원특별자치도 평창군 대관령면 횡계리 304-3",
    "lat": "37.67587517583796",
    "lng": "128.7112387618724",
    "region": "강원특별자치도"
  },
  {
    "name": "북면초등학교 승산분교 운동장",
    "address": "경상남도 창원시 의창구 북면 대산리 56-2",
    "lat": "35.30402245202215",
    "lng": "128.62805597665997",
    "region": "경상남도"
  },
  {
    "name": "방산중학교 운동장",
    "address": "서울특별시 송파구 방이동 220",
    "lat": "37.50892696660828",
    "lng": "127.12165067229832",
    "region": "서울특별시"
  },
  {
    "name": "풍납중학교 운동장",
    "address": "서울특별시 송파구 풍납동 390",
    "lat": "37.52530510720558",
    "lng": "127.1163029771031",
    "region": "서울특별시"
  },
  {
    "name": "비산초등학교",
    "address": "대구광역시 서구 평리동 662-1",
    "lat": "35.87852544317053",
    "lng": "128.56389496339344",
    "region": "대구광역시"
  },
  {
    "name": "신월운동장",
    "address": "경상남도 창원시 성산구 신월동 34",
    "lat": "35.23011309936007",
    "lng": "128.6922016739849",
    "region": "경상남도"
  },
  {
    "name": "아주초등학교 운동장",
    "address": "서울특별시 송파구 잠실동 115",
    "lat": "37.505523820616645",
    "lng": "127.0755590042268",
    "region": "서울특별시"
  },
  {
    "name": "거원중학교 운동장",
    "address": "서울특별시 송파구 거여동 296",
    "lat": "37.48767590606323",
    "lng": "127.14616688630038",
    "region": "서울특별시"
  },
  {
    "name": "필마공원",
    "address": "서울특별시 강서구 화곡동 355-12",
    "lat": "37.53152694111835",
    "lng": "126.83885604143141",
    "region": "서울특별시"
  },
  {
    "name": "사동 임시공영주차장",
    "address": "경기도 안산시 상록구 사동 1253-8",
    "lat": "37.3016145212081",
    "lng": "126.85410722423018",
    "region": "경기도"
  },
  {
    "name": "평화초등학교 운동장",
    "address": "서울특별시 송파구 가락동 106",
    "lat": "37.49128501440647",
    "lng": "127.12217070598373",
    "region": "서울특별시"
  },
  {
    "name": "대전갑천초등학교운동장",
    "address": "대전광역시 서구 월평동 308",
    "lat": "36.3603120104971",
    "lng": "127.36757344681767",
    "region": "대전광역시"
  },
  {
    "name": "대전원앙초등학교운동장",
    "address": "대전광역시 서구 관저동 49",
    "lat": "36.31119991066935",
    "lng": "127.3362945739706",
    "region": "대전광역시"
  },
  {
    "name": "백봉초등학교 운동장",
    "address": "경기도 용인시 처인구 백암면 백봉리 192",
    "lat": "37.13786593917878",
    "lng": "127.40026959032852",
    "region": "경기도"
  },
  {
    "name": "부개고등학교 운동장",
    "address": "인천광역시 부평구 부개동 191-74",
    "lat": "37.492355000257334",
    "lng": "126.73840235189606",
    "region": "인천광역시"
  },
  {
    "name": "인천한길초등학교 운동장",
    "address": "인천광역시 부평구 삼산동 393-1",
    "lat": "37.51885191291581",
    "lng": "126.74563701167185",
    "region": "인천광역시"
  },
  {
    "name": "개롱초등학교 운동장",
    "address": "서울특별시 송파구 오금동 159",
    "lat": "37.49693429089014",
    "lng": "127.13953769065448",
    "region": "서울특별시"
  },
  {
    "name": "문현초등학교 운동장",
    "address": "서울특별시 송파구 장지동 836",
    "lat": "37.48243184218721",
    "lng": "127.13046198729015",
    "region": "서울특별시"
  },
  {
    "name": "진산중학교 운동장",
    "address": "인천광역시 부평구 삼산동 454-11",
    "lat": "37.509229046202194",
    "lng": "126.74045446869796",
    "region": "인천광역시"
  },
  {
    "name": "잠일초등학교 운동장",
    "address": "서울특별시 송파구 잠실동 19-1",
    "lat": "37.51464681895344",
    "lng": "127.08118561940815",
    "region": "서울특별시"
  },
  {
    "name": "풍성초등학교 운동장",
    "address": "서울특별시 송파구 풍납동 388-16",
    "lat": "37.52526679765012",
    "lng": "127.11248695850375",
    "region": "서울특별시"
  },
  {
    "name": "삼전초등학교 운동장",
    "address": "서울특별시 송파구 삼전동 63",
    "lat": "37.50134850200012",
    "lng": "127.09262106169427",
    "region": "서울특별시"
  },
  {
    "name": "전주월드컵경기장",
    "address": "전북특별자치도 전주시 덕진구 여���동 1221-1",
    "lat": "35.868712857098124",
    "lng": "127.07104871148147",
    "region": "전북특별자치도"
  },
  {
    "name": "전주화정초등학교",
    "address": "전북특별자치도 전주시 덕진구 송천동2가 1310",
    "lat": "35.8727123323929",
    "lng": "127.13138602888515",
    "region": "전북특별자치도"
  },
  {
    "name": "창촌초등학교 운동장",
    "address": "강원특별자치도 홍천군 내면 창촌리 1624-5",
    "lat": "37.76776535400848",
    "lng": "128.38808600377786",
    "region": "강원특별자치도"
  },
  {
    "name": "방이초등학교 운동장",
    "address": "서울특별시 송파구 방이동 167",
    "lat": "37.51336054024055",
    "lng": "127.12099002080747",
    "region": "서울특별시"
  },
  {
    "name": "잠신���학교 운동장",
    "address": "서울특별시 송파구 잠실동 22-1",
    "lat": "37.51576355425883",
    "lng": "127.08780344800186",
    "region": "서울특별시"
  },
  {
    "name": "영풍초등학교 운동장",
    "address": "서울특별시 송파구 거여동 12",
    "lat": "37.49589500830527",
    "lng": "127.14286892388057",
    "region": "서울특별시"
  },
  {
    "name": "오륜초등학교 운동장",
    "address": "서울특별시 송파구 방이동 89-16",
    "lat": "37.51205434573201",
    "lng": "127.13449056411208",
    "region": "서울특별시"
  },
  {
    "name": "방이중학교 운동장",
    "address": "서울특별시 송파구 방이동 53",
    "lat": "37.514387935297734",
    "lng": "127.112952345375",
    "region": "서울특별시"
  },
  {
    "name": "오륜중학교 운동장",
    "address": "서울특별시 송파구 방이동 89-7",
    "lat": "37.515783462577076",
    "lng": "127.13867440481948",
    "region": "서울특별시"
  },
  {
    "name": "배명중학교 운동장",
    "address": "서울특별시 송파구 삼전동 172-1",
    "lat": "37.49833407095056",
    "lng": "127.09595943737574",
    "region": "서울특별시"
  },
  {
    "name": "가원중학교 운동장",
    "address": "서울특별시 송파구 가락동 106-3",
    "lat": "37.49073237636225",
    "lng": "127.12240386087795",
    "region": "서울특별시"
  },
  {
    "name": "두루고등학교 운동장",
    "address": "세종특별자치시 세종시 고운동 898",
    "lat": "36.51580162491579",
    "lng": "127.2274893522263",
    "region": "세종특별자치시"
  },
  {
    "name": "보람고등학교 운동장",
    "address": "세종특별자치시 세종시 보람동 729",
    "lat": "36.47721410382527",
    "lng": "127.28418588638307",
    "region": "세종특별자치시"
  },
  {
    "name": "송례초등학교 운동장",
    "address": "서울특별시 송파구 장지동 898",
    "lat": "37.47738832340895",
    "lng": "127.13837167895397",
    "region": "서울특별시"
  },
  {
    "name": "잠현초등학교 운동장",
    "address": "서울특별시 송파구 신천동 17-2",
    "lat": "37.52202328179192",
    "lng": "127.10481497435207",
    "region": "서울특별시"
  },
  {
    "name": "잠동초등학교 운동장",
    "address": "서울특별시 송파구 신천동 7-2",
    "lat": "37.51798276306086",
    "lng": "127.10011584468778",
    "region": "서울특별시"
  },
  {
    "name": "마천초등학교 ���동장",
    "address": "서울특별시 송파구 마천동 183-4",
    "lat": "37.495313077747234",
    "lng": "127.15229784700063",
    "region": "서울특별시"
  },
  {
    "name": "남천초등학교 운동장",
    "address": "서울특별시 송파구 마천동 53",
    "lat": "37.501080356257646",
    "lng": "127.15092040645897",
    "region": "서울특별시"
  },
  {
    "name": "용호운동장",
    "address": "경상남도 창원시 성산구 용호동 61",
    "lat": "35.236005785038714",
    "lng": "128.68079021575835",
    "region": "경상남도"
  },
  {
    "name": "고운초등학교 운동장",
    "address": "세종특별자치시 세종시 고운동 1711",
    "lat": "36.50379791226485",
    "lng": "127.23683416843413",
    "region": "세종특별자치시"
  },
  {
    "name": "가락초등학교 운동장",
    "address": "세종특별자치시 세종시 고운동 1366",
    "lat": "36.51543",
    "lng": "127.23041",
    "region": "세종특별자치시"
  },
  {
    "name": "소담초등학교 운동장",
    "address": "세종특별자치시 세종시 소담동 593",
    "lat": "36.48320962696894",
    "lng": "127.30213522911069",
    "region": "세종특별자치시"
  },
  {
    "name": "잠실여자고등학교 운동장",
    "address": "서울특별시 송파구 송파동 179",
    "lat": "37.501811527756274",
    "lng": "127.11327594276942",
    "region": "서울특별시"
  },
  {
    "name": "대전둔원중학교운동장",
    "address": "대전광역시 서구 갈마동 1416",
    "lat": "36.34231292104549",
    "lng": "127.37693034911688",
    "region": "대전광역시"
  },
  {
    "name": "상하초등학교 운동장",
    "address": "경기도 용인시 기흥구 상하동 674",
    "lat": "37.25683576418716",
    "lng": "127.14080940206776",
    "region": "경기도"
  },
  {
    "name": "외솔초등학교운동장",
    "address": "울산광역시 중구 서동 621",
    "lat": "35.58333858781542",
    "lng": "129.3433334112963",
    "region": "울산광역시"
  },
  {
    "name": "온빛초등학교 운동장",
    "address": "세종특별자치시 세종시 고운동 1398",
    "lat": "36.514529767967",
    "lng": "127.23997771739961",
    "region": "세종특별자치시"
  },
  {
    "name": "범서생활체육공원 운동장",
    "address": "울산광역시 울주군 범서읍 천상리 46-2",
    "lat": "35.564960819780744",
    "lng": "129.23293948173483",
    "region": "울산광역시"
  },
  {
    "name": "양지초등학교 운동장 ",
    "address": "세종특별자치시 세종시 도담동 583",
    "lat": "36.518276296836234",
    "lng": "127.2597938776016",
    "region": "세종특별자치시"
  },
  {
    "name": "대전목상초등학교 운동장",
    "address": "대전광역시 대덕구 목상동 870",
    "lat": "36.445160",
    "lng": "127.412649",
    "region": "대전광역시"
  },
  {
    "name": "대전내동초등학교운동장",
    "address": "대전광역시 서구 내동 13-1",
    "lat": "36.330703713630996",
    "lng": "127.37881461699465",
    "region": "대전광역시"
  },
  {
    "name": "도암중학교 운동장",
    "address": "전라남도 화순군 도암면 원천리 829",
    "lat": "34.93784285551789",
    "lng": "126.89553424443177",
    "region": "전라남도"
  },
  {
    "name": "인천영선고등학교 운동장",
    "address": "인천광역시 부평구 삼산동 448-5",
    "lat": "37.516013597862376",
    "lng": "126.74440946181558",
    "region": "인천광역시"
  },
  {
    "name": "동면중학교 운동장",
    "address": "전라남도 화순군 동면 천덕리 84",
    "lat": "35.024723219703475",
    "lng": "127.05264611735923",
    "region": "전라남도"
  },
  {
    "name": "전주에코시티 고등학교 예정부지",
    "address": "전북특별자치도 전주시 덕진구 송천동2가 1302",
    "lat": "35.878254881573405",
    "lng": "127.13464852278832",
    "region": "전북특별자치도"
  },
  {
    "name": "군북초등학교 운동장",
    "address": "충청남도 금산군 군북면 두두리 355-1",
    "lat": "36.16806349347017",
    "lng": "127.52678769744668",
    "region": "충청남도"
  },
  {
    "name": "용문초등학교 운동장",
    "address": "충청남도 금산군 군북면 내부리 367",
    "lat": "36.13445058420638",
    "lng": "127.5024191999966",
    "region": "충청남도"
  },
  {
    "name": "덕암초등학교 운동장",
    "address": "충청남도 공주시 유구읍 덕곡리 3-11",
    "lat": "36.629711760161754",
    "lng": "126.96988492935583",
    "region": "충청남도"
  },
  {
    "name": "계명대학교 대명캠퍼스 운동장",
    "address": "대구광역시 남구 대명동 2139-12",
    "lat": "35.85378073231996",
    "lng": "128.58158467122541",
    "region": "대구광역시"
  },
  {
    "name": "녹번동마을마당",
    "address": "서울특별시 은평구 녹번동 104-7",
    "lat": "37.60606785205939",
    "lng": "126.92755352747501",
    "region": "서울특별시"
  },
  {
    "name": "신흥어린이공원",
    "address": "서울특별시 은평구 신사동 31-2",
    "lat": "37.596085423699115",
    "lng": "126.91181249266083",
    "region": "서울특별시"
  },
  {
    "name": "문성중학교 운동장",
    "address": "광주광역시 남구 봉선동 599-1",
    "lat": "35.119575095611616",
    "lng": "126.9059729576111",
    "region": "광주광역시"
  },
  {
    "name": "상주 왕산역사공원",
    "address": "경상북도 상주시 서성동 163-48",
    "lat": "36.41679304567352",
    "lng": "128.1621050834656",
    "region": "경상북도"
  },
  {
    "name": "누리문화공원",
    "address": "경기도 수원시 권선구 금곡동 1074",
    "lat": "37.27623592347073",
    "lng": "126.94545631721665",
    "region": "경기도"
  },
  {
    "name": "성재중학교 운동장",
    "address": "서울특별시 강서구 가양동 1463",
    "lat": "37.56927723922423",
    "lng": "126.84605440125902",
    "region": "서울특별시"
  },
  {
    "name": "인천갈산중학교 운동장",
    "address": "인천광역시 부평구 갈산동 372",
    "lat": "37.50975245283997",
    "lng": "126.72670702559452",
    "region": "인천광역시"
  },
  {
    "name": "진산초등학교 운동장",
    "address": "충청남도 금산군 진산면 읍내리 531",
    "lat": "36.14325097752421",
    "lng": "127.36772665571675",
    "region": "충청남도"
  },
  {
    "name": "계룡초등학교 운동장",
    "address": "충청남도 공주시 계룡면 유평리 286",
    "lat": "36.35726909764895",
    "lng": "127.14117105523879",
    "region": "충청남도"
  },
  {
    "name": "첨단초등학교 운동장",
    "address": "광주광역시 광산구 월계동 758-1",
    "lat": "35.21939431043985",
    "lng": "126.83763563632964",
    "region": "광주광역시"
  },
  {
    "name": "제천뜰 근린공원",
    "address": "세종특별자치시 세종시 종촌동 676",
    "lat": "36.50367165244526",
    "lng": "127.24684772458455",
    "region": "세종특별자치시"
  },
  {
    "name": "은평중학교  운동장",
    "address": "서울특별시 은평구 구산동 182-44",
    "lat": "37.610494441621164",
    "lng": "126.909209016391",
    "region": "서울특별시"
  },
  {
    "name": "대조초등학교 운동장",
    "address": "서울특별시 은평구 대조동 212-1",
    "lat": "37.61263700823375",
    "lng": "126.91954647575898",
    "region": "서울특별시"
  },
  {
    "name": "응암9어린이공원",
    "address": "서울특별시 은평구 응암동 761-9",
    "lat": "37.587087629067156",
    "lng": "126.92301686878177",
    "region": "서울특별시"
  },
  {
    "name": "당수체육공원",
    "address": "경기도 수원시 권선구 당수동 162-1",
    "lat": "37.292089829812",
    "lng": "126.94280654510406",
    "region": "경기도"
  },
  {
    "name": "김제서고등학교",
    "address": "전북특별자치도 김제시 죽산면 죽산리 600-25",
    "lat": "35.77143037943467",
    "lng": "126.81464474917132",
    "region": "전북특별자치도"
  },
  {
    "name": "도담 싱싱장터 주차장",
    "address": "세종특별자치시 세종시 도담동 654",
    "lat": "36.51572833203209",
    "lng": "127.25962221622467",
    "region": "세종특별자치시"
  },
  {
    "name": "어진뜰 근린공원",
    "address": "세종특별자치시 세종시 어진동 598",
    "lat": "36.49793982135928",
    "lng": "127.26247742772101",
    "region": "세종특별자치시"
  },
  {
    "name": "화원고등학교운동장",
    "address": "전라남도 해남군 화원면 신덕리 45",
    "lat": "34.66987873916628",
    "lng": "126.3243205292555",
    "region": "전라남도"
  },
  {
    "name": "새움초등학교 운동장",
    "address": "세종특별자치시 세종시 다정동 928",
    "lat": "36.493616580892656",
    "lng": "127.2515219449997",
    "region": "세종특별자치시"
  },
  {
    "name": "신덕초등학교 운동장",
    "address": "전북특별자치도 임실군 신덕면 수천리 840",
    "lat": "35.68209674594923",
    "lng": "127.17576194490472",
    "region": "전북특별자치도"
  },
  {
    "name": "장안공원",
    "address": "경기도 수원시 장안구 영화동 349-26",
    "lat": "37.286951788616925",
    "lng": "127.01086878776549",
    "region": "경기도"
  },
  {
    "name": "화서공원",
    "address": "경기도 수원시 팔달구 화서동 26-35",
    "lat": "37.28463850113312",
    "lng": "127.00767159461975",
    "region": "경기도"
  },
  {
    "name": "동공원",
    "address": "경기도 수원시 장안구 연무동 산23-1",
    "lat": "37.2909",
    "lng": "127.0246",
    "region": "경기도"
  },
  {
    "name": "백산초등학교 운동장",
    "address": "전북특별자치도 부안군 백산면 평교리 205",
    "lat": "35.701127648853024",
    "lng": "126.78777822896043",
    "region": "전북특별자치도"
  },
  {
    "name": "한양대학교사범대학부속중학교 운동장",
    "address": "서울특별시 성동구 사근동 223",
    "lat": "37.561673774384346",
    "lng": "127.04390287399293",
    "region": "서울특별시"
  },
  {
    "name": "무학여자고등학교 운동장",
    "address": "서울특별시 성동구 행당동 322-1",
    "lat": "37.55767486871844",
    "lng": "127.03327387589059",
    "region": "서울특별시"
  },
  {
    "name": "옥포 중앙근린공원",
    "address": "경상남도 거제시 옥포동 산71-21",
    "lat": "34.8943054796183",
    "lng": "128.70200918974717",
    "region": "경상남도"
  },
  {
    "name": "탑동공원",
    "address": "경기도 수원시 권선구 탑동 746-1",
    "lat": "37.273117156716744",
    "lng": "126.97130121981283",
    "region": "경기도"
  },
  {
    "name": "화정초등학교  운동장",
    "address": "광주광역시 서구 화정동 328-3",
    "lat": "35.148330",
    "lng": "126.872027",
    "region": "광주광역시"
  },
  {
    "name": "수동초등학교 운동장",
    "address": "경기도 남양주시 수동면 입석리 458-1",
    "lat": "37.711632552138695",
    "lng": "127.32336279849123",
    "region": "경기도"
  },
  {
    "name": "단구초등학교",
    "address": "강원특별자치도 원주시 단구동 106",
    "lat": "37.322232899051045",
    "lng": "127.96412245994546",
    "region": "강원특별자치도"
  },
  {
    "name": "남양주 송촌초등학교 운동장",
    "address": "경기도 남양주시 조안면 송촌리 692",
    "lat": "37.56739641799497",
    "lng": "127.3187401736475",
    "region": "경기도"
  },
  {
    "name": "청담초등학교 운동장",
    "address": "서울특별시 강남구 청담동 142",
    "lat": "37.527857505441084",
    "lng": "127.04517782281175",
    "region": "서울특별시"
  },
  {
    "name": "신백현초등학교운동장",
    "address": "경기도 성남시 분당구 백현동 559",
    "lat": "37.38689643088704",
    "lng": "127.1119566491747",
    "region": "경기도"
  },
  {
    "name": "청담고등학교 운동장",
    "address": "서울특별시 강남구 압구정동 526",
    "lat": "37.52832411990192",
    "lng": "127.04312127635451",
    "region": "서울특별시"
  },
  {
    "name": "청산어린이공원",
    "address": "대구광역시 수성구 지산동 1247",
    "lat": "35.82352438452505",
    "lng": "128.62742811441453",
    "region": "대구광역시"
  },
  {
    "name": "내삼공원",
    "address": "대구광역시 서구 내당동 458-4",
    "lat": "35.85605423193087",
    "lng": "128.54892717830384",
    "region": "대구광역시"
  },
  {
    "name": "평거초등학교 운동장",
    "address": "경상남도 진주시 판문동 290",
    "lat": "35.16902475236291",
    "lng": "128.04518266784513",
    "region": "경상남도"
  },
  {
    "name": "중남초등학교 운동장",
    "address": "울산광역시 울주군 삼남읍 신화리 1485-17",
    "lat": "35.53623213056818",
    "lng": "129.10853137495158",
    "region": "울산광역시"
  },
  {
    "name": "다사중학교운동장",
    "address": "대구광역시 달성군 다사읍 매곡리 729",
    "lat": "35.86273692435343",
    "lng": "128.45652494326188",
    "region": "대구광역시"
  },
  {
    "name": "서재중학교운동장",
    "address": "대구광역시 달성군 다사읍 서재리 302",
    "lat": "35.87332239481673",
    "lng": "128.4998186307524",
    "region": "대구광역시"
  },
  {
    "name": "동패중학교 운동장",
    "address": "경기도 파주시 동패동 1765",
    "lat": "37.70838237655929",
    "lng": "126.73574623103231",
    "region": "경기도"
  },
  {
    "name": "가인초등학교 운동장",
    "address": "서울특별시 도봉구 창동 224-20",
    "lat": "37.65969308322145",
    "lng": "127.0434632926458",
    "region": "서울특별시"
  },
  {
    "name": "비봉초등학교 운동장",
    "address": "경기도 화성시 비봉면 삼화리 537",
    "lat": "37.23667056006222",
    "lng": "126.86943105759904",
    "region": "경기도"
  },
  {
    "name": "입암초등학교 운동장",
    "address": "전북특별자치도 정읍시 입암면 천원리 6",
    "lat": "35.50561844126179",
    "lng": "126.79698407649991",
    "region": "전북특별자치도"
  },
  {
    "name": "단계초등학교",
    "address": "강원특별자치도 원주시 단계동 82",
    "lat": "37.3586604006162",
    "lng": "127.93641350715043",
    "region": "강원특별자치도"
  },
  {
    "name": "만호초등학교  운동장",
    "address": "광주광역시 서구 금호동 244-16",
    "lat": "35.13245239681681",
    "lng": "126.85479104518888",
    "region": "광주광역시"
  },
  {
    "name": "단국대부속고등학교 운동장",
    "address": "서울특별시 강남구 대치동 1013-2",
    "lat": "37.49607867991798",
    "lng": "127.05584868244142",
    "region": "서울특별시"
  },
  {
    "name": "대현초등학교 운동장",
    "address": "서울특별시 강남구 대치동 969",
    "lat": "37.503568219573914",
    "lng": "127.06387879648446",
    "region": "서울특별시"
  },
  {
    "name": "언주초등학교 운동장",
    "address": "서울특별시 강남구 도곡동 922",
    "lat": "37.48684930192614",
    "lng": "127.03751047407543",
    "region": "서울특별시"
  },
  {
    "name": "태장중학교",
    "address": "강원특별자치도 원주시 태장동 720-1",
    "lat": "37.35777136655507",
    "lng": "127.95957148075104",
    "region": "강원특별자치도"
  },
  {
    "name": "태장초등학교",
    "address": "강원특별자치도 원주시 태장동 1002",
    "lat": "37.37632161715628",
    "lng": "127.95128881931306",
    "region": "강원특별자치도"
  },
  {
    "name": "빛고을초등학교  운동장",
    "address": "광주광역시 서구 동천동 507",
    "lat": "35.168875",
    "lng": "126.859779",
    "region": "광주광역시"
  },
  {
    "name": "오저초등학교 운동장",
    "address": "강원특별자치도 삼척시 가곡면 오저리 93-2",
    "lat": "37.14658860096954",
    "lng": "129.20668387412923",
    "region": "강원특별자치도"
  },
  {
    "name": "한내초등학교 운동장",
    "address": "경기도 이천시 증포동 70-5",
    "lat": "37.290065499603585",
    "lng": "127.46174775405315",
    "region": "경기도"
  },
  {
    "name": "꿈돌이 어린이공원",
    "address": "서울특별시 강서구 화곡동 24-128",
    "lat": "37.54590764110044",
    "lng": "126.84536240315114",
    "region": "서울특별시"
  },
  {
    "name": "한광고등학교 운동장",
    "address": "서울특별시 강서구 화곡동 488-3",
    "lat": "37.53866494809581",
    "lng": "126.85817599296571",
    "region": "서울특별시"
  },
  {
    "name": "백운초등학교  운동장",
    "address": "충청북도 제천시 백운면 평동리 600",
    "lat": "37.14081072922553",
    "lng": "128.0203288793564",
    "region": "충청북도"
  },
  {
    "name": "연신중학교 운동장",
    "address": "서울특별시 은평구 불광동 400-4",
    "lat": "37.623179725344684",
    "lng": "126.92526116192022",
    "region": "서울특별시"
  },
  {
    "name": "수유일공원(삼각산공원)",
    "address": "서울특별시 강북구 수유동 605-399",
    "lat": "37.63043883142635",
    "lng": "127.01726719737054",
    "region": "서울특별시"
  },
  {
    "name": "물빛문화공원",
    "address": "서울특별시 마포구 상암동 1608",
    "lat": "37.58013255129841",
    "lng": "126.89314210094483",
    "region": "서울특별시"
  },
  {
    "name": "서교어린이공원",
    "address": "서울특별시 마포구 서교동 391-1",
    "lat": "37.551858746858514",
    "lng": "126.91542788606343",
    "region": "서울특별시"
  },
  {
    "name": "토정어린이공원",
    "address": "서울특별시 마포구 용강동 508-3",
    "lat": "37.540846",
    "lng": "126.943462",
    "region": "서울특별시"
  },
  {
    "name": "평화어린이공원",
    "address": "서울특별시 영등포구 여의도동 50-2",
    "lat": "37.5211547695841",
    "lng": "126.93825602531433",
    "region": "서울특별시"
  },
  {
    "name": "명서초등학교 운동장",
    "address": "부산광역시 동래구 명장동 502-1",
    "lat": "35.21172902620214",
    "lng": "129.1008996963518",
    "region": "부산광역시"
  },
  {
    "name": "명덕여자고등학교 운동장",
    "address": "서울특별시 강서구 내발산동 169-1",
    "lat": "37.55452646822784",
    "lng": "126.83433911777024",
    "region": "서울특별시"
  },
  {
    "name": "금산산업고등학교 운동장",
    "address": "충청남도 금산군 금산읍 아인리 107",
    "lat": "36.1040888429261",
    "lng": "127.47929517005049",
    "region": "충청남도"
  },
  {
    "name": "남이초등학교 운동장",
    "address": "충청남도 금산군 남이면 하금리 381",
    "lat": "36.050500630489175",
    "lng": "127.43659712741928",
    "region": "충청남도"
  },
  {
    "name": "공항중학교 운동장",
    "address": "서울특별시 강서구 공항동 12-3",
    "lat": "37.562499729712194",
    "lng": "126.81506357306037",
    "region": "서울특별시"
  },
  {
    "name": "해남공업고등학교운동장",
    "address": "전라남도 해남군 해남읍 남외리 24-1",
    "lat": "34.57191231957077",
    "lng": "126.5934014013592",
    "region": "전라남도"
  },
  {
    "name": "구만초등학교",
    "address": "충청남도 예산군 고덕면 구만리 813-4",
    "lat": "36.733131",
    "lng": "126.732993",
    "region": "충청남도"
  },
  {
    "name": "양신초등학교",
    "address": "충청남도 예산군 오가면 분천리 11-3",
    "lat": "36.706052",
    "lng": "126.784813",
    "region": "충청남도"
  },
  {
    "name": "상전면 체련공원",
    "address": "전북특별자치도 진안군 상전면 주평리 1074-3",
    "lat": "35.8224629600322",
    "lng": "127.48347885349246",
    "region": "전북특별자치도"
  },
  {
    "name": "송학중학교  운동장",
    "address": "충청북도 제천시 송학면 시곡리 1100-2",
    "lat": "37.1879980341844",
    "lng": "128.26508000524976",
    "region": "충청북도"
  },
  {
    "name": "당동초등학교 운동장",
    "address": "경기도 군포시 당동 967",
    "lat": "37.345736727799256",
    "lng": "126.93958054035453",
    "region": "경기도"
  },
  {
    "name": "양별자리공원",
    "address": "경기도 용인시 기흥구 영덕동 1075",
    "lat": "37.272130633189605",
    "lng": "127.08267549331438",
    "region": "경기도"
  },
  {
    "name": "���암문화공원",
    "address": "서울특별시 마포구 상암동 1752",
    "lat": "37.583493367965396",
    "lng": "126.87871480224635",
    "region": "서울특별시"
  },
  {
    "name": "금성초등학교 운동장",
    "address": "충청남도 금산군 금성면 상가리 152-2",
    "lat": "36.13051932721361",
    "lng": "127.45480625369478",
    "region": "충청남도"
  },
  {
    "name": "자은근린공원",
    "address": "경기도 용인시 기흥구 영덕동 1236",
    "lat": "37.27560976392761",
    "lng": "127.08404104826782",
    "region": "경기도"
  },
  {
    "name": "남산근린공원",
    "address": "경기도 용인시 기흥구 서천동 802",
    "lat": "37.23520030516027",
    "lng": "127.07294964824912",
    "region": "경기도"
  },
  {
    "name": "죽전체육공원",
    "address": "경기도 용인시 수지구 죽전동 555-4",
    "lat": "37.33030279301183",
    "lng": "127.11345753653333",
    "region": "경기도"
  },
  {
    "name": "상보골어린이공원",
    "address": "경기도 용인시 수지구 신봉동 977",
    "lat": "37.32906726306918",
    "lng": "127.06361455916742",
    "region": "경기도"
  },
  {
    "name": "손초어린이공원",
    "address": "경기도 용인시 수지구 동천동 968",
    "lat": "37.33859446678873",
    "lng": "127.08438730635615",
    "region": "경기도"
  },
  {
    "name": "심곡어린이공원",
    "address": "경기도 용인시 수지구 상현동 1212",
    "lat": "37.304843576177944",
    "lng": "127.072148922151",
    "region": "경기도"
  },
  {
    "name": "내토중학교  운동장",
    "address": "충청북도 제천시 장락동 687-1",
    "lat": "37.144697223523515",
    "lng": "128.22220921702566",
    "region": "충청북도"
  },
  {
    "name": "내토초등학교  운동장",
    "address": "충청북도 제천시 신백동 132",
    "lat": "37.13408970311929",
    "lng": "128.22884463748372",
    "region": "충청북도"
  },
  {
    "name": "두학초등학교  운동장",
    "address": "충청북도 제천시 흑석동 436",
    "lat": "37.13440698489407",
    "lng": "128.24481763879191",
    "region": "충청북도"
  },
  {
    "name": "역말어린이공원",
    "address": "서울특별시 은평구 역촌동 47-1",
    "lat": "37.60681347466028",
    "lng": "126.91409993671009",
    "region": "서울특별시"
  },
  {
    "name": "초지운동장",
    "address": "경기도 안산시 단원구 초지동 667",
    "lat": "37.326513030611",
    "lng": "126.8132552327323",
    "region": "경기도"
  },
  {
    "name": "성어공원",
    "address": "경기도 안산시 상록구 성포동 589",
    "lat": "37.31695394101805",
    "lng": "126.84414813363315",
    "region": "경기도"
  },
  {
    "name": "당산서중학교 운동장",
    "address": "서울특별시 영등포구 당산동5가 5",
    "lat": "37.531952348044896",
    "lng": "126.89860224723817",
    "region": "서울특별시"
  },
  {
    "name": "하늘어린이공원",
    "address": "서울특별시 강북구 미아동 791-3853",
    "lat": "37.62457531192749",
    "lng": "127.0129838937666",
    "region": "서울특별시"
  },
  {
    "name": "가재울어린이공원",
    "address": "서울특별시 서대문구 남가좌동 385-2",
    "lat": "37.573",
    "lng": "126.9194",
    "region": "서울특별시"
  },
  {
    "name": "은가어린이공원",
    "address": "서울특별시 서대문구 북가좌동 3-39",
    "lat": "37.582718391274334",
    "lng": "126.91946910200207",
    "region": "서울특별시"
  },
  {
    "name": "상암중학교 운동장",
    "address": "서울특별시 마포구 상암동 1657",
    "lat": "37.578852681807604",
    "lng": "126.88794978623844",
    "region": "서울특별시"
  },
  {
    "name": "인천부일초등학교 운동장",
    "address": "인천광역시 부평구 부개동 499-8",
    "lat": "37.50081906167923",
    "lng": "126.74144333595221",
    "region": "인천광역시"
  },
  {
    "name": "고덕초등학교 운동장",
    "address": "서울특별시 강동구 고덕동 158",
    "lat": "37.56063320349055",
    "lng": "127.16659965547055",
    "region": "서울특별시"
  },
  {
    "name": "서갈현공원",
    "address": "서울특별시 은평구 갈현동 434-38",
    "lat": "37.621529507100114",
    "lng": "126.9157878296095",
    "region": "서울특별시"
  },
  {
    "name": "당중초등학교 운동장",
    "address": "서울특별시 영등포구 양평동3가 9",
    "lat": "37.525770946900934",
    "lng": "126.89021766185762",
    "region": "서울특별시"
  },
  {
    "name": "군산동초등학교 운동장",
    "address": "전북특별자치도 군산시 조촌동 757-1",
    "lat": "35.965076307482676",
    "lng": "126.73847744144275",
    "region": "전북특별자치도"
  },
  {
    "name": "신곡 어린이공원",
    "address": "경기도 수원시 권선구 세류동 1156",
    "lat": "37.24501240268564",
    "lng": "127.01634204012089",
    "region": "경기도"
  },
  {
    "name": "재간령 어린이공원",
    "address": "경기도 수원시 권선구 세류동 1135",
    "lat": "37.24970257862315",
    "lng": "127.01439798869524",
    "region": "경기도"
  },
  {
    "name": "탑골 어린이공원",
    "address": "경기도 수원시 권선구 탑동 866",
    "lat": "37.268201819226334",
    "lng": "126.97639610294301",
    "region": "경기도"
  },
  {
    "name": "하늬 어린이공원",
    "address": "경기도 수원시 권선구 구운동 941-1",
    "lat": "37.28042225307369",
    "lng": "126.97224773599928",
    "region": "경기도"
  },
  {
    "name": "김제중앙중학교",
    "address": "전북특별자치도 김제시 옥산동 59",
    "lat": "35.794505542429306",
    "lng": "126.88774002016292",
    "region": "전북특별자치도"
  },
  {
    "name": "거산초등학교 운동장",
    "address": "충청남도 아산시 송악면 송학리 28",
    "lat": "36.691827",
    "lng": "126.989546",
    "region": "충청남도"
  },
  {
    "name": "충무초등학교 운동장",
    "address": "충청남도 아산시 권곡동 86-2",
    "lat": "36.790151",
    "lng": "127.020407",
    "region": "충청남도"
  },
  {
    "name": "대곡초등학교 운동장",
    "address": "경상남도 진주시 대곡면 와룡리 591",
    "lat": "35.257557",
    "lng": "128.176783",
    "region": "경상남도"
  },
  {
    "name": "안남초등학교 운동장",
    "address": "부산광역시 동래구 안락동 175-16",
    "lat": "35.19157407186859",
    "lng": "129.10817384720025",
    "region": "부산광역시"
  },
  {
    "name": "중앙초등학교  운동장",
    "address": "충청북도 제천시 청전동 625",
    "lat": "37.1529359302545",
    "lng": "128.21516361604836",
    "region": "충청북도"
  },
  {
    "name": "선사초등학교운동장",
    "address": "서울특별시 강동구 암사동 186-1",
    "lat": "37.55598402049949",
    "lng": "127.12923328052648",
    "region": "서울특별시"
  },
  {
    "name": "신진과학기술고등학교 운동장",
    "address": "서울특별시 은평구 응암동 114-1",
    "lat": "37.598419117949625",
    "lng": "126.91818304004791",
    "region": "서울특별시"
  },
  {
    "name": "김제봉남초등학교",
    "address": "전북특별자치도 김제시 봉남면 신호리 263",
    "lat": "35.76295218731981",
    "lng": "126.95171601333297",
    "region": "전북특별자치도"
  },
  {
    "name": "김제치문초등학교",
    "address": "전북특별자치도 김제시 백구면 유강리 130",
    "lat": "35.906411404602586",
    "lng": "126.93611586772369",
    "region": "전북특별자치도"
  },
  {
    "name": "예일여자고등학교 운동장",
    "address": "서울특별시 은평구 구산동 8-3",
    "lat": "37.61013007654085",
    "lng": "126.91527177468981",
    "region": "서울특별시"
  },
  {
    "name": "선정고등학교 운동장",
    "address": "서울특별시 은평구 갈현동 227-5",
    "lat": "37.61803675112235",
    "lng": "126.90886535172734",
    "region": "서울특별시"
  },
  {
    "name": "솔밭공원 주차장",
    "address": "충청북도 청주시 흥덕구 송정동 314",
    "lat": "36.64512269120877",
    "lng": "127.43230086114876",
    "region": "충청북도"
  },
  {
    "name": "부적초등학교 운동장",
    "address": "충청남도 논산시 부적면 반송리 237-6",
    "lat": "36.21190051371376",
    "lng": "127.13579535484313",
    "region": "충청남도"
  },
  {
    "name": "광석중학교 운동장",
    "address": "충청남도 논산시 광석면 천동리 642-1",
    "lat": "36.238164036923656",
    "lng": "127.08185076713563",
    "region": "충청남도"
  },
  {
    "name": "도고온천초등학교 운동장",
    "address": "충청남도 아산시 도고면 신언리 60-1",
    "lat": "36.75754728040499",
    "lng": "126.87592177964792",
    "region": "충청남도"
  },
  {
    "name": "신화초등학교 운동장",
    "address": "충청남도 아산시 영인면 신화리 350",
    "lat": "36.886145",
    "lng": "126.968659",
    "region": "충청남도"
  },
  {
    "name": "온양온천초등학교 운동장",
    "address": "충청남도 아산시 온천동 307-1",
    "lat": "36.78221026313586",
    "lng": "127.00815459179374",
    "region": "충청남도"
  },
  {
    "name": "온양초사초등학교 운동장",
    "address": "충청남도 아산시 초사동 112-5",
    "lat": "36.750915",
    "lng": "126.973889",
    "region": "충청남도"
  },
  {
    "name": "온양권곡초등학교 운동장",
    "address": "충청남도 아산시 권곡동 201-1",
    "lat": "36.790642",
    "lng": "127.013818",
    "region": "충청남도"
  },
  {
    "name": "운신초등학교 운동장",
    "address": "충청남도 서산시 운산면 신창리 304-1",
    "lat": "36.75639985457119",
    "lng": "126.56201525264282",
    "region": "충청남도"
  },
  {
    "name": "명석중학교 운동장",
    "address": "경상남도 진주시 명석면 관지리 256",
    "lat": "35.21693803526185",
    "lng": "128.04239686401576",
    "region": "경상남도"
  },
  {
    "name": "대제중학교  운동장",
    "address": "충청북도 제천시 청전동 526-22",
    "lat": "37.147024579173646",
    "lng": "128.19997757635994",
    "region": "충청북도"
  },
  {
    "name": "길마어린이공원",
    "address": "서울특별시 은평구 갈현동 474-1",
    "lat": "37.61470766367491",
    "lng": "126.91586759205254",
    "region": "서울특별시"
  },
  {
    "name": "선유중학교 운동장",
    "address": "서울특별시 영등포구 양평동3가 82",
    "lat": "37.53274997949223",
    "lng": "126.89428657293318",
    "region": "서울특별시"
  },
  {
    "name": "온양천도초등학교 운동장",
    "address": "충청남도 아산시 실옥동 183-6",
    "lat": "36.787509",
    "lng": "126.991848",
    "region": "충청남도"
  },
  {
    "name": "대철중학교 운동장",
    "address": "충청남도 서산시 운산면 갈산리 419-16",
    "lat": "36.80385447521142",
    "lng": "126.57872325227135",
    "region": "충청남도"
  },
  {
    "name": "서산중앙고등학교 운동장",
    "address": "충청남도 서산시 동문동 173-2",
    "lat": "36.77819460756935",
    "lng": "126.47116747084408",
    "region": "충청남도"
  },
  {
    "name": "성연초등학교 운동장",
    "address": "충청남도 서산시 성연면 일람리 1084",
    "lat": "36.82404470289583",
    "lng": "126.44884025215457",
    "region": "충청남도"
  },
  {
    "name": "고성유치원",
    "address": "경상남도 고성군 거류면 송산리 781-3",
    "lat": "34.98320939898842",
    "lng": "128.35970349146413",
    "region": "경상남도"
  },
  {
    "name": "금곡초등학교 운동장",
    "address": "경상남도 진주시 금곡면 두문리 682-5",
    "lat": "35.089539826870535",
    "lng": "128.18491150580357",
    "region": "경상남도"
  }
]