[
  {
    "name": "흥천초등학교 운동장",
    "address": "경기도 여주시 흥천면 효지리 377-3",
    "lat": "37.33240617007848",
    "lng": "127.54109016900568",
    "region": "경기도"
  },
  {
    "name": "강동초등학교 운동장",
    "address": "서울특별시 강동구 천호동 306",
    "lat": "37.54592024802855",
    "lng": "127.12996959439118",
    "region": "서울특별시"
  },
  {
    "name": "상품초등학교 운동장",
    "address": "경기도 여주시 산북면 상품리 12-1",
    "lat": "37.40475612780345",
    "lng": "127.44521957946532",
    "region": "경기도"
  },
  {
    "name": "경기관광고등학교 운동장",
    "address": "경기도 여주시 대신면 율촌리 271",
    "lat": "37.37602671121573",
    "lng": "127.59026548862427",
    "region": "경기도"
  },
  {
    "name": "성내초등학교 운동장",
    "address": "서울특별시 강동구 성내동 300-3",
    "lat": "37.5310372255377",
    "lng": "127.12210881767867",
    "region": "서울특별시"
  },
  {
    "name": "덕화공원",
    "address": "대구광역시 수성구 상동 400-1",
    "lat": "35.8319080",
    "lng": "128.615478",
    "region": "대구광역시"
  },
  {
    "name": "샛터공원",
    "address": "대구광역시 수성구 두산동 41",
    "lat": "35.8377652",
    "lng": "128.620853",
    "region": "대구광역시"
  },
  {
    "name": "길동초등학교 운동장",
    "address": "서울특별시 강동구 길동 362",
    "lat": "37.53816094775319",
    "lng": "127.14463473211418",
    "region": "서울특별시"
  },
  {
    "name": "신선중학교 운동장",
    "address": "부산광역시 영도구 신선동3가 110-1",
    "lat": "35.08025245441983",
    "lng": "129.0454361062781",
    "region": "부산광역시"
  },
  {
    "name": " 오학2통 마을회관",
    "address": "경기도 여주시 오학동 261-21",
    "lat": "37.310791150817906",
    "lng": "127.64388889074327",
    "region": "경기도"
  },
  {
    "name": "선린초등학교 운동장",
    "address": "서울특별시 강동구 둔촌동 91-17",
    "lat": "37.52920517679872",
    "lng": "127.14578303019474",
    "region": "서울특별시"
  },
  {
    "name": "도리 마을회관",
    "address": "경기도 여주시 점동면 도리 60-2",
    "lat": "37.22339434826891",
    "lng": "127.7056222874865",
    "region": "경기도"
  },
  {
    "name": " 이포1리 마을회관",
    "address": "경기도 여주시 금사면 이포리 175-4",
    "lat": "37.39565338270143",
    "lng": "127.53585728939369",
    "region": "경기도"
  },
  {
    "name": "세현고등학교 운동장",
    "address": "서울특별시 강서구 가양동 1491",
    "lat": "37.56002280616364",
    "lng": "126.86408681786455",
    "region": "서울특별시"
  },
  {
    "name": "초막골 생태공원",
    "address": "경기도 군포시 산본동 917-3",
    "lat": "37.349100104282996",
    "lng": "126.91841051129774",
    "region": "경기도"
  },
  {
    "name": "희망공원",
    "address": "경기도 시흥시 정왕동 1358",
    "lat": "37.33704133509194",
    "lng": "126.71472609043116",
    "region": "경기도"
  },
  {
    "name": "부산영선중학교 운동장",
    "address": "부산광역시 영도구 신선동3가 8",
    "lat": "35.085433892180326",
    "lng": "129.0443965501525",
    "region": "부산광역시"
  },
  {
    "name": "페가수스자리공원",
    "address": "경기도 용인시 기흥구 영덕동 1105-1",
    "lat": "37.27315552428278",
    "lng": "127.08876471408226",
    "region": "경기도"
  },
  {
    "name": "광명고등학교 운동장",
    "address": "부산광역시 영도구 동삼동 226-118",
    "lat": "35.0831654185248",
    "lng": "129.06434655189665",
    "region": "부산광역시"
  },
  {
    "name": "중리초등학교 운동장",
    "address": "부산광역시 영도구 동삼동 454-34",
    "lat": "35.074021607370256",
    "lng": "129.07063092686255",
    "region": "부산광역시"
  },
  {
    "name": "대평초등학교 운동장",
    "address": "부산광역시 영도구 남항동2가 65-9",
    "lat": "35.08745746286341",
    "lng": "129.03862775122994",
    "region": "부산광역시"
  },
  {
    "name": "여주시여성회관",
    "address": "경기도 여주시 천송동 553",
    "lat": "37.3001950293982",
    "lng": "127.65213995668078",
    "region": "경기도"
  },
  {
    "name": " 여주시장애인복지관",
    "address": "경기도 여주시 하동 199-4",
    "lat": "37.29931701839044",
    "lng": "127.63253493125005",
    "region": "경기도"
  },
  {
    "name": "세종대왕면 복지회관",
    "address": "경기도 여주시 세종대왕면 신지리 264-4",
    "lat": "37.29682087393909",
    "lng": "127.58380740880963",
    "region": "경기도"
  },
  {
    "name": "영도중학교 운동장",
    "address": "부산광역시 영도구 동삼동 510-5",
    "lat": "35.0771180978523",
    "lng": "129.06894616788372",
    "region": "부산광역시"
  },
  {
    "name": "장평초등학교 운동장",
    "address": "경상남도 거제시 장평동 348",
    "lat": "34.89355687187758",
    "lng": "128.6077572311639",
    "region": "경상남도"
  },
  {
    "name": "일운초등학교 운동장",
    "address": "경상남도 거제시 일운면 지세포리 745-1",
    "lat": "34.82833250608187",
    "lng": "128.70616224084569",
    "region": "경상남도"
  },
  {
    "name": "소정 어린이공원",
    "address": "경기도 수원시 장안구 파장동 603-7",
    "lat": "37.30540906041165",
    "lng": "126.99945742402028",
    "region": "경기도"
  },
  {
    "name": "석호초등학교 운동장",
    "address": "경기도 안산시 상록구 사동 1193",
    "lat": "37.30095565745121",
    "lng": "126.84811417261236",
    "region": "경기도"
  },
  {
    "name": "부산체육고등학교 운동장",
    "address": "부산광역시 영도구 동삼동 525",
    "lat": "35.07095035307397",
    "lng": "129.06515487718616",
    "region": "부산광역시"
  },
  {
    "name": "지세포중학교 운동장",
    "address": "경상남도 거제시 일운면 지세포리 980",
    "lat": "34.827899550356555",
    "lng": "128.70261451473664",
    "region": "경상남도"
  },
  {
    "name": "논산시민운동장",
    "address": "충청남도 논산시 관촉동 342",
    "lat": "36.19426237897098",
    "lng": "127.10329837564719",
    "region": "충청남도"
  },
  {
    "name": "구항면사무소 주차장",
    "address": "충청남도 홍성군 구항면 오봉리 735-1",
    "lat": "36.5875",
    "lng": "126.6108",
    "region": "충청남도"
  },
  {
    "name": "신기공원",
    "address": "대구광역시 수성구 신매동 586",
    "lat": "35.834592269735474",
    "lng": "128.70824035661613",
    "region": "대구광역시"
  },
  {
    "name": "노변공원",
    "address": "대구광역시 수성구 시지동 501",
    "lat": "35.839221913668666",
    "lng": "128.699030899186",
    "region": "대구광역시"
  },
  {
    "name": "창일중학교 운동장",
    "address": "서울특별시 도봉구 창동 369",
    "lat": "37.648432637141326",
    "lng": "127.04715066917183",
    "region": "서울특별시"
  },
  {
    "name": "신화초등학교 운동장",
    "address": "서울특별시 도봉구 창동 504-33",
    "lat": "37.632296180984895",
    "lng": "127.04147436822456",
    "region": "서울특별시"
  },
  {
    "name": "오봉초등학교 운동장",
    "address": "서울특별시 도봉구 도봉동 608-22",
    "lat": "37.67147797198014",
    "lng": "127.04046334342213",
    "region": "서울특별시"
  },
  {
    "name": "운천어린이공원",
    "address": "경기도 포천시 영북면 운천리 548-4",
    "lat": "38.088095618712195",
    "lng": "127.27080692349678",
    "region": "경기도"
  },
  {
    "name": "포천초등학교 운동장",
    "address": "경기도 포천시 신읍동 133",
    "lat": "37.89696333914303",
    "lng": "127.19719520754124",
    "region": "경기도"
  },
  {
    "name": "선단제4어린이공원",
    "address": "경기도 포천시 선단동 433-3",
    "lat": "37.85467814918041",
    "lng": "127.16373693830579",
    "region": "경기도"
  },
  {
    "name": "주성고등학교 운동장",
    "address": "충청북도 청주시 상당구 용담동 437",
    "lat": "36.634652583149055",
    "lng": "127.51052521843448",
    "region": "충청북도"
  },
  {
    "name": "정자공원",
    "address": "경기도 수원시 장안구 정자동 869-1",
    "lat": "37.298804225121",
    "lng": "126.9894287087234",
    "region": "경기도"
  },
  {
    "name": "효행공원",
    "address": "경기도 수원시 장안구 파장동 39-6",
    "lat": "37.32467272457792",
    "lng": "126.98731487192292",
    "region": "경기도"
  },
  {
    "name": "군산남초등학교 운동장",
    "address": "전북특별자치도 군산시 미원동 343",
    "lat": "35.97884585181919",
    "lng": "126.71456594029533",
    "region": "전북특별자치도"
  },
  {
    "name": "독봉산웰빙근린공원",
    "address": "경상남도 거제시 상동동 369",
    "lat": "34.87768243620826",
    "lng": "128.6344247915228",
    "region": "경상남도"
  },
  {
    "name": "장평동 근린공원",
    "address": "경상남도 거제시 장평동 145",
    "lat": "34.88593067572784",
    "lng": "128.60725211755727",
    "region": "경상남도"
  },
  {
    "name": "천호중학교 운동장",
    "address": "서울특별시 강동구 천호동 38-1",
    "lat": "37.54631201881789",
    "lng": "127.13996534299768",
    "region": "서울특별시"
  },
  {
    "name": "당곡초등학교 운동장",
    "address": "서울특별시 관악구 봉천동 692-8",
    "lat": "37.49000489154313",
    "lng": "126.92998378217322",
    "region": "서울특별시"
  },
  {
    "name": "절영초등학교 운동장",
    "address": "부산광역시 영도구 동삼동 1124-5",
    "lat": "35.07286258652145",
    "lng": "129.06264941514712",
    "region": "부산광역시"
  },
  {
    "name": "태안군청 ",
    "address": "충청남도 태안군 태안읍 남문리 90",
    "lat": "36.74524620758289",
    "lng": "126.29861891269137",
    "region": "충청남도"
  },
  {
    "name": "갈산고등학교 운동장",
    "address": "충청남도 홍성군 갈산면 상촌리 227-1",
    "lat": "36.604874825668574",
    "lng": "126.54846377639127",
    "region": "충청남도"
  },
  {
    "name": "봉삼초등학교 운동장",
    "address": "부산광역시 영도구 동삼동 510-8",
    "lat": "35.07472082861582",
    "lng": "129.06377701789125",
    "region": "부산광역시"
  },
  {
    "name": "남문공영주차장",
    "address": "충청남도 태안군 태안읍 남문리 156-3",
    "lat": "36.75211778170971",
    "lng": "126.29663472097931",
    "region": "충청남도"
  },
  {
    "name": "서동공원 서문주차장",
    "address": "충청남도 부여군 부여읍 동남리 172-1",
    "lat": "36.27138698936891",
    "lng": "126.90975581812845",
    "region": "충청남도"
  },
  {
    "name": "상문고등학교 운동장",
    "address": "서울특별시 서초구 방배동 1000-1",
    "lat": "37.47964454777878",
    "lng": "127.00431241911033",
    "region": "서울특별시"
  },
  {
    "name": "서초고등학교 운동장",
    "address": "서울특별시 서초구 서초동 1504",
    "lat": "37.48926140464406",
    "lng": "127.00645350509838",
    "region": "서울특별시"
  },
  {
    "name": "원명초등학교 운동장 ",
    "address": "서울특별시 서초구 서초동 1685-1",
    "lat": "37.50040580030646",
    "lng": "127.0168649053351",
    "region": "서울특별시"
  },
  {
    "name": "경원중학교 운동장",
    "address": "서울특별시 서초구 잠원동 66-1",
    "lat": "37.5109156513526",
    "lng": "127.00944752126077",
    "region": "서울특별시"
  },
  {
    "name": "서래초등학교 운동장",
    "address": "서울특별시 서초구 방배동 771",
    "lat": "37.495959294378956",
    "lng": "126.9894896304519",
    "region": "서울특별시"
  },
  {
    "name": "양재초등학교 운동장",
    "address": "서울특별시 서초구 양재동 101",
    "lat": "37.47382022892093",
    "lng": "127.03217850805493",
    "region": "서울특별시"
  },
  {
    "name": "우면초등학교 운동장",
    "address": "서울특별시 서초구 우면동 690",
    "lat": "37.46425025405966",
    "lng": "127.02384555005237",
    "region": "서울특별시"
  },
  {
    "name": "난향초등학교 운동장",
    "address": "서울특별시 관악구 신림동 672",
    "lat": "37.46220706302641",
    "lng": "126.91828927624987",
    "region": "서울특별시"
  },
  {
    "name": "지산어린이공원",
    "address": "대구광역시 수성구 지산동 1013",
    "lat": "35.8350172",
    "lng": "128.627493",
    "region": "대구광역시"
  },
  {
    "name": "사월공원",
    "address": "대구광역시 수성구 사월동 646",
    "lat": "35.838222684091626",
    "lng": "128.7218379978827",
    "region": "대구광역시"
  },
  {
    "name": "구리체육관공터",
    "address": "경기도 구리시 교문동 3-2",
    "lat": "37.59572020328887",
    "lng": "127.13640644813216",
    "region": "경기도"
  },
  {
    "name": "효문고등학교운동장",
    "address": "서울특별시 도봉구 쌍문동 468",
    "lat": "37.65254985860892",
    "lng": "127.01776014338608",
    "region": "서울특별시"
  },
  {
    "name": "갈천초등학교 운동장",
    "address": "경기도 화성시 향남읍 갈천리 156-1",
    "lat": "37.12738633408252",
    "lng": "126.98093533515932",
    "region": "경기도"
  },
  {
    "name": "노진초등학교 운동장",
    "address": "경기도 화성시 장안면 노진리 506-6",
    "lat": "37.05135780611609",
    "lng": "126.80886510247413",
    "region": "경기도"
  },
  {
    "name": "광교공원",
    "address": "경기도 수원시 장안구 하광교동 393-2",
    "lat": "37.30128983752046",
    "lng": "127.03065689558284",
    "region": "경기도"
  },
  {
    "name": "군산진포초등학교 운동장",
    "address": "전북특별자치도 군산시 나운동 1522",
    "lat": "35.965337789598806",
    "lng": "126.70500040054316",
    "region": "전북특별자치도"
  },
  {
    "name": "효광초등학교  운동장",
    "address": "광주광역시 서구 광천동 650-290",
    "lat": "35.16615188734739",
    "lng": "126.87974631786348",
    "region": "광주광역시"
  },
  {
    "name": "신천초등학교 운동장",
    "address": "강원특별자치도 영월군 한반도면 신천리 470-1",
    "lat": "37.23588136563166",
    "lng": "128.32867041910615",
    "region": "강원특별자치도"
  },
  {
    "name": "신우초등학교 운동장",
    "address": "서울특별시 관악구 신림동 315",
    "lat": "37.462738629732954",
    "lng": "126.9324250173475",
    "region": "서울특별시"
  },
  {
    "name": "숭문중고등학교 운동장",
    "address": "서울특별시 마포구 대흥동 28-14",
    "lat": "37.55150939346993",
    "lng": "126.94579029626009",
    "region": "서울특별시"
  },
  {
    "name": "한서초등학교 운동장",
    "address": "서울특별시 마포구 염리동 24-140",
    "lat": "37.55331036071592",
    "lng": "126.94916520430982",
    "region": "서울특별시"
  },
  {
    "name": "광성고등학교 운동장",
    "address": "서울특별시 마포구 신수동 91-20",
    "lat": "37.54848833421337",
    "lng": "126.93642417017631",
    "region": "서울특별시"
  },
  {
    "name": "서강초등학교 운동장 ",
    "address": "서울특별시 마포구 상수동 1-1",
    "lat": "37.54814693341808",
    "lng": "126.92680376193961",
    "region": "서울특별시"
  },
  {
    "name": "서강나루공원",
    "address": "서울특별시 마포구 창전동 165-5",
    "lat": "37.54529234394619",
    "lng": "126.93102563137445",
    "region": "서울특별시"
  },
  {
    "name": "성산초등학교 운동장",
    "address": "서울특별시 마포구 합정동 427-2",
    "lat": "37.55294277813519",
    "lng": "126.91113701905029",
    "region": "서울특별시"
  },
  {
    "name": "성미산공원(성산근린공원)",
    "address": "서울특별시 마포구 성산동 산11-61",
    "lat": "37.56124492329559",
    "lng": "126.91492020749675",
    "region": "서울특별시"
  },
  {
    "name": "외주목어린이공원",
    "address": "서울특별시 마포구 성산동 587-16",
    "lat": "37.56280465397642",
    "lng": "126.90772670671336",
    "region": "서울특별시"
  },
  {
    "name": "다솜어린이공원",
    "address": "서울특별시 마포구 성산동 113-2",
    "lat": "37.56250187000289",
    "lng": "126.91537893959197",
    "region": "서울특별시"
  },
  {
    "name": "큰길어린이공원",
    "address": "서울특별시 마포구 성산동 200-50",
    "lat": "37.567718379203846",
    "lng": "126.90818117847148",
    "region": "서울특별시"
  },
  {
    "name": "중동초등학교 운동장",
    "address": "서울특별시 마포구 성산동 94-1",
    "lat": "37.56660868523893",
    "lng": "126.91133305696432",
    "region": "서울특별시"
  },
  {
    "name": "성원초등학교 운동장",
    "address": "서울특별시 마포구 성산동 175-1",
    "lat": "37.56704993347338",
    "lng": "126.90441332407566",
    "region": "서울특별시"
  },
  {
    "name": "상암초등학교 운동장",
    "address": "서울특별시 마포구 상암동 1635",
    "lat": "37.575837553842554",
    "lng": "126.89189761464755",
    "region": "서울특별시"
  },
  {
    "name": "중동어린이공원",
    "address": "대구광역시 수성구 중동 171",
    "lat": "35.8415854",
    "lng": "128.615541",
    "region": "대구광역시"
  },
  {
    "name": "낙동초등학교운동장",
    "address": "부산광역시 사하구 당리동 313-6",
    "lat": "35.10535418674635",
    "lng": "128.97290664609642",
    "region": "부산광역시"
  },
  {
    "name": "백석초등학교운동장",
    "address": "서울특별시 강서구 등촌동 650-14",
    "lat": "37.5532523724921",
    "lng": "126.86203514370423",
    "region": "서울특별시"
  },
  {
    "name": "등촌초등학교운동장",
    "address": "서울특별시 강서구 등촌동 520-4",
    "lat": "37.54764248154407",
    "lng": "126.85836869306941",
    "region": "서울특별시"
  },
  {
    "name": "충암초중고등학교 운동장",
    "address": "서울특별시 은평구 응암동 272-113",
    "lat": "37.5849886016921",
    "lng": "126.9214950132025",
    "region": "서울특별시"
  },
  {
    "name": "원당초등학교 운동장",
    "address": "서울특별시 관악구 봉천동 1669-1",
    "lat": "37.481143",
    "lng": "126.956212",
    "region": "서울특별시"
  },
  {
    "name": "남부초등학교 운동장",
    "address": "서울특별시 관악구 신림동 467",
    "lat": "37.48482633250751",
    "lng": "126.92206794168578",
    "region": "서울특별시"
  },
  {
    "name": "등촌중학교운동장",
    "address": "서울특별시 강서구 등촌동 615-3",
    "lat": "37.55233287727965",
    "lng": "126.85977190732955",
    "region": "서울특별시"
  },
  {
    "name": "등현초등학교운동장",
    "address": "서울특별시 강서구 등촌동 702-5",
    "lat": "37.5610508053549",
    "lng": "126.84789839794223",
    "region": "서울특별시"
  },
  {
    "name": "화곡초등학교운동장",
    "address": "서울특별시 강서구 화곡동 24-266",
    "lat": "37.543289288024056",
    "lng": "126.846159659849",
    "region": "서울특별시"
  },
  {
    "name": "신월초등학교운동장",
    "address": "서울특별시 강서구 화곡동 1080",
    "lat": "37.539950855493714",
    "lng": "126.8391021068712",
    "region": "서울특별시"
  },
  {
    "name": "신정초등학교운동장",
    "address": "서울특별시 강서구 화곡동 869-42",
    "lat": "37.53241997272598",
    "lng": "126.85264011740094",
    "region": "서울특별시"
  },
  {
    "name": "덕원중학교 운동장",
    "address": "서울특별시 강서구 내발산동 산59-2",
    "lat": "37.549689656537126",
    "lng": "126.82910084724428",
    "region": "서울특별시"
  },
  {
    "name": "신곡초등학교운동장",
    "address": "서울특별시 강서구 화곡동 476-42",
    "lat": "37.5386158093432",
    "lng": "126.85589187840479",
    "region": "서울특별시"
  },
  {
    "name": "거제초등학교 운동장",
    "address": "경상남도 거제시 거제면 동상리 415",
    "lat": "34.85151213090049",
    "lng": "128.59187947166862",
    "region": "경상남도"
  },
  {
    "name": "화원중학교운동장",
    "address": "서울특별시 강서구 화곡동 351-94",
    "lat": "37.53658746656765",
    "lng": "126.84222564244324",
    "region": "서울특별시"
  },
  {
    "name": "우장초등학교운동장",
    "address": "서울특별시 강서구 화곡동 18-5",
    "lat": "37.54880462581309",
    "lng": "126.8463299875282",
    "region": "서울특별시"
  },
  {
    "name": "내발산초등학교운동장",
    "address": "서울특별시 강서구 내발산동 707",
    "lat": "37.55126775843894",
    "lng": "126.83786790364597",
    "region": "서울특별시"
  },
  {
    "name": "양천초등학교운동장",
    "address": "서울특별시 강서구 가양동 272-11",
    "lat": "37.56989842418126",
    "lng": "126.83977771212109",
    "region": "서울특별시"
  },
  {
    "name": "가양초등학교운동장",
    "address": "서울특별시 강서구 가양동 1484",
    "lat": "37.561584685520415",
    "lng": "126.85933688996248",
    "region": "서울특별시"
  },
  {
    "name": "동구로초등학교 운동장",
    "address": "서울특별시 구로구 구로동 93",
    "lat": "37.494677659491245",
    "lng": "126.89264541877687",
    "region": "서울특별시"
  },
  {
    "name": "미래초등학교 운동장",
    "address": "서울특별시 구로구 구로동 3-13",
    "lat": "37.50490665148801",
    "lng": "126.8878460914351",
    "region": "서울특별시"
  },
  {
    "name": "가곡초등학교운동장",
    "address": "서울특별시 강서구 마곡동 809",
    "lat": "37.55542679373617",
    "lng": "126.83564007282257",
    "region": "서울특별시"
  },
  {
    "name": "발산초등학교운동장",
    "address": "서울특별시 강서구 내발산동 408",
    "lat": "37.54969722899266",
    "lng": "126.83107226019361",
    "region": "서울특별시"
  },
  {
    "name": "덕의초등학교 운동장",
    "address": "서울특별시 구로구 고척동 217",
    "lat": "37.506011018591856",
    "lng": "126.85670866013675",
    "region": "서울특별시"
  },
  {
    "name": "개화초등학교운동장",
    "address": "서울특별시 강서구 방화동 502",
    "lat": "37.573443380679905",
    "lng": "126.80459082126615",
    "region": "서울특별시"
  },
  {
    "name": "경인중학교 운동장",
    "address": "서울특별시 구로구 개봉동 143-4",
    "lat": "37.4981186259823",
    "lng": "126.85424838969186",
    "region": "서울특별시"
  },
  {
    "name": "치현초등학교운동장",
    "address": "서울특별시 강서구 방화동 833",
    "lat": "37.575616558564995",
    "lng": "126.81457157790726",
    "region": "서울특별시"
  },
  {
    "name": "삼정초등학교운동장",
    "address": "서울특별시 강서구 방화동 798",
    "lat": "37.579959721827",
    "lng": "126.81024559268879",
    "region": "서울특별시"
  },
  {
    "name": "삼정중학교운동장",
    "address": "서울특별시 강서구 방화동 856",
    "lat": "37.58122529976007",
    "lng": "126.81074638792727",
    "region": "서울특별시"
  },
  {
    "name": "개웅중학교 ��동장",
    "address": "서울특별시 구로구 개봉동 273-15",
    "lat": "37.48722880830803",
    "lng": "126.85121834278105",
    "region": "서울특별시"
  },
  {
    "name": "방원중학교운동장",
    "address": "서울특별시 강서구 방화동 808",
    "lat": "37.57575811193018",
    "lng": "126.80881386537322",
    "region": "서울특별시"
  },
  {
    "name": "덕일전자공업고등학교  운동장",
    "address": "서울특별시 구로구 오류동 199-1",
    "lat": "37.49026644286148",
    "lng": "126.837259830707",
    "region": "서울특별시"
  },
  {
    "name": "오량초등학교 운동장",
    "address": "경상남도 거제시 사등면 덕호리 14-1",
    "lat": "34.886424532704595",
    "lng": "128.4823475416875",
    "region": "경상남도"
  },
  {
    "name": "수동공원",
    "address": "대구광역시 수성구 지산동 1280",
    "lat": "35.8249305",
    "lng": "128.637002",
    "region": "대구광역시"
  },
  {
    "name": "하남중학교운동장",
    "address": "부산광역시 사하구 하단동 1181-2",
    "lat": "35.0992831831903",
    "lng": "128.95891427994346",
    "region": "부산광역시"
  },
  {
    "name": "용지어린이공원",
    "address": "대구광역시 수성구 범물동 1283-2",
    "lat": "35.82078409134686",
    "lng": "128.64622235298188",
    "region": "대구광역시"
  },
  {
    "name": "부산자동차고등학교운동장",
    "address": "부산광역시 사하구 장림동 878",
    "lat": "35.075848177467854",
    "lng": "128.9640416655613",
    "region": "부산광역시"
  },
  {
    "name": "청솔공원",
    "address": "대구광역시 수성구 신매동 580-2",
    "lat": "35.83668434851571",
    "lng": "128.7060609489755",
    "region": "대구광역시"
  },
  {
    "name": "삼각어린이공원",
    "address": "대구광역시 수성구 매호동 1329",
    "lat": "35.8433",
    "lng": "128.7076",
    "region": "대구광역시"
  },
  {
    "name": "몰운대초등학교운동장",
    "address": "부산광역시 사하구 다대동 1633",
    "lat": "35.054580598833425",
    "lng": "128.96302074194475",
    "region": "부산광역시"
  },
  {
    "name": "다선중학교운동장",
    "address": "부산광역시 사하구 다대동 1549-3",
    "lat": "35.05226413364854",
    "lng": "128.96419286728218",
    "region": "부산광역시"
  },
  {
    "name": "구지초등학교운동장",
    "address": "경기도 구리시 인창동 666-3",
    "lat": "37.60701185274018",
    "lng": "127.14233163176989",
    "region": "경기도"
  },
  {
    "name": "인창초등학교운동장",
    "address": "경기도 구리시 인창동 546-9",
    "lat": "37.60476158517724",
    "lng": "127.13181388365496",
    "region": "경기도"
  },
  {
    "name": "동북초등학교 운동장",
    "address": "서울특별시 도봉구 쌍문동 263",
    "lat": "37.65508954946935",
    "lng": "127.0262663563369",
    "region": "서울특별시"
  },
  {
    "name": "기안초등학교 운동장",
    "address": "경기도 화성시 기안동 226",
    "lat": "37.225050906287294",
    "lng": "126.98229466874155",
    "region": "경기도"
  },
  {
    "name": "북서울중학교 운동장",
    "address": "서울특별시 도봉구 도봉동 585",
    "lat": "37.6811021308554",
    "lng": "127.04307248934425",
    "region": "서울특별시"
  },
  {
    "name": "진관중학교 운동장",
    "address": "서울특별시 은평구 진관동 16",
    "lat": "37.643896396935745",
    "lng": "126.92615493243326",
    "region": "서울특별시"
  },
  {
    "name": "덕산중학교 운동장",
    "address": "서울특별시 은평구 신사동 265-4",
    "lat": "37.60166426920401",
    "lng": "126.90416008015612",
    "region": "서울특별시"
  },
  {
    "name": "삼성중공업 A운동장",
    "address": "경상남도 거제시 장평동 530-1",
    "lat": "34.8951231612679",
    "lng": "128.6085756959034",
    "region": "경상남도"
  },
  {
    "name": "성남신기초등학교운동장",
    "address": "경기도 성남시 분당구 정자동 89",
    "lat": "37.3667451926279",
    "lng": "127.11051018100683",
    "region": "경기도"
  },
  {
    "name": "녹전초등학교 운동장",
    "address": "강원특별자치도 영월군 산솔면 녹전리 756-2",
    "lat": "37.14762863342802",
    "lng": "128.68157697876143",
    "region": "강원특별자치도"
  },
  {
    "name": "하단중학교운동장",
    "address": "부산광역시 사하구 하단동 502-1",
    "lat": "35.11076086376922",
    "lng": "128.96006239987344",
    "region": "부산광역시"
  },
  {
    "name": "건국중학교운동장",
    "address": "부산광역시 사하구 하단동 산40-1",
    "lat": "35.10940344063089",
    "lng": "128.9692032337172",
    "region": "부산광역시"
  },
  {
    "name": "장평중학교운동장",
    "address": "부산광역시 사하구 감천동 567-9",
    "lat": "35.09368709810237",
    "lng": "128.99456441408012",
    "region": "부산광역시"
  },
  {
    "name": "구리초등학교운동장",
    "address": "경기도 구리시 수택동 553",
    "lat": "37.60087942622162",
    "lng": "127.14778140897191",
    "region": "경기도"
  },
  {
    "name": "남일초등학교 운동장",
    "address": "충청북도 청주시 상당구 남일면 쌍수리 321-33",
    "lat": "36.57579121575956",
    "lng": "127.51027236729324",
    "region": "충청북도"
  },
  {
    "name": "도동측백나무숲주차장",
    "address": "대구광역시 동구 도동 471",
    "lat": "35.918870628467516",
    "lng": "128.66211768324573",
    "region": "대구광역시"
  },
  {
    "name": "일동초등학교 운동장",
    "address": "경기도 포천시 일동면 기산리 281-1",
    "lat": "37.95487122971804",
    "lng": "127.31441748647009",
    "region": "경기도"
  },
  {
    "name": "일동장터공영주차장",
    "address": "경기도 포천시 일동면 기산리 94-36",
    "lat": "37.95939375133751",
    "lng": "127.32010608431595",
    "region": "경기도"
  },
  {
    "name": "영북체육문화센터",
    "address": "경기도 포천시 영북면 운천리 567",
    "lat": "38.084924138785595",
    "lng": "127.27350899353539",
    "region": "경기도"
  },
  {
    "name": "관인초등학교 운동장",
    "address": "경기도 포천시 관인면 탄동리 664-1",
    "lat": "38.15662387794799",
    "lng": "127.25050356705387",
    "region": "경기도"
  },
  {
    "name": "화현초등학교 운동장",
    "address": "경기도 포천시 화현면 화현리 847-1",
    "lat": "37.901744190541976",
    "lng": "127.2847403040822",
    "region": "경기도"
  },
  {
    "name": "왕방초등학교 운동장",
    "address": "경기도 포천시 신북면 가채리 819-15",
    "lat": "37.904824896998136",
    "lng": "127.20199819996517",
    "region": "경기도"
  },
  {
    "name": "죽리초등학교 운동장",
    "address": "충청북도 증평군 증평읍 죽리 308",
    "lat": "36.75341575729222",
    "lng": "127.61213462596704",
    "region": "충청북도"
  },
  {
    "name": "서울컨벤션고등학교 운동장",
    "address": "서울특별시 강동구 고덕동 295-1",
    "lat": "37.55939131246332",
    "lng": "127.15762244773275",
    "region": "서울특별시"
  },
  {
    "name": "개명초등학교 운동장",
    "address": "서울특별시 구로구 개봉동 314-165",
    "lat": "37.482814298068284",
    "lng": "126.85108870036544",
    "region": "서울특별시"
  },
  {
    "name": "오호초등학교 운동장",
    "address": "강원특별자치도 고성군 죽왕면 삼포리 152-3",
    "lat": "38.31315830756499",
    "lng": "128.5316923387068",
    "region": "강원특별자치도"
  },
  {
    "name": "연초중학교 운동장",
    "address": "경상남도 거제시 연초면 죽토리 724",
    "lat": "34.913122709036905",
    "lng": "128.6598644892471",
    "region": "경상남도"
  },
  {
    "name": "마전초등학교 운동장",
    "address": "경상남도 거제시 장승포동 613",
    "lat": "34.859920128552574",
    "lng": "128.72054886426125",
    "region": "경상남도"
  },
  {
    "name": "장승포초등학교 운동장",
    "address": "경상남도 거제시 장승포동 319",
    "lat": "34.869445995964085",
    "lng": "128.7292022110551",
    "region": "경상남도"
  },
  {
    "name": "아주초등학교 운동장",
    "address": "경상남도 거제시 아주동 352-4",
    "lat": "34.86441262598948",
    "lng": "128.6929789835717",
    "region": "경상남도"
  },
  {
    "name": "국산초등학교 운동장",
    "address": "경상남도 거제시 옥포동 919",
    "lat": "34.89686162039276",
    "lng": "128.69334031973884",
    "region": "경상남도"
  },
  {
    "name": "옥포초등학교 운동장",
    "address": "경상남도 거제시 옥포동 539-1",
    "lat": "34.89211422656151",
    "lng": "128.69045887478313",
    "region": "경상남도"
  },
  {
    "name": "옥포 1근린공원",
    "address": "경상남도 거제시 옥포동 1285",
    "lat": "34.90042175946316",
    "lng": "128.68697164765788",
    "region": "경상남도"
  },
  {
    "name": "거제스포츠파크",
    "address": "경상남도 거제시 거제면 서정리 823-13",
    "lat": "34.8525996359085",
    "lng": "128.58166423441398",
    "region": "경상남도"
  },
  {
    "name": "거제종합운동장",
    "address": "경상남도 거제시 고현동 564",
    "lat": "34.88354059254428",
    "lng": "128.61817960137037",
    "region": "경상남도"
  },
  {
    "name": "대경공원",
    "address": "대구광역시 수성구 황금동 882-2",
    "lat": "35.8413794",
    "lng": "128.618127",
    "region": "대구광역시"
  },
  {
    "name": "무궁화공원",
    "address": "대구광역시 수성구 중동 12",
    "lat": "35.8508202",
    "lng": "128.615684",
    "region": "대구광역시"
  },
  {
    "name": "옥포운동장",
    "address": "경상남도 거제시 옥포동 1128",
    "lat": "34.901208140727555",
    "lng": "128.69372816599815",
    "region": "경상남도"
  },
  {
    "name": "둔덕가족생활체육공원",
    "address": "경상남도 거제시 둔덕면 하둔리 632-1",
    "lat": "34.83329175126135",
    "lng": "128.50450482339483",
    "region": "경상남도"
  },
  {
    "name": "사등운동장",
    "address": "경상남도 거제시 사등면 지석리 1223",
    "lat": "34.90644215305952",
    "lng": "128.51437067848425",
    "region": "경상남도"
  },
  {
    "name": "고현보조운동장",
    "address": "경상남도 거제시 고현동 906",
    "lat": "34.883551714368686",
    "lng": "128.6162412325419",
    "region": "경상남도"
  },
  {
    "name": "대신고등학교 운동장",
    "address": "서울특별시 종로구 행촌동 171-1",
    "lat": "37.573043720798054",
    "lng": "126.96183532476425",
    "region": "서울특별시"
  },
  {
    "name": "배수지어린이공원",
    "address": "대구광역시 수성구 범물동 1302",
    "lat": "35.816038375751496",
    "lng": "128.64829301834138",
    "region": "대구광역시"
  },
  {
    "name": "신남초등학교운동장",
    "address": "부산광역시 사하구 신평동 667-1",
    "lat": "35.0985633945652",
    "lng": "128.96191835403553",
    "region": "부산광역시"
  },
  {
    "name": "미진공원",
    "address": "대구광역시 수성구 시지동 498-1",
    "lat": "35.83773129061908",
    "lng": "128.69650266429474",
    "region": "대구광역시"
  },
  {
    "name": "성동초등학교 운동장",
    "address": "울산광역시 울주군 서생면 서생리 387",
    "lat": "35.385094238108515",
    "lng": "129.3413785099976",
    "region": "울산광역시"
  },
  {
    "name": "서생초등학교 운동장",
    "address": "울산광역시 울주군 서생면 신암리 178-4",
    "lat": "35.35419968437683",
    "lng": "129.32546578188982",
    "region": "울산광역시"
  },
  {
    "name": "보성여자중고등학교 운동장",
    "address": "서울특별시 용산구 용산동2가 1-1123",
    "lat": "37.54277388418453",
    "lng": "126.98448389768602",
    "region": "서울특별시"
  },
  {
    "name": "청파초등학교 운동장",
    "address": "서울특���시 용산구 청파동2가 1-42",
    "lat": "37.547378053320266",
    "lng": "126.96412006790835",
    "region": "서울특���시"
  },
  {
    "name": "가야초등학교 운동장",
    "address": "경상남도 함안군 가야읍 도항리 88-1",
    "lat": "35.278136062792235",
    "lng": "128.40279427836248",
    "region": "경상남도"
  },
  {
    "name": "함주공원(다목적구장)",
    "address": "경상남도 함안군 가야읍 도항리 249-48",
    "lat": "35.282953",
    "lng": "128.40058",
    "region": "경상남도"
  },
  {
    "name": "함안중학교 운동장",
    "address": "경상남도 함안군 가야읍 도항리 163-3",
    "lat": "35.28292099060072",
    "lng": "128.40400297890412",
    "region": "경상남도"
  },
  {
    "name": "함안고등학교 운동장",
    "address": "경상남도 함안군 가야읍 도항리 163-4",
    "lat": "35.28239574095879",
    "lng": "128.40486942310733",
    "region": "경상남도"
  },
  {
    "name": "명덕고등학교 운동장",
    "address": "경상남도 함안군 가야읍 도항리 463",
    "lat": "35.27304257468463",
    "lng": "128.40255641684485",
    "region": "경상남도"
  },
  {
    "name": "중앙초등학교 운동장",
    "address": "경상남도 함안군 가야읍 산서리 684-390",
    "lat": "35.29300606988868",
    "lng": "128.40105590287124",
    "region": "경상남도"
  },
  {
    "name": "칠원공설운동장",
    "address": "경상남도 함안군 칠원읍 용산리 322",
    "lat": "35.3109515826876",
    "lng": "128.51433040417174",
    "region": "경상남도"
  },
  {
    "name": "유원초등학교 운동장",
    "address": "경상남도 함안군 칠원읍 유원리 374",
    "lat": "35.29776357632069",
    "lng": "128.49673392740937",
    "region": "경상남도"
  },
  {
    "name": "호암중학교 운동장",
    "address": "경상남도 함안군 칠원읍 오곡리 101",
    "lat": "35.274520802068245",
    "lng": "128.52156707817164",
    "region": "경상남도"
  },
  {
    "name": "함안면공설운동장",
    "address": "경상남도 함안군 함안면 북촌리 1030",
    "lat": "35.24080418456711",
    "lng": "128.41984391212472",
    "region": "경상남도"
  },
  {
    "name": "함성중학교 운동장",
    "address": "경상남도 함안군 함안면 북촌리 1002-3",
    "lat": "35.24152898604977",
    "lng": "128.42105007841326",
    "region": "경상남도"
  },
  {
    "name": "군북중학교 운동장",
    "address": "경상남도 함안군 군북면 덕대리 267",
    "lat": "35.260713896203875",
    "lng": "128.3435626586347",
    "region": "경상남도"
  },
  {
    "name": "월촌초등학교 운동장",
    "address": "경상남도 함안군 군북면 월촌리 1214",
    "lat": "35.291240243928996",
    "lng": "128.3032120771482",
    "region": "경상남도"
  },
  {
    "name": "우거초등학교(폐교)운동장",
    "address": "경상남도 함안�� 법수면 우거리 789",
    "lat": "35.31599534135952",
    "lng": "128.35302901559263",
    "region": "경상남도"
  },
  {
    "name": "대산초등학교 운동장",
    "address": "경상남도 함안군 대산면 구혜리 229",
    "lat": "35.350966479918775",
    "lng": "128.4312091952233",
    "region": "경상남도"
  },
  {
    "name": "칠서초등학교 운동장",
    "address": "경상남도 함안군 칠서면 청계리 729",
    "lat": "35.33233535507325",
    "lng": "128.49844279658228",
    "region": "경상남도"
  },
  {
    "name": "칠성중학교 운동장",
    "address": "경상남도 함안군 칠서면 용성리 22-22",
    "lat": "35.38808788955513",
    "lng": "128.50290123003006",
    "region": "경상남도"
  },
  {
    "name": "칠서 공설운동장",
    "address": "경상남도 함안군 칠서면 대치리 281",
    "lat": "35.37179607811901",
    "lng": "128.47534878707702",
    "region": "경상남도"
  },
  {
    "name": "경상남도교육청 낙동강학생교육원 칠북분원",
    "address": "경상남도 함안군 칠북면 검단리 980",
    "lat": "35.348017320876586",
    "lng": "128.52749488755137",
    "region": "경상남도"
  },
  {
    "name": "칠서초등학교 이룡분교",
    "address": "경상남도 함안군 칠서면 이룡리 900",
    "lat": "35.387257272221085",
    "lng": "128.50629431689583",
    "region": "경상남도"
  },
  {
    "name": "산인초등학교",
    "address": "경상남도 함안군 산인면 내인리 204",
    "lat": "35.28981182893706",
    "lng": "128.432528936568",
    "region": "경상남도"
  },
  {
    "name": "여항면공설운동장",
    "address": "경상남도 함안군 여항면 외암리 725",
    "lat": "35.208401388461624",
    "lng": "128.4347916879877",
    "region": "경상남도"
  },
  {
    "name": "성화중학교 운동장",
    "address": "충청북도 청주시 서원구 성화동 615",
    "lat": "36.61683993916343",
    "lng": "127.45939602480142",
    "region": "충청북도"
  },
  {
    "name": "대구어린이세상",
    "address": "대구광역시 수성구 황금동 626",
    "lat": "35.84601289033412",
    "lng": "128.6279397547186",
    "region": "대구광역시"
  },
  {
    "name": "건국고등학교운동장",
    "address": "부산광역시 사하구 하단동 716",
    "lat": "35.11056196757242",
    "lng": "128.96912813186944",
    "region": "부산광역시"
  },
  {
    "name": "개신초등학교 운동장",
    "address": "충청북도 청주시 서원구 개신동 637",
    "lat": "36.61977489401988",
    "lng": "127.44885907539086",
    "region": "충청북도"
  },
  {
    "name": "죽림초등학교 운동장",
    "address": "충청북도 청주시 서원구 죽림동 293",
    "lat": "36.612239853151124",
    "lng": "127.44324489862122",
    "region": "충청북도"
  },
  {
    "name": "청주종합경기장",
    "address": "충청북도 청주시 서원구 사직동 808",
    "lat": "36.63818307184125",
    "lng": "127.472121270665",
    "region": "충청북도"
  },
  {
    "name": "청주야구장",
    "address": "충청북도 청주시 서원구 사직동 888-1",
    "lat": "36.63869890704834",
    "lng": "127.4699914599597",
    "region": "충청북도"
  },
  {
    "name": "순흥초등학교 운동장",
    "address": "경상북도 영주시 순흥면 읍내리 378-2",
    "lat": "36.91141627796035",
    "lng": "128.5771843007662",
    "region": "경상북도"
  },
  {
    "name": "강남중학교 운동장",
    "address": "서울특별시 동작구 대방동 390-6",
    "lat": "37.50240497685318",
    "lng": "126.92253705702416",
    "region": "서울특별시"
  },
  {
    "name": "능안공원",
    "address": "서울특별시 강서구 등촌동 517-1",
    "lat": "37.546464824053885",
    "lng": "126.8600624604081",
    "region": "서울특별시"
  },
  {
    "name": "볏골어린이공원",
    "address": "서울특별시 강서구 화곡동 98-99",
    "lat": "37.54147409721499",
    "lng": "126.8443672488712",
    "region": "서울특별시"
  },
  {
    "name": "구름공원",
    "address": "서울특별시 강서구 화곡동 98-22",
    "lat": "37.5433402130384",
    "lng": "126.84400039242433",
    "region": "서울특별시"
  },
  {
    "name": "뜸부기공원",
    "address": "서울특별시 강서구 화곡동 845-19",
    "lat": "37.530130054917954",
    "lng": "126.85695132146803",
    "region": "서울특별시"
  },
  {
    "name": "천사어린이공원",
    "address": "서울특별시 강서구 화곡동 1139-1",
    "lat": "37.546903272509084",
    "lng": "126.83299079208253",
    "region": "서울특별시"
  },
  {
    "name": "능골공원",
    "address": "서울특별시 강서구 화곡동 468-1",
    "lat": "37.53674812455888",
    "lng": "126.85529152687796",
    "region": "서울특별시"
  },
  {
    "name": "황금내근린공원",
    "address": "서울특별시 강서구 가양동 1485-5",
    "lat": "37.561979943770076",
    "lng": "126.86380863189694",
    "region": "서울특별시"
  },
  {
    "name": "활주로상상어린이공원",
    "address": "서울특별시 강서구 공항동 1341",
    "lat": "37.55441460231236",
    "lng": "126.81593195797998",
    "region": "서울특별시"
  },
  {
    "name": "도레미공원",
    "address": "서울특별시 강서구 마곡동 산17",
    "lat": "37.57156411022687",
    "lng": "126.8193697929382",
    "region": "서울특별시"
  },
  {
    "name": "민들레공원",
    "address": "서울특별시 강서구 방화동 648-13",
    "lat": "37.5672811866308",
    "lng": "126.80673535868728",
    "region": "서울특별시"
  },
  {
    "name": "구일고등학교 운동장",
    "address": "서울특별시 구로구 구로동 685-194",
    "lat": "37.49380737683605",
    "lng": "126.87403132893384",
    "region": "서울특별시"
  },
  {
    "name": "우이제일교회 공터",
    "address": "서울특별시 강북구 우이동 137",
    "lat": "37.65984066863137",
    "lng": "127.01029077172278",
    "region": "서울특별시"
  },
  {
    "name": "고척초등학교 운동장",
    "address": "서울특별시 구로구 고척동 129-3",
    "lat": "37.50060003764499",
    "lng": "126.8573852717477",
    "region": "서울특별시"
  },
  {
    "name": "개봉초등학교 운동장",
    "address": "서울특별시 구로구 개봉동 266",
    "lat": "37.48940390270021",
    "lng": "126.85845494270322",
    "region": "서울특별시"
  },
  {
    "name": "천안신사초등학교 운동장",
    "address": "충청남도 천안시 동남구 성남면 신사리 345",
    "lat": "36.742598269460835",
    "lng": "127.23760664463042",
    "region": "충청남도"
  },
  {
    "name": "천안서당초등학교 운동장",
    "address": "충청남도 천안시 서북구 불당동 816",
    "lat": "36.803871293232774",
    "lng": "127.11371594315345",
    "region": "충청남도"
  },
  {
    "name": "예솔초등학교 운동장",
    "address": "경기도 화성시 청계동 553",
    "lat": "37.19600146966999",
    "lng": "127.11948752403258",
    "region": "경기도"
  },
  {
    "name": "홍동초등학교 운동장",
    "address": "충청남도 홍성군 홍동면 운월리 221",
    "lat": "36.557025722961775",
    "lng": "126.68852873484715",
    "region": "충청남도"
  },
  {
    "name": "선봉어린이공원",
    "address": "서울특별시 관악구 봉천동 942-29",
    "lat": "37.48514016786947",
    "lng": "126.93963309333121",
    "region": "서울특별시"
  },
  {
    "name": "은진초등학교 운동장",
    "address": "충청남도 논산시 은진면 연서리 231-1",
    "lat": "36.167759764110315",
    "lng": "127.10966393351556",
    "region": "충청남도"
  },
  {
    "name": "논산동성초등학교 운동장",
    "address": "충청남도 논산시 취암동 310-1",
    "lat": "36.2024767895061",
    "lng": "127.09278964931998",
    "region": "충청남도"
  },
  {
    "name": "광문고등학교 운동장",
    "address": "서울특별시 강동구 고덕동 295",
    "lat": "37.55993930636415",
    "lng": "127.15789908326337",
    "region": "서울특별시"
  },
  {
    "name": "태릉고등학교운동장",
    "address": "서울특별시 중랑구 묵동 6",
    "lat": "37.61872092270616",
    "lng": "127.0851608195219",
    "region": "서울특별시"
  },
  {
    "name": "역말어린이공원",
    "address": "서울특별시 강서구 화곡동 978-18",
    "lat": "37.54964346793211",
    "lng": "126.84876914628815",
    "region": "서울특별시"
  },
  {
    "name": "나들이공원",
    "address": "서울특별시 강서구 가양동 1459-1",
    "lat": "37.57182141927365",
    "lng": "126.84425397441476",
    "region": "서울특별시"
  },
  {
    "name": "쌈지어린이공원",
    "address": "서울특별시 강서구 방화동 266-24",
    "lat": "37.571213003949104",
    "lng": "126.81504828692273",
    "region": "서울특별시"
  },
  {
    "name": "구로남초등학교 운동장",
    "address": "서울특별시 구로구 구로동 253",
    "lat": "37.48466188121302",
    "lng": "126.89077862584035",
    "region": "서울특별시"
  },
  {
    "name": "신양중학교 운동장",
    "address": "서울특별시 광진구 자양동 57-8",
    "lat": "37.53312742347802",
    "lng": "127.06356600284343",
    "region": "서울특별시"
  },
  {
    "name": "안양천 영롱이 인라인 마당",
    "address": "서울특별시 영등포구 문래동5가 31",
    "lat": "37.51769989518341",
    "lng": "126.88069045543668",
    "region": "서울특별시"
  },
  {
    "name": "거주자우선주차장(사근동)",
    "address": "서울특별시 성동구 사근동 282-2",
    "lat": "37.56503169168372",
    "lng": "127.04731345413514",
    "region": "서울특별시"
  },
  {
    "name": "성삼공원",
    "address": "서울특별시 성동구 성수동2가 273-11",
    "lat": "37.542050792120044",
    "lng": "127.06015828946126",
    "region": "서울특별시"
  },
  {
    "name": "대전동광초등학교 운동장",
    "address": "대전광역시 동구 자양동 94-3",
    "lat": "36.33691277620177",
    "lng": "127.44977181587845",
    "region": "대전광역시"
  },
  {
    "name": "에코랜드 수영장 앞 공터",
    "address": "경기도 남양주시 별내면 광전리 1",
    "lat": "37.703692191102725",
    "lng": "127.12902768975209",
    "region": "경기도"
  },
  {
    "name": "문덕3 어린이공원",
    "address": "경상북도 포항시 남구 오천읍 문덕리 404-5",
    "lat": "35.95615039739255",
    "lng": "129.40485356660372",
    "region": "경상북도"
  },
  {
    "name": "신정1리 마을회관",
    "address": "경상북도 포항시 남구 동해면 신정리 96-1",
    "lat": "35.97695035088116",
    "lng": "129.456829752437",
    "region": "경상북도"
  },
  {
    "name": "남송1리 마을회관",
    "address": "경상북도 포항시 북구 흥해읍 남송리 709",
    "lat": "36.100133952757034",
    "lng": "129.36794459122535",
    "region": "경상북도"
  },
  {
    "name": "청운초등학교",
    "address": "전북특별자치도 김제시 금구면 청운리 198",
    "lat": "35.81043040137756",
    "lng": "126.98319890365957",
    "region": "전북특별자치도"
  },
  {
    "name": "평사공원",
    "address": "대구광역시 서구 평리동 1347",
    "lat": "35.8676",
    "lng": "128.5578",
    "region": "대구광역시"
  },
  {
    "name": "평리2동 소공원",
    "address": "대구광역시 서구 평리동 1177-4",
    "lat": "35.8681169626238",
    "lng": "128.56578290462514",
    "region": "대구광역시"
  },
  {
    "name": "발곡고등학교",
    "address": "경기도 의정부시 신곡동 248-36",
    "lat": "37.72840463453654",
    "lng": "127.06720590591434",
    "region": "경기도"
  },
  {
    "name": "다리목근린공원",
    "address": "경기도 의정부시 민락동 736-2",
    "lat": "37.739195",
    "lng": "127.089203",
    "region": "경기도"
  },
  {
    "name": "경북소프트웨어고등학교",
    "address": "경상북도 의성군 봉양면 화전리 69-3",
    "lat": "36.30350473986145",
    "lng": "128.58495485721733",
    "region": "경상북도"
  },
  {
    "name": "영화국제관광고등학교 운동장",
    "address": "인천광역시 동구 창영동 36",
    "lat": "37.47124872171362",
    "lng": "126.63993907939972",
    "region": "인천광역시"
  },
  {
    "name": "전북사대부설고등학교(운동장)",
    "address": "전북특별자치도 전주시 덕진구 금암동 663",
    "lat": "35.84598858581767",
    "lng": "127.13652610677406",
    "region": "전북특별자치도"
  },
  {
    "name": "방축마을 광장",
    "address": "전북특별자치도 고창군 성송면 산수리 448-4",
    "lat": "35.344763",
    "lng": "126.611336",
    "region": "전북특별자치도"
  },
  {
    "name": "우송고등학교 운동장",
    "address": "대전광역시 동구 자양동 226-2",
    "lat": "36.334863494775206",
    "lng": "127.44365930557252",
    "region": "대전광역시"
  },
  {
    "name": "대전보건대학교 운동장",
    "address": "대전광역시 동구 가양동 77-3",
    "lat": "36.34965819038062",
    "lng": "127.45475852812874",
    "region": "대전광역시"
  },
  {
    "name": "창현초등학교 운동장",
    "address": "경기도 남양주시 화도읍 창현리 766",
    "lat": "37.64553725679094",
    "lng": "127.30205955653928",
    "region": "경기도"
  },
  {
    "name": "천마중학교 운동장",
    "address": "경기도 남양주시 화도읍 묵현리 400-4",
    "lat": "37.65622022421151",
    "lng": "127.27629482746124",
    "region": "경기도"
  },
  {
    "name": "상정1리 마을회관",
    "address": "경상북도 포항시 남구 동해면 상정리 748-1",
    "lat": "35.984086537462794",
    "lng": "129.48673072996",
    "region": "경상북도"
  },
  {
    "name": "성곡1리 마을회관",
    "address": "경상북도 포항시 북구 흥해읍 성곡리 591",
    "lat": "36.091312954062566",
    "lng": "129.346099264691",
    "region": "경상북도"
  },
  {
    "name": "소동리 마을회관",
    "address": "경상북도 포항시 북구 청하면 소동리 371-2",
    "lat": "36.163359695604605",
    "lng": "129.35619771480947",
    "region": "경상북도"
  },
  {
    "name": "기계면행정복지센터",
    "address": "경상북도 포항시 북구 기계면 현내리 284",
    "lat": "36.07208731215282",
    "lng": "129.2102679729892",
    "region": "경상북도"
  },
  {
    "name": "비룡초등학교",
    "address": "전북특별자치도 김제시 용지면 신정리 140-82",
    "lat": "35.84400750761465",
    "lng": "126.98940411113733",
    "region": "전북특별자치도"
  },
  {
    "name": "초처초등학교",
    "address": "전북특별자치도 김제시 봉남면 신응리 123",
    "lat": "35.73883510956146",
    "lng": "126.9547833799587",
    "region": "전북특별자치도"
  },
  {
    "name": "전주사대부설고등학교(운동장)",
    "address": "전북특별자치도 전주시 완산구 효자동3가 1207-1",
    "lat": "35.81527953446543",
    "lng": "127.09374024366355",
    "region": "전북특별자치도"
  },
  {
    "name": "화산초등학교 운동장",
    "address": "전북특별자치도 완주군 화산면 화평리 589",
    "lat": "36.03478744422309",
    "lng": "127.2039713149423",
    "region": "전북특별자치도"
  },
  {
    "name": "삼례중학교 운동장",
    "address": "전북특별자치도 완주군 삼례읍 삼례리 1763",
    "lat": "35.91065980275323",
    "lng": "127.0790907740593",
    "region": "전북특별자치도"
  },
  {
    "name": "천천중학교 운동장",
    "address": "전북특별자치도 장수군 천천면 춘송리 432-1",
    "lat": "35.73570216157211",
    "lng": "127.53830038974354",
    "region": "전북특별자치도"
  },
  {
    "name": "삼정3리 마을회관",
    "address": "경상북도 포항시 남구 구룡포읍 삼정리 115-1",
    "lat": "36.00820588115188",
    "lng": "129.57572042943244",
    "region": "경상북도"
  },
  {
    "name": "우송대학교 운���장",
    "address": "대전광역시 동구 자양동 155-3",
    "lat": "36.33763015357739",
    "lng": "127.44632086055613",
    "region": "대전광역시"
  },
  {
    "name": "판곡중학교 운동장",
    "address": "경기도 남양주시 호평동 456-3",
    "lat": "37.66217103568076",
    "lng": "127.24203713897101",
    "region": "경기도"
  },
  {
    "name": "문덕근린공원",
    "address": "경상북도 포항시 남구 오천읍 문덕리 383-1",
    "lat": "35.95605027128464",
    "lng": "129.40088102559966",
    "region": "경상북도"
  },
  {
    "name": "오천읍민운동장",
    "address": "경상북도 포항시 남구 오천읍 문덕리 613",
    "lat": "35.94667032261754",
    "lng": "129.40145410980003",
    "region": "경상북도"
  },
  {
    "name": "항사리 마을회관",
    "address": "경상북도 포항시 남구 오천읍 항사리 87-13",
    "lat": "35.92946193457546",
    "lng": "129.38353478909397",
    "region": "경상북도"
  },
  {
    "name": "금광1리 마을회관",
    "address": "경상북도 포항시 남구 동해면 금광리 681",
    "lat": "35.96951083874365",
    "lng": "129.45486409914287",
    "region": "경상북도"
  },
  {
    "name": "방산1리 마을회관",
    "address": "경상북도 포항시 남구 장기면 방산리 236-2",
    "lat": "35.903149430700864",
    "lng": "129.4667637348246",
    "region": "경상북도"
  },
  {
    "name": "방산2리 마을공터",
    "address": "경상북도 포항시 남구 장기면 방산리 1172",
    "lat": "35.911505164108895",
    "lng": "129.44924106334142",
    "region": "경상북도"
  },
  {
    "name": "금곡리 마을회관 ",
    "address": "경상북도 포항시 남구 장기면 금곡리 406-2",
    "lat": "35.90171983743044",
    "lng": "129.51330810785635",
    "region": "경상북도"
  },
  {
    "name": "남성7 어린이공원",
    "address": "경상북도 포항시 북구 흥해읍 남성리 299-5",
    "lat": "36.10735132429743",
    "lng": "129.34865284656948",
    "region": "경상북도"
  },
  {
    "name": "매현1리 마을회관",
    "address": "경상북도 포항시 북구 죽장면 매현리 714-1",
    "lat": "36.17236744508862",
    "lng": "129.11205768585353",
    "region": "경상북도"
  },
  {
    "name": "강호항공고등학교",
    "address": "전북특별자치도 고창군 고창읍 덕산리 17",
    "lat": "35.42548536511627",
    "lng": "126.69902500840645",
    "region": "전북특별자치도"
  },
  {
    "name": "산악 자전거 공원",
    "address": "전북특별자치도 고창군 고창읍 석정리 696",
    "lat": "35.433429455675714",
    "lng": "126.73819710056692",
    "region": "전북특별자치도"
  },
  {
    "name": "소양중학교 운동장",
    "address": "전북특별자치도 완주군 소양면 황운리 750",
    "lat": "35.856228797041254",
    "lng": "127.23256033128827",
    "region": "전북특별자치도"
  },
  {
    "name": "번암중학교 운동장",
    "address": "전북특별자치도 장수군 번암면 노단리 1622-6",
    "lat": "35.53534531907495",
    "lng": "127.54801869392394",
    "region": "전북특별자치도"
  },
  {
    "name": "장내중학교 운동장",
    "address": "경기도 남양주시 평내동 569",
    "lat": "37.64264994984434",
    "lng": "127.23281085491182",
    "region": "경기도"
  },
  {
    "name": "원동 10 어린이공원",
    "address": "경상북도 포항시 남구 오천읍 원리 1328",
    "lat": "35.972426713120555",
    "lng": "129.4055487901847",
    "region": "경상북도"
  },
  {
    "name": "세계2리 경로당",
    "address": "경상북도 포항시 남구 오천읍 세계리 409-2",
    "lat": "35.954479745548504",
    "lng": "129.43447285111966",
    "region": "경상북도"
  },
  {
    "name": "문충2리 마을회관",
    "address": "경상북도 포항시 남구 오천읍 문충리 289-1",
    "lat": "35.937773328245456",
    "lng": "129.39301103353463",
    "region": "경상북도"
  },
  {
    "name": "정천2리 마을회관 ",
    "address": "경상북도 포항시 남구 장기면 정천리 159-7",
    "lat": "35.95164035553436",
    "lng": "129.46418613195988",
    "region": "경상북도"
  },
  {
    "name": "방산2리 마을회관",
    "address": "경상북도 포항시 남구 장기면 방산리 905-11",
    "lat": "35.91603198617283",
    "lng": "129.455297291283",
    "region": "경상북도"
  },
  {
    "name": "금곡리 노인정",
    "address": "경상북도 포항시 남구 장기면 금곡리 450-2",
    "lat": "35.90747551152493",
    "lng": "129.5137542398959",
    "region": "경상북도"
  },
  {
    "name": "계원1리 공동작업장",
    "address": "경상북도 포항시 남구 장기면 계원리 96",
    "lat": "35.8706317499695",
    "lng": "129.5286074280792",
    "region": "경상북도"
  },
  {
    "name": "계원2리 마을회관",
    "address": "경상북도 포항시 남구 장기면 계원리 372-1",
    "lat": "35.859819400136104",
    "lng": "129.5250937316357",
    "region": "경상북도"
  },
  {
    "name": "포항제철중학교 운동장",
    "address": "경상북도 포항시 남구 지곡동 52",
    "lat": "36.0201607682859",
    "lng": "129.3266176640068",
    "region": "경상북도"
  },
  {
    "name": "죽천2리 마을회관",
    "address": "경상북도 포항시 북구 흥해읍 죽천리 679-7",
    "lat": "36.083780254290794",
    "lng": "129.41659569740366",
    "region": "경상북도"
  },
  {
    "name": "고지리 마을쉼터",
    "address": "경상북도 포항시 북구 기계면 고지리 496",
    "lat": "36.07321865839222",
    "lng": "129.17808729993578",
    "region": "경상북도"
  },
  {
    "name": "학야리 마을회관",
    "address": "경상북도 포항시 북구 기계면 학야리 453",
    "lat": "36.05308257804554",
    "lng": "129.19840335846368",
    "region": "경상북도"
  },
  {
    "name": "내단2리 마을회관",
    "address": "경상북도 포항시 북구 기계면 내단리 661",
    "lat": "36.07129254791916",
    "lng": "129.2250938399245",
    "region": "경상북도"
  },
  {
    "name": "하사리 마을회관",
    "address": "경상북도 포항시 북구 죽장면 하사리 519-1",
    "lat": "36.260977881729595",
    "lng": "129.06924426555764",
    "region": "경상북도"
  },
  {
    "name": "김제초등학교",
    "address": "전북특별자치도 김제시 요촌동 261-1",
    "lat": "35.802027463982135",
    "lng": "126.88684095429446",
    "region": "전북특별자치도"
  },
  {
    "name": "만경초등학교",
    "address": "전북특별자치도 김제시 만경읍 만경리 165",
    "lat": "35.85501849002281",
    "lng": "126.823113488803",
    "region": "전북특별자치도"
  },
  {
    "name": "만경여자고등학교",
    "address": "전북특별자치도 김제시 만경읍 만경리 404-2",
    "lat": "35.8540396353484",
    "lng": "126.81459009647367",
    "region": "전북특별자치도"
  },
  {
    "name": "청하중학교",
    "address": "전북특별자치도 김제시 청하면 관상리 440",
    "lat": "35.881674070296036",
    "lng": "126.85114208786678",
    "region": "전북특별자치도"
  },
  {
    "name": "전주온빛중학교(운동장)",
    "address": "전북특별자치도 전주시 덕진구 장동 1070",
    "lat": "35.843130362638746",
    "lng": "127.05854116174211",
    "region": "전북특별자치도"
  },
  {
    "name": "새마을 공원 체육시설",
    "address": "전북특별자치도 고창군 고창읍 석교리 9-56",
    "lat": "35.441940552167694",
    "lng": "126.69776916503724",
    "region": "전북특별자치도"
  },
  {
    "name": "월곡1공원",
    "address": "전북특별자치도 고창군 고창읍 월곡리 1009",
    "lat": "35.43352081808167",
    "lng": "126.71374660432124",
    "region": "전북특별자치도"
  },
  {
    "name": "고산고등학교 운동장",
    "address": "전북특별자치도 완주군 고산면 서봉리 689",
    "lat": "35.97949630801968",
    "lng": "127.20154556704848",
    "region": "전북특별자치도"
  },
  {
    "name": "눌태1리 마을회관",
    "address": "경상북도 포항시 남구 구룡포읍 눌태리 228",
    "lat": "35.99305105253434",
    "lng": "129.53915655613207",
    "region": "경상북도"
  },
  {
    "name": "대전대성여자고등학교 운동장",
    "address": "대전광역시 동구 가양동 309-3",
    "lat": "36.33779417702687",
    "lng": "127.44031259292598",
    "region": "대전광역시"
  },
  {
    "name": "대전용운중학교 운동장",
    "address": "대전광역시 동구 용운동 300",
    "lat": "36.32595084617753",
    "lng": "127.46526590766109",
    "region": "대전광역시"
  },
  {
    "name": "대전대학교 운동장",
    "address": "대전광역시 동구 용운동 96-3",
    "lat": "36.333671796080864",
    "lng": "127.4618471655847",
    "region": "대전광역시"
  },
  {
    "name": "석병2리 경로당",
    "address": "경상북도 포항시 남구 구룡포읍 석병리 196-1",
    "lat": "36.02625594168673",
    "lng": "129.57656264306294",
    "region": "경상북도"
  },
  {
    "name": "우복2리 마을회관",
    "address": "경상북도 포항시 남구 연일읍 우복리 591",
    "lat": "35.97303248150399",
    "lng": "129.3261594049997",
    "region": "경상북도"
  },
  {
    "name": "인주리 마을회관",
    "address": "경상북도 포항시 남구 연일읍 인주리 117",
    "lat": "35.98255770910624",
    "lng": "129.34047460556533",
    "region": "경상북도"
  },
  {
    "name": "포항동성고등학교 운동장",
    "address": "경상북도 포항시 남구 동해면 도구리 621",
    "lat": "35.99007533020906",
    "lng": "129.4396339212717",
    "region": "경상북도"
  },
  {
    "name": "대구과학기술고등학교",
    "address": "대구광역시 서구 내당동 456-1",
    "lat": "35.8566",
    "lng": "128.5484",
    "region": "대구광역시"
  },
  {
    "name": "공항합동청사 축구장",
    "address": "인천광역시 중구 운서동 2851-24",
    "lat": "37.4412373",
    "lng": "126.463405",
    "region": "인천광역시"
  },
  {
    "name": "수암리 마을회관 앞 공터",
    "address": "경상북도 영덕군 지품면 수암리 215-7",
    "lat": "36.46173584494047",
    "lng": "129.21748319734454",
    "region": "경상북도"
  },
  {
    "name": "칠성1리 영덕무청영농조합법인 앞",
    "address": "경상북도 영덕군 축산면 칠성리 192",
    "lat": "36.498526147757836",
    "lng": "129.36497451831423",
    "region": "경상북도"
  },
  {
    "name": "어린이 11공원",
    "address": "전북특별자치도 군산시 산북동 3543-2",
    "lat": "35.96709837477798",
    "lng": "126.68192267417902",
    "region": "전북특별자치도"
  },
  {
    "name": "영리 야산 공터",
    "address": "경상북도 영덕군 병곡면 영리 산172",
    "lat": "36.59394781764777",
    "lng": "129.4016220056133",
    "region": "경상북도"
  },
  {
    "name": "전주팔복초등학교(운동장)",
    "address": "전북특별자치도 전주시 덕진구 여의동2가 374-1",
    "lat": "35.86355666929252",
    "lng": "127.09488093852997",
    "region": "전북특별자치도"
  },
  {
    "name": "한별고등학교 운동장",
    "address": "전북특별자치도 완주군 삼례읍 삼례리 864-1",
    "lat": "35.908278637971215",
    "lng": "127.07247801211729",
    "region": "전북특별자치도"
  },
  {
    "name": "남양주 덕송초등학교 운동장",
    "address": "경기도 남양주시 별내동 813",
    "lat": "37.66886399570737",
    "lng": "127.11627508500565",
    "region": "경기도"
  },
  {
    "name": "중단1리 마을회관",
    "address": "경상북도 포항시 남구 연일읍 중단리 536-1",
    "lat": "35.99149950701862",
    "lng": "129.32556493313092",
    "region": "경상북도"
  },
  {
    "name": "택전2리 마을회관",
    "address": "경상북도 포항시 남구 연일읍 택전리 517",
    "lat": "35.985183888755046",
    "lng": "129.32944267988267",
    "region": "경상북도"
  },
  {
    "name": "금장1리 마을회관 ",
    "address": "경상북도 포항시 북구 흥해읍 금장리 683-13",
    "lat": "36.13458859609028",
    "lng": "129.3623265624103",
    "region": "경상북도"
  },
  {
    "name": "일광리 마을회관",
    "address": "경상북도 포항시 북구 죽장면 일광리 240",
    "lat": "36.14718862173145",
    "lng": "129.08002138137888",
    "region": "경상북도"
  },
  {
    "name": "오덕2리 마을회관",
    "address": "경상북도 포항시 북구 기북면 오덕리 983-3",
    "lat": "36.144149811559565",
    "lng": "129.17575210333172",
    "region": "경상북도"
  },
  {
    "name": "공항합동청사 잔디광장",
    "address": "인천광역시 중구 운서동 2851-23",
    "lat": "37.443083275131066",
    "lng": "126.46206736564616",
    "region": "인천광역시"
  },
  {
    "name": "오산원일초등학교",
    "address": "경기도 오산시 원동 360-19",
    "lat": "37.139195946327874",
    "lng": "127.0711769530771",
    "region": "경기도"
  },
  {
    "name": "운암중학교",
    "address": "경기도 오산시 원동 815-2",
    "lat": "37.14548782432704",
    "lng": "127.07723436388311",
    "region": "경기도"
  },
  {
    "name": "성호고등학교",
    "address": "경기도 오산시 원동 605",
    "lat": "37.138954458962566",
    "lng": "127.08262091170955",
    "region": "경기도"
  },
  {
    "name": "오산원당초등학교",
    "address": "경기도 오산시 원동 30-22",
    "lat": "37.141810893306264",
    "lng": "127.09106325622598",
    "region": "경기도"
  },
  {
    "name": "소귀어린이공원",
    "address": "서울특별시 강북구 수유동 25-1",
    "lat": "37.63858801660465",
    "lng": "127.01865934791131",
    "region": "서울특별시"
  },
  {
    "name": "근린 3공원",
    "address": "전북특별자치도 군산시 미장동 542-2",
    "lat": "35.96012695450689",
    "lng": "126.7260495547296",
    "region": "전북특별자치도"
  },
  {
    "name": "어린이 10공원",
    "address": "전북특별자치도 군산시 산북동 3532",
    "lat": "35.969043243985546",
    "lng": "126.67752275200138",
    "region": "전북특별자치도"
  },
  {
    "name": "어린이32공원",
    "address": "전북특별자치도 군산시 조촌동 845",
    "lat": "35.97354979154286",
    "lng": "126.7349923508647",
    "region": "전북특별자치도"
  },
  {
    "name": "한옥마을1주차장",
    "address": "전북특별자치도 전주시 완산구 남노송동 100-1",
    "lat": "35.81859742986433",
    "lng": "127.15400816515816",
    "region": "전북특별자치도"
  },
  {
    "name": "생활야구경기장",
    "address": "전북특별자치도 고창군 고창읍 월암리 102",
    "lat": "35.428194438134604",
    "lng": "126.72568559646867",
    "region": "전북특별자치도"
  },
  {
    "name": "임리마을 광장",
    "address": "전북특별자치도 고창군 신림면 무림리 299",
    "lat": "35.488975",
    "lng": "126.714355",
    "region": "전북특별자치도"
  },
  {
    "name": "삼우중학교 운동장",
    "address": "전북특별자치도 완주군 이서면 상개리 580-2",
    "lat": "35.82393530012348",
    "lng": "127.02412952729095",
    "region": "전북특별자치도"
  },
  {
    "name": "평동초등학교 운동장",
    "address": "경기도 남양주시 호평동 659",
    "lat": "37.654110959328165",
    "lng": "127.24772882839363",
    "region": "경기도"
  },
  {
    "name": "유강1리 마을회관 ",
    "address": "경상북도 포항시 남구 연일읍 유강리 339-11",
    "lat": "36.00242985669013",
    "lng": "129.30590361356553",
    "region": "경상북도"
  },
  {
    "name": "포은중학교 운동장",
    "address": "경상북도 포항시 남구 오천읍 원리 982",
    "lat": "35.96521866920459",
    "lng": "129.40475487222267",
    "region": "경상북도"
  },
  {
    "name": "태봉초등학교 운동장",
    "address": "전북특별자치도 완주군 구이면 평촌리 1111-1",
    "lat": "35.74517072899273",
    "lng": "127.14925883393899",
    "region": "전북특별자치도"
  },
  {
    "name": "비봉초등학교 운동장",
    "address": "전북특별자치도 완주군 비봉면 소농리 513-2",
    "lat": "35.99807004028726",
    "lng": "127.13893756163122",
    "region": "전북특별자치도"
  },
  {
    "name": "화산중학교 운동장",
    "address": "전북특별자치도 완주군 화산면 화평리 683-2",
    "lat": "36.034811309917245",
    "lng": "127.19823650517665",
    "region": "전북특별자치도"
  },
  {
    "name": "한국게임과학고등학교 운동장",
    "address": "전북특별자치도 완주군 운주면 장선리 121",
    "lat": "36.083028792868035",
    "lng": "127.28510152038787",
    "region": "전북특별자치도"
  },
  {
    "name": "가수초등학교",
    "address": "경기도 오산시 가수동 25",
    "lat": "37.14772303186105",
    "lng": "127.0480525612619",
    "region": "경기도"
  },
  {
    "name": "원동어린이공원",
    "address": "경기도 오산시 원동 760-5",
    "lat": "37.14739976960786",
    "lng": "127.07133881302715",
    "region": "경기도"
  },
  {
    "name": "운주중학교 운동장",
    "address": "전북특별자치도 완주군 운주면 장선리 179-1",
    "lat": "36.08839182719625",
    "lng": "127.28128733818609",
    "region": "전북특별자치도"
  },
  {
    "name": "대전흥룡초등학교 운동장",
    "address": "대전광역시 동구 가양동 399-1",
    "lat": "36.344970948173625",
    "lng": "127.44760430209328",
    "region": "대전광역시"
  },
  {
    "name": "대전가오고등학교 운동장",
    "address": "대전광역시 동구 가오동 427",
    "lat": "36.31052216721981",
    "lng": "127.45474433655545",
    "region": "대전광역시"
  },
  {
    "name": "광명리 마을회관",
    "address": "경상북도 포항시 남구 오천읍 광명리 66",
    "lat": "35.951625156558",
    "lng": "129.42318588496",
    "region": "경상북도"
  },
  {
    "name": "달전초등학교 운동장",
    "address": "경상북도 포항시 북구 흥해읍 이인리 286",
    "lat": "36.06313641718218",
    "lng": "129.33478834118353",
    "region": "경상북도"
  },
  {
    "name": "물빛근린공원",
    "address": "인천광역시 남동구 서창동 713",
    "lat": "37.42102999012493",
    "lng": "126.747705061312",
    "region": "인천광역시"
  },
  {
    "name": "오봉근린공원",
    "address": "인천광역시 남동구 도림동 631",
    "lat": "37.41845773918053",
    "lng": "126.73118193903677",
    "region": "인천광역시"
  },
  {
    "name": "인천국제공항 제1국제여객터미널 장기주차장",
    "address": "인천광역시 중구 운서동 2851",
    "lat": "37.44715914281966",
    "lng": "126.4546000957487",
    "region": "인천광역시"
  },
  {
    "name": "인천국제공항 화물터미널 남측5번주차장",
    "address": "인천광역시 중구 운서동 2842-16",
    "lat": "37.46766288213854",
    "lng": "126.47425532340985",
    "region": "인천광역시"
  },
  {
    "name": "부춘중학교 운동장",
    "address": "충청남도 서산시 읍내동 585-1",
    "lat": "36.786056",
    "lng": "126.444292",
    "region": "충청남도"
  },
  {
    "name": "수남초등학교 운동장",
    "address": "전북특별자치도 장수군 장수읍 개정리 346",
    "lat": "35.624702014832614",
    "lng": "127.50699059989199",
    "region": "전북특별자치도"
  },
  {
    "name": "동대전초등학교 운동장",
    "address": "대전광역시 동구 가양동 34-6",
    "lat": "36.35166611510427",
    "lng": "127.44893377318118",
    "region": "대전광역시"
  },
  {
    "name": "대전동신과학고등학교 운동장",
    "address": "대전광역시 동구 비룡동 555-1",
    "lat": "36.332736800247986",
    "lng": "127.47480407284958",
    "region": "대전광역시"
  },
  {
    "name": "율천초등학교 운동장",
    "address": "경상남도 고성군 고성읍 죽계리 735-1",
    "lat": "34.9927948472895",
    "lng": "128.32813124572212",
    "region": "경상남도"
  },
  {
    "name": "인천국제공항 제2여객터미널 제2합동청사주차장",
    "address": "인천광역시 중구 운서동 2868",
    "lat": "37.46784170622272",
    "lng": "126.43383979797342",
    "region": "인천광역시"
  },
  {
    "name": "신둔체육공원",
    "address": "경기도 이천시 신둔면 수광리 758",
    "lat": "37.31543987635701",
    "lng": "127.39807379020752",
    "region": "경기도"
  },
  {
    "name": "도음산도립공원",
    "address": "경상북도 포항시 북구 흥해읍 학천리 707-2",
    "lat": "36.07961176237288",
    "lng": "129.30496215820494",
    "region": "경상북도"
  },
  {
    "name": "논현중앙근린공원",
    "address": "인천광역시 남동구 논현동 611-7",
    "lat": "37.403114527935315",
    "lng": "126.72607156720676",
    "region": "인천광역시"
  },
  {
    "name": "논현포대근린공원",
    "address": "인천광역시 남동구 논현동 578-1",
    "lat": "37.408058035151",
    "lng": "126.70903619128086",
    "region": "인천광역시"
  },
  {
    "name": "유일여자고등학교(운동장)",
    "address": "전북특별자치도 전주시 덕진구 인후동1가 500-37",
    "lat": "35.83933908001215",
    "lng": "127.15935037164525",
    "region": "전북특별자치도"
  },
  {
    "name": "신자룡마을광장",
    "address": "전북특별자치도 고창군 상하면 자룡리 297-5",
    "lat": "35.43826675084089",
    "lng": "126.44800867584075",
    "region": "전북특별자치도"
  },
  {
    "name": "백화고 운동장",
    "address": "전북특별자치도 장수군 장계면 장계리 24",
    "lat": "35.72788024192853",
    "lng": "127.58711502832227",
    "region": "전북특별자치도"
  },
  {
    "name": "한아름근린공원",
    "address": "인천광역시 남동구 논현동 756-5",
    "lat": "37.39588883970782",
    "lng": "126.72881338426649",
    "region": "인천광역시"
  },
  {
    "name": "인천국제공항 제1국제여객터미널 서측귀빈주차장",
    "address": "인천광역시 중구 운서동 2851",
    "lat": "37.44824515160362",
    "lng": "126.45012617111188",
    "region": "인천광역시"
  },
  {
    "name": "전주솔내고등학교(운동장)",
    "address": "전북특별자치도 전주시 덕진구 송천동1가 111-3",
    "lat": "35.86249028266403",
    "lng": "127.12251417089276",
    "region": "전북특별자치도"
  },
  {
    "name": "전주덕일초등학교(운동장)",
    "address": "전북특별자치도 전주시 덕진구 덕진동2가 99-1",
    "lat": "35.84848060981284",
    "lng": "127.11202567693326",
    "region": "전북특별자치도"
  },
  {
    "name": "전주인봉초등학교(운동장)",
    "address": "전북특별자치도 전주시 덕진구 인후동1가 917",
    "lat": "35.82698626716923",
    "lng": "127.16486760057161",
    "region": "전북특별자치도"
  },
  {
    "name": "전주만수초등학교(운동장)",
    "address": "전북특별자치도 전주시 덕진구 호성동1가 829-2",
    "lat": "35.86260772657151",
    "lng": "127.14783281930768",
    "region": "전북특별자치도"
  },
  {
    "name": "병포2리 마을회관",
    "address": "경상북도 포항시 남구 구룡포읍 병포리 469-52",
    "lat": "35.981008005063785",
    "lng": "129.5403286814732",
    "region": "경상북도"
  },
  {
    "name": "원평초등학교",
    "address": "전북특별자치도 김제시 금산면 성계리 680-2",
    "lat": "35.71854191008541",
    "lng": "126.99336570838409",
    "region": "전북특별자치도"
  },
  {
    "name": "전주호성중학교(운동장)",
    "address": "전북특별자치도 전주시 덕진구 호성동1가 210-5",
    "lat": "35.86413465311056",
    "lng": "127.15686735251852",
    "region": "전북특별자치도"
  },
  {
    "name": "석동마을광장",
    "address": "전북특별자치도 고창군 무장면 신촌리 508-1",
    "lat": "35.40001436243709",
    "lng": "126.5481444178178",
    "region": "전북특별자치도"
  },
  {
    "name": "조치마을광장",
    "address": "전북특별자치도 고창군 무장면 강남리 70-1",
    "lat": "35.41286707400263",
    "lng": "126.60516824693897",
    "region": "전북특별자치도"
  },
  {
    "name": "옥산마을광장",
    "address": "전북특별자치도 고창군 무장면 옥산리 376-6",
    "lat": "35.389743",
    "lng": "126.589711",
    "region": "전북특별자치도"
  },
  {
    "name": "사창마을 광장",
    "address": "전북특별자치도 고창군 부안면 사창리 385-1",
    "lat": "35.494525",
    "lng": "126.674801",
    "region": "전북특별자치도"
  },
  {
    "name": "인촌마을 광장",
    "address": "전북특별자치도 고창군 부안면 봉암��� 871-1",
    "lat": "35.553604",
    "lng": "126.625590",
    "region": "전북특별자치도"
  },
  {
    "name": "상갑마을 광장",
    "address": "전북특별자치도 고창군 아산면 상갑리 144-2",
    "lat": "35.437735",
    "lng": "126.638101",
    "region": "전북특별자치도"
  },
  {
    "name": "영주여자고등학교 운동장",
    "address": "경상북도 영주시 하망동 167-1",
    "lat": "36.83022551566903",
    "lng": "128.62955416251387",
    "region": "경상북도"
  },
  {
    "name": "동진초등학교 운동장",
    "address": "경상남도 진주시 하대동 119-1",
    "lat": "35.18726750122287",
    "lng": "128.12415709996154",
    "region": "경상남도"
  },
  {
    "name": "보건소 주차장",
    "address": "전북특별자치도 남원시 조산동 455",
    "lat": "35.39727814317123",
    "lng": "127.36397180620988",
    "region": "전북특별자치도"
  },
  {
    "name": "구��포마을광장",
    "address": "전북특별자치도 고창군 상하면 자룡리 470-1",
    "lat": "35.445218",
    "lng": "126.44319",
    "region": "전북특별자치도"
  },
  {
    "name": "계정시래골경로당 앞 공터",
    "address": "경상북도 경주시 암곡동 852-4",
    "lat": "35.8575780",
    "lng": "129.3136660",
    "region": "경상북도"
  },
  {
    "name": "구동호마을 광장",
    "address": "전북특별자치도 고창군 해리면 동호리 550",
    "lat": "35.518136",
    "lng": "126.486138",
    "region": "전북특별자치도"
  },
  {
    "name": "명사초등학교",
    "address": "경상남도 거제시 남부면 저구리 311",
    "lat": "34.7254606",
    "lng": "128.60366999999996",
    "region": "경상남도"
  },
  {
    "name": "고수면사무소 광장",
    "address": "전북특별자치도 고창군 고수면 봉산리 359-5",
    "lat": "35.409925",
    "lng": "126.678659",
    "region": "전북특별자치도"
  },
  {
    "name": "해리고등학교",
    "address": "전북특별자치도 고창군 해리면 하련리 570",
    "lat": "35.46518559053572",
    "lng": "126.53763033030616",
    "region": "전북특별자치도"
  },
  {
    "name": "손곡동마을회관 앞 공터",
    "address": "경상북도 경주시 손곡동 228",
    "lat": "35.8586660",
    "lng": "129.2912870",
    "region": "경상북도"
  },
  {
    "name": "목동마을광장",
    "address": "전북특별자치도 고창군 해리면 금평리 294-3",
    "lat": "35.4896632729317",
    "lng": "126.5132191392069",
    "region": "전북특별자치도"
  },
  {
    "name": "마북리 마을회관",
    "address": "경상북도 포항시 북구 신광면 마북리 256",
    "lat": "36.194074897481656",
    "lng": "129.24539029598103",
    "region": "경상북도"
  },
  {
    "name": "화진1리 마을회관 ",
    "address": "경상북도 포항시 북구 송라면 화진리 8",
    "lat": "36.23776381049431",
    "lng": "129.38478469848835",
    "region": "경상북도"
  },
  {
    "name": "조사리 마을회관",
    "address": "경상북도 포항시 북구 송라면 조사리 60-5",
    "lat": "36.2232728522457",
    "lng": "129.38494593702023",
    "region": "경상북도"
  },
  {
    "name": "상송2리 마을회관",
    "address": "경상북도 포항시 북구 송라면 상송리 70",
    "lat": "36.20856338933128",
    "lng": "129.34132218360833",
    "region": "경상북도"
  },
  {
    "name": "대전1리 마을회관",
    "address": "경상북도 포항시 북구 송라면 대전리 293",
    "lat": "36.25328244152105",
    "lng": "129.35577124357118",
    "region": "경상북도"
  },
  {
    "name": "인비리 마을회관",
    "address": "경상북도 포항시 북구 기계면 인비리 1083-1",
    "lat": "36.087870494076206",
    "lng": "129.15374994277954",
    "region": "경상북도"
  },
  {
    "name": "지가1리 마을숲",
    "address": "경상북도 포항시 북구 기계면 지가리 1015-1",
    "lat": "36.08887661689437",
    "lng": "129.16409309188253",
    "region": "경상북도"
  },
  {
    "name": "성계1리 마을회관",
    "address": "경상북도 포항시 북구 기계면 성계리 182",
    "lat": "36.051278372757466",
    "lng": "129.22083735465918",
    "region": "경상북도"
  },
  {
    "name": "청라중학교 운동장",
    "address": "인천광역시 서구 청라동 125-4",
    "lat": "37.53723821143654",
    "lng": "126.65384734546781",
    "region": "인천광역시"
  },
  {
    "name": "간재울중학교 운동장",
    "address": "인천광역시 서구 검암동 619-4",
    "lat": "37.56259248949765",
    "lng": "126.67675390280382",
    "region": "인천광역시"
  },
  {
    "name": "보성초등학교 운동장",
    "address": "전북특별자치도 정읍시 북면 마정리 681",
    "lat": "35.6024108412775",
    "lng": "126.92819002890968",
    "region": "전북특별자치도"
  },
  {
    "name": "기쁜소식대구교회",
    "address": "대구광역시 서구 상리동 287-2",
    "lat": "35.87698465583471",
    "lng": "128.52786988020037",
    "region": "대구광역시"
  },
  {
    "name": "영선고등학교",
    "address": "전북특별자치도 고창군 무장면 무장리 431-1",
    "lat": "35.41379213125574",
    "lng": "126.55893675993347",
    "region": "전북특별자치도"
  },
  {
    "name": "영선중학교",
    "address": "전북특별자치도 고창군 무장면 무장리 431-1",
    "lat": "35.413935813073",
    "lng": "126.55874714257106",
    "region": "전북특별자치도"
  },
  {
    "name": "황용휴게소 앞 공터",
    "address": "경상북도 경주시 황용동 611-3",
    "lat": "35.82326340829623",
    "lng": "129.3415179848707",
    "region": "경상북도"
  },
  {
    "name": "문화마을 광장",
    "address": "전북특별자치도 고창군 고수면 황산리 366",
    "lat": "35.406697",
    "lng": "126.683327",
    "region": "전북특별자치도"
  },
  {
    "name": "영광고등학교 운동장",
    "address": "경상북도 영주시 상망동 산49-16",
    "lat": "36.84169217816725",
    "lng": "128.64266972483927",
    "region": "경상북도"
  },
  {
    "name": "온수초등학교 운동장",
    "address": "서울특별시 구로구 온수동 9-34",
    "lat": "37.49367977654004",
    "lng": "126.82599171393585",
    "region": "서울특별시"
  },
  {
    "name": "골말공원",
    "address": "서울특별시 금천구 가산동 28-2",
    "lat": "37.48291461278331",
    "lng": "126.88453942537306",
    "region": "서울특별시"
  },
  {
    "name": "신현중학교 운동장",
    "address": "인천광역시 서구 신현동 212-11",
    "lat": "37.51960470980829",
    "lng": "126.66421022317898",
    "region": "인천광역시"
  },
  {
    "name": "동부중학교",
    "address": "경상남도 거제시 동부면 산양리 348",
    "lat": "34.82044465831767",
    "lng": "128.6079257726672",
    "region": "경상남도"
  },
  {
    "name": "하청초등학교",
    "address": "경상남도 거제시 하청면 하청리 661-3",
    "lat": "34.9560455",
    "lng": "128.65535350000005",
    "region": "경상남도"
  },
  {
    "name": "대구북부시외버스터미널",
    "address": "대구광역시 서구 비산동 1856-3",
    "lat": "35.8845",
    "lng": "128.5552",
    "region": "대구광역시"
  },
  {
    "name": "중리중학교",
    "address": "대구광역시 서구 중리동 105-1",
    "lat": "35.8638",
    "lng": "128.5509",
    "region": "대구광역시"
  },
  {
    "name": "아산중학교",
    "address": "전북특별자치도 고창군 아산면 하갑리 370",
    "lat": "35.438971388400816",
    "lng": "126.6313538657255",
    "region": "전북특별자치도"
  },
  {
    "name": "지동마을 광장",
    "address": "전북특별자치도 고창군 부안면 수남리 157",
    "lat": "35.520957",
    "lng": "126.671419",
    "region": "전북특별자치도"
  },
  {
    "name": "신계리 마을회관",
    "address": "경상북도 포항시 남구 장기면 신계리 401",
    "lat": "35.9369394050026",
    "lng": "129.47872102261502",
    "region": "경상북도"
  },
  {
    "name": "금오리 경로당",
    "address": "경상북도 포항시 남구 장기면 금오리 227-1",
    "lat": "35.9162641130197",
    "lng": "129.49683988205956",
    "region": "경상북도"
  },
  {
    "name": "산서리 마을회관",
    "address": "경상북도 포항시 남구 장기면 산서리 1266-11",
    "lat": "35.89133169809104",
    "lng": "129.4622442126358",
    "region": "경상북도"
  },
  {
    "name": "대동배1리 마을회관",
    "address": "경상북도 포항시 남구 호미곶면 대동배리 393",
    "lat": "36.05702696453417",
    "lng": "129.532716572289",
    "region": "경상북도"
  },
  {
    "name": "대보초등학교 운동장",
    "address": "경상북도 포항시 남구 호미곶면 구만리 123",
    "lat": "36.078172356574974",
    "lng": "129.55724269152358",
    "region": "경상북도"
  },
  {
    "name": "용곡리 정자인근 공터",
    "address": "경상북도 포항시 북구 흥해읍 용곡리 173-1",
    "lat": "36.12205984387701",
    "lng": "129.31218391078025",
    "region": "경상북도"
  },
  {
    "name": "청라초등학교 운동장",
    "address": "인천광역시 서구 청라동 125-6",
    "lat": "37.53731381700972",
    "lng": "126.65603992356101",
    "region": "인천광역시"
  },
  {
    "name": "마전초등학교 운동장",
    "address": "인천광역시 서구 마전동 999-12",
    "lat": "37.597362650000896",
    "lng": "126.67119648638592",
    "region": "인천광역시"
  },
  {
    "name": "왕길초등학교 운동장",
    "address": "인천광역시 서구 왕길동 649-3",
    "lat": "37.601462465001994",
    "lng": "126.65089943949836",
    "region": "인천광역시"
  },
  {
    "name": "수월초등학교",
    "address": "경상남도 거제시 수월동 1170",
    "lat": "34.8904419",
    "lng": "128.6438008",
    "region": "경상남도"
  },
  {
    "name": "청하초등학교",
    "address": "전북특별자치도 김제시 청하면 대청리 245-1",
    "lat": "35.89307872170089",
    "lng": "126.85846567153926",
    "region": "전북특별자치도"
  },
  {
    "name": "범어고등학교 운동장",
    "address": "경상남도 양산시 물금읍 범어리 2712-7",
    "lat": "35.329584",
    "lng": "129.018934",
    "region": "경상남도"
  },
  {
    "name": "용산마을 광장",
    "address": "전북특별자치도 고창군 부안면 용산리 161-5",
    "lat": "35.501714",
    "lng": "126.637753",
    "region": "전북특별자치도"
  },
  {
    "name": "백석어린이공원",
    "address": "서울특별시 강서구 등촌동 646-41",
    "lat": "37.55260911083867",
    "lng": "126.8635260760756",
    "region": "서울특별시"
  },
  {
    "name": "김제중학교",
    "address": "전북특별자치도 김제시 신풍동 215-1",
    "lat": "35.7938697262575",
    "lng": "126.89956588450993",
    "region": "전북특별자치도"
  },
  {
    "name": "소성중학교 운동장",
    "address": "전북특별자치도 정읍시 소성면 등계리 909",
    "lat": "35.556001676974546",
    "lng": "126.78540746276343",
    "region": "전북특별자치도"
  },
  {
    "name": "진양고등학교 운동장",
    "address": "경상남도 진주시 충무공동 273-3",
    "lat": "35.175483262946436",
    "lng": "128.1523930290436",
    "region": "경상남도"
  },
  {
    "name": "용진초등학교 운동장",
    "address": "전북특별자치도 완주군 용진읍 상삼리 1088",
    "lat": "35.85680940620138",
    "lng": "127.17694719124064",
    "region": "전북특별자치도"
  },
  {
    "name": "구이초등학교 운동장",
    "address": "전북특별자치도 완주군 구이면 항가리 86-1",
    "lat": "35.720757851211346",
    "lng": "127.11950888625441",
    "region": "전북특별자치도"
  },
  {
    "name": "상포마을 광장",
    "address": "전북특별자치도 고창군 부안면 상암리 797-1",
    "lat": "35.57113742919056",
    "lng": "126.63380652665835",
    "region": "전북특별자치도"
  },
  {
    "name": "입암1리 마을회관",
    "address": "경상북도 포항시 남구 동해면 입암리 603-1",
    "lat": "36.00803013308058",
    "lng": "129.4680565595705",
    "region": "경상북도"
  },
  {
    "name": "금오리 마을회관",
    "address": "경상북도 포항시 남구 장기면 금오리 493-5",
    "lat": "35.922281333695146",
    "lng": "129.48896974325405",
    "region": "경상북도"
  },
  {
    "name": "흥해중학교 운동장",
    "address": "경상북도 포항시 북구 흥해읍 옥성리 177-1",
    "lat": "36.108604539792225",
    "lng": "129.34147238731447",
    "region": "경상북도"
  },
  {
    "name": "칠포2리 마을회관",
    "address": "경상북도 포항시 북구 흥해읍 칠포리 377-16",
    "lat": "36.14159391428066",
    "lng": "129.39464181662126",
    "region": "경상북도"
  },
  {
    "name": "용지중학교",
    "address": "전북특별자치도 김제시 용지면 구암리 258-1",
    "lat": "35.85064272725753",
    "lng": "126.9597228025857",
    "region": "전북특별자치도"
  },
  {
    "name": "정읍중학교 운동장",
    "address": "전북특별자치도 정읍시 시기동 58",
    "lat": "35.55456577079887",
    "lng": "126.86397879441557",
    "region": "전북특별자치도"
  },
  {
    "name": "대구백화점 프라자 야외 주차장",
    "address": "대구광역시 중구 대봉동 121-316",
    "lat": "35.8576",
    "lng": "128.6060",
    "region": "대구광역시"
  },
  {
    "name": "용평리경로당 앞 공터",
    "address": "경상북도 영덕군 달산면 용평리 261",
    "lat": "36.389766672555346",
    "lng": "129.28960086559167",
    "region": "경상북도"
  },
  {
    "name": "완산생활체육공원(축구장,테니스장)",
    "address": "전북특별자치도 전주시 완산구 중인동 358",
    "lat": "35.76767461211548",
    "lng": "127.1015239058975",
    "region": "전북특별자치도"
  },
  {
    "name": "우각1리 마을회관",
    "address": "경상북도 포항시 북구 신광면 우각리 102",
    "lat": "36.10456955591214",
    "lng": "129.26342546940256",
    "region": "경상북도"
  },
  {
    "name": "냉수2리 마을회관",
    "address": "경상북도 포항시 북구 신광면 냉수리 320",
    "lat": "36.09473910369405",
    "lng": "129.26021486521125",
    "region": "경상북도"
  },
  {
    "name": "청진1리 마을회관",
    "address": "경상북도 포항시 북구 청하면 청진리 48",
    "lat": "36.17993878354968",
    "lng": "129.39213126898193",
    "region": "경상북도"
  },
  {
    "name": "마사고 운동장",
    "address": "전북특별자치도 장수군 장계면 명덕리 1359",
    "lat": "35.724139226296565",
    "lng": "127.63447701931044",
    "region": "전북특별자치도"
  },
  {
    "name": "대곡리 마을회관",
    "address": "경상북도 포항시 남구 장기면 대곡리 226-4",
    "lat": "35.93681561877426",
    "lng": "129.4709828496024",
    "region": "경상북도"
  },
  {
    "name": "양포항 주차장",
    "address": "경상북도 포항시 남구 장기면 양포리 9-32",
    "lat": "35.88151312504894",
    "lng": "129.5198767820061",
    "region": "경상북도"
  },
  {
    "name": "호미곶해맞이광장",
    "address": "경상북도 포항시 남구 호미곶면 대보리 225-2",
    "lat": "36.076739427952404",
    "lng": "129.56786155700863",
    "region": "경상북도"
  },
  {
    "name": "포항제철지곡초등학교 운동장",
    "address": "경상북도 포항시 남구 지곡동 644-1",
    "lat": "36.029416659141084",
    "lng": "129.32132652306177",
    "region": "경상북도"
  },
  {
    "name": "성산초등학교 운동장",
    "address": "경상남도 양산시 물금읍 범어리 2712-6",
    "lat": "35.330385",
    "lng": "129.018263",
    "region": "경상남도"
  },
  {
    "name": "안흥초등학교 운동장",
    "address": "경기도 이천시 안흥동 344-1",
    "lat": "37.280147555252",
    "lng": "127.45693860220881",
    "region": "경기도"
  },
  {
    "name": "능허대공원",
    "address": "인천광역시 연수구 옥련동 194-54",
    "lat": "37.422885",
    "lng": "126.643193",
    "region": "인천광역시"
  },
  {
    "name": "전주전라초등학교(운동장)",
    "address": "전북특별자치도 전주시 덕진구 인후동1가 575-1",
    "lat": "35.839433601121605",
    "lng": "127.1521665568267",
    "region": "전북특별자치도"
  },
  {
    "name": "신촌마을광장",
    "address": "전북특별자치도 고창군 무장면 신촌리 304",
    "lat": "35.39584659113902",
    "lng": "126.5436383704482",
    "region": "전북특별자치도"
  },
  {
    "name": "삼각어린이공원",
    "address": "서울특별시 구로구 구로동 47",
    "lat": "37.50139151939311",
    "lng": "126.89197742083174",
    "region": "서울특별시"
  },
  {
    "name": "마산리 마을회관",
    "address": "경상북도 포항시 남구 동해면 마산리 185",
    "lat": "36.01608810474307",
    "lng": "129.4875079393475",
    "region": "경상북도"
  },
  {
    "name": "송림테마거리",
    "address": "경상북도 포항시 남구 송도동 254-473",
    "lat": "36.04029888117204",
    "lng": "129.37635634274233",
    "region": "경상북도"
  },
  {
    "name": "원당중학교 운동장",
    "address": "인천광역시 서구 원당동 852-2",
    "lat": "37.59629330030795",
    "lng": "126.7038073071258",
    "region": "인천광역시"
  },
  {
    "name": "이천송정초등학교 운동장",
    "address": "경기도 이천시 송정동 375-23",
    "lat": "37.29457199800886",
    "lng": "127.4333171932863",
    "region": "경기도"
  },
  {
    "name": "장호마을광장",
    "address": "전북특별자치도 고창군 상하면 장호리 1486-1",
    "lat": "35.47065025622066",
    "lng": "126.46680469742303",
    "region": "전북특별자치도"
  },
  {
    "name": "추원모자골경로당 앞 공터",
    "address": "경상북도 경주시 황용동 84",
    "lat": "35.815435897519194",
    "lng": "129.36381787062075",
    "region": "경상북도"
  },
  {
    "name": "덕동경로당 앞 공터",
    "address": "경상북도 경주시 덕동 580-2",
    "lat": "35.8343790",
    "lng": "129.3216780",
    "region": "경상북도"
  },
  {
    "name": "청람중학교 운동장",
    "address": "인천광역시 서구 청라동 140-5",
    "lat": "37.538208719756646",
    "lng": "126.6437656422382",
    "region": "인천광역시"
  },
  {
    "name": "검단초등학교 운동장",
    "address": "인천광역시 서구 마전동 1137",
    "lat": "37.61055137884088",
    "lng": "126.6696515679359",
    "region": "인천광역시"
  },
  {
    "name": "가림고등학교 운동장",
    "address": "인천광역시 서구 가좌동 30-92",
    "lat": "37.49216436359805",
    "lng": "126.68091078391197",
    "region": "인천광역시"
  },
  {
    "name": "정읍초등학교 운동장",
    "address": "전북특별자치도 정읍시 수성동 171",
    "lat": "35.58761147434985",
    "lng": "126.86291556424693",
    "region": "전북특별자치도"
  },
  {
    "name": "서남중학교",
    "address": "대구광역시 서구 중리동 713",
    "lat": "35.857970061045236",
    "lng": "128.54263007641407",
    "region": "대구광역시"
  },
  {
    "name": "꼼지락공원",
    "address": "대구광역시 서구 중리동 26-2",
    "lat": "35.86530865286783",
    "lng": "128.54809775948607",
    "region": "대구광역시"
  },
  {
    "name": "큰골근린공원",
    "address": "경상남도 양산시 삼호동 157",
    "lat": "35.41212177901601",
    "lng": "129.17923820739065",
    "region": "경상남도"
  },
  {
    "name": "전주원동초등학교(운동장)",
    "address": "전북특별자치도 전주시 덕진구 원동 361-1",
    "lat": "35.851248628867964",
    "lng": "127.03352077613286",
    "region": "전북특별자치도"
  },
  {
    "name": "전주교대부설초등학교(운동장)",
    "address": "전북특별자치도 전주시 완산구 서서학동 3-4",
    "lat": "35.80843253930818",
    "lng": "127.15106821713489",
    "region": "전북특별자치도"
  },
  {
    "name": "달성고등학교",
    "address": "대구광역시 서구 내당동 467-1",
    "lat": "35.8579",
    "lng": "128.5546",
    "region": "대구광역시"
  },
  {
    "name": "대구서부고등학교",
    "address": "대구광역시 서구 평리동 1070-48",
    "lat": "35.8744",
    "lng": "128.5599",
    "region": "대구광역시"
  },
  {
    "name": "완주산업단지 제2테니스장",
    "address": "전북특별자치도 완주군 봉동읍 용암리 840",
    "lat": "35.9395258",
    "lng": "127.13193139999998",
    "region": "전북특별자치도"
  },
  {
    "name": "호남제일고등학교(운동장)",
    "address": "전북특별자치도 전주시 완산구 효자동3가 1233",
    "lat": "35.814421971428864",
    "lng": "127.09995009453641",
    "region": "전북특별자치도"
  },
  {
    "name": "완주고등학교 운동장",
    "address": "전북특별자치도 완주군 봉동읍 장기리 153",
    "lat": "35.940729513918534",
    "lng": "127.16733832841597",
    "region": "전북특별자치도"
  },
  {
    "name": "이가리 마을회관",
    "address": "경상북도 포항시 북구 청하면 이가리 73",
    "lat": "36.18352609107995",
    "lng": "129.38787460327126",
    "region": "경상북도"
  },
  {
    "name": "청라고등학교 운동장",
    "address": "인천광역시 서구 청라동 137-2",
    "lat": "37.53667661718422",
    "lng": "126.66070052108542",
    "region": "인천광역시"
  },
  {
    "name": "동상면행정복지센터 주차장",
    "address": "전북특별자치도 완주군 동상면 신월리 544",
    "lat": "35.93676176699142",
    "lng": "127.2967809233902",
    "region": "전북특별자치도"
  },
  {
    "name": "고산생활체육공원 운동장",
    "address": "전북특별자치도 완주군 고산면 읍내리 906",
    "lat": "35.9755082624663",
    "lng": "127.19997738343214",
    "region": "전북특별자치도"
  },
  {
    "name": "전주중산초등학교(운동장)",
    "address": "전북특별자치도 전주시 완산구 중화산동2가 614",
    "lat": "35.8173244830437",
    "lng": "127.1197796435329",
    "region": "전북특별자치도"
  },
  {
    "name": "전주기린초등학교(운동장)",
    "address": "전북특별자치도 전주시 덕진구 인후동1가 431-3",
    "lat": "35.834939133283385",
    "lng": "127.15933192965358",
    "region": "전북특별자치도"
  },
  {
    "name": "양사마을광장",
    "address": "전북특별자치도 고창군 성송면 하고리 667-1",
    "lat": "35.36415569942323",
    "lng": "126.60822894553354",
    "region": "전북특별자치도"
  },
  {
    "name": "봉동초등학교 양화분교 운동장",
    "address": "전북특별자치도 완주군 고산면 양야리 418-2",
    "lat": "35.945371229439374",
    "lng": "127.20506133365302",
    "region": "전북특별자치도"
  },
  {
    "name": "세인고등학교 운동장",
    "address": "전북특별자치도 완주군 화산면 운산리 110-1",
    "lat": "36.06869052336174",
    "lng": "127.15333102895907",
    "region": "전북특별자치도"
  },
  {
    "name": "장수중학교 운동장",
    "address": "전��특별자치도 장수군 장수읍 장수리 390",
    "lat": "35.65251802524238",
    "lng": "127.52141544161707",
    "region": "전��특별자치도"
  },
  {
    "name": "장계중학교 운동장",
    "address": "전북특별자치도 장수군 장계면 장계리 301",
    "lat": "35.73250299060193",
    "lng": "127.58250549651706",
    "region": "전북특별자치도"
  },
  {
    "name": "입암2리 마을회관",
    "address": "경상북도 포항시 남구 동해면 입암리 417-3",
    "lat": "36.013289387273666",
    "lng": "129.47691053152897",
    "region": "경상북도"
  },
  {
    "name": "중흥리 마을회관",
    "address": "경상북도 포항시 남구 동해면 중흥리 227",
    "lat": "36.0183747350142",
    "lng": "129.5044326782318",
    "region": "경상북도"
  },
  {
    "name": "대보1리 마을회관",
    "address": "경상북도 포항시 남구 호미곶면 대보리 89-4",
    "lat": "36.068473022856985",
    "lng": "129.56723392010045",
    "region": "경상북도"
  },
  {
    "name": "명안2리 마을회관",
    "address": "경상북도 포항시 북구 청하면 명안리 484-4",
    "lat": "36.179986413332",
    "lng": "129.28910762071422",
    "region": "경상북도"
  },
  {
    "name": "경천면행정복지센터 주차장",
    "address": "전북특별자치도 완주군 경천면 경천리 215-13",
    "lat": "36.022707001511804",
    "lng": "127.25296497344969",
    "region": "전북특별자치도"
  },
  {
    "name": "완주산업단지 중앙공원",
    "address": "전북특별자치도 완주군 봉동읍 용암리 823",
    "lat": "35.9430283076768",
    "lng": "127.12759802465722",
    "region": "전북특별자치도"
  },
  {
    "name": "봉동생강골공원 운동장",
    "address": "전북특별자치도 완주군 봉동읍 낙평리 728",
    "lat": "35.930396833570754",
    "lng": "127.15694550524708",
    "region": "전북특별자치도"
  },
  {
    "name": "전주중앙여자고등학교(운동장)",
    "address": "전북특별자치도 전주시 덕진구 인후동1가 109-2",
    "lat": "35.82820193793434",
    "lng": "127.16853999658872",
    "region": "전북특별자치도"
  },
  {
    "name": "전주완산여자고등학교(운동장)",
    "address": "전북특별자치도 전주시 완산구 평화동1가 500-1",
    "lat": "35.7927885746986",
    "lng": "127.13996476531403",
    "region": "전북특별자치도"
  },
  {
    "name": "방어리 마을회관",
    "address": "경상북도 포항시 북구 청하면 방어리 132-1",
    "lat": "36.21137030566553",
    "lng": "129.38057899475487",
    "region": "경상북도"
  },
  {
    "name": "검단중학교 운동장",
    "address": "인천광역시 서구 마전동 908-2",
    "lat": "37.60363185271919",
    "lng": "126.65700011644456",
    "region": "인천광역시"
  },
  {
    "name": "은지초등학교 운동장",
    "address": "인천광역시 서구 검암동 536-1",
    "lat": "37.564647810520256",
    "lng": "126.68426990000876",
    "region": "인천광역시"
  },
  {
    "name": "이서면행정복지센터 주차장",
    "address": "전북특별자치도 완주군 이서면 상개리 586",
    "lat": "35.82085127056438",
    "lng": "127.02281405467284",
    "region": "전북특별자치도"
  },
  {
    "name": "상관생활체육공원 운동장",
    "address": "전북특별자치도 완주군 상관면 신리 150",
    "lat": "35.764456653357925",
    "lng": "127.21144437789917",
    "region": "전북특별자치도"
  },
  {
    "name": "소양체련공원 운동장",
    "address": "전북특별자치도 완주군 소양면 해월리 422",
    "lat": "35.862842754632744",
    "lng": "127.2506534905202",
    "region": "전북특별자치도"
  },
  {
    "name": "쟁암리 마을회관 앞 공터",
    "address": "경상북도 영덕군 남정면 쟁암리 145-3",
    "lat": "36.3045457166662",
    "lng": "129.32495238131705",
    "region": "경상북도"
  },
  {
    "name": "전주성심여자중학교(운동장)",
    "address": "전북특별자치도 전주시 완산구 교동 280",
    "lat": "35.81318908248067",
    "lng": "127.15079139458135",
    "region": "전북특별자치도"
  },
  {
    "name": "봉서초등학교 운동장",
    "address": "전북특별자치도 완주군 봉동읍 둔산리 954",
    "lat": "35.96262916005277",
    "lng": "127.12515476116646",
    "region": "전북특별자치도"
  },
  {
    "name": "상대리 마을회관",
    "address": "경상북도 포항시 북구 청하면 상대리 173-40",
    "lat": "36.18940571601276",
    "lng": "129.32018369436423",
    "region": "경상북도"
  },
  {
    "name": "가원초등학교 운동장",
    "address": "인천광역시 서구 가정동 605-1",
    "lat": "37.52882334789281",
    "lng": "126.66376110184915",
    "region": "인천광역시"
  },
  {
    "name": "원당초등학교 운동장",
    "address": "인천광역시 서구 당하동 1022",
    "lat": "37.59227881353832",
    "lng": "126.69168018534369",
    "region": "인천광역시"
  },
  {
    "name": "당산목공원",
    "address": "대구광역시 서구 평리동 707-42",
    "lat": "35.877399761273544",
    "lng": "128.5625347495081",
    "region": "대구광역시"
  },
  {
    "name": "비봉면행정복지센터 주차장",
    "address": "전북특별자치도 완주군 비봉면 소농리 497-4",
    "lat": "35.9957807540636",
    "lng": "127.13991833135414",
    "region": "전북특별자치도"
  },
  {
    "name": "화산생활체육공원",
    "address": "전북특별자치도 완주군 화산면 화월리 485",
    "lat": "36.03055089998244",
    "lng": "127.19700872898102",
    "region": "전북특별자치도"
  },
  {
    "name": "전주온빛초등학교(운동장)",
    "address": "전북특별자치도 전주시 덕진구 장동 1066",
    "lat": "35.842438668735426",
    "lng": "127.05653205607851",
    "region": "전북특별자치도"
  },
  {
    "name": "문정초등학교(운동장)",
    "address": "전북특별자치도 전주시 완산구 평화동3가 226",
    "lat": "35.77512274981273",
    "lng": "127.1275935320181",
    "region": "전북특별자치도"
  },
  {
    "name": "시산초등학교 운동장",
    "address": "전북특별자치도 순창군 쌍치면 시산리 110",
    "lat": "35.4914267820657",
    "lng": "126.98058128356881",
    "region": "전북특별자치도"
  },
  {
    "name": "서정2리 마을회관",
    "address": "경상북도 포항시 북구 청하면 서정리 707-126",
    "lat": "36.19391688151981",
    "lng": "129.32635009289305",
    "region": "경상북도"
  },
  {
    "name": "용두1리 마을회관",
    "address": "경상북도 포항시 북구 청하면 용두리 104-22",
    "lat": "36.19482168092703",
    "lng": "129.37265306711348",
    "region": "경상북도"
  },
  {
    "name": "한국농어촌공사 무진장지사",
    "address": "전북특별자치도 장수군 장수읍 장수리 673-1",
    "lat": "35.64669295680793",
    "lng": "127.51507848687042",
    "region": "전북특별자치도"
  },
  {
    "name": "오포1리 마을뒷산 공터",
    "address": "경상북도 영덕군 강구면 오포리 482",
    "lat": "36.36163469684879",
    "lng": "129.37457324938052",
    "region": "경상북도"
  },
  {
    "name": "삼화리 버스승강장 옆 공터",
    "address": "경상북도 영덕군 지품면 삼화리 170-5",
    "lat": "36.438083677031344",
    "lng": "129.33367866926827",
    "region": "경상북도"
  },
  {
    "name": "전주중인초등학교(운동장)",
    "address": "전북특별자치도 전주시 완산구 중인동 585-1",
    "lat": "35.77108011504281",
    "lng": "127.09770595380625",
    "region": "전북특별자치도"
  },
  {
    "name": "삼례동초등학교",
    "address": "전북특별자치도 완주군 삼례읍 수계리 1225-2",
    "lat": "35.92245510064354",
    "lng": "127.1177923679352",
    "region": "전북특별자치도"
  },
  {
    "name": "대리초등학교",
    "address": "전북특별자치도 임실군 신평면 대리 289",
    "lat": "35.659755013704356",
    "lng": "127.26998104225112",
    "region": "전북특별자치도"
  },
  {
    "name": "오수중학교 운동장",
    "address": "전북특별자치도 임실군 오수면 오수리 459-1",
    "lat": "35.547054268027125",
    "lng": "127.32874097650968",
    "region": "전북특별자치도"
  },
  {
    "name": "장계농공단지",
    "address": "전북특별자치도 장수군 장계면 송천리 948",
    "lat": "35.74259077676989",
    "lng": "127.59468309118462",
    "region": "전북특별자치도"
  },
  {
    "name": "고창고등학교",
    "address": "전북특별자치도 고창군 고창읍 교촌리 269",
    "lat": "35.4370018369566",
    "lng": "126.7014920711517",
    "region": "전북특별자치도"
  },
  {
    "name": "월곡 주차장",
    "address": "전북특별자치도 고창군 고창읍 월곡리 760",
    "lat": "35.435916315383274",
    "lng": "126.71282303209404",
    "region": "전북특별자치도"
  },
  {
    "name": "해암마을 광장",
    "address": "전북특별자치도 고창군 신림면 자포리 284",
    "lat": "35.47391574637401",
    "lng": "126.70007374509177",
    "region": "전북특별자치도"
  },
  {
    "name": "가흥초등학교 운동장",
    "address": "경상북도 영주시 가흥동 1857",
    "lat": "36.81351679077668",
    "lng": "128.60910967952375",
    "region": "경상북도"
  },
  {
    "name": "흥곡2리 마을회관",
    "address": "경상북도 포항시 북구 신광면 흥곡리 544-1",
    "lat": "36.1045890595552",
    "lng": "129.2400285601685",
    "region": "경상북도"
  },
  {
    "name": "원당고등학교 운동장",
    "address": "인천광역시 서구 원당동 852-3",
    "lat": "37.596721500944305",
    "lng": "126.70458950894489",
    "region": "인천광역시"
  },
  {
    "name": "목향초등학교 운동장",
    "address": "인천광역시 서구 불로동 306-25",
    "lat": "37.61603798215421",
    "lng": "126.69501022377658",
    "region": "인천광역시"
  },
  {
    "name": "가정여자중학교 운동장",
    "address": "인천광역시 서구 가좌동 343",
    "lat": "37.48544813914839",
    "lng": "126.68464523892864",
    "region": "인천광역시"
  },
  {
    "name": "새마을공원 주차장",
    "address": "전북특별자치도 고창군 고창읍 석교리 6-4",
    "lat": "35.441505894286955",
    "lng": "126.6979936013091",
    "region": "전북특별자치도"
  },
  {
    "name": "청완초등학교 운동장",
    "address": "전북특별자치도 완주군 봉동읍 둔산리 864-14",
    "lat": "35.96296458013188",
    "lng": "127.12063897175514",
    "region": "전북특별자치도"
  },
  {
    "name": "농산물 도매시장 주차장",
    "address": "경상북도 포항시 북구 흥해읍 학천리 4",
    "lat": "36.08010996807675",
    "lng": "129.3356288856233",
    "region": "경상북도"
  },
  {
    "name": "미현리 마을회관",
    "address": "경상북도 포항시 북구 기계면 미현리 142-5",
    "lat": "36.10728268283708",
    "lng": "129.22063350678013",
    "region": "경상북도"
  },
  {
    "name": "고지2리 마을회관",
    "address": "경상북도 포항시 북구 기계면 고지리 45",
    "lat": "36.0711589943062",
    "lng": "129.18821775578954",
    "region": "경상북도"
  },
  {
    "name": "고창자유중학교",
    "address": "전북특별자치도 고창군 고창읍 석교리 9-4",
    "lat": "35.441029972824644",
    "lng": "126.69619404977598",
    "region": "전북특별자치도"
  },
  {
    "name": "문화의 전당 주차장",
    "address": "전북특별자치도 고창군 고창읍 읍내리 182-6",
    "lat": "35.43321018408953",
    "lng": "126.70561462641052",
    "region": "전북특별자치도"
  },
  {
    "name": "중앙가구 앞 주차장",
    "address": "전북특별자치도 고창군 고창읍 읍내리 324-57",
    "lat": "35.433859012190204",
    "lng": "126.6973931855201",
    "region": "전북특별자치도"
  },
  {
    "name": "임실기림초등학교 운동장",
    "address": "전북특별자치도 임실군 임실읍 두곡리 58-1",
    "lat": "35.62867559535033",
    "lng": "127.29017603327797",
    "region": "전북특별자치도"
  },
  {
    "name": "지사중학교 운동장",
    "address": "전북특별자치도 임실군 지사면 금평리 47",
    "lat": "35.56680023314832",
    "lng": "127.35940309786075",
    "region": "전북특별자치도"
  },
  {
    "name": "가안2리 마을회관",
    "address": "경상북도 포항시 북구 기계면 가안리 934",
    "lat": "36.12717319487032",
    "lng": "129.12611246108915",
    "region": "경상북도"
  },
  {
    "name": "전주덕진중학교(운동장)",
    "address": "전북특별자치도 전주시 덕진구 덕진동2가 234-1",
    "lat": "35.84410027944586",
    "lng": "127.11677617563957",
    "region": "전북특별자치도"
  },
  {
    "name": "신동초등학교 운동장",
    "address": "강원특별자치도 삼척시 신기면 신기리 356-4",
    "lat": "37.3508420916184",
    "lng": "129.08199763311117",
    "region": "강원특별자치도"
  },
  {
    "name": "송촌마을 광장",
    "address": "전북특별자치도 고창군 신림면 송용리 349-10",
    "lat": "35.476810",
    "lng": "126.713824",
    "region": "전북특별자치도"
  },
  {
    "name": "성수중학교 운동장",
    "address": "전북특별자치도 임실군 성수면 양지리 257",
    "lat": "35.62957862195814",
    "lng": "127.33598634505474",
    "region": "전북특별자치도"
  },
  {
    "name": "오수초등학교 운동장",
    "address": "전북특별자치도 임실군 오수면 오수리 400-17",
    "lat": "35.54290511037814",
    "lng": "127.328589934053",
    "region": "전북특별자치도"
  },
  {
    "name": "인창고등학교 운동장",
    "address": "서울특별시 서대문구 충정로2가 70",
    "lat": "37.565066361408064",
    "lng": "126.96362393398209",
    "region": "서울특별시"
  },
  {
    "name": "안덕1리 마을회관",
    "address": "경상북도 포항시 북구 신광면 안덕리 233",
    "lat": "36.14612968720709",
    "lng": "129.26664038181636",
    "region": "경상북도"
  },
  {
    "name": "초은고등학교 운동장",
    "address": "인천광역시 서구 청라동 193-2",
    "lat": "37.52871446193647",
    "lng": "126.65694231854927",
    "region": "인천광역시"
  },
  {
    "name": "마전중학교 운동장",
    "address": "인천광역시 서구 마전동 1029-1",
    "lat": "37.598287904770615",
    "lng": "126.66535926727197",
    "region": "인천광역시"
  },
  {
    "name": "고창꿈푸른유치원",
    "address": "전북특별자치도 고창군 고창읍 읍내리 542-16",
    "lat": "35.43011598425548",
    "lng": "126.69823072888337",
    "region": "전북특별자치도"
  },
  {
    "name": "남산초등학교 운동장",
    "address": "경상북도 영주시 휴천동 680",
    "lat": "36.81641037485739",
    "lng": "128.627065733854",
    "region": "경상북도"
  },
  {
    "name": "부석중학교 운동장",
    "address": "경상북도 영주시 부석면 소천리 501-1",
    "lat": "36.97835144225196",
    "lng": "128.65146977002937",
    "region": "경상북도"
  },
  {
    "name": "새마을운동기념관 주차장",
    "address": "경상북도 포항시 북구 기계면 문성리 298-1",
    "lat": "36.065082981391235",
    "lng": "129.19531063659727",
    "region": "경상북도"
  },
  {
    "name": "하사리 소공원",
    "address": "경상북도 포항시 북구 죽장면 하사리 300-3",
    "lat": "36.25599258605491",
    "lng": "129.08224493265118",
    "region": "경상북도"
  },
  {
    "name": "한솔초등학교 운동장",
    "address": "세종특별자치시 세종시 한솔동 973",
    "lat": "36.47682588849437",
    "lng": "127.2525733709335",
    "region": "세종특별자치시"
  },
  {
    "name": "전주교육대학교(운동장)",
    "address": "전북특별자치도 전주시 완산구 동서학동 128",
    "lat": "35.808887837259384",
    "lng": "127.1555571877261",
    "region": "전북특별자치도"
  },
  {
    "name": "흥덕초등학교",
    "address": "���북특별자치도 고창군 흥덕면 흥덕리 228-1",
    "lat": "35.519650740938374",
    "lng": "126.70166729793071",
    "region": "���북특별자치도"
  },
  {
    "name": "고창중학교",
    "address": "전북특별자치도 고창군 고창읍 덕산리 248",
    "lat": "35.428988723164736",
    "lng": "126.69412665171579",
    "region": "전북특별자치도"
  },
  {
    "name": "동호초등학교",
    "address": "전북특별자치도 고창군 해리면 동호리 103-4",
    "lat": "35.50731228452361",
    "lng": "126.49428489695681",
    "region": "전북특별자치도"
  },
  {
    "name": "천주교 앞 주차장",
    "address": "전북특별자치도 고창군 고창읍 읍내리 413-27",
    "lat": "35.430125952222376",
    "lng": "126.69976194609451",
    "region": "전북특별자치도"
  },
  {
    "name": "삼례중앙초등학교 운동장",
    "address": "전북특별자치도 완주군 삼례읍 삼례리 205",
    "lat": "35.919151237960484",
    "lng": "127.08079821360306",
    "region": "전북특별자치도"
  },
  {
    "name": "삼례초등학교 운동장",
    "address": "전북특별자치도 완주군 삼례읍 후정리 37-2",
    "lat": "35.90965274096002",
    "lng": "127.06914274615437",
    "region": "전북특별자치도"
  },
  {
    "name": "대영중학교 운동장",
    "address": "경상북도 영주시 휴천동 1770",
    "lat": "36.807333306987395",
    "lng": "128.63219402298276",
    "region": "경상북도"
  },
  {
    "name": "부석초등학교 운동장",
    "address": "경상북도 영주시 부석면 소천리 365",
    "lat": "36.98091291669235",
    "lng": "128.655720437232",
    "region": "경상북도"
  },
  {
    "name": "광복공원",
    "address": "경상북도 영주시 풍기읍 산법리 376-6",
    "lat": "36.87722514550267",
    "lng": "128.5395765940343",
    "region": "경상북도"
  },
  {
    "name": "지가2리 마을회관",
    "address": "경상북도 포항시 북구 기계면 지가리 232-13",
    "lat": "36.08380193073878",
    "lng": "129.18338030576948",
    "region": "경상북도"
  },
  {
    "name": "두호5어린이공원",
    "address": "경상북도 포항시 북구 두호동 1080-1",
    "lat": "36.06738184957003",
    "lng": "129.38173472193952",
    "region": "경상북도"
  },
  {
    "name": "칠원초등학교 운동장",
    "address": "경상남도 함안군 칠원읍 구성리 730",
    "lat": "35.30649743713875",
    "lng": "128.51998371553543",
    "region": "경상남도"
  },
  {
    "name": "만석1리 마을회관",
    "address": "경상북도 포항시 북구 신광면 만석리 446-1",
    "lat": "36.150222982549344",
    "lng": "129.27449762821038",
    "region": "경상북도"
  },
  {
    "name": "대전2리 마을회관",
    "address": "경상북도 포항시 북구 송라면 대전리 562-7",
    "lat": "36.25890377783452",
    "lng": "129.34312731028095",
    "region": "경상북도"
  },
  {
    "name": "중산2리 마을회관",
    "address": "경상북도 포항시 북구 송라면 중산리 267-3",
    "lat": "36.239535608176155",
    "lng": "129.3292924761752",
    "region": "경상북도"
  },
  {
    "name": "내단3리 마을회관",
    "address": "경상북도 포항시 북구 기계면 내단리 114",
    "lat": "36.0719288457506",
    "lng": "129.24394994974193",
    "region": "경상북도"
  },
  {
    "name": "상사리 마을회관",
    "address": "경상북도 포항시 북구 죽장면 상사리 626-1",
    "lat": "36.25327378966671",
    "lng": "129.1088148951554",
    "region": "경상북도"
  },
  {
    "name": "대곡1리 마을회관",
    "address": "경상북도 포항시 북구 기북면 대곡리 310",
    "lat": "36.12149472926389",
    "lng": "129.16130304336346",
    "region": "경상북도"
  },
  {
    "name": "세화고등학교 운동장",
    "address": "경상북도 포항시 북구 우현동 318-3",
    "lat": "36.05391427997876",
    "lng": "129.3523837545112",
    "region": "경상북도"
  },
  {
    "name": "당하중학교 운동장",
    "address": "인천광역시 서구 당하동 1076-1",
    "lat": "37.59057758433019",
    "lng": "126.66994787970441",
    "region": "인천광역시"
  },
  {
    "name": "백석초등학교",
    "address": "전북특별자치도 김제시 흥사동 543-1",
    "lat": "35.829001447276156",
    "lng": "126.89414824460573",
    "region": "전북특별자치도"
  },
  {
    "name": "법성고등학교",
    "address": "전라남도 영광군 법성면 대덕리 341-1",
    "lat": "35.35932829292289",
    "lng": "126.45763358978387",
    "region": "전라남도"
  },
  {
    "name": "구이면행정복지센터 주차장",
    "address": "전북특별자치도 완주군 구이면 원기리 450",
    "lat": "35.731897876124656",
    "lng": "127.12029119097065",
    "region": "전북특별자치도"
  },
  {
    "name": "완주군 공설운동장",
    "address": "전북특별자치도 완주군 삼례읍 신금리 416-3",
    "lat": "35.9201069877411",
    "lng": "127.09453945918726",
    "region": "전북특별자치도"
  },
  {
    "name": "완주군 청소년수련관 운동장",
    "address": "전북특별자치도 완주군 삼례읍 삼례리 288",
    "lat": "35.91772511445107",
    "lng": "127.08289370565598",
    "region": "전북특별자치도"
  },
  {
    "name": "모악산 다목적운동장",
    "address": "전북특별자치도 완주군 구이면 원기리 1069-7",
    "lat": "35.728776",
    "lng": "127.108174",
    "region": "전북특별자치도"
  },
  {
    "name": "동상면민운동장",
    "address": "전북특별자치도 완주군 동상면 신월리 992-1",
    "lat": "35.938319994594906",
    "lng": "127.2933454331835",
    "region": "전북특별자치도"
  },
  {
    "name": "서창근린공원",
    "address": "인천광역시 남동구 서창동 558-1",
    "lat": "37.43594948726399",
    "lng": "126.74680384064168",
    "region": "인천광역시"
  },
  {
    "name": "나루소공원",
    "address": "인천광역시 남동구 논현동 751-6",
    "lat": "37.39871847228492",
    "lng": "126.73371327018805",
    "region": "인천광역시"
  },
  {
    "name": "전주은화학교(운동장)",
    "address": "전북특별자치도 전주시 완산구 효자동3가 1059-7",
    "lat": "35.81900752870961",
    "lng": "127.086504982009",
    "region": "전북특별자치도"
  },
  {
    "name": "지경3리 마을회관",
    "address": "경상북도 포항시 북구 송라면 지경리 461",
    "lat": "36.26993763716117",
    "lng": "129.3586841225637",
    "region": "경상북도"
  },
  {
    "name": "구지리 마을회관 ",
    "address": "경상북도 포항시 북구 기계면 구지리 276",
    "lat": "36.1062468515025",
    "lng": "129.14197236300177",
    "region": "경상북도"
  },
  {
    "name": "계전리 마을회관",
    "address": "경상북도 포항시 북구 기계면 계전리 141-1",
    "lat": "36.10206387000423",
    "lng": "129.208773902686",
    "region": "경상북도"
  },
  {
    "name": "양학중학교 운동장",
    "address": "경상북도 포항시 북구 득량동 205-6",
    "lat": "36.0329916851765",
    "lng": "129.34241854958464",
    "region": "경상북도"
  },
  {
    "name": "죽도동행정복지센터",
    "address": "경상북도 포항시 북구 죽도동 71-6",
    "lat": "36.03112684633094",
    "lng": "129.36350187436034",
    "region": "경상북도"
  },
  {
    "name": "포이초등학교 운동장",
    "address": "서울특별시 강남구 개포동 1273",
    "lat": "37.47558202031999",
    "lng": "127.05249684260329",
    "region": "서울특별시"
  },
  {
    "name": "부안제2농공단지 주차장",
    "address": "전북특별자치도 부안군 행안면 역리 1140",
    "lat": "35.73498906021881",
    "lng": "126.72152012586955",
    "region": "전북특별자치도"
  },
  {
    "name": "법성포초등학교(안마분교)",
    "address": "전라남도 영광군 낙월면 월촌리 산313-3",
    "lat": "35.34597624249217",
    "lng": "126.02506935596352",
    "region": "전라남도"
  },
  {
    "name": "어울근린공원",
    "address": "인천광역시 남동구 서창동 681",
    "lat": "37.42795797880785",
    "lng": "126.74552327759531",
    "region": "인천광역시"
  },
  {
    "name": "사랑의 광장",
    "address": "전북특별자치도 남원시 어현동 37-19",
    "lat": "35.403135345527204",
    "lng": "127.38603685151429",
    "region": "전북특별자치도"
  },
  {
    "name": "전주화산초등학교(운동장)",
    "address": "전북특별자치도 전주시 완산구 중화산동2가 46-25",
    "lat": "35.809806444364455",
    "lng": "127.1294421891949",
    "region": "전북특별자치도"
  },
  {
    "name": "전주효문중학교(운동장)",
    "address": "전북특별자치도 전주시 완산구 삼천동1가 208-1",
    "lat": "35.7976836379815",
    "lng": "127.12051430049775",
    "region": "전북특별자치도"
  },
  {
    "name": "벽송마을 광장",
    "address": "전북특별자치도 고창군 신림면 벽송리 373-8",
    "lat": "35.47850029614751",
    "lng": "126.68454375446895",
    "region": "전북특별자치도"
  },
  {
    "name": "반룡마을 광장",
    "address": "전북특별자치도 고창군 신림면 반룡리 510-1",
    "lat": "35.46237974599522",
    "lng": "126.72287448686498",
    "region": "전북특별자치도"
  },
  {
    "name": "섬진중학교 운동장",
    "address": "전북특별자치도 임실군 강진면 회진리 39-1",
    "lat": "35.527018880608246",
    "lng": "127.15229992926665",
    "region": "전북특별자치도"
  },
  {
    "name": "대영고등학교 운동장",
    "address": "경상북도 영주시 휴천동 1770",
    "lat": "36.80902543504915",
    "lng": "128.63235383831565",
    "region": "경상북도"
  },
  {
    "name": "한국국제조리고등학교 운동장",
    "address": "경상북도 영주시 휴천동 산112",
    "lat": "36.815741312411724",
    "lng": "128.64158889833593",
    "region": "경상북도"
  },
  {
    "name": "강사2리 마을회관",
    "address": "경상북도 포항시 남구 호미곶면 강사리 983-4",
    "lat": "36.048962337085406",
    "lng": "129.57695156336072",
    "region": "경상북도"
  },
  {
    "name": "청림운동장",
    "address": "경상북도 포항시 남구 일월동 713",
    "lat": "36.00035541856487",
    "lng": "129.4208228588135",
    "region": "경상북도"
  },
  {
    "name": "포항이동고등학교 운동장",
    "address": "경상북도 포항시 남구 이동 146-1",
    "lat": "36.029681081379465",
    "lng": "129.33458715677872",
    "region": "경상북도"
  },
  {
    "name": "오도2리 마을회관",
    "address": "경상북도 포항시 북구 흥해읍 오도리 77",
    "lat": "36.16447489381251",
    "lng": "129.39909964800304",
    "region": "경상북도"
  },
  {
    "name": "양덕초등학교 운동장",
    "address": "경상북도 포항시 북구 양덕동 1851",
    "lat": "36.07977130376061",
    "lng": "129.40359334707063",
    "region": "경상북도"
  },
  {
    "name": "줄포자동차공업고등학교 운동장",
    "address": "전북특별자치도 부안군 줄포면 우포리 138",
    "lat": "35.584874368593326",
    "lng": "126.67739510536606",
    "region": "전북특별자치도"
  },
  {
    "name": "염산초등학교(낙월분교)",
    "address": "전라남도 영광군 낙월면 상낙월리 산361",
    "lat": "35.201995560484434",
    "lng": "126.13674464440349",
    "region": "전라남도"
  },
  {
    "name": "바람어린이공원",
    "address": "인천광역시 남동구 논현동 739-5",
    "lat": "37.39364096678837",
    "lng": "126.7229595746607",
    "region": "인천광역시"
  },
  {
    "name": "백령종합운동장",
    "address": "인천광역시 옹진군 백령면 남포리 1799",
    "lat": "37.93920541942896",
    "lng": "124.69984531399301",
    "region": "인천광역시"
  },
  {
    "name": "임실초등학교 운동장",
    "address": "전북특별자치도 임실군 임실읍 성가리 205",
    "lat": "35.607581",
    "lng": "127.271788",
    "region": "전북특별자치도"
  },
  {
    "name": "삼계중학교 운동장",
    "address": "전북특별자치도 임실군 삼계면 삼계리 359",
    "lat": "35.51015905205958",
    "lng": "127.27468321851082",
    "region": "전북특별자치도"
  },
  {
    "name": "오수고등학교 운동장",
    "address": "전북특별자치도 임실군 오수면 오수리 455",
    "lat": "35.547735916771586",
    "lng": "127.32848623933509",
    "region": "전북특별자치도"
  },
  {
    "name": "사반마을광장",
    "address": "전북특별자치도 고창군 해리면 사반리 244-1",
    "lat": "35.48041267264473",
    "lng": "126.49090912010845",
    "region": "전북특별자치도"
  },
  {
    "name": "무아래공원",
    "address": "서울특별시 금천구 가산동 234-29",
    "lat": "37.473350957667435",
    "lng": "126.893259080029",
    "region": "서울특별시"
  },
  {
    "name": "서천둔치",
    "address": "경상북도 영주시 가흥동 56",
    "lat": "36.81749760628094",
    "lng": "128.61520506294974",
    "region": "경상북도"
  },
  {
    "name": "장기초등학교 모포분교 운동장",
    "address": "경상북도 포항시 남구 장기면 모포리 95",
    "lat": "35.93446798707456",
    "lng": "129.5232537388885",
    "region": "경상북도"
  },
  {
    "name": "죽천1리 마을회관",
    "address": "경상북도 포항시 북구 흥해읍 죽천리 111-11",
    "lat": "36.08952863876524",
    "lng": "129.41944420338373",
    "region": "경상북도"
  },
  {
    "name": "두호동산",
    "address": "경상북도 포항시 북구 두호동 산30-1",
    "lat": "36.07012450772618",
    "lng": "129.38343403788502",
    "region": "경상북도"
  },
  {
    "name": "이성초등학교 운동장",
    "address": "전북특별자치도 완주군 이서면 이성리 336-2",
    "lat": "35.797296217942844",
    "lng": "127.04513853229702",
    "region": "전북특별자치도"
  },
  {
    "name": "만돌갯벌체험장",
    "address": "전북특별자치도 고창군 심원면 만돌리 960-27",
    "lat": "35.530100199497944",
    "lng": "126.51541382074106",
    "region": "전북특별자치도"
  },
  {
    "name": "남인천여자중학교 운동장",
    "address": "인천광역시 미추홀구 관교동 335-19",
    "lat": "37.445434085766145",
    "lng": "126.69391068194759",
    "region": "인천광역시"
  },
  {
    "name": "장성4어린이공원",
    "address": "경상북도 포항시 북구 장성동 1410-12",
    "lat": "36.083233508309156",
    "lng": "129.39418408473566",
    "region": "경상북도"
  },
  {
    "name": "예산여자고등학교",
    "address": "충청남도 예산군 예산읍 주교리 161-1",
    "lat": "36.684671",
    "lng": "126.833533",
    "region": "충청남도"
  },
  {
    "name": "백암초등학교 운동장",
    "address": "전북특별자치도 정읍시 칠보면 백암리 853",
    "lat": "35.61147545732002",
    "lng": "126.95092874200417",
    "region": "전북특별자치도"
  },
  {
    "name": "소태초등학교 운동장",
    "address": "충청북도 충주시 소태면 오량리 199",
    "lat": "37.11069125901165",
    "lng": "127.84698575735094",
    "region": "충청북도"
  },
  {
    "name": "흥환리 마을회관",
    "address": "경상북도 포항시 남구 동해면 흥환리 704",
    "lat": "36.02593489499972",
    "lng": "129.50376749039225",
    "region": "경상북도"
  },
  {
    "name": "발산리 어민복지회관",
    "address": "경상북도 포항시 남구 동해면 발산리 343",
    "lat": "36.03230352274865",
    "lng": "129.5043280720813",
    "region": "경상북도"
  },
  {
    "name": "장기초등학교 운동장",
    "address": "경상북도 포항시 남구 장기면 마현리 306-1",
    "lat": "35.89657265327162",
    "lng": "129.4944334030167",
    "region": "경상북도"
  },
  {
    "name": "호미곶면 행정복지센터",
    "address": "경상북도 포항시 남구 호미곶면 구만리 47-6",
    "lat": "36.08057424190386",
    "lng": "129.55568701029492",
    "region": "경상북도"
  },
  {
    "name": "포스텍 운동장",
    "address": "경상북도 포항시 남구 효자동 519",
    "lat": "36.0130733515892",
    "lng": "129.31936874105116",
    "region": "경상북도"
  },
  {
    "name": "흥해초등학교 운동장",
    "address": "경상북도 포항시 북구 흥해읍 약성리 100",
    "lat": "36.114194525501055",
    "lng": "129.3466433522742",
    "region": "경상북도"
  },
  {
    "name": "죽천초등학교 운동장",
    "address": "경상북도 포항시 북구 흥해읍 우목리 20",
    "lat": "36.09778199413631",
    "lng": "129.42783147096893",
    "region": "경상북도"
  },
  {
    "name": "대동중고등학교 운동장",
    "address": "경상북도 포항시 북구 우현동 201-6",
    "lat": "36.05823890857673",
    "lng": "129.35677927543887",
    "region": "경상북도"
  },
  {
    "name": "물의공원",
    "address": "경상북도 포항시 북구 두호동 105-1",
    "lat": "36.0653574488737",
    "lng": "129.38846737147097",
    "region": "경상북도"
  },
  {
    "name": "장성6어린이공원",
    "address": "경상북도 포항시 북구 장성동 1460-1",
    "lat": "36.07664474322997",
    "lng": "129.38709106644092",
    "region": "경상북도"
  },
  {
    "name": "엄정초등학교 운동장",
    "address": "충청북도 충주시 엄정면 미내리 157",
    "lat": "37.08703004072048",
    "lng": "127.91606124351146",
    "region": "충청북도"
  },
  {
    "name": "고령고등학교 운동장",
    "address": "경상북도 고령군 대가야읍 연조리 92",
    "lat": "35.73549635121731",
    "lng": "128.26997548341757",
    "region": "경상북도"
  },
  {
    "name": "월곡 지하차도 주차장",
    "address": "전북특별자치도 고창군 고창읍 월곡리 425-4",
    "lat": "35.44021550843796",
    "lng": "126.7116169822403",
    "region": "전북특별자치도"
  },
  {
    "name": "봉성초등학교 운동장",
    "address": "전북특별자치도 완주군 봉동읍 성덕리 15-1",
    "lat": "35.92248258596862",
    "lng": "127.15480264831099",
    "region": "전북특별자치도"
  },
  {
    "name": "사등마을광장",
    "address": "전북특별자치도 고창군 심원면 월산리 1036-3",
    "lat": "35.53411428559971",
    "lng": "126.55602514743545",
    "region": "전북특별자치도"
  },
  {
    "name": "한빛어린이공원",
    "address": "서울특별시 강북구 미아동 222-20",
    "lat": "37.62773796519764",
    "lng": "127.02284861204551",
    "region": "서울특별시"
  },
  {
    "name": "공음중학교",
    "address": "전북특별자치도 고창군 공음면 칠암리 570-1",
    "lat": "35.37885889668031",
    "lng": "126.51502649527306",
    "region": "전북특별자치도"
  },
  {
    "name": "흥덕시장 주차장",
    "address": "전북특별자치도 고창군 흥덕면 흥덕리 353-1",
    "lat": "35.5213070",
    "lng": "126.7006620",
    "region": "전북특별자치도"
  },
  {
    "name": "하전갯벌체험장",
    "address": "전북특별자치도 고창군 심원면 하전리 709-1",
    "lat": "35.539946",
    "lng": "126.564929",
    "region": "전북특별자치도"
  },
  {
    "name": "수북노인정 앞 공터",
    "address": "경상북도 경주시 평동 792-6",
    "lat": "35.7869890",
    "lng": "129.2610",
    "region": "경상북도"
  },
  {
    "name": "화룡마을 광장",
    "address": "전북특별자치도 고창군 신림면 외화리 62-2",
    "lat": "35.494109",
    "lng": "126.722790",
    "region": "전북특별자치도"
  },
  {
    "name": "임실고등학교 운동장",
    "address": "전북특별자치도 임실군 임실읍 이도리 137",
    "lat": "35.622037577307566",
    "lng": "127.28710229300344",
    "region": "전북특별자치도"
  },
  {
    "name": "영광중학교 운동장",
    "address": "경상북도 영주시 영주동 88-1",
    "lat": "36.828273407551464",
    "lng": "128.61961244285945",
    "region": "경상북도"
  },
  {
    "name": "영일초등학교 운동장",
    "address": "경상북도 영주시 영주동 486",
    "lat": "36.82632273097692",
    "lng": "128.61506609102204",
    "region": "경상북도"
  },
  {
    "name": "영주여자중학교 운동장",
    "address": "경상북도 영주시 가흥동 521-12",
    "lat": "36.83206077063269",
    "lng": "128.610717363679",
    "region": "경상북도"
  },
  {
    "name": "영주제일교회 주차장",
    "address": "경상북도 영주시 영주동 42-11",
    "lat": "36.828259404515165",
    "lng": "128.62247144459855",
    "region": "경상북도"
  },
  {
    "name": "앙성초등학교 운동장",
    "address": "충청북도 충주시 앙성면 용대리 258-1",
    "lat": "37.106223385922306",
    "lng": "127.75753745316928",
    "region": "충청북도"
  },
  {
    "name": "전북베이커리고등학교 운동장",
    "address": "전북특별자치도 부안군 행��면 신기리 24",
    "lat": "35.72696994958179",
    "lng": "126.72338962554824",
    "region": "전북특별자치도"
  },
  {
    "name": "계화중학교 운동장",
    "address": "전북특별자치도 부안군 계화면 창북리 783",
    "lat": "35.75946379933427",
    "lng": "126.69414818286891",
    "region": "전북특별자치도"
  },
  {
    "name": "백산중고등학교 운동장",
    "address": "전북특별자치도 부안군 백산면 오곡리 547-5",
    "lat": "35.70740977585915",
    "lng": "126.78976356983182",
    "region": "전북특별자치도"
  },
  {
    "name": "전주비전대학교",
    "address": "전북특별자치도 전주시 완산구 효자동2가 1070",
    "lat": "35.80862634026783",
    "lng": "127.09094839878058",
    "region": "전북특별자치도"
  },
  {
    "name": "대이초등학교 운동장",
    "address": "경상북도 포항시 남구 대잠동 1",
    "lat": "36.02204101509384",
    "lng": "129.34546619654193",
    "region": "경상북도"
  },
  {
    "name": "덕장2리 마을회관",
    "address": "경상북도 포항시 북구 흥해읍 덕장리 396",
    "lat": "36.144589504135496",
    "lng": "129.3446964025581",
    "region": "경상북도"
  },
  {
    "name": "남양초등학교",
    "address": "전북특별자치도 김제시 황산면 남산리 362-19",
    "lat": "35.78350038559915",
    "lng": "126.97502516957952",
    "region": "전북특별자치도"
  },
  {
    "name": "온양동신초등학교 운동장",
    "address": "충청남도 아산시 모종동 586-1",
    "lat": "36.7794415730286",
    "lng": "127.01754556747605",
    "region": "충청남도"
  },
  {
    "name": "전주송원초등학교(운동장)",
    "address": "전북특별자치도 전주시 덕진구 송천동1가 602",
    "lat": "35.86207314674521",
    "lng": "127.1114386361438",
    "region": "전북특별자치도"
  },
  {
    "name": "덕진체련공원(축구장)",
    "address": "전북특별자치도 전주시 덕진구 덕진동1가 640-10",
    "lat": "35.853156",
    "lng": "127.140809",
    "region": "전북특별자치도"
  },
  {
    "name": "고창남초등학교",
    "address": "전북특별자치도 고창군 고창읍 읍내리 542-2",
    "lat": "35.429205352887244",
    "lng": "126.69777411716767",
    "region": "전북특별자치도"
  },
  {
    "name": "고창북중학교",
    "address": "전북특별자치도 고창군 부안면 상등리 665",
    "lat": "35.50935120260167",
    "lng": "126.65968679194312",
    "region": "전북특별자치도"
  },
  {
    "name": "대아초등학교",
    "address": "전북특별자치도 고창군 아산면 하갑리 181",
    "lat": "35.43980594154647",
    "lng": "126.63367602661248",
    "region": "전북특별자치도"
  },
  {
    "name": "재래시장(동) 주차장",
    "address": "전북특별자치도 고창군 고창읍 읍내리 366-11",
    "lat": "35.43227043847475",
    "lng": "126.69941335916829",
    "region": "전북특별자치도"
  },
  {
    "name": "재래시장(서) 주차장",
    "address": "전북특별자치도 고창군 고창읍 읍내리 561",
    "lat": "35.43262448345738",
    "lng": "126.69793277978523",
    "region": "전북특별자치도"
  },
  {
    "name": "두어마을광장",
    "address": "전북특별자치도 고창군 심원면 두어리 611",
    "lat": "35.525789",
    "lng": "126.536760",
    "region": "전북특별자치도"
  },
  {
    "name": "제일침례교회 주차장",
    "address": "경상북도 경주시 용강동 1312",
    "lat": "35.8649370",
    "lng": "129.2234320",
    "region": "경상북도"
  },
  {
    "name": "관동마을광장",
    "address": "전북특별자치도 고창군 성내면 신성리 702-1",
    "lat": "35.558211",
    "lng": "126.730559",
    "region": "전북특별자치도"
  },
  {
    "name": "왕림마을 광장",
    "address": "전북특별자치도 고창군 신림면 도림리 290-4",
    "lat": "35.491667",
    "lng": "126.736941",
    "region": "전북특별자치도"
  },
  {
    "name": "운산어린이공원",
    "address": "서울특별시 강북구 미아동 165-3",
    "lat": "37.63208846165579",
    "lng": "127.02556050842261",
    "region": "서울특별시"
  },
  {
    "name": "하정1리 마을회관 주변(선박출입대행신고소)",
    "address": "경상북도 포항시 남구 구룡포읍 하정리 261-1",
    "lat": "35.9648950107016",
    "lng": "129.54767109953332",
    "region": "경상북도"
  },
  {
    "name": "사정1리 마을회관 ",
    "address": "경상북도 포항시 북구 신광면 사정리 925-1",
    "lat": "36.1328664137544",
    "lng": "129.27121460437783",
    "region": "경상북도"
  },
  {
    "name": "상송1리 마을회관",
    "address": "경상북도 포항시 북구 송라면 상송리 367",
    "lat": "36.209398765854175",
    "lng": "129.33772265911503",
    "region": "경상북도"
  },
  {
    "name": "하송2리 마을회관",
    "address": "경상북도 포항시 북구 송라면 하송리 237-24",
    "lat": "36.2132638893382",
    "lng": "129.3518471717911",
    "region": "경상북도"
  },
  {
    "name": "화봉리 마을회관",
    "address": "경상북도 포항시 북구 기계면 화봉리 775-4",
    "lat": "36.0884138189186",
    "lng": "129.21669954346982",
    "region": "경상북도"
  },
  {
    "name": "석계리마을회관",
    "address": "경상북도 포항시 북구 죽장면 석계리 293-7",
    "lat": "36.21524831585132",
    "lng": "129.12490814924564",
    "region": "경상북도"
  },
  {
    "name": "매현2리 마을회관",
    "address": "경상북도 포항시 북구 죽장면 매현리 603",
    "lat": "36.17772396670801",
    "lng": "129.1191065311446",
    "region": "경상북도"
  },
  {
    "name": "신창1리 마을회관 ",
    "address": "경상북도 포항시 남구 장기면 신창리 177-47",
    "lat": "35.89385226709834",
    "lng": "129.52414691448638",
    "region": "경상북도"
  },
  {
    "name": "어린이 40공원",
    "address": "전북특별자치도 군산시 조촌동 919-4",
    "lat": "35.9706489289705",
    "lng": "126.74216790913331",
    "region": "전북특별자치도"
  },
  {
    "name": "어린이 57공원",
    "address": "전북특별자치도 군산시 지곡동 156-5",
    "lat": "35.95438562695936",
    "lng": "126.70712020862011",
    "region": "전북특별자치도"
  },
  {
    "name": "어린이 82공원",
    "address": "전북특별자치도 군산시 수송동 870-4",
    "lat": "35.96176621154295",
    "lng": "126.71829859208529",
    "region": "전북특별자치도"
  },
  {
    "name": "미장택지 3공원",
    "address": "전북특별자치도 군산시 미장동 554-7",
    "lat": "35.96096372187031",
    "lng": "126.73181003482105",
    "region": "전북특별자치도"
  },
  {
    "name": "공설시장",
    "address": "전북특별자치도 군산시 금암동 73-51",
    "lat": "35.98514890023134",
    "lng": "126.72103479647363",
    "region": "전북특별자치도"
  },
  {
    "name": "전주여자고등학교(운동장)",
    "address": "전북특별자치도 전주시 덕진구 인후동2가 35-1",
    "lat": "35.83546652442316",
    "lng": "127.14612075025902",
    "region": "전북특별자치도"
  },
  {
    "name": "전주장동초등학교(운동장)",
    "address": "전북특별자치도 전주시 덕진구 장동 259-1",
    "lat": "35.848822537262755",
    "lng": "127.06034494946641",
    "region": "전북특별자치도"
  },
  {
    "name": "전주양지초등학교(운동장)",
    "address": "전북특별자치도 전주시 완산구 평화동2가 582",
    "lat": "35.79242943764382",
    "lng": "127.12554372161925",
    "region": "전북특별자치도"
  },
  {
    "name": "사내마을광장",
    "address": "전북특별자치도 고창군 성송면 사내리 60-1",
    "lat": "35.38712652635604",
    "lng": "126.65409770113531",
    "region": "전북특별자치도"
  },
  {
    "name": "죽성2리 마을회관",
    "address": "경상북도 포항시 북구 신광면 죽성리 473-18",
    "lat": "36.13203455365468",
    "lng": "129.24993664026044",
    "region": "경상북도"
  },
  {
    "name": "하청중학교",
    "address": "경상남도 거제시 하청면 하청리 698-1",
    "lat": "34.9542678",
    "lng": "128.6528538",
    "region": "경상남도"
  },
  {
    "name": "수회초등학교 운동장",
    "address": "충청북도 충주시 수안보면 수회리 672",
    "lat": "36.878161655115",
    "lng": "127.97408223152159",
    "region": "충청북도"
  },
  {
    "name": "남한강초등학교 운동장",
    "address": "충청북도 충주시 호암동 1075",
    "lat": "36.954774564863094",
    "lng": "127.92950391769409",
    "region": "충청북도"
  },
  {
    "name": "백의초등학교 운동장",
    "address": "경기도 연천군 청산면 백의리 824-24",
    "lat": "38.02244012666436",
    "lng": "127.13443259797555",
    "region": "경기도"
  },
  {
    "name": "백학초등학교 운동장",
    "address": "경기도 연천군 백학면 두일리 16",
    "lat": "38.03209280894001",
    "lng": "126.9215074964124",
    "region": "경기도"
  },
  {
    "name": "화진초등학교 운동장",
    "address": "경기도 연천군 군남면 황지리 345-2",
    "lat": "38.030179422792465",
    "lng": "127.04000240997917",
    "region": "경기도"
  },
  {
    "name": "연평2리 마을회관 앞 공터",
    "address": "경상북도 영덕군 영해면 연평리 221-14",
    "lat": "36.54954434012589",
    "lng": "129.40724851656645",
    "region": "경상북도"
  },
  {
    "name": "어린이 81공원",
    "address": "전북특별자치도 군산시 수송동 838-5",
    "lat": "35.96582576078272",
    "lng": "126.71832084766531",
    "region": "전북특별자치도"
  },
  {
    "name": "구시청사거리",
    "address": "전북특별자치도 군산시 중앙로1가 11-1",
    "lat": "35.9875095205509",
    "lng": "126.71164106391366",
    "region": "전북특별자치도"
  },
  {
    "name": "군산교육문화회관",
    "address": "전북특별자치도 군산시 조촌동 853",
    "lat": "35.97073321962774",
    "lng": "126.73617774166426",
    "region": "전북특별자치도"
  },
  {
    "name": "대야시장",
    "address": "전북특별자치도 군산시 대야면 산월리 476",
    "lat": "35.94548452962696",
    "lng": "126.81891918182372",
    "region": "전북특별자치도"
  },
  {
    "name": "전주중앙중학교",
    "address": "전북특별자치도 전주시 덕진구 진북동 301-19",
    "lat": "35.82828214404824",
    "lng": "127.13871258681377",
    "region": "전북특별자치도"
  },
  {
    "name": "완산고등학교(운동장)",
    "address": "전북특별자치도 전주시 완산구 삼천동3가 417",
    "lat": "35.80217906142418",
    "lng": "127.08352919043097",
    "region": "전북특별자치도"
  },
  {
    "name": "어린이 2공원",
    "address": "전북특별자치도 군산시 문화동 886",
    "lat": "35.9766541273585",
    "lng": "126.70484634362357",
    "region": "전북특별자치도"
  },
  {
    "name": "신애리 마을 앞공터",
    "address": "경상북도 영덕군 지품면 신애리 13-17",
    "lat": "36.42745197760439",
    "lng": "129.34475006461759",
    "region": "경상북도"
  },
  {
    "name": "어린이 47공원",
    "address": "전북특별자치도 군산시 지곡동 564-1",
    "lat": "35.95822065563829",
    "lng": "126.71235170445743",
    "region": "전북특별자치도"
  },
  {
    "name": "소룡시민체육공원",
    "address": "전북특별자치도 군산시 소룡동 237-1",
    "lat": "35.98297144846191",
    "lng": "126.67609366700889",
    "region": "전북특별자치도"
  },
  {
    "name": "공설운동장(사정금호2차부근)",
    "address": "전북특별자치도 군산시 사정동 159",
    "lat": "35.964450366086815",
    "lng": "126.74944404956914",
    "region": "전북특별자치도"
  },
  {
    "name": "전주중앙초등학교(운동장)",
    "address": "전북특별자치도 전주시 완산구 풍남동3가 67-3",
    "lat": "35.81508180416911",
    "lng": "127.15134616341113",
    "region": "전북특별자치도"
  },
  {
    "name": "전주송북초등학교(운동장)",
    "address": "전북특별자치도 전주시 덕진구 송천동1가 107-1",
    "lat": "35.86341670076328",
    "lng": "127.12409553932687",
    "region": "전북특별자치도"
  },
  {
    "name": "소양초등학교 운동장",
    "address": "전북특별자치도 완주군 소양면 황운리 636-2",
    "lat": "35.856593607995876",
    "lng": "127.23468515234981",
    "region": "전북특별자치도"
  },
  {
    "name": "월평마을광장",
    "address": "전북특별자치도 고창군 성송면 향산리 420-12",
    "lat": "35.383704570990616",
    "lng": "126.63611981641107",
    "region": "전북특별자치도"
  },
  {
    "name": "소망어린이공원",
    "address": "서울특별시 금천구 독산동 196-8",
    "lat": "37.46947969736011",
    "lng": "126.90150584797155",
    "region": "서울특별시"
  },
  {
    "name": "의림지동주민센터 앞(비행장)",
    "address": "충청북도 제천시 고암동 1179-1",
    "lat": "37.16262173550178",
    "lng": "128.21505283747746",
    "region": "충청북도"
  },
  {
    "name": "화원고등학교운동장",
    "address": "대구광역시 달성군 화원읍 설화리 553-13",
    "lat": "35.79733035917838",
    "lng": "128.48902514839236",
    "region": "대구광역시"
  },
  {
    "name": "전곡중학교 운동장",
    "address": "경기도 연천군 전곡읍 전곡리 400-3",
    "lat": "38.03344572993521",
    "lng": "127.07141955250657",
    "region": "경기도"
  },
  {
    "name": "전곡고등학교 운동장",
    "address": "경기도 연천군 전곡읍 은대리 506-1",
    "lat": "38.03451284696279",
    "lng": "127.06946228758875",
    "region": "경기도"
  },
  {
    "name": "학돌초등학교 운동장",
    "address": "충청남도 서산시 읍내동 624-2",
    "lat": "36.784715999999925",
    "lng": "126.4446779999998",
    "region": "충청남도"
  },
  {
    "name": "구암3.1기념관",
    "address": "전북특별자치도 군산시 구암동 334",
    "lat": "35.98497952461772",
    "lng": "126.74213973441228",
    "region": "전북특별자치도"
  },
  {
    "name": "삼학동 행정복지센터",
    "address": "전북특별자치도 군산시 오룡동 823-1",
    "lat": "35.976753759120456",
    "lng": "126.70754581689359",
    "region": "전북특별자치도"
  },
  {
    "name": "월하게이트볼장",
    "address": "전북특별자치도 군산시 임피면 월하리 901",
    "lat": "35.96082574734764",
    "lng": "126.86799144595923",
    "region": "전북특별자치도"
  },
  {
    "name": "옥서문화마을",
    "address": "전북특별자치도 군산시 옥서면 옥봉리 2067",
    "lat": "35.92931101071046",
    "lng": "126.63508054943556",
    "region": "전북특별자치도"
  },
  {
    "name": "임피면사무소",
    "address": "전북특별자치도 군산시 임피면 읍내리 216-1",
    "lat": "35.98246976439834",
    "lng": "126.85034328313132",
    "region": "전북특별자치도"
  },
  {
    "name": "전주풍남중학교(운동장)",
    "address": "전북특별자치도 전주시 완산구 효자동1가 504-5",
    "lat": "35.80012089659763",
    "lng": "127.11601337630104",
    "region": "전북특별자치도"
  },
  {
    "name": "조마공원",
    "address": "서울특별시 금천구 가산동 148-11",
    "lat": "37.47557330988729",
    "lng": "126.8957269191725",
    "region": "서울특별시"
  },
  {
    "name": "산서고등학교 운동장",
    "address": "전북특별자치도 장수군 산서면 동화리 73",
    "lat": "35.58337209016758",
    "lng": "127.39818030632263",
    "region": "전북특별자치도"
  },
  {
    "name": "동명초등학교 운동장",
    "address": "충청북도 제천시 천남동 9-45",
    "lat": "37.13333339366881",
    "lng": "128.1940202237496",
    "region": "충청북도"
  },
  {
    "name": "연천중·고등학교 운동장",
    "address": "경기도 연천군 연천읍 현가리 41-1",
    "lat": "38.10741930806076",
    "lng": "127.07644814189193",
    "region": "경기도"
  },
  {
    "name": "동북초등학교 운동장",
    "address": "전북특별자치도 부안군 동진면 안성리 979",
    "lat": "35.775446792710355",
    "lng": "126.7319646477699",
    "region": "전북특별자치도"
  },
  {
    "name": "변산초등학교 운동장",
    "address": "전북특별자치도 부안군 변산면 지서리 383-2",
    "lat": "35.66269865841401",
    "lng": "126.5284439921378",
    "region": "전북특별자치도"
  },
  {
    "name": "위도초등학교 운동장",
    "address": "전북특별자치도 부안군 위도면 치도리 66-2",
    "lat": "35.595411623895565",
    "lng": "126.29246592521632",
    "region": "전북특별자치도"
  },
  {
    "name": "(구)위도초등학교식도분교 운동장",
    "address": "전북특별자치도 부안군 위도면 식도리 산269",
    "lat": "35.6245034721844",
    "lng": "126.28506034612991",
    "region": "전북특별자치도"
  },
  {
    "name": "중앙공원",
    "address": "부산광역시 중구 영주동 산10-7",
    "lat": "35.10972014278306",
    "lng": "129.0280020671117",
    "region": "부산광역시"
  },
  {
    "name": "미산마을광장",
    "address": "전북특별자치도 고창군 해리면 사반리 676-1",
    "lat": "35.48176441387565",
    "lng": "126.48115779994117",
    "region": "전북특별자치도"
  },
  {
    "name": "대촌마을광장",
    "address": "전북특별자치도 고창군 대산면 해룡리 363-1",
    "lat": "35.3150209600675",
    "lng": "126.5350472454273",
    "region": "전북특별자치도"
  },
  {
    "name": "인천전자마이스터고등학교",
    "address": "인천광역시 미추홀구 도화동 20-6",
    "lat": "37.47526188778871",
    "lng": "126.65342442113864",
    "region": "인천광역시"
  },
  {
    "name": "포항예술고등학교 운동장",
    "address": "경상북도 포항시 북구 흥해읍 대련리 614-1",
    "lat": "36.05188989889902",
    "lng": "129.31538254022394",
    "region": "경상북도"
  },
  {
    "name": "월문초등학교 운동장",
    "address": "경기도 화성시 팔탄면 월문리 192",
    "lat": "37.11821064",
    "lng": "126.8727806",
    "region": "경기도"
  },
  {
    "name": "(구)계화초등학교 운동장",
    "address": "전북특별자치도 부안군 계화면 계화리 233",
    "lat": "35.7855225",
    "lng": "126.6381057",
    "region": "전북특별자치도"
  },
  {
    "name": "일자산 그린웨이캠핑장",
    "address": "서울특별시 강동구 둔촌동 562",
    "lat": "37.5362232991129",
    "lng": "127.1529400348709",
    "region": "서울특별시"
  },
  {
    "name": "암치마을광장",
    "address": "전북특별자치도 고창군 성송면 암치리 114-1",
    "lat": "35.35142695444204",
    "lng": "126.64903130616055",
    "region": "전북특별자치도"
  },
  {
    "name": "관촌중학교 운동장",
    "address": "전북특별자치도 임실군 관촌면 관촌리 608",
    "lat": "35.678918566080014",
    "lng": "127.27062473979898",
    "region": "전북특별자치도"
  },
  {
    "name": "안현마을 광장",
    "address": "전북특별자치도 고창군 부안면 송현리 539",
    "lat": "35.539086",
    "lng": "126.611022",
    "region": "전북특별자치도"
  },
  {
    "name": "약산마을광장",
    "address": "전북특별자치도 고창군 대산면 춘산리 762-1",
    "lat": "35.3126400",
    "lng": "126.5680520",
    "region": "전북특별자치도"
  },
  {
    "name": "상부마을광장",
    "address": "전북특별자치도 고창군 해리면 광승리 869-1",
    "lat": "35.49532667735485",
    "lng": "126.47428240397373",
    "region": "전북특별자치도"
  },
  {
    "name": "도산마을 광장",
    "address": "전북특별자치도 고창군 고창읍 도산리 78-1",
    "lat": "35.43937508039909",
    "lng": "126.65944576263803",
    "region": "전북특별자치도"
  },
  {
    "name": "영주중앙초등학교 운동장",
    "address": "경상북도 영주시 하망동 316-18",
    "lat": "36.8266587302098",
    "lng": "128.62795051373809",
    "region": "경상북도"
  },
  {
    "name": "옥대초등학교 운동장",
    "address": "경상북도 영주시 단산면 옥대리 200",
    "lat": "36.95077856270374",
    "lng": "128.61994605076717",
    "region": "경상북도"
  },
  {
    "name": "경북항공고등학교 운동장",
    "address": "경상북도 영주시 풍기읍 교촌리 147-1",
    "lat": "36.88117194994129",
    "lng": "128.525808830446",
    "region": "경상북도"
  },
  {
    "name": "순창초등학교 운동장",
    "address": "전북특별자치도 순창군 순창읍 순화리 313",
    "lat": "35.375093623064394",
    "lng": "127.13853120803348",
    "region": "전북특별자치도"
  },
  {
    "name": "대련3리 마을회관",
    "address": "경상북도 포항시 북구 흥해읍 대련리 1132-26",
    "lat": "36.04614743796339",
    "lng": "129.32092934846722",
    "region": "경상북도"
  },
  {
    "name": "충주남산초등학교 운동장",
    "address": "충청북도 충주시 용산동 2109",
    "lat": "36.96019283885276",
    "lng": "127.93703824281693",
    "region": "충청북도"
  },
  {
    "name": "전라북도학생해양수련원 운동장",
    "address": "전북특별자치도 부안군 변산면 도청리 313-1",
    "lat": "35.592927477588056",
    "lng": "126.48914288542859",
    "region": "전북특별자치도"
  },
  {
    "name": "동산초등학교 운동장",
    "address": "전북특별자치도 순창군 복흥면 동산리 291-1",
    "lat": "35.45559911077787",
    "lng": "126.92095577717025",
    "region": "전북특별자치도"
  },
  {
    "name": "대광초등학교 운동장",
    "address": "경기도 연천군 신서면 도신리 245-1",
    "lat": "38.182693067675125",
    "lng": "127.1050599217415",
    "region": "경기도"
  },
  {
    "name": "대우휀스",
    "address": "경상북도 영덕군 영덕읍 남산리 551-1",
    "lat": "36.39363638049606",
    "lng": "129.3636894688603",
    "region": "경상북도"
  },
  {
    "name": "(구)주산중학교 운동장",
    "address": "전북특별자치도 부안군 주산면 갈촌리 357-11",
    "lat": "35.6705739664922",
    "lng": "126.7124317627063",
    "region": "전북특별자치도"
  },
  {
    "name": "격포초등학교 운동장",
    "address": "전북특별자치도 부안군 변산면 격포리 271-53",
    "lat": "35.62564590885829",
    "lng": "126.4740434288977",
    "region": "전북특별자치도"
  },
  {
    "name": "전주서중학교(운동장)",
    "address": "전북특별자치도 전주시 완산구 서신동 762",
    "lat": "35.831887855125096",
    "lng": "127.10957675948403",
    "region": "전북특별자치도"
  },
  {
    "name": "오남중학교 운동장",
    "address": "서울특별시 구로구 오류동 산39-71",
    "lat": "37.487101109995834",
    "lng": "126.83606922626494",
    "region": "서울특별시"
  },
  {
    "name": "동계중학교 운동장",
    "address": "전북특별자치도 순창군 동계면 관전리 247",
    "lat": "35.44893290504618",
    "lng": "127.24038273095606",
    "region": "전북특별자치도"
  },
  {
    "name": "순창제일고등학교 운동장",
    "address": "전북특별자치도 순창군 순창읍 장덕리 100",
    "lat": "35.3791657484403",
    "lng": "127.15020149946508",
    "region": "전북특별자치도"
  },
  {
    "name": "대련1리 마을회관",
    "address": "경상북도 포항시 북구 흥해읍 대련리 660",
    "lat": "36.04671346197398",
    "lng": "129.3126869201682",
    "region": "경상북도"
  },
  {
    "name": "봉계초등학교",
    "address": "경상북도 김천시 봉산면 신리 472",
    "lat": "36.14352843164598",
    "lng": "128.06408521054624",
    "region": "경상북도"
  },
  {
    "name": "주산초등학교 운동장",
    "address": "전북특별자치도 부안군 주산면 갈촌리 289-1",
    "lat": "35.665840997609166",
    "lng": "126.71425938605753",
    "region": "전북특별자치도"
  },
  {
    "name": "쌍치중학교 운동장",
    "address": "전북특별자치도 순창군 쌍치면 쌍계리 576-10",
    "lat": "35.49946226080327",
    "lng": "127.00285166512916",
    "region": "전북특별자치도"
  },
  {
    "name": "학계리 마을회관",
    "address": "경상북도 포항시 남구 장기면 학계리 561",
    "lat": "35.92848240523252",
    "lng": "129.50193017721278",
    "region": "경상북도"
  },
  {
    "name": "서촌2리 마을회관",
    "address": "경상북도 포항시 남구 장기면 서촌리 142-3",
    "lat": "35.90805325749907",
    "lng": "129.4835336803392",
    "region": "경상북도"
  },
  {
    "name": "영일대 주변 공원",
    "address": "경상북도 포항시 남구 대잠동 780-244",
    "lat": "36.01495831084612",
    "lng": "129.33539445309478",
    "region": "경상북도"
  },
  {
    "name": "용곡리 마을회관",
    "address": "경상북도 포항시 북구 흥해읍 용곡리 367",
    "lat": "36.122151207754875",
    "lng": "129.3098223209435",
    "region": "경상북도"
  },
  {
    "name": "부안남초등학교",
    "address": "전북특별자치도 부안군 부안읍 연곡리 398-4",
    "lat": "35.70132210239993",
    "lng": "126.73445641994748",
    "region": "전북특별자치도"
  },
  {
    "name": "부안행안농공단지 주차장",
    "address": "전북특별자치도 부안군 행안면 역리 1119",
    "lat": "35.738888368510075",
    "lng": "126.71844363212693",
    "region": "전북특별자치도"
  },
  {
    "name": "청산중학교 운동장",
    "address": "경기도 연천군 청산면 궁평리 550-1",
    "lat": "38.03421641458601",
    "lng": "127.10742735365965",
    "region": "경기도"
  },
  {
    "name": "옹동초등학교 운동장",
    "address": "전북특별자치도 정읍시 옹동면 칠석리 239",
    "lat": "35.6472152773563",
    "lng": "126.97709141155254",
    "region": "전북특별자치도"
  },
  {
    "name": "동진초등학교 운동장",
    "address": "전북특별자치도 부안군 동진면 동전리 1392",
    "lat": "35.75303835786527",
    "lng": "126.74344182014465",
    "region": "전북특별자치도"
  },
  {
    "name": "하서초등학교 운동장(구 장신초)",
    "address": "전북특별자치도 부안군 하서면 장신리 72-1",
    "lat": "35.71707286657674",
    "lng": "126.62641972303382",
    "region": "전북특별자치도"
  },
  {
    "name": "전주서곡중학교(운동장)",
    "address": "전북특별자치도 전주시 완산구 효자동3가 1407-4",
    "lat": "35.83581753360622",
    "lng": "127.10415828343913",
    "region": "전북특별자치도"
  },
  {
    "name": "해리초등학교",
    "address": "전북특별자치도 고창군 해리면 안산리 504",
    "lat": "35.46545474483158",
    "lng": "126.53567524156989",
    "region": "전북특별자치도"
  },
  {
    "name": "성법리 마을회관",
    "address": "경상북도 포항시 북구 기북면 성법리 620",
    "lat": "36.176738861871534",
    "lng": "129.1972258687092",
    "region": "경상북도"
  },
  {
    "name": "고부초등학교 운동장",
    "address": "전북특별자치도 정읍시 고부면 고부리 161",
    "lat": "35.621392211676934",
    "lng": "126.77167475223538",
    "region": "전북특별자치도"
  },
  {
    "name": "태인면사무소 공터주차장",
    "address": "전북특별자치도 정읍시 태인면 태창리 425",
    "lat": "35.65041961446776",
    "lng": "126.93252296047025",
    "region": "전북특별자치도"
  },
  {
    "name": "옹동전통문화생활관 공터주차장",
    "address": "전북특별자치도 정읍시 옹동면 칠석리 171-13",
    "lat": "35.64340089306728",
    "lng": "126.97517794300306",
    "region": "전북특별자치도"
  },
  {
    "name": "칠보초등학교 운동장",
    "address": "전북특별자치도 정읍시 칠보면 무성리 25-1",
    "lat": "35.607045843527",
    "lng": "126.9896748722803",
    "region": "전북특별자치도"
  },
  {
    "name": "위도중고등학교 운동장",
    "address": "전북특별자치도 부안군 위도면 진리 39-1",
    "lat": "35.604708819973254",
    "lng": "126.29587501287924",
    "region": "전북특별자치도"
  },
  {
    "name": "장기공영주차장",
    "address": "대구광역시 달서구 장기동 817-1",
    "lat": "35.843293",
    "lng": "128.529602",
    "region": "대구광역시"
  },
  {
    "name": "영광여자고등학교 운동장",
    "address": "경상북도 영주시 영주동 109-2",
    "lat": "36.83198128381016",
    "lng": "128.62125368580814",
    "region": "경상북도"
  },
  {
    "name": "영주남부초등학교 운동장",
    "address": "경상북도 영주시 휴천동 642-180",
    "lat": "36.80807503317629",
    "lng": "128.61791319447374",
    "region": "경상북도"
  },
  {
    "name": "나말어린이공원",
    "address": "서울특별시 양천구 목동 724-1",
    "lat": "37.538630382190924",
    "lng": "126.86459489973349",
    "region": "서울특별시"
  },
  {
    "name": "금���2리 마을회관 ",
    "address": "경상북도 포항시 북구 흥해읍 금장리 184-1",
    "lat": "36.128875278963825",
    "lng": "129.37433335978193",
    "region": "경상북도"
  },
  {
    "name": "곰소초등학교 운동장",
    "address": "전북특별자치도 부안군 진서면 진서리 1047",
    "lat": "35.59561009749048",
    "lng": "126.59958958626268",
    "region": "전북특별자치도"
  },
  {
    "name": "하서중학교 운동장",
    "address": "전북특별자치도 부안군 하서면 석상리 378-1",
    "lat": "35.71371040943551",
    "lng": "126.63770377635949",
    "region": "전북특별자치도"
  },
  {
    "name": "부안중학교 운동장",
    "address": "전북특별자치도 부안군 행안면 신기리 27",
    "lat": "35.727035272782395",
    "lng": "126.72478973865506",
    "region": "전북특별자치도"
  },
  {
    "name": "상서초등학교 운동장",
    "address": "전북특별자치도 부안군 상서면 통정리 416-2",
    "lat": "35.70750778468922",
    "lng": "126.65931165218761",
    "region": "전북특별자치도"
  },
  {
    "name": "기일리 노인정 ",
    "address": "경상북도 포항시 북구 신광면 기일리 618",
    "lat": "36.173398073486894",
    "lng": "129.2365872859997",
    "region": "경상북도"
  },
  {
    "name": "신창2리 마을회관",
    "address": "경상북도 포항시 남구 장기면 신창리 888-3",
    "lat": "35.88615776150621",
    "lng": "129.52801734209316",
    "region": "경상북도"
  },
  {
    "name": "김제고등학교",
    "address": "전북특별자치도 김제시 신풍동 345-1",
    "lat": "35.791289993534676",
    "lng": "126.89535880196308",
    "region": "전북특별자치도"
  },
  {
    "name": "부원고등학교 운동장",
    "address": "경기도 이천시 장호원읍 장호원리 261-6",
    "lat": "37.11582318150145",
    "lng": "127.62000778350283",
    "region": "경기도"
  },
  {
    "name": "창의어린이놀이터(목동근린공원)",
    "address": "서울특별시 양천구 목동 517",
    "lat": "37.54661881620548",
    "lng": "126.8785659308079",
    "region": "서울특별시"
  },
  {
    "name": "우복1리 마을회관",
    "address": "경상북도 포항시 남구 연일읍 우복리 323-2",
    "lat": "35.97102752934388",
    "lng": "129.34266060591102",
    "region": "경상북도"
  },
  {
    "name": "원동8 어린이공원",
    "address": "경상북도 포항시 남구 오천읍 원리 1135",
    "lat": "35.97398814208505",
    "lng": "129.40348557968343",
    "region": "경상북도"
  },
  {
    "name": "원동12 근린공원",
    "address": "경상북도 포항시 남구 오천읍 원리 919",
    "lat": "35.96878435287139",
    "lng": "129.40636108084632",
    "region": "경상북도"
  },
  {
    "name": "문덕5 어린이공원",
    "address": "경상북도 포항시 남구 오천읍 문덕리 319-6",
    "lat": "35.95993671763112",
    "lng": "129.40443119905225",
    "region": "경상북도"
  },
  {
    "name": "갈평리 마을회관",
    "address": "경상북도 포항시 남구 오천읍 갈평리 143",
    "lat": "35.9197138825856",
    "lng": "129.40242826938908",
    "region": "경상북도"
  },
  {
    "name": "남송3리 마을회관",
    "address": "경상북도 포항시 북구 흥해읍 남송리 228",
    "lat": "36.11258947887132",
    "lng": "129.383269250397",
    "region": "경상북도"
  },
  {
    "name": "봉계리 마을회관",
    "address": "경상북도 포항시 북구 죽장면 봉계리 255-2",
    "lat": "36.197070646608516",
    "lng": "129.05274599791153",
    "region": "경상북도"
  },
  {
    "name": "지동리 마을회관",
    "address": "경상북도 포항시 북구 죽장면 지동리 639",
    "lat": "36.1230020203631",
    "lng": "129.08123918249024",
    "region": "경상북도"
  },
  {
    "name": "연천노곡초등학교 운동장",
    "address": "경기도 연천군 백학면 노곡리 714-2",
    "lat": "37.99855215046551",
    "lng": "126.91673286237099",
    "region": "경기도"
  },
  {
    "name": "북부노인복지관 주차장",
    "address": "전북특별자치도 정읍시 신태인읍 신태인리 66-2",
    "lat": "35.68857250634507",
    "lng": "126.88959284146142",
    "region": "전북특별자치도"
  },
  {
    "name": "구 초등학교(성광SK)",
    "address": "경상북도 영덕군 영덕읍 화천리 137",
    "lat": "36.46326341085753",
    "lng": "129.3819946854911",
    "region": "경상북도"
  },
  {
    "name": "두마리 마을회관",
    "address": "경상북도 포항시 북구 죽장면 두마리 885",
    "lat": "36.1681560179958",
    "lng": "129.02562618255587",
    "region": "경상북도"
  },
  {
    "name": "난산초등학교",
    "address": "전북특별자치도 김제시 백구면 영상리 343",
    "lat": "35.87706183289658",
    "lng": "126.99511811573267",
    "region": "전북특별자치도"
  },
  {
    "name": "전북도청 서편(다목적광장)",
    "address": "전북특별자치도 전주시 완산구 효자동3가 1",
    "lat": "35.819489175551524",
    "lng": "127.10678206213021",
    "region": "전북특별자치도"
  },
  {
    "name": "우석대학교 운동장",
    "address": "전북특별자치도 완주군 삼례읍 후정리 490",
    "lat": "35.911358564647365",
    "lng": "127.06475983572598",
    "region": "전북특별자치도"
  },
  {
    "name": "인천국제공항 제2여객터미널 장기주차장",
    "address": "인천광역시 중구 운서동 3233-33",
    "lat": "37.4806884",
    "lng": "126.4165462",
    "region": "인천광역시"
  },
  {
    "name": "송동중학교 운동장",
    "address": "전북특별자치도 남원시 송동면 신평리 48-3",
    "lat": "35.363621838193794",
    "lng": "127.34287786503621",
    "region": "전북특별자치도"
  },
  {
    "name": "신태인초등학교 운동장",
    "address": "전북특별자치도 정읍시 신태인읍 신태인리 68",
    "lat": "35.6866248264826",
    "lng": "126.89014792442833",
    "region": "전북특별자치도"
  },
  {
    "name": "성내중학교",
    "address": "전북특별자치도 고창군 성내면 신성리 100-1",
    "lat": "35.54265794891748",
    "lng": "126.74453499147316",
    "region": "전북특별자치도"
  },
  {
    "name": "연일초등학교 운동장",
    "address": "경상북도 포항시 남구 연일읍 동문리 333-1",
    "lat": "35.99508438808804",
    "lng": "129.34753021377813",
    "region": "경상북도"
  },
  {
    "name": "한국폴리텍Ⅳ대학 운동장",
    "address": "대전광역시 동구 가양동 91-2",
    "lat": "36.3507453817517",
    "lng": "127.45401869620127",
    "region": "대전광역시"
  },
  {
    "name": "대송중학교 운동장",
    "address": "경상북도 포항시 남구 대송면 남성리 83-5",
    "lat": "35.97758075040124",
    "lng": "129.35957729817287",
    "region": "경상북도"
  },
  {
    "name": "석리 마을회관",
    "address": "경상북도 포항시 남구 동해면 석리 295-5",
    "lat": "35.987341197384936",
    "lng": "129.45971220732625",
    "region": "경상북도"
  },
  {
    "name": "탑정2리 마을회관",
    "address": "경상북도 포항시 북구 기북면 탑정리 251",
    "lat": "36.153579918766695",
    "lng": "129.20254468917676",
    "region": "경상북도"
  },
  {
    "name": "산내중학교 운동장",
    "address": "전북특별자치도 남원시 산내면 대정리 601",
    "lat": "35.422541129842294",
    "lng": "127.62735881524253",
    "region": "전북특별자치도"
  },
  {
    "name": "남원제일고등학교운동장",
    "address": "전북특별자치도 남원시 노암동 730",
    "lat": "35.39208156391356",
    "lng": "127.3747622896199",
    "region": "전북특별자치도"
  },
  {
    "name": "영덕고등학교",
    "address": "경상북도 영덕군 영덕읍 화개리 72",
    "lat": "36.41561728279708",
    "lng": "129.36873738445237",
    "region": "경상북도"
  },
  {
    "name": "전북과학대학 운동장",
    "address": "전북특별자치도 정읍시 시기동 산9-28",
    "lat": "35.54883578044189",
    "lng": "126.86088777505901",
    "region": "전북특별자치도"
  },
  {
    "name": "감곡초등학교 운동장",
    "address": "전북특별자치도 정읍시 감곡면 방교리 494",
    "lat": "35.71828584252271",
    "lng": "126.92640066146852",
    "region": "전북특별자치도"
  },
  {
    "name": "군산명화학교",
    "address": "전북특별자치도 군산시 나운동 801",
    "lat": "35.96584495839144",
    "lng": "126.69052403462562",
    "region": "전북특별자치도"
  },
  {
    "name": "성내초등학교",
    "address": "전북특별자치도 고창군 성내면 양계리 479",
    "lat": "35.53744633707962",
    "lng": "126.74442913348832",
    "region": "전북특별자치도"
  },
  {
    "name": "신림중학교",
    "address": "전북특별자치도 고창군 신림면 무림리 16-1",
    "lat": "35.486999973848015",
    "lng": "126.71715617179866",
    "region": "전북특별자치도"
  },
  {
    "name": "석리 경로당",
    "address": "경상북도 포항시 남구 동해면 석리 124-3",
    "lat": "35.9902623683732",
    "lng": "129.47117328644558",
    "region": "경상북도"
  },
  {
    "name": "오덕1리 마을회관",
    "address": "경상북도 포항시 북구 기북면 오덕리 241-1",
    "lat": "36.16580011843367",
    "lng": "129.18582111597553",
    "region": "경상북도"
  },
  {
    "name": "산척초등학교 운동장",
    "address": "충청북도 충주시 산척면 송강리 1282-1",
    "lat": "37.079275892486",
    "lng": "127.95784413814543",
    "region": "충청북도"
  },
  {
    "name": "영덕군민운동장",
    "address": "경상북도 영덕군 영덕읍 화개리 251",
    "lat": "36.41895017127604",
    "lng": "129.3645732723571",
    "region": "경상북도"
  },
  {
    "name": "덕천초등학교 운동장",
    "address": "전북특별자치도 정읍시 덕천면 우덕리 352",
    "lat": "35.620866752088986",
    "lng": "126.84474885463712",
    "region": "전북특별자치도"
  },
  {
    "name": "정읍어린이교통공원",
    "address": "전북특별자치도 정읍시 상동 271-9",
    "lat": "35.556165727576705",
    "lng": "126.86947049402079",
    "region": "전북특별자치도"
  },
  {
    "name": "가평초등학교",
    "address": "전북특별자치도 고창군 신림면 가평리 639",
    "lat": "35.47734728303529",
    "lng": "126.73835705876003",
    "region": "전북특별자치도"
  },
  {
    "name": "월산 테니스장",
    "address": "전북특별자치도 고창군 고창읍 월산리 502",
    "lat": "35.42527008033209",
    "lng": "126.73013855252404",
    "region": "전북특별자치도"
  },
  {
    "name": "자연마당 공원(고창읍성)",
    "address": "전북특별자치도 고창군 고창읍 노동리 421-1",
    "lat": "35.42648748341626",
    "lng": "126.70617520808702",
    "region": "전북특별자치도"
  },
  {
    "name": "대전은어송초등학교 운동장",
    "address": "대전광역시 동구 대성동 129",
    "lat": "36.30227527329799",
    "lng": "127.45674765831741",
    "region": "대전광역시"
  },
  {
    "name": "대전은어송중학교 운동장",
    "address": "대전광역시 동구 대성동 134",
    "lat": "36.30048685481343",
    "lng": "127.46053477200114",
    "region": "대전광역시"
  },
  {
    "name": "남양주 샛별초등학교 운동장",
    "address": "경기도 남양주시 별내동 870",
    "lat": "37.665580554100345",
    "lng": "127.12911152925811",
    "region": "경기도"
  },
  {
    "name": "남양주 공업고등학교 운동장",
    "address": "경기도 남양주시 화도읍 월산리 99-4",
    "lat": "37.653593433501285",
    "lng": "127.33320593833925",
    "region": "경기도"
  },
  {
    "name": "원동7 근린공원",
    "address": "경상북도 포항시 남구 오천읍 원리 1429",
    "lat": "35.97277877980918",
    "lng": "129.40857968440565",
    "region": "경상북도"
  },
  {
    "name": "홍계리 마을회관",
    "address": "경상북도 포항시 남구 대송면 홍계리 462-2",
    "lat": "35.95269342057423",
    "lng": "129.33834761381138",
    "region": "경상북도"
  },
  {
    "name": "금광2리 마을회관",
    "address": "경상북도 포항시 남구 동해면 금광리 595-4",
    "lat": "35.96747827394506",
    "lng": "129.45365309716257",
    "region": "경상북도"
  },
  {
    "name": "월평리 마을회관",
    "address": "경상북도 포항시 북구 죽장면 월평리 399-1",
    "lat": "36.20474131980681",
    "lng": "129.069912135605",
    "region": "경상북도"
  },
  {
    "name": "한국경마축산고등학교 운동장",
    "address": "전북특별자치도 남원시 운봉읍 준향리 477-1",
    "lat": "35.44056798390382",
    "lng": "127.51562219074404",
    "region": "전북특별자치도"
  },
  {
    "name": "다솜학교 운동장",
    "address": "전북특별자치도 정읍시 과교동 408-5",
    "lat": "35.548713513174235",
    "lng": "126.83352144114644",
    "region": "전북특별자치도"
  },
  {
    "name": "영해초등학교 운동장",
    "address": "경상북도 영덕군 영해면 성내리 391",
    "lat": "36.53875560090516",
    "lng": "129.41114086772254",
    "region": "경상북도"
  },
  {
    "name": "농협하나로마트 원황지점",
    "address": "경상북도 영덕군 병곡면 원황리 589-9",
    "lat": "36.571486431179295",
    "lng": "129.39955899266985",
    "region": "경상북도"
  },
  {
    "name": "인량리 나라골보리말 체험학교 앞 공터",
    "address": "경상북도 영덕군 창수면 인량리 212",
    "lat": "36.55184899464857",
    "lng": "129.37127709388855",
    "region": "경상북도"
  },
  {
    "name": "전주금평초등학교(운동장)",
    "address": "전북특별자치도 전주시 덕진구 인후동2가 1536",
    "lat": "35.84393299666572",
    "lng": "127.1470177140578",
    "region": "전북특별자치도"
  },
  {
    "name": "연일형산초등학교 운동장",
    "address": "경상북도 포항시 남구 연일읍 생지리 333-6",
    "lat": "35.998570785722066",
    "lng": "129.34175826856188",
    "region": "경상북도"
  },
  {
    "name": "탑정1리 마을회관",
    "address": "경상북도 포항시 북구 기북면 탑정리 747",
    "lat": "36.15633899616353",
    "lng": "129.18630123138738",
    "region": "경상북도"
  },
  {
    "name": "능포초등학교",
    "address": "경상남도 거제시 능포동 440",
    "lat": "34.8808614",
    "lng": "128.73682009999993",
    "region": "경상남도"
  },
  {
    "name": "거제공업고등학교",
    "address": "경상남도 거제시 고현동 920-2",
    "lat": "34.882359",
    "lng": "128.61424820000002",
    "region": "경상남도"
  },
  {
    "name": "수월중학교",
    "address": "경상남도 거제시 수월동 1165",
    "lat": "34.8907161",
    "lng": "128.64550020000001",
    "region": "경상남도"
  },
  {
    "name": "금성중학교",
    "address": "전북특별자치도 김제시 신풍동 144-1",
    "lat": "35.79764052504844",
    "lng": "126.89868746782193",
    "region": "전북특별자치도"
  },
  {
    "name": "황강초등학교",
    "address": "전북특별자치도 김제시 공덕면 마현리 448",
    "lat": "35.87602859867508",
    "lng": "126.92454441956572",
    "region": "전북특별자치도"
  },
  {
    "name": "신천둔치",
    "address": "대구광역시 중구 동인동3가 379",
    "lat": "35.87311602937365",
    "lng": "128.61188471317314",
    "region": "대구광역시"
  },
  {
    "name": "산외초등학교 운동장",
    "address": "전북특별자치도 정읍시 산외면 평사리 451",
    "lat": "35.620936632468705",
    "lng": "127.04122304872769",
    "region": "전북특별자치도"
  },
  {
    "name": "정읍동초등학교 운동장",
    "address": "전북특별자치도 정읍시 장명동 29",
    "lat": "35.56691137945429",
    "lng": "126.86145633459087",
    "region": "전북특별자치도"
  },
  {
    "name": "내장초등학교 운동장",
    "address": "전북특별자치도 정읍시 금붕동 98-1",
    "lat": "35.53520117305732",
    "lng": "126.89249052383623",
    "region": "전북특별자치도"
  },
  {
    "name": "옥류리 마을 앞 공터",
    "address": "경상북도 영덕군 지품면 옥류리 332-5",
    "lat": "36.477729718568995",
    "lng": "129.29826738113488",
    "region": "경상북도"
  },
  {
    "name": "보건지소 뒤 공터",
    "address": "경상북도 영덕군 영해면 사진리 311-1",
    "lat": "36.531215014001525",
    "lng": "129.43882931203055",
    "region": "경상북도"
  },
  {
    "name": "대구카톨릭대학교수련원(구 원구초등학교 운동장)",
    "address": "경상북도 영덕군 영해면 원구리 146-1",
    "lat": "36.54015869332655",
    "lng": "129.37984703345285",
    "region": "경상북도"
  },
  {
    "name": "공설운동장(사정금호1차부근)",
    "address": "전북특별자치도 군산시 사정동 146-2",
    "lat": "35.96320774916768",
    "lng": "126.74561323578936",
    "region": "전북특별자치도"
  },
  {
    "name": "동부시장앞",
    "address": "전북특별자치도 군산시 경암동 677-8",
    "lat": "35.976022620990165",
    "lng": "126.72823496299198",
    "region": "전북특별자치도"
  },
  {
    "name": "전북중학교(운동장)",
    "address": "",
    "lat": "35.874988935232125",
    "lng": "127.07659616290921",
    "region": ""
  },
  {
    "name": "전주덕진초등학교(운동장)",
    "address": "전북특별자치도 전주시 덕진구 덕진동1가 1272-2",
    "lat": "35.841305437495045",
    "lng": "127.1245258353087",
    "region": "전북특별자치도"
  },
  {
    "name": "학전리 마을회관",
    "address": "경상북도 포항시 남구 연일읍 학전리 167-2",
    "lat": "36.02676863070364",
    "lng": "129.3009451791152",
    "region": "경상북도"
  },
  {
    "name": "양백2리 마을회관",
    "address": "경상북도 포항시 북구 흥해읍 양백리 204",
    "lat": "36.13088639892742",
    "lng": "129.3248802423507",
    "region": "경상북도"
  },
  {
    "name": "학천초등학교 운동장",
    "address": "경상북도 포항시 북구 흥해읍 학천리 109",
    "lat": "36.076848757590575",
    "lng": "129.32814758841636",
    "region": "경상북도"
  },
  {
    "name": "덕암고등학교",
    "address": "전북특별자치도 김제시 서암동 5",
    "lat": "35.813567172210675",
    "lng": "126.88508229254708",
    "region": "전북특별자치도"
  },
  {
    "name": "인천국제공항 제2여객터미널 썬큰가든",
    "address": "인천광역시 중구 운서동 2868",
    "lat": "37.46832708372352",
    "lng": "126.43387198448161",
    "region": "인천광역시"
  },
  {
    "name": "남원고등학교 운동장",
    "address": "전북특별자치도 남원시 향교동 412",
    "lat": "35.42034996045109",
    "lng": "127.3807819045294",
    "region": "전북특별자치도"
  },
  {
    "name": "구 초등학교(문화예술체험장)",
    "address": "경상북도 영덕군 영덕읍 매정리 88",
    "lat": "36.44524986746549",
    "lng": "129.42203328123566",
    "region": "경상북도"
  },
  {
    "name": "위정관광 농원 옆 공터",
    "address": "경상북도 영덕군 창수면 신기리 276-5",
    "lat": "36.5494939072244",
    "lng": "129.32679265737627",
    "region": "경상북도"
  },
  {
    "name": "어린이 30공원",
    "address": "전북특별자치도 군산시 나운동 869-7",
    "lat": "35.957167929078324",
    "lng": "126.68796535606363",
    "region": "전북특별자치도"
  },
  {
    "name": "미장택지 4공원",
    "address": "전북특별자치도 군산시 미장동 506",
    "lat": "35.967960903832775",
    "lng": "126.72988981727505",
    "region": "전북특별자치도"
  },
  {
    "name": "서수문화마을",
    "address": "전북특별자치도 군산시 서수면 서수리 2100-1",
    "lat": "35.98289978366351",
    "lng": "126.86644511296925",
    "region": "전북특별자치도"
  },
  {
    "name": "전일중학교(운동장)",
    "address": "전북특별자치도 전주시 덕진구 인후동2가 39-16",
    "lat": "35.83840678546574",
    "lng": "127.14509615181788",
    "region": "전북특별자치도"
  },
  {
    "name": "목우길마을광장",
    "address": "전북특별자치도 고창군 무장면 목우리 307-3",
    "lat": "35.415293073469265",
    "lng": "126.61487562734347",
    "region": "전북특별자치도"
  },
  {
    "name": "하정3리 버스승강장 앞",
    "address": "경상북도 포항시 남구 구룡포읍 하정리 28-2",
    "lat": "35.97477415426222",
    "lng": "129.5507732033803",
    "region": "경상북도"
  },
  {
    "name": "금산중앙초등학교 운동장",
    "address": "충청남도 금산군 금산읍 상옥리 137-1",
    "lat": "36.10144524151132",
    "lng": "127.4871670693691",
    "region": "충청남도"
  },
  {
    "name": "금산여자고등학교 운동장",
    "address": "충청남도 금산군 금산읍 아인리 9-1",
    "lat": "36.105039018650096",
    "lng": "127.48442021934828",
    "region": "충청남도"
  },
  {
    "name": "금산중고등학교 운동장",
    "address": "충청남도 금산군 금산읍 중도리 166",
    "lat": "36.106955516607705",
    "lng": "127.49529214249159",
    "region": "충청남도"
  },
  {
    "name": "남일초등학교 운동장",
    "address": "충청남도 금산군 남일면 초현리 253-2",
    "lat": "36.04332887288646",
    "lng": "127.50371815252228",
    "region": "충청남도"
  },
  {
    "name": "공주교대부설초등학교 운동장",
    "address": "충청남도 공주시 금학동 231-1",
    "lat": "36.44284088726081",
    "lng": "127.11840927600863",
    "region": "충청남도"
  },
  {
    "name": "외산초등학교 운동장",
    "address": "충청남도 부여군 외산면 장항리 211-1",
    "lat": "36.31526897397403",
    "lng": "126.71588024662775",
    "region": "충청남도"
  },
  {
    "name": "중랑물재생센터",
    "address": "서울특별시 성동구 용답동 247-2",
    "lat": "37.55980671895291",
    "lng": "127.06411845947635",
    "region": "서울특별시"
  },
  {
    "name": "용남초등학교 운동장",
    "address": "충청남도 계룡시 신도안면 남선리 1322",
    "lat": "36.29863307473009",
    "lng": "127.24441140890319",
    "region": "충청남도"
  },
  {
    "name": "이일여자고등학교 운동장",
    "address": "전북특별자치도 익산시 인화동1가 2-42",
    "lat": "35.93506738903727",
    "lng": "126.94930672645567",
    "region": "전북특별자치도"
  },
  {
    "name": "의성창의인성교육관",
    "address": "경상북도 의성�� 사곡면 양지리 550",
    "lat": "36.306970329097496",
    "lng": "128.7871697545003",
    "region": "경상북도"
  },
  {
    "name": "비안초등학교운동장",
    "address": "경상북도 의성군 비안면 이두리 287",
    "lat": "36.337665",
    "lng": "128.495577",
    "region": "경상북도"
  },
  {
    "name": "남산공원",
    "address": "경상북도 의성군 다인면 서릉리 43",
    "lat": "36.447008301676426",
    "lng": "128.35753709502708",
    "region": "경상북도"
  },
  {
    "name": "안평초등학교 신평분교",
    "address": "경상북도 의성군 신평면 교안리 270",
    "lat": "36.47336239256537",
    "lng": "128.50446681768986",
    "region": "경상북도"
  },
  {
    "name": "안사면사무소",
    "address": "경상북도 의성군 안사면 안사리 723-1",
    "lat": "36.431151",
    "lng": "128.461698",
    "region": "경상북도"
  },
  {
    "name": "물금초등학교 운동장",
    "address": "경상남도 양산시 물금읍 가촌리 469-1",
    "lat": "35.31710548739799",
    "lng": "128.99045062447286",
    "region": "경상남도"
  },
  {
    "name": "석산초등학교 운동장",
    "address": "경상남도 양산시 동면 석산리 1448-8",
    "lat": "35.32148563665956",
    "lng": "129.0268038114009",
    "region": "경상남도"
  },
  {
    "name": "양산고등학교 운동장",
    "address": "경상남도 양산시 북부동 255",
    "lat": "35.349405",
    "lng": "129.044813",
    "region": "경상남도"
  },
  {
    "name": "은평문화예술정보학교 운동장",
    "address": "서울특별시 은평구 응암동 334-12",
    "lat": "37.58923145638727",
    "lng": "126.91900630471686",
    "region": "서울특별시"
  },
  {
    "name": "유안초등학교 운동장",
    "address": "광주광역시 남구 봉선동 124",
    "lat": "35.12497196371544",
    "lng": "126.91434144973753",
    "region": "광주광역시"
  },
  {
    "name": "하남초등학교운동장",
    "address": "부산광역시 사하구 하단동 1181-25",
    "lat": "35.09927408799163",
    "lng": "128.95985252441326",
    "region": "부산광역시"
  },
  {
    "name": "광주양지초등학교 운동장",
    "address": "광주광역시 북구 양산동 928",
    "lat": "35.20821826844637",
    "lng": "126.88087284564968",
    "region": "광주광역시"
  },
  {
    "name": "광주문흥중학교 운동장",
    "address": "광주광역시 북구 문흥동 1008-1",
    "lat": "35.185748887601214",
    "lng": "126.91770830207642",
    "region": "광주광역시"
  },
  {
    "name": "부성초등학교 운동장",
    "address": "충청남도 서산시 지곡면 화천리 307",
    "lat": "36.864557564046095",
    "lng": "126.43575912383861",
    "region": "충청남도"
  },
  {
    "name": "원북초 방갈분교",
    "address": "충청남도 태안군 원북면 방갈리 202",
    "lat": "36.87341772974472",
    "lng": "126.21258169412211",
    "region": "충청남도"
  },
  {
    "name": "서산중학교 운동장",
    "address": "충청남도 서산시 석남동 57-1",
    "lat": "36.768612467674885",
    "lng": "126.45905811149593",
    "region": "충청남도"
  },
  {
    "name": "신관중학교 운동장",
    "address": "서울특별시 관악구 신림동 87-81",
    "lat": "37.480204012912615",
    "lng": "126.93444844169434",
    "region": "서울특별시"
  },
  {
    "name": "서창초등학교 운동장",
    "address": "경상남도 양산시 삼호동 623",
    "lat": "35.417453",
    "lng": "129.171701",
    "region": "경상남도"
  },
  {
    "name": "대영중학교 운동장",
    "address": "서울특별시 영등포구 신길동 342-49",
    "lat": "37.50304894010191",
    "lng": "126.90503150224686",
    "region": "서울특별시"
  },
  {
    "name": "상산어린이공원(플라터너스어린이공원)",
    "address": "서울특별시 강북구 수유동 224-4",
    "lat": "37.63831316984829",
    "lng": "127.02382608118849",
    "region": "서울특별시"
  },
  {
    "name": "신연중학교 운동장",
    "address": "서울특별시 서대문구 연희동 1-107",
    "lat": "37.58331370819465",
    "lng": "126.93991712000502",
    "region": "서울특별시"
  },
  {
    "name": "금옥초등학교 운동장",
    "address": "서울특별시 성동구 금호동4가 1254",
    "lat": "37.54666134839889",
    "lng": "127.01787852965644",
    "region": "서울특별시"
  },
  {
    "name": "망포공원",
    "address": "경기도 수원시 영통구 망포동 357-4",
    "lat": "37.242321",
    "lng": "127.057917",
    "region": "경기도"
  },
  {
    "name": "황등남초등학교 운동장",
    "address": "전북특별자치도 익산시 황등면 황등리 963-3",
    "lat": "36.003556019386444",
    "lng": "126.93932354450224",
    "region": "전북특별자치도"
  },
  {
    "name": "서산동문초등학교 운동장",
    "address": "충청남도 서산시 동문동 11",
    "lat": "36.787782386326164",
    "lng": "126.46673587527398",
    "region": "충청남도"
  },
  {
    "name": "인왕중학교 운동장",
    "address": "서울특별시 서대문구 홍제동 9-27",
    "lat": "37.59280475969556",
    "lng": "126.95257485139977",
    "region": "서울특별시"
  },
  {
    "name": "원동초등학교 운동장",
    "address": "경상남도 양산시 원동면 원리 951",
    "lat": "35.364219",
    "lng": "128.921983",
    "region": "경상남도"
  },
  {
    "name": "삼성초등학교 운동장",
    "address": "경상남도 양산시 북정동 383",
    "lat": "35.364246",
    "lng": "129.047041",
    "region": "경상남도"
  },
  {
    "name": "둔촌중학교 운동장",
    "address": "서울특별시 강동구 둔촌동 19-1",
    "lat": "37.53023338716901",
    "lng": "127.14611869496326",
    "region": "서울특별시"
  },
  {
    "name": "장산초등학교",
    "address": "경상북도 경산시 옥산동 872",
    "lat": "35.82071014561692",
    "lng": "128.72394740581555",
    "region": "경상북도"
  },
  {
    "name": "연은초등학교 운동장",
    "address": "서울특별시 은평구 응암동 759-3",
    "lat": "37.59031116638649",
    "lng": "126.9251924384297",
    "region": "서울특별시"
  },
  {
    "name": "청덕초등학교장 운동장",
    "address": "서울특별시 성북구 정릉동 847",
    "lat": "37.611607371061865",
    "lng": "127.00046869752921",
    "region": "서울특별시"
  },
  {
    "name": "종암중학교 운동장",
    "address": "서울특별시 성북구 종암동 32-3",
    "lat": "37.59286372966528",
    "lng": "127.03233015216152",
    "region": "서울특별시"
  },
  {
    "name": "무지개어린이공원",
    "address": "서울특별시 도봉구 도봉동 570-13",
    "lat": "37.68561726466232",
    "lng": "127.04502321422771",
    "region": "서울특별시"
  },
  {
    "name": "누원어린이공원",
    "address": "서울특별시 도봉구 도봉동 653",
    "lat": "37.680346270516445",
    "lng": "127.05014463880784",
    "region": "서울특별시"
  },
  {
    "name": "다정중학교 운동장",
    "address": "세종특별자치시 세종시 다정동 950",
    "lat": "36.4939055231943",
    "lng": "127.24561035633087",
    "region": "세종특별자치시"
  },
  {
    "name": "광주신용초등학교 운동장",
    "address": "광주광역시 북구 신용동 661",
    "lat": "35.210177474079195",
    "lng": "126.85718625783919",
    "region": "광주광역시"
  },
  {
    "name": "광주동강대학교 운동장",
    "address": "광주광역시 북구 두암동 887-2",
    "lat": "35.17008405671375",
    "lng": "126.92495868260755",
    "region": "광주광역시"
  },
  {
    "name": "백운호수초등학교 운동장",
    "address": "경기도 의왕시 학의동 1104",
    "lat": "37.37105238187211",
    "lng": "127.0072501550556",
    "region": "경기도"
  },
  {
    "name": "삼일초등학교 운동장",
    "address": "서울특별시 동작구 사당동 105-23",
    "lat": "37.487985887400015",
    "lng": "126.97478807897895",
    "region": "서울특별시"
  },
  {
    "name": "신길초등학교운동장",
    "address": "서울특별시 동작구 대방동 351-6",
    "lat": "37.5104088902169",
    "lng": "126.92642075050031",
    "region": "서울특별시"
  },
  {
    "name": "대방중학교 운동장",
    "address": "서울특별시 동작구 신대방동 492-200",
    "lat": "37.49509546058318",
    "lng": "126.91388542094691",
    "region": "서울특별시"
  },
  {
    "name": "광주공업고등학교 운동장",
    "address": "광주광역시 북구 매곡동 10",
    "lat": "35.189320684399924",
    "lng": "126.8975508213043",
    "region": "광주광역시"
  },
  {
    "name": "신현중학교운동장",
    "address": "서울특별시 중랑구 상봉동 483",
    "lat": "37.60419278606013",
    "lng": "127.0919278337536",
    "region": "서울특별시"
  },
  {
    "name": "동국대학교 사범대학 부속여자중고등학교 주차장",
    "address": "서울특별시 광진구 구의동 238-1",
    "lat": "37.542344285524855",
    "lng": "127.0863139629364",
    "region": "서울특별시"
  },
  {
    "name": "구산중학교 운동장",
    "address": "서울특별시 은평구 구산동 182-45",
    "lat": "37.60922278110896",
    "lng": "126.90913849870158",
    "region": "서울특별시"
  },
  {
    "name": "미사강변중학교 운동장",
    "address": "경기도 하남시 선동 420",
    "lat": "37.577558",
    "lng": "127.185244",
    "region": "경기도"
  },
  {
    "name": "유촌초등학교 운동장",
    "address": "광주광역시 서구 쌍촌동 1320-2",
    "lat": "35.159152594988434",
    "lng": "126.85750544071193",
    "region": "광주광역시"
  },
  {
    "name": "영등포근린공원",
    "address": "서울특별시 영등포구 영등포동 582-3",
    "lat": "37.515317129979834",
    "lng": "126.91070437431078",
    "region": "서울특별시"
  },
  {
    "name": "보등골어린이공원",
    "address": "서울특별시 강북구 수유동 605-209",
    "lat": "37.63504981791021",
    "lng": "127.01832092394275",
    "region": "서울특별시"
  },
  {
    "name": "오패어린이공원",
    "address": "서울특별시 강북구 미아동 258-236",
    "lat": "37.622345850092934",
    "lng": "127.03231400165608",
    "region": "서울특별시"
  },
  {
    "name": "청담중학교 운동장",
    "address": "서울특별시 강남구 청담동 143",
    "lat": "37.528970995757426",
    "lng": "127.04535980634097",
    "region": "서울특별시"
  },
  {
    "name": "성남송현초등학교 운동장",
    "address": "경기도 성남시 분당구 삼평동 710",
    "lat": "37.40506415926788",
    "lng": "127.11645313148856",
    "region": "경기도"
  },
  {
    "name": "안계2리회관 앞 공터",
    "address": "경상북도 경주시 강동면 안계리 산161-1",
    "lat": "36.02537956790391",
    "lng": "129.2519080638913",
    "region": "경상북도"
  },
  {
    "name": "은척초등학교 무릉분교 운동장",
    "address": "경상북도 상주시 은척면 무릉리 153",
    "lat": "36.57733881483875",
    "lng": "128.08845162391665",
    "region": "경상북도"
  },
  {
    "name": "다산공원",
    "address": "경기도 수원시 영통구 이의동 1328",
    "lat": "37.29039459180375",
    "lng": "127.05514951918043",
    "region": "경기도"
  },
  {
    "name": "군산내흥초등학교 운동장",
    "address": "전북특별자치도 군산시 내흥동 998",
    "lat": "36.005455213993585",
    "lng": "126.75896402046328",
    "region": "전북특별자치도"
  },
  {
    "name": "군산문화초등학교 운동장",
    "address": "전북특별자치도 군산시 문화동 895-1",
    "lat": "35.9745687046045",
    "lng": "126.70335094094933",
    "region": "전북특별자치도"
  },
  {
    "name": "고등 어린이공원",
    "address": "경기도 수원시 팔달구 고등동 79-5",
    "lat": "37.27058439183149",
    "lng": "127.00692325830461",
    "region": "경기도"
  },
  {
    "name": "청록 어린이공원",
    "address": "경기도 수원시 팔달구 우만동 560",
    "lat": "37.280737",
    "lng": "127.032283",
    "region": "경기도"
  },
  {
    "name": "평창종합운동장",
    "address": "강원특별자치도 평창군 평창읍 종부리 596-3",
    "lat": "37.3603082",
    "lng": "128.391394",
    "region": "강원특별자치도"
  },
  {
    "name": "화제초등학교 운동장",
    "address": "경상남도 양산시 원동면 화제리 1296-2",
    "lat": "35.350920",
    "lng": "128.978929",
    "region": "경상남도"
  },
  {
    "name": "신기초등학교 운동장",
    "address": "경상남도 양산시 신기동 511-1",
    "lat": "35.351953",
    "lng": "129.040230",
    "region": "경상남도"
  },
  {
    "name": "좌월어린이공원",
    "address": "서울특별시 은평구 갈현동 513-1",
    "lat": "37.6173013736099",
    "lng": "126.9133046627779",
    "region": "서울특별시"
  },
  {
    "name": "대은초등학교 운동장",
    "address": "서울특별시 은평구 대조동 82-5",
    "lat": "37.611692650505816",
    "lng": "126.92629701295988",
    "region": "서울특별시"
  },
  {
    "name": "정릉초등학교 운동장",
    "address": "서울특별시 성북구 정릉동 798",
    "lat": "37.619431514918354",
    "lng": "127.00543543092516",
    "region": "서울특별시"
  },
  {
    "name": "낙산공원",
    "address": "서울특별시 종��구 동숭동 50-111",
    "lat": "37.58026277831384",
    "lng": "127.00710296630857",
    "region": "서울특별시"
  },
  {
    "name": "한결초등학교 운동장",
    "address": "세종특별자치시 세종시 다정동 917",
    "lat": "36.49646283119939",
    "lng": "127.24537432193753",
    "region": "세종특별자치시"
  },
  {
    "name": "방산초등학교 운동장",
    "address": "강원특별자치도 양구군 방산면 현리 50-4",
    "lat": "38.20976698157843",
    "lng": "127.94437733988406",
    "region": "강원특별자치도"
  },
  {
    "name": "세종초등학교 운동장",
    "address": "경기도 여주시 교동 121-7",
    "lat": "37.27931423410885",
    "lng": "127.63373849208226",
    "region": "경기도"
  },
  {
    "name": "산양초등학교",
    "address": "경상남도 통영시 산양읍 남평리 857",
    "lat": "34.80170878275674",
    "lng": "128.3907540247713",
    "region": "경상남도"
  },
  {
    "name": "두레뜰 근린공원",
    "address": "세종특별자치시 세종시 대평동 673",
    "lat": "36.473494",
    "lng": "127.274187",
    "region": "세종특별자치시"
  },
  {
    "name": "중앙대학교사범대학부속중학교 운동장",
    "address": "서울특별시 동작구 흑석동 86",
    "lat": "37.504817205873664",
    "lng": "126.96139598352708",
    "region": "서울특별시"
  },
  {
    "name": "도란뜰 근린공원",
    "address": "세종특별자치시 세종시 다정동 947",
    "lat": "36.49452676725166",
    "lng": "127.24741899319112",
    "region": "세종특별자치시"
  },
  {
    "name": "두실초등학교 운동장",
    "address": "부산광역시 금정구 구서동 1052",
    "lat": "35.25301016328731",
    "lng": "129.0891575942873",
    "region": "부산광역시"
  },
  {
    "name": "부산과학고등학교 운동장",
    "address": "부산광역시 금정구 구서동 915",
    "lat": "35.263237736047195",
    "lng": "129.0833365917222",
    "region": "부산광역시"
  },
  {
    "name": "평산초등학교 운동장",
    "address": "경상남도 양산시 평산동 40-3",
    "lat": "35.38679578850375",
    "lng": "129.15363173058455",
    "region": "경상남도"
  },
  {
    "name": "강명초등학교 운동장",
    "address": "서울특별시 강동구 상일동 480",
    "lat": "37.554225555045335",
    "lng": "127.17348768761903",
    "region": "서울특별시"
  },
  {
    "name": "낙민초등학교 운동장",
    "address": "부산광역시 동래구 낙민동 303",
    "lat": "35.19881166993522",
    "lng": "129.08836841583414",
    "region": "부산광역시"
  },
  {
    "name": "고명중학교 운동장",
    "address": "서울특별시 성북구 돈암동 45-88",
    "lat": "37.59797436672696",
    "lng": "127.01998935580656",
    "region": "서울특별시"
  },
  {
    "name": "우촌초등학교 운동장",
    "address": "서울특별시 성북구 돈암동 609",
    "lat": "37.59562471497769",
    "lng": "127.01173947718159",
    "region": "서울특별시"
  },
  {
    "name": "용문고등학교 운동장",
    "address": "서울특별시 성북구 안암동2가 96-1",
    "lat": "37.58787078135958",
    "lng": "127.0245376005576",
    "region": "서울특별시"
  },
  {
    "name": "고려대학사범대학부속중학교 운동장",
    "address": "서울특별시 성북구 정릉동 660",
    "lat": "37.61026624097334",
    "lng": "127.0014862088078",
    "region": "서울특별시"
  },
  {
    "name": "장곡초등학교 운동장",
    "address": "서울특별시 성북구 장위동 235",
    "lat": "37.616507351928824",
    "lng": "127.04819038470488",
    "region": "서울특별시"
  },
  {
    "name": "석관초등학교 운동장",
    "address": "서울특별시 성북구 석관동 205",
    "lat": "37.610779403429575",
    "lng": "127.05898215366688",
    "region": "서울특별시"
  },
  {
    "name": "대운초등학교 운동장",
    "address": "경상남도 양산시 삼호동 886-2",
    "lat": "35.408528",
    "lng": "129.173715",
    "region": "경상남도"
  },
  {
    "name": "좌삼초등학교 운동장",
    "address": "경상남도 양산시 상북면 좌삼리 493",
    "lat": "35.440567",
    "lng": "129.044065",
    "region": "경상남도"
  }
]