[
  {
    "name": "만수북초등학교 운동장",
    "address": "인천광역시 남동구 만수동 867-18",
    "lat": "37.4594536610206",
    "lng": "126.72872931653087",
    "region": "인천광역시"
  },
  {
    "name": "만수초등학교 운동장",
    "address": "인천광역시 남동구 만수동 1074",
    "lat": "37.447505818715165",
    "lng": "126.73450392510325",
    "region": "인천광역시"
  },
  {
    "name": "남촌초등학교 운동장",
    "address": "인천광역시 남동구 남촌동 556-19",
    "lat": "37.42942477118651",
    "lng": "126.71395914712343",
    "region": "인천광역시"
  },
  {
    "name": "장도초등학교  운동장",
    "address": "인천광역시 남동구 논현동 600-2",
    "lat": "37.407730513000196",
    "lng": "126.73364804917766",
    "region": "인천광역시"
  },
  {
    "name": "봉일천중학교 운동장",
    "address": "경기도 파주시 조���읍 봉일천리 257",
    "lat": "37.74794960802216",
    "lng": "126.81331525480562",
    "region": "경기도"
  },
  {
    "name": "원적산공원",
    "address": "인천광역시 부평구 청천동 71-12",
    "lat": "37.51321384817062",
    "lng": "126.69142550012087",
    "region": "인천광역시"
  },
  {
    "name": "부평공원",
    "address": "인천광역시 부평구 부평동 299",
    "lat": "37.4893918522945",
    "lng": "126.71463723012799",
    "region": "인천광역시"
  },
  {
    "name": "도마중학교운동장",
    "address": "대전광역시 서구 도마동 111-3",
    "lat": "36.3185073607382",
    "lng": "127.37226914895531",
    "region": "대전광역시"
  },
  {
    "name": "산청중학교 운동장",
    "address": "경상남도 산청군 시천면 원리 170",
    "lat": "35.27527127892286",
    "lng": "127.83368163710647",
    "region": "경상남도"
  },
  {
    "name": "중앙초등학교  운동장",
    "address": "광주광역시 동구 궁동 6-2",
    "lat": "35.15121511506362",
    "lng": "126.91820105986777",
    "region": "광주광역시"
  },
  {
    "name": "남초등학교  운동장",
    "address": "광주광역시 동구 소태동 566-2",
    "lat": "35.125700294139214",
    "lng": "126.93307399749754",
    "region": "광주광역시"
  },
  {
    "name": "장평면민회관 공터",
    "address": "전라남도 장흥군 장평면 용강리 27-1",
    "lat": "34.773548452087034",
    "lng": "126.97532509458105",
    "region": "전라남도"
  },
  {
    "name": "회진초등학교 운동장",
    "address": "전라남도 장흥군 회진면 회진리 738-2",
    "lat": "34.48004403844548",
    "lng": "126.93632304262766",
    "region": "전라남도"
  },
  {
    "name": "화산초등학교운동장",
    "address": "전라남도 해남군 화산면 방축리 365-1",
    "lat": "34.4920096973194",
    "lng": "126.516270291242",
    "region": "전라남도"
  },
  {
    "name": "작천초등학교 운동장",
    "address": "전라남도 강진군 작천면 현산리 5",
    "lat": "34.7030763847806",
    "lng": "126.77203762082297",
    "region": "전라남도"
  },
  {
    "name": "서천중학교 운동장",
    "address": "충청남도 서천군 서천읍 군사리 601",
    "lat": "36.07490975043514",
    "lng": "126.693735122676",
    "region": "충청남도"
  },
  {
    "name": "금성초등학교 운동장",
    "address": "대전광역시 유성구 신성동 210-12",
    "lat": "36.38897921452144",
    "lng": "127.35000387396282",
    "region": "대전광역시"
  },
  {
    "name": "백석중학교 운동장",
    "address": "인천광역시 서구 백석동 65-3",
    "lat": "37.57913892114347",
    "lng": "126.67426199408806",
    "region": "인천광역시"
  },
  {
    "name": "당하제1호공원",
    "address": "인천광역시 서구 당하동 1097-1",
    "lat": "37.59154982233569",
    "lng": "126.67379765532358",
    "region": "인천광역시"
  },
  {
    "name": "사천종합운동장",
    "address": "경상남도 사천시 사천읍 정의리 7",
    "lat": "35.08994013939053",
    "lng": "128.09481069920554",
    "region": "경상남도"
  },
  {
    "name": "구례중학교 운동장",
    "address": "전라남도 구례군 구례읍 봉서리 1093",
    "lat": "35.200960145663295",
    "lng": "127.46301914332295",
    "region": "전라남도"
  },
  {
    "name": "장터공원",
    "address": "인천광역시 계양구 장기동 146",
    "lat": "37.57839531434272",
    "lng": "126.73679531520854",
    "region": "인천광역시"
  },
  {
    "name": "들놀이공원",
    "address": "인천광역시 계양구 귤현동 231",
    "lat": "37.565806998341834",
    "lng": "126.75168177441591",
    "region": "인천광역시"
  },
  {
    "name": "도심초등학교 운동장",
    "address": "경기도 남양주시 와부읍 도곡리 1051-7",
    "lat": "37.58027431373796",
    "lng": "127.22752055516843",
    "region": "경기도"
  },
  {
    "name": "오산종합운동장",
    "address": "경기도 오산시 오산동 49",
    "lat": "37.15729517336158",
    "lng": "127.07362750809234",
    "region": "경기도"
  },
  {
    "name": "구룡포과메기문화관",
    "address": "경상북도 포항시 남구 구룡포읍 구룡포리 353",
    "lat": "35.992486813107796",
    "lng": "129.56164956093107",
    "region": "경상북도"
  },
  {
    "name": "청림초등학교 운동장",
    "address": "경상북도 포항시 남구 청림동 934-6",
    "lat": "35.99493254483239",
    "lng": "129.40440505743155",
    "region": "경상북도"
  },
  {
    "name": "포항제철고등학교 운동장",
    "address": "경상북도 포항시 남구 지곡동 477",
    "lat": "36.02864502200237",
    "lng": "129.3269359215873",
    "region": "경상북도"
  },
  {
    "name": "강정체육공원",
    "address": "제주특별자치도 서귀포시 강정동 2667",
    "lat": "33.234494865523935",
    "lng": "126.48620995014264",
    "region": "제주특별자치도"
  },
  {
    "name": "서귀중앙여자중학교 운동장",
    "address": "제주특별자치도 서귀포시 동홍동 1488-1",
    "lat": "33.254711433454666",
    "lng": "126.56278970431018",
    "region": "제주특별자치도"
  },
  {
    "name": "백학초등학교운동장",
    "address": "인천광역시 미추홀구 학익동 674",
    "lat": "37.438477117630875",
    "lng": "126.67221206124695",
    "region": "인천광역시"
  },
  {
    "name": "인하사대부속중고등학교운동장",
    "address": "인천광역시 미추홀구 학익동 306-30",
    "lat": "37.446458265489866",
    "lng": "126.66252083432208",
    "region": "인천광역시"
  },
  {
    "name": "대화초등학교운동장",
    "address": "인천광역시 미추홀구 도화동 105-11",
    "lat": "37.468674257607184",
    "lng": "126.6685040173884",
    "region": "인천광역시"
  },
  {
    "name": "안산청석초등학교 운동장",
    "address": "경기도 안산시 상록구 사동 1510-1",
    "lat": "37.29452925452104",
    "lng": "126.81806334801367",
    "region": "경기도"
  },
  {
    "name": "이호초등학교 운동장",
    "address": "경기도 안산시 상록구 본오동 958",
    "lat": "37.286522586859896",
    "lng": "126.8604549026061",
    "region": "경기도"
  },
  {
    "name": "상록중학교 운동장",
    "address": "경기도 안산시 상록구 본오동 1122",
    "lat": "37.300013368217165",
    "lng": "126.87006939630385",
    "region": "경기도"
  },
  {
    "name": "만월초등학교 운동장",
    "address": "인천광역시 남동구 구월동 1521",
    "lat": "37.44198800938294",
    "lng": "126.7153456462551",
    "region": "인천광역시"
  },
  {
    "name": "구월여자중학교 운동장",
    "address": "인천광역시 남동구 구월동 1409-1",
    "lat": "37.44867158733295",
    "lng": "126.70321521807391",
    "region": "인천광역시"
  },
  {
    "name": "용덕초등학교 운동장",
    "address": "경상남도 의령군 용덕면 운곡리 234-2",
    "lat": "35.34851260045583",
    "lng": "128.2908940315247",
    "region": "경상남도"
  },
  {
    "name": "의령초등학교 운동장",
    "address": "경상남도 의령군 의령읍 중동리 246",
    "lat": "35.321813405002686",
    "lng": "128.2607996463776",
    "region": "경상남도"
  },
  {
    "name": "정곡중학교 운동장",
    "address": "경상남도 의령군 정곡면 중교리 513",
    "lat": "35.381803116341324",
    "lng": "128.32791388034826",
    "region": "경상남도"
  },
  {
    "name": "평곡초등학교 운동장",
    "address": "충청북도 음성군 음성읍 평곡리 813",
    "lat": "36.929188906550166",
    "lng": "127.70109773025447",
    "region": "충청북도"
  },
  {
    "name": "감포읍행정복지센터 주차장",
    "address": "경상북도 경주시 감포읍 감포리 56-1",
    "lat": "35.80727083278914",
    "lng": "129.50191713488786",
    "region": "경상북도"
  },
  {
    "name": "이동초등학교 운동장",
    "address": "경상북도 포항시 남구 대잠동 470-1",
    "lat": "36.026948647364755",
    "lng": "129.34323268601213",
    "region": "경상북도"
  },
  {
    "name": "흥해남산초등학교 운동장",
    "address": "경상북도 포항시 북구 흥해읍 남성리 338",
    "lat": "36.10476191779778",
    "lng": "129.34565592262288",
    "region": "경상북도"
  },
  {
    "name": "솔안 공원",
    "address": "인천광역시 연수구 연수동 634-2",
    "lat": "37.41187480600507",
    "lng": "126.68267640333197",
    "region": "인천광역시"
  },
  {
    "name": "동막공원",
    "address": "인천광역시 연수구 동춘동 932-2",
    "lat": "37.40363016311117",
    "lng": "126.67340714160147",
    "region": "인천광역시"
  },
  {
    "name": "재능고등학교 운동장",
    "address": "인천광역시 동구 송림동 37-382",
    "lat": "37.47534964712308",
    "lng": "126.6513630043029",
    "region": "인천광역시"
  },
  {
    "name": "쑥골어린이공원",
    "address": "인천광역시 미추홀구 도화동 699-14",
    "lat": "37.47124566882273",
    "lng": "126.66969180107112",
    "region": "인천광역시"
  },
  {
    "name": "십정녹지",
    "address": "인천광역시 부평구 십정동 271",
    "lat": "37.474249",
    "lng": "126.69231",
    "region": "인천광역시"
  },
  {
    "name": "부원초등학교 운동장",
    "address": "인천광역시 부평구 부평동 65-16",
    "lat": "37.50203555715049",
    "lng": "126.71961944379112",
    "region": "인천광역시"
  },
  {
    "name": "변동초등학교운동장",
    "address": "대전광역시 서구 변동 36-3",
    "lat": "36.32456785603397",
    "lng": "127.38534031219753",
    "region": "대전광역시"
  },
  {
    "name": "사하초등학교운동장",
    "address": "부산광역시 사하구 괴정동 768",
    "lat": "35.09960796378047",
    "lng": "128.98752808570782",
    "region": "부산광역시"
  },
  {
    "name": "인계초등학교 운동장",
    "address": "전북특별자치도 순창군 인계면 가성리 493",
    "lat": "35.41372461041338",
    "lng": "127.15919494628763",
    "region": "전북특별자치도"
  },
  {
    "name": "칠량초등학교 운동장",
    "address": "전라남도 강진군 칠량면 영동리 1113-5",
    "lat": "34.57368407836238",
    "lng": "126.80020033358754",
    "region": "전라남도"
  },
  {
    "name": "기산초등학교 운동장",
    "address": "충청남도 서천군 기산면 화산리 216",
    "lat": "36.07407453181526",
    "lng": "126.76769854956274",
    "region": "충청남도"
  },
  {
    "name": "오성초등학교 운동장",
    "address": "충청남도 서천군 판교면 현암리 365",
    "lat": "36.15486622831518",
    "lng": "126.68352206427434",
    "region": "충청남도"
  },
  {
    "name": "서도초등학교 운동장",
    "address": "충청남도 서천군 서면 도둔리 677-2",
    "lat": "36.153066154199145",
    "lng": "126.52129378045205",
    "region": "충청남도"
  },
  {
    "name": "장계초등학교 운동장",
    "address": "전북특별자치도 장수군 장계면 장계리 250",
    "lat": "35.73186904063975",
    "lng": "127.58106887340115",
    "region": "전북특별자치도"
  },
  {
    "name": "주암초등학교 운동장",
    "address": "전라남도 순천시 주암면 구산리 721",
    "lat": "35.07634935630036",
    "lng": "127.24016888995294",
    "region": "전라남도"
  },
  {
    "name": "외서초등학교 운동장",
    "address": "전라남도 순천시 외서면 월암리 161",
    "lat": "34.91622282111473",
    "lng": "127.2732722621067",
    "region": "전라남도"
  },
  {
    "name": "상사초등학교 운동장",
    "address": "전라남도 순천시 상사면 응령리 287",
    "lat": "34.94394028228557",
    "lng": "127.44609557122583",
    "region": "전라남도"
  },
  {
    "name": "순천팔마체육관",
    "address": "전라남도 순천시 연향동 752",
    "lat": "34.93643455406176",
    "lng": "127.51995795894611",
    "region": "전라남도"
  },
  {
    "name": "가현초등학교 운동장",
    "address": "인천광역시 서구 신현동 305-4",
    "lat": "37.522076330331124",
    "lng": "126.66845440630021",
    "region": "인천광역시"
  },
  {
    "name": "단봉초등학교 운동장",
    "address": "인천광역시 서구 오류동 1720-1",
    "lat": "37.59810383162442",
    "lng": "126.63887580432832",
    "region": "인천광역시"
  },
  {
    "name": "삼목초장봉분교",
    "address": "인천광역시 옹진군 북도면 장봉리 1050",
    "lat": "37.53388864037505",
    "lng": "126.33728325214334",
    "region": "인천광역시"
  },
  {
    "name": "정곡공설운동장",
    "address": "경상남도 의령군 정곡면 성황리 793",
    "lat": "35.377276237840036",
    "lng": "128.33231270313266",
    "region": "경상남도"
  },
  {
    "name": "남산초등학교 운동장",
    "address": "경상남도 의령군 의령읍 동동리 1002",
    "lat": "35.320946769660495",
    "lng": "128.26721012592319",
    "region": "경상남도"
  },
  {
    "name": "삼성중학교 운동장",
    "address": "충청북도 음성군 삼성면 덕정리 431-1",
    "lat": "37.02475219149618",
    "lng": "127.49959810490923",
    "region": "충청북도"
  },
  {
    "name": "장기중학교 운동장",
    "address": "경상북도 포항시 남구 장기면 임중리 331-2",
    "lat": "35.89179275024058",
    "lng": "129.49287883887956",
    "region": "경상북도"
  },
  {
    "name": "청하중학교 운동장",
    "address": "경상북도 포항시 북구 청하면 덕성리 384-1",
    "lat": "36.19395800898909",
    "lng": "129.33508872985726",
    "region": "경상북도"
  },
  {
    "name": "경북간호고등학교 운동장",
    "address": "경상북도 포항시 북구 죽장면 입암리 643-8",
    "lat": "36.163499888142944",
    "lng": "129.09360529571453",
    "region": "경상북도"
  },
  {
    "name": "포항고등학교 운동장",
    "address": "경상북도 포항시 북구 학산동 288",
    "lat": "36.05563051386082",
    "lng": "129.37140583992047",
    "region": "경상북도"
  },
  {
    "name": "포항항도초등학교 운동장",
    "address": "경상북도 포항시 북구 학산동 174-1",
    "lat": "36.05164411892086",
    "lng": "129.36938413916786",
    "region": "경상북도"
  },
  {
    "name": "서화초등학교운동장",
    "address": "인천광역시 미추홀구 도화동 47-30",
    "lat": "37.474088425468075",
    "lng": "126.66106574757096",
    "region": "인천광역시"
  },
  {
    "name": "주안체육공원",
    "address": "인천광역시 미추홀구 주안동 281",
    "lat": "37.46315539586242",
    "lng": "126.67645528352463",
    "region": "인천광역시"
  },
  {
    "name": "호동초등학교 운동장",
    "address": "경기도 안산시 상록구 일동 601",
    "lat": "37.31242760268807",
    "lng": "126.86536241775873",
    "region": "경기도"
  },
  {
    "name": "고전복지회관 주차장",
    "address": "경상남도 하동군 고전면 범아리 217-4",
    "lat": "35.02124414479206",
    "lng": "127.81761582478148",
    "region": "경상남도"
  },
  {
    "name": "학현초등학교 운동장",
    "address": "경기도 안산시 상록구 이동 665-1",
    "lat": "37.31080436565685",
    "lng": "126.84705849379526",
    "region": "경기도"
  },
  {
    "name": "매화초등학교 운동장",
    "address": "경기도 안산시 상록구 이동 608",
    "lat": "37.30607444796055",
    "lng": "126.86271331079058",
    "region": "경기도"
  },
  {
    "name": "별천지배움터 하동행복마을학교",
    "address": "경상남도 하동군 고전면 전도리 417",
    "lat": "35.00070084782308",
    "lng": "127.79781818389893",
    "region": "경상남도"
  },
  {
    "name": "옥종중학교 운동장",
    "address": "경상남도 하동군 옥종면 청룡리 227",
    "lat": "35.17869679099369",
    "lng": "127.87905739507693",
    "region": "경상남도"
  },
  {
    "name": "장원초등학교  운동장",
    "address": "광주광역시 동구 산수동 102",
    "lat": "35.157073741779115",
    "lng": "126.93739771842958",
    "region": "광주광역시"
  },
  {
    "name": "동산초등학교  운동장",
    "address": "광주광역시 동구 지산동 231-2",
    "lat": "35.14847707590941",
    "lng": "126.93479597568512",
    "region": "광주광역시"
  },
  {
    "name": "지족초등학교 실외운동장",
    "address": "경상남도 남해군 삼동면 지족리 255",
    "lat": "34.83026115273153",
    "lng": "128.0006809169859",
    "region": "경상남도"
  },
  {
    "name": "옥계초등학교",
    "address": "강원특별자치도 강릉시 옥계면 현내리 344-1",
    "lat": "37.61050834984292",
    "lng": "129.03510240250688",
    "region": "강원특별자치도"
  },
  {
    "name": "한천초등학교 운동장",
    "address": "충청북도 진천군 덕산면 용몽리 518-3",
    "lat": "36.906678648702616",
    "lng": "127.50777122782814",
    "region": "충청북도"
  },
  {
    "name": "황전초등학교 운동장",
    "address": "전라남도 순천시 황전면 수평리 309-1",
    "lat": "35.09988773551629",
    "lng": "127.43021488747996",
    "region": "전라남도"
  },
  {
    "name": "순천별량중학교 운동장",
    "address": "전라남도 순천시 별량면 동송리 400",
    "lat": "34.866261484111206",
    "lng": "127.45255861050637",
    "region": "전라남도"
  },
  {
    "name": "신현북초등학교 운동장",
    "address": "인천광역시 서구 신현동 85-1",
    "lat": "37.51842923604968",
    "lng": "126.66625027723263",
    "region": "인천광역시"
  },
  {
    "name": "진남초등학교",
    "address": "경상남도 통영시 미수동 269",
    "lat": "34.83236299143513",
    "lng": "128.40927247226975",
    "region": "경상남도"
  },
  {
    "name": "지정공설운동장",
    "address": "경상남도 의령군 지정면 봉곡리 516",
    "lat": "35.380020824926454",
    "lng": "128.3933034539223",
    "region": "경상남도"
  },
  {
    "name": "강구면 하저문화 마을 뒤 공터(하저지구)",
    "address": "경상북도 영덕군 강구면 하저리 453",
    "lat": "36.38955075449945",
    "lng": "129.40523685976314",
    "region": "경상북도"
  },
  {
    "name": "미조공설운동장",
    "address": "경상남도 남해군 미조면 송정리 651",
    "lat": "34.7277",
    "lng": "128.0273",
    "region": "경상남도"
  },
  {
    "name": "천안축구센터(잔디구장)",
    "address": "충청남도 천안시 서북구 성정동 354",
    "lat": "36.82180144733541",
    "lng": "127.14679308012379",
    "region": "충청남도"
  },
  {
    "name": "고성동중학교 운동장",
    "address": "경상남도 고성군 거류면 당동리 235",
    "lat": "34.98720436172251",
    "lng": "128.40106304193193",
    "region": "경상남도"
  },
  {
    "name": "남해초등학교 실외운동장",
    "address": "경상남도 남해군 남해읍 북변리 141-3",
    "lat": "34.83894598874945",
    "lng": "127.89249843949008",
    "region": "경상남도"
  },
  {
    "name": "생극초등학교 운동장",
    "address": "충청북도 음성군 생극면 신양리 451-1",
    "lat": "37.03363188041537",
    "lng": "127.60474503078765",
    "region": "충청북도"
  },
  {
    "name": "상운초등학교",
    "address": "경상북도 봉화군 상운면 가곡리 419-3",
    "lat": "36.83001247729191",
    "lng": "128.75385621192765",
    "region": "경상북도"
  },
  {
    "name": "계남초등학교 운동장",
    "address": "전북특별자치도 장수군 계남면 화음리 948-1",
    "lat": "35.701825071198535",
    "lng": "127.57882005893751",
    "region": "전북특별자치도"
  },
  {
    "name": "미로중학교 운동장",
    "address": "강원특별자치도 삼척시 미로면 하거노리 449",
    "lat": "37.41093619471705",
    "lng": "129.10456359386956",
    "region": "강원특별자치도"
  },
  {
    "name": "수양초등학교 운동장",
    "address": "경상남도 사천시 사천읍 평화리 184-5",
    "lat": "35.07907840936106",
    "lng": "128.0900314450264",
    "region": "경상남도"
  },
  {
    "name": "삼성초등학교 운동장",
    "address": "경상남도 사천시 사남면 죽천리 6-2",
    "lat": "35.05424388028708",
    "lng": "128.07468175821091",
    "region": "경상남도"
  },
  {
    "name": "구례북초등학교 운동장",
    "address": "전라남도 구례군 구례읍 봉동리 489",
    "lat": "35.20998411200751",
    "lng": "127.46037715257826",
    "region": "전라남도"
  },
  {
    "name": "임학공원",
    "address": "인천광역시 계양구 임학동 58",
    "lat": "37.548383",
    "lng": "126.732900",
    "region": "인천광역시"
  },
  {
    "name": "중동초등학교 운동장",
    "address": "전라남도 구례군 산동면 관산리 631",
    "lat": "35.318716229501234",
    "lng": "127.46519528009394",
    "region": "전라남도"
  },
  {
    "name": "개나리공원",
    "address": "인천광역시 계양구 계산동 1067-1",
    "lat": "37.53848238820624",
    "lng": "126.73264001967271",
    "region": "인천광역시"
  },
  {
    "name": "구례북중학교 운동장",
    "address": "전라남도 구례군 용방면 신지리 802",
    "lat": "35.25806373141581",
    "lng": "127.43867136974256",
    "region": "전라남도"
  },
  {
    "name": "동양택지2공원",
    "address": "인천광역시 계양구 동양동 582-1",
    "lat": "37.5587111372164",
    "lng": "126.7582812797352",
    "region": "인천광역시"
  },
  {
    "name": "마로초등학교 운동장",
    "address": "전라남도 광양시 광양읍 용강리 342",
    "lat": "34.967727137577235",
    "lng": "127.61225102270684",
    "region": "전라남도"
  },
  {
    "name": "동양중학교 운동장",
    "address": "인천광역시 계양구 동양동 587",
    "lat": "37.56225106370221",
    "lng": "126.76083708523294",
    "region": "인천광역시"
  },
  {
    "name": "부평초등학교 운동��",
    "address": "인천광역시 계양구 계산동 943",
    "lat": "37.541964757002816",
    "lng": "126.72405819390055",
    "region": "인천광역시"
  },
  {
    "name": "항만물류고등학교 운동장",
    "address": "전라남도 광양시 진상면 섬거리 557-38",
    "lat": "35.01749122641479",
    "lng": "127.71751370847724",
    "region": "전라남도"
  },
  {
    "name": "안남고등학교 운동장",
    "address": "인천광역시 계양구 작전동 392-10",
    "lat": "37.52490801507136",
    "lng": "126.72681441946894",
    "region": "인천광역시"
  },
  {
    "name": "안남초등학교 운동장",
    "address": "인천광역시 계양구 계산동 34-2",
    "lat": "37.54067766758208",
    "lng": "126.73243009780408",
    "region": "인천광역시"
  },
  {
    "name": "양촌중학교 운동장",
    "address": "인천광역시 계양구 병방동 12",
    "lat": "37.55007970875248",
    "lng": "126.74502128093945",
    "region": "인천광역시"
  },
  {
    "name": "백초초등학교 운동장",
    "address": "전라남도 여수시 돌산읍 우두리 712",
    "lat": "34.72936368207924",
    "lng": "127.74415243557134",
    "region": "전라남도"
  },
  {
    "name": "여양고등학교 운동장",
    "address": "전라남도 여수시 소라면 덕양리 761",
    "lat": "34.78936271299324",
    "lng": "127.63228297233582",
    "region": "전라남도"
  },
  {
    "name": "여남중/고학교 운동장",
    "address": "전라남도 여수시 남면 우학리 181",
    "lat": "34.51208499491342",
    "lng": "127.76770724658556",
    "region": "전라남도"
  },
  {
    "name": "신흥초등학교 운동장",
    "address": "대전광역시 동구 신흥동 150-3",
    "lat": "36.32542300426799",
    "lng": "127.43998732522597",
    "region": "대전광역시"
  },
  {
    "name": "태인동사무소 주차장",
    "address": "전라남도 광양시 태인동 398",
    "lat": "34.94325400031258",
    "lng": "127.74952689120217",
    "region": "전라남도"
  },
  {
    "name": "관산초등학교 운동장",
    "address": "전라남도 장흥군 관산읍 옥당리 405",
    "lat": "34.56104454438748",
    "lng": "126.94002551872515",
    "region": "전라남도"
  },
  {
    "name": "국민체육센터 종합운동장",
    "address": "전라남도 강진군 군동면 호계리 1076",
    "lat": "34.64683829542115",
    "lng": "126.78185095992035",
    "region": "전라남도"
  },
  {
    "name": "마산초등학교운동장",
    "address": "전라남도 해남군 마산면 화내리 678-1",
    "lat": "34.6185458277663",
    "lng": "126.572802648912",
    "region": "전라남도"
  },
  {
    "name": "소천초등학교",
    "address": "경상북도 봉화군 소천면 현동리 651",
    "lat": "36.93799267875908",
    "lng": "129.00226367900092",
    "region": "경상북도"
  },
  {
    "name": "호산초등학교 운동장",
    "address": "강원특별자치도 삼척시 원덕읍 호산리 347",
    "lat": "37.17796493125509",
    "lng": "129.33464562889424",
    "region": "강원특별자치도"
  },
  {
    "name": "나주중앙초등학교 운동장",
    "address": "전라남도 나주시 성북동 13",
    "lat": "35.03834096398703",
    "lng": "126.71940788386384",
    "region": "전라남도"
  },
  {
    "name": "학마을공원",
    "address": "인천광역시 계양구 병방동 432-4",
    "lat": "37.54410483638647",
    "lng": "126.74172631218329",
    "region": "인천광역시"
  },
  {
    "name": "덕례초등학교 운동장",
    "address": "전라남도 광양시 광양읍 덕례리 448",
    "lat": "34.968621053147324",
    "lng": "127.5706296249622",
    "region": "전라남도"
  },
  {
    "name": "옥곡중학교 운동장",
    "address": "전라남도 광양시 옥곡면 묵백리 74-1",
    "lat": "34.99479219888229",
    "lng": "127.7012842707833",
    "region": "전라남도"
  },
  {
    "name": "진상초등학교 운동장",
    "address": "전라남도 광양시 진상면 섬거리 553-1",
    "lat": "35.019862589567865",
    "lng": "127.71598014907576",
    "region": "전라남도"
  },
  {
    "name": "신대초등학교 운동장",
    "address": "인천광역시 계양구 용종동 228-4",
    "lat": "37.53886168855835",
    "lng": "126.7434787810172",
    "region": "인천광역시"
  },
  {
    "name": "안남중학교 운동장",
    "address": "인천광역시 계양구 계산동 58-1",
    "lat": "37.538882",
    "lng": "126.730969",
    "region": "인천광역시"
  },
  {
    "name": "궁류봉황대 공설운동장",
    "address": "경상남도 의령군 궁류면 평촌리 7",
    "lat": "35.4388112775197",
    "lng": "128.24267864227295",
    "region": "경상남도"
  },
  {
    "name": "동신중학교 운동장",
    "address": "대전광역시 동구 판암동 241",
    "lat": "36.32054935407604",
    "lng": "127.45907298989798",
    "region": "대전광역시"
  },
  {
    "name": "대의초등학교 운동장",
    "address": "경상남도 의령군 대의면 마쌍리 439-1",
    "lat": "35.37093380699422",
    "lng": "128.10880959033963",
    "region": "경상남도"
  },
  {
    "name": "정곡초등학교 운동장",
    "address": "경상남도 의령군 정곡면 중교리 428-1",
    "lat": "35.3792663461475",
    "lng": "128.32476496696478",
    "region": "경상남도"
  },
  {
    "name": "강남정공원",
    "address": "전라남도 여수시 돌산읍 우두리 1117-2",
    "lat": "34.716583253367226",
    "lng": "127.74924197215462",
    "region": "전라남도"
  },
  {
    "name": "군위국민체육센터",
    "address": "대구광역시 군위군 군위읍 동부리 155",
    "lat": "36.23714062302239",
    "lng": "128.57434771348966",
    "region": "대구광역시"
  },
  {
    "name": "법수초등학교 운동장",
    "address": "경상남도 함안군 법수면 윤외리 200",
    "lat": "35.3174530221193",
    "lng": "128.38001173570564",
    "region": "경상남도"
  },
  {
    "name": "칠원고등학교 운동장",
    "address": "경상남도 함안군 칠서면 무릉리 908",
    "lat": "35.31770712387672",
    "lng": "128.50737930733274",
    "region": "경상남도"
  },
  {
    "name": "용천초등학교 운동장",
    "address": "충청북도 음성군 금왕읍 무극리 50",
    "lat": "36.991070587119026",
    "lng": "127.5920213226429",
    "region": "충청북도"
  },
  {
    "name": "보령시청 테니스장 앞 공터",
    "address": "충청남도 보령시 명천동 269-4",
    "lat": "36.33473385257776",
    "lng": "126.611858010292",
    "region": "충청남도"
  },
  {
    "name": "영오초등학교 운동장",
    "address": "경상남도 고성군 영오면 영대리 519",
    "lat": "35.105582897047626",
    "lng": "128.2166419376385",
    "region": "경상남도"
  },
  {
    "name": "동해중학교 운동장",
    "address": "경상남도 고성군 동해면 양촌리 814",
    "lat": "35.046023766119845",
    "lng": "128.44742917231395",
    "region": "경상남도"
  },
  {
    "name": "동광초등학교 운동장",
    "address": "경상남도 고성군 거류면 감서리 2",
    "lat": "35.008551746421716",
    "lng": "128.39990896392516",
    "region": "경상남도"
  },
  {
    "name": "산수초등학교  운동장",
    "address": "광주광역시 동구 산수동 552-18",
    "lat": "35.155974838507134",
    "lng": "126.92824544978987",
    "region": "광주광역시"
  },
  {
    "name": "동계초등학교 운동장",
    "address": "전북특별자치도 순창군 동계면 현포리 568",
    "lat": "35.44020766580086",
    "lng": "127.24058926106025",
    "region": "전북특별자치도"
  },
  {
    "name": "서생체육공원",
    "address": "울산광역시 울주군 서생면 신암리 685-2",
    "lat": "35.34930893333199",
    "lng": "129.31933879853128",
    "region": "울산광역시"
  },
  {
    "name": "미조초등학교 실외운동장",
    "address": "경상남도 남해군 미조면 미조리 465-1",
    "lat": "34.71515275570944",
    "lng": "128.0415032331792",
    "region": "경상남도"
  },
  {
    "name": "남해공설운동장",
    "address": "경상남도 남해군 남해읍 서변리 212",
    "lat": "34.83413004085335",
    "lng": "127.89162758256356",
    "region": "경상남도"
  },
  {
    "name": "어울림체육관 주차장",
    "address": "전라남도 광양시 금호동 817",
    "lat": "34.940203512356845",
    "lng": "127.72203191933781",
    "region": "전라남도"
  },
  {
    "name": "시전초등학교 운동장",
    "address": "전라남도 여수시 신기동 136",
    "lat": "34.756762995409765",
    "lng": "127.67196156824548",
    "region": "전라남도"
  },
  {
    "name": "계룡디지텍고등학교 운동장",
    "address": "대전광역시 동구 삼성동 104-1",
    "lat": "36.33663579058983",
    "lng": "127.43412544906715",
    "region": "대전광역시"
  },
  {
    "name": "여천초등학교 운동장",
    "address": "전라남도 여수시 주삼동 793",
    "lat": "34.7881778808755",
    "lng": "127.65524076112354",
    "region": "전라남도"
  },
  {
    "name": "대전송촌중학교  운동장",
    "address": "대전광역시 대덕구 송촌동 495-10",
    "lat": "36.36400404540332",
    "lng": "127.44327095515524",
    "region": "대전광역시"
  },
  {
    "name": "하이초등학교 운동장",
    "address": "경상남도 고성군 하이면 덕호리 528-1",
    "lat": "34.929203311920325",
    "lng": "128.12172000645478",
    "region": "경상남도"
  },
  {
    "name": "상리면 어울림문화센터(구.상리중학교)",
    "address": "경상남도 고성군 상리면 척번정리 424-1",
    "lat": "34.99974772800015",
    "lng": "128.1880070463393",
    "region": "경상남도"
  },
  {
    "name": "다시초등학교 운동장",
    "address": "전라남도 나주시 다시면 월태리 521",
    "lat": "35.01762606159569",
    "lng": "126.63998428834988",
    "region": "전라남도"
  },
  {
    "name": "부산여자상업고등학교 운동장",
    "address": "부산광역시 수영구 망미동 979-15",
    "lat": "35.16944082045621",
    "lng": "129.09651696682144",
    "region": "부산광역시"
  },
  {
    "name": "남명초등학교 실외운동장",
    "address": "경상남도 남해군 남면 당항리 1410",
    "lat": "34.7723330133245",
    "lng": "127.88972284008229",
    "region": "경상남도"
  },
  {
    "name": "창선초등학교 실외운동장",
    "address": "경상남도 남해군 창선면 상죽리 265",
    "lat": "34.85832577553359",
    "lng": "128.01045525622968",
    "region": "경상남도"
  },
  {
    "name": "삼산초등학교운동장",
    "address": "전라남도 해남군 삼산면 충리 97-4",
    "lat": "34.51501291769728",
    "lng": "126.60778011422029",
    "region": "전라남도"
  },
  {
    "name": "산이초등학교운동장",
    "address": "전라남도 해남군 산이면 초송리 593",
    "lat": "34.6434042403301",
    "lng": "126.44687228544592",
    "region": "전라남도"
  },
  {
    "name": "춘양초등학교",
    "address": "경상북도 봉화군 춘양면 의양리 341",
    "lat": "36.93950299749525",
    "lng": "128.91505693736704",
    "region": "경상북도"
  },
  {
    "name": "덕산중학교 운동장",
    "address": "충청북도 진천군 덕산읍 용몽리 566-1",
    "lat": "36.90729246292604",
    "lng": "127.5104033946991",
    "region": "충청북도"
  },
  {
    "name": "구즉초등학교 운동장",
    "address": "대전광역시 유성구 봉산동 796-16",
    "lat": "36.44062336975581",
    "lng": "127.3826883869238",
    "region": "대전광역시"
  },
  {
    "name": "봉황초등학교 운동장",
    "address": "전라남도 나주시 봉황면 죽석리 771",
    "lat": "34.95719838112732",
    "lng": "126.78864212809593",
    "region": "전라남도"
  },
  {
    "name": "사천중학교 운동장",
    "address": "경상남도 사천시 사천읍 선인리 186-7",
    "lat": "35.08045706867731",
    "lng": "128.0979233117228",
    "region": "경상남도"
  },
  {
    "name": "정동초등학교 운동장",
    "address": "경상남도 사천시 정동면 대곡리 290",
    "lat": "35.05741126531042",
    "lng": "128.1240959226732",
    "region": "경상남도"
  },
  {
    "name": "빛누리초등학교 운동장",
    "address": "전라남도 나주시 빛가람동 25",
    "lat": "35.02986458904366",
    "lng": "126.78563833236696",
    "region": "전라남도"
  },
  {
    "name": "고향골공원",
    "address": "인천광역시 계양구 계산동 982",
    "lat": "37.54059406832261",
    "lng": "126.71954434159868",
    "region": "인천광역시"
  },
  {
    "name": "한려초등학교",
    "address": "경상남도 통영시 도남동 483-1",
    "lat": "34.827502285077216",
    "lng": "128.42165909147238",
    "region": "경상남도"
  },
  {
    "name": "안골공원",
    "address": "인천광역시 계양구 귤현동 486-7",
    "lat": "37.569773413756394",
    "lng": "126.74666905468594",
    "region": "인천광역시"
  },
  {
    "name": "계산고등학교 운동장",
    "address": "인천광역시 계양구 계산동 907",
    "lat": "37.54695983565998",
    "lng": "126.72970987360682",
    "region": "인천광역시"
  },
  {
    "name": "길주초등학교 운동장",
    "address": "인천광역시 계양구 용종동 227-1",
    "lat": "37.54169623874511",
    "lng": "126.7426656636139",
    "region": "인천광역시"
  },
  {
    "name": "옥룡북초등학교 운동장",
    "address": "전라남도 광양시 옥룡면 죽천리 677",
    "lat": "35.04134924222232",
    "lng": "127.61670535063544",
    "region": "전라남도"
  },
  {
    "name": "옥곡초등학교 운동장",
    "address": "전라남도 광양시 옥곡면 원월리 9",
    "lat": "34.990917244169765",
    "lng": "127.69549234073637",
    "region": "전라남도"
  },
  {
    "name": "부현동초등학교 운동장",
    "address": "인천광역시 계양구 계산동 1084-4",
    "lat": "37.534381474891276",
    "lng": "126.74059112592185",
    "region": "인천광역시"
  },
  {
    "name": "양촌초등학교 운동장",
    "address": "인천광역시 계양구 병방동 3",
    "lat": "37.550656039534054",
    "lng": "126.74409587926097",
    "region": "인천광역시"
  },
  {
    "name": "화전초등학교 운동장",
    "address": "인천광역시 계양구 작전동 140-4",
    "lat": "37.52855977191079",
    "lng": "126.73098754439096",
    "region": "인천광역시"
  },
  {
    "name": "화태초등학교 운동장",
    "address": "전라남도 여수시 남면 화태리 313",
    "lat": "34.585009605431225",
    "lng": "127.73500850157133",
    "region": "전라남도"
  },
  {
    "name": "용운초등학교 운동장",
    "address": "대전광역시 동구 용운동 303",
    "lat": "36.3265788993448",
    "lng": "127.46394124737428",
    "region": "대전광역시"
  },
  {
    "name": "삼성초등학교 운동장",
    "address": "대전광역시 동구 삼성동 113-1",
    "lat": "36.33700776796788",
    "lng": "127.42912394225188",
    "region": "대전광역시"
  },
  {
    "name": "여수북초등학교 운동장",
    "address": "전라남도 여수시 만흥동 313-1",
    "lat": "34.77754045206271",
    "lng": "127.74285169549677",
    "region": "전라남도"
  },
  {
    "name": "의령공설운동장",
    "address": "경상남도 의령군 의령읍 동동리 822-1",
    "lat": "35.31596343618963",
    "lng": "128.2670331001282",
    "region": "경상남도"
  },
  {
    "name": "고서초등학교 운동장",
    "address": "전라남도 담양군 고서면 동운리 591-2",
    "lat": "35.22439055816123",
    "lng": "126.97390857847513",
    "region": "전라남도"
  },
  {
    "name": "창평초등학교 운동장",
    "address": "전라남도 담양군 창평면 창평리 39-1",
    "lat": "35.24048741023854",
    "lng": "127.01873165131062",
    "region": "전라남도"
  },
  {
    "name": "탄방초등학교운동장",
    "address": "대전광역시 서구 탄방동 814",
    "lat": "36.34528780121922",
    "lng": "127.39089746237708",
    "region": "대전광역시"
  },
  {
    "name": "무등중학교  운동장",
    "address": "광주광역시 동구 소태동 625",
    "lat": "35.12453759488039",
    "lng": "126.93354070186615",
    "region": "광주광역시"
  },
  {
    "name": "명진초등학교운동장",
    "address": "부산광역시 북구 화명동 2261",
    "lat": "35.23846747098813",
    "lng": "129.0106560492177",
    "region": "부산광역시"
  },
  {
    "name": "보림초등학교운동장",
    "address": "부산광역시 사하구 장림동 1137",
    "lat": "35.083885343075124",
    "lng": "128.96760463714307",
    "region": "부산광역시"
  },
  {
    "name": "구정초등학교 운동장",
    "address": "충청북도 진천군 초평면 용산리 236-1",
    "lat": "36.780942612098556",
    "lng": "127.53519021111381",
    "region": "충청북도"
  },
  {
    "name": "서남초등학교 운동장",
    "address": "충청남도 서천군 마서면 봉남리 255",
    "lat": "36.05840120426258",
    "lng": "126.67981411993313",
    "region": "충청남도"
  },
  {
    "name": "산양중학교",
    "address": "경상남도 통영시 산양읍 남평리 862-1",
    "lat": "34.80229124763912",
    "lng": "128.3925963568287",
    "region": "경상남도"
  },
  {
    "name": "계양초등학교 상야분교 운동장",
    "address": "인천광역시 계양구 상야동 130-1",
    "lat": "37.57908863229868",
    "lng": "126.77993440030282",
    "region": "인천광역시"
  },
  {
    "name": "부현초등학교 운동장",
    "address": "인천광역시 계양구 계산동 65-4",
    "lat": "37.536140001525226",
    "lng": "126.73147715859359",
    "region": "인천광역시"
  },
  {
    "name": "해서초등학교 운동장",
    "address": "인천광역시 계양구 계산동 783-5",
    "lat": "37.5399765303446",
    "lng": "126.71770962156998",
    "region": "인천광역시"
  },
  {
    "name": "효성서초등학교 운동장",
    "address": "인천광역시 계양구 효성동 623-26",
    "lat": "37.52830431865088",
    "lng": "126.69891787630813",
    "region": "인천광역시"
  },
  {
    "name": "마동근린체육공원",
    "address": "전라남도 광양시 마동 1062",
    "lat": "34.95354111272905",
    "lng": "127.69278351668723",
    "region": "전라남도"
  },
  {
    "name": "한밭중학교 운동장",
    "address": "대전광역시 동구 삼성동 282-1",
    "lat": "36.33533710039332",
    "lng": "127.42632090613648",
    "region": "대전광역시"
  },
  {
    "name": "보문고등학교 운동장",
    "address": "대전광역시 동구 삼성동 283-58",
    "lat": "36.336505159347055",
    "lng": "127.42406074017129",
    "region": "대전광역시"
  },
  {
    "name": "무선초등학교 운동장",
    "address": "전라남도 여수시 화장동 776",
    "lat": "34.77220447559928",
    "lng": "127.64553044341818",
    "region": "전라남도"
  },
  {
    "name": "여도초등학교 운동장",
    "address": "전라남도 여수시 봉계동 37",
    "lat": "34.7850051508335",
    "lng": "127.6944042296117",
    "region": "전라남도"
  },
  {
    "name": "궁류초등학교 운동장",
    "address": "경상남도 의령군 궁류면 토곡리 482-2",
    "lat": "35.44789283101453",
    "lng": "128.2464766502381",
    "region": "경상남도"
  },
  {
    "name": "구)산성초등학교 (폐교)",
    "address": "대구광역시 군위군 산성면 화본리 868-2",
    "lat": "36.123914789442544",
    "lng": "128.69528532028238",
    "region": "대구광역시"
  },
  {
    "name": "군위고등학교 운동장",
    "address": "대구광역시 군위군 군위읍 정리 292-1",
    "lat": "36.24541756650132",
    "lng": "128.57035531516223",
    "region": "대구광역시"
  },
  {
    "name": "설성공원",
    "address": "충청북도 음성군 음성읍 읍내리 446-1",
    "lat": "36.93241457420551",
    "lng": "127.6909802970027",
    "region": "충청북도"
  },
  {
    "name": "남신초등학교 운동장",
    "address": "충청북도 음성군 음성읍 읍내리 757-6",
    "lat": "36.932725523256224",
    "lng": "127.68423166472135",
    "region": "충청북도"
  },
  {
    "name": "오선초등학교 운동장",
    "address": "충청북도 음성군 금왕읍 오선리 206",
    "lat": "36.97875449375904",
    "lng": "127.56636025688505",
    "region": "충청북도"
  },
  {
    "name": "무극초등학교 운동장",
    "address": "충청북도 음성군 금왕읍 무극리 86",
    "lat": "36.991267551297184",
    "lng": "127.59889155809408",
    "region": "충청북도"
  },
  {
    "name": "동성초등학교 운동장",
    "address": "충청북도 음성군 맹동면 동성리 452",
    "lat": "36.912834454348626",
    "lng": "127.54370431486629",
    "region": "충청북도"
  },
  {
    "name": "무극중학교 운동장",
    "address": "충청북도 음성군 금왕읍 무극리 23-2",
    "lat": "36.98882579174074",
    "lng": "127.59180670551282",
    "region": "충청북도"
  },
  {
    "name": "매괴고등학교 운동장",
    "address": "충청북도 음성군 감곡면 왕장리 498-1",
    "lat": "37.120614177372715",
    "lng": "127.64055239926013",
    "region": "충청북도"
  },
  {
    "name": "종합운동장",
    "address": "경상남도 고성군 고성읍 기월리 88",
    "lat": "34.98055958451566",
    "lng": "128.3111876249314",
    "region": "경상남도"
  },
  {
    "name": "철성고등학교 운동장",
    "address": "경상남도 고성군 고성읍 기월리 143-6",
    "lat": "34.983342070904534",
    "lng": "128.31984105992936",
    "region": "경상남도"
  },
  {
    "name": "동해면민운동장",
    "address": "경상북도 포항시 남구 동해면 약전리 370-1",
    "lat": "35.99021228872115",
    "lng": "129.4496680061048",
    "region": "경상북도"
  },
  {
    "name": "가수원초등학교운동장",
    "address": "대전광역시 서구 가수원동 471",
    "lat": "36.30251647462362",
    "lng": "127.35339842092017",
    "region": "대전광역시"
  },
  {
    "name": "개천초등학교 운동장",
    "address": "경상남도 고성군 개천면 명성리 632",
    "lat": "35.09831380020202",
    "lng": "128.26011024987832",
    "region": "경상남도"
  },
  {
    "name": "회화초등학교 운동장",
    "address": "경상남도 고성군 회화면 배둔리 347-11",
    "lat": "35.061783201763305",
    "lng": "128.37367629399935",
    "region": "경상남도"
  },
  {
    "name": "거류초등학교 운동장",
    "address": "경상남도 고성군 거류면 당동리 66",
    "lat": "34.99344800676378",
    "lng": "128.40438033212575",
    "region": "경상남도"
  },
  {
    "name": "해양초등학교 실외운동장",
    "address": "경상남도 남해군 남해읍 남변리 461-3",
    "lat": "34.83418733614827",
    "lng": "127.89608332516771",
    "region": "경상남도"
  },
  {
    "name": "대구초등학교 운동장",
    "address": "전라남도 강진군 대구면 수동리 785",
    "lat": "34.49216565648561",
    "lng": "126.79876239524363",
    "region": "전라남도"
  },
  {
    "name": "성전초등학교 운동장",
    "address": "전라남도 강진군 성전면 월평리 102",
    "lat": "34.69342661472366",
    "lng": "126.70740978592691",
    "region": "전라남도"
  },
  {
    "name": "한산초등학교 운동장",
    "address": "충청남도 서천군 한산면 지현리 182-1",
    "lat": "36.085965210128265",
    "lng": "126.80487513542401",
    "region": "충청남도"
  },
  {
    "name": "마산초등학교 운동장",
    "address": "충청남도 서천군 마산면 마명리 353",
    "lat": "36.12065387756774",
    "lng": "126.79517502005943",
    "region": "충청남도"
  },
  {
    "name": "발산초등학교 운동장",
    "address": "인천광역시 서구 당하동 1038-1",
    "lat": "37.590201979700986",
    "lng": "126.6989287842861",
    "region": "인천광역시"
  },
  {
    "name": "스포츠파크체육관 운동장",
    "address": "전라남도 나주시 송월동 1539",
    "lat": "35.01164123419676",
    "lng": "126.71928398299627",
    "region": "전라남도"
  },
  {
    "name": "나주시민회관 주차장",
    "address": "전라남도 나주시 남내동 27-1",
    "lat": "35.03145911255764",
    "lng": "126.72191709280008",
    "region": "전라남도"
  },
  {
    "name": "삼천포종합운동장",
    "address": "경상남도 사천시 벌리동 2",
    "lat": "34.94226302207957",
    "lng": "128.0888485908508",
    "region": "경상남도"
  },
  {
    "name": "청천초등학교 운동장",
    "address": "전라남도 구례군 마산면 마산리 498-3",
    "lat": "35.22157718391601",
    "lng": "127.48715814969732",
    "region": "전라남도"
  },
  {
    "name": "예일중학교 운동장",
    "address": "인천광역시 계양구 방축동 27-8",
    "lat": "37.55454659371364",
    "lng": "126.7406287868978",
    "region": "인천광역시"
  },
  {
    "name": "작전여자고등학교 운동장",
    "address": "인천광역시 계양구 작전동 92",
    "lat": "37.53204167319483",
    "lng": "126.73005905470728",
    "region": "인천광역시"
  },
  {
    "name": "진월초등학교 운동장",
    "address": "전라남도 광양시 진월면 선소리 226",
    "lat": "34.97804347088493",
    "lng": "127.75973322695164",
    "region": "전라남도"
  },
  {
    "name": "함양고등학교 운동장",
    "address": "경상남도 함양군 함양읍 백연리 253",
    "lat": "35.514251438269774",
    "lng": "127.72172927856447",
    "region": "경상남도"
  },
  {
    "name": "구정초등학교 운동장",
    "address": "경상북도 포항시 남구 오천읍 구정리 441-1",
    "lat": "35.98060760453794",
    "lng": "129.4086227464105",
    "region": "경상북도"
  },
  {
    "name": "해도근린공원",
    "address": "경상북도 포항시 남구 해도동 201",
    "lat": "36.01100512702996",
    "lng": "129.36899079998346",
    "region": "경상북도"
  },
  {
    "name": "소하초등학교 운동장",
    "address": "경기도 광명시 소하동 1328",
    "lat": "37.4487717011785",
    "lng": "126.8873779939505",
    "region": "경기도"
  },
  {
    "name": "명덕초등학교 운동장",
    "address": "충청북도 괴산군 괴산읍 서부리 335",
    "lat": "36.80925082060943",
    "lng": "127.78683741011088",
    "region": "충청북도"
  },
  {
    "name": "수정초등학교 운동장",
    "address": "충청북도 보은군 속리산면 사내리 181-1",
    "lat": "36.535839",
    "lng": "127.822021",
    "region": "충청북도"
  },
  {
    "name": "덕이중학교 운동장",
    "address": "경기도 고양시 일산서구 덕이동 산145-6",
    "lat": "37.70237488239169",
    "lng": "126.75343841228984",
    "region": "경기도"
  },
  {
    "name": "수한초등학교 운동장",
    "address": "충청북도 보은군 수한면 소계리 17-2",
    "lat": "36.458147",
    "lng": "127.701162",
    "region": "충청북도"
  },
  {
    "name": "산외초등학교 운동장",
    "address": "충청북도 보은군 산외면 구티리 52-2",
    "lat": "36.552283",
    "lng": "127.731882",
    "region": "충청북도"
  },
  {
    "name": "보은군보건소 주차장",
    "address": "충청북도 보은군 보은읍 삼산리 170-2",
    "lat": "36.486416",
    "lng": "127.716224",
    "region": "충청북도"
  },
  {
    "name": "예원초등학교 운동장",
    "address": "부산광역시 동래구 사직동 1018",
    "lat": "35.195707336944835",
    "lng": "129.0574690126257",
    "region": "부산광역시"
  },
  {
    "name": "신복공원(76호공원)",
    "address": "인천광역시 부평구 부평동 916",
    "lat": "37.50498927217111",
    "lng": "126.73200655281492",
    "region": "인천광역시"
  },
  {
    "name": "동암공원",
    "address": "인천광역시 부평구 십정동 518-4",
    "lat": "37.46983019292962",
    "lng": "126.70407117316194",
    "region": "인천광역시"
  },
  {
    "name": "달빛공원(갈산8공원)(구 대갈공원)",
    "address": "인천광역시 부평구 갈산동 398",
    "lat": "37.507703046270734",
    "lng": "126.73016821916714",
    "region": "인천광역시"
  },
  {
    "name": "나비공원",
    "address": "인천광역시 부평구 청천동 68-12",
    "lat": "37.520287",
    "lng": "126.692638",
    "region": "인천광역시"
  },
  {
    "name": "학산여자중학교 운동장",
    "address": "부산광역시 동래구 명장동 585-13",
    "lat": "35.20504925188165",
    "lng": "129.09627556801007",
    "region": "부산광역시"
  },
  {
    "name": "용인고등학교 운동장",
    "address": "부산광역시 동래구 명장동 562-3",
    "lat": "35.21435020713268",
    "lng": "129.09442041295029",
    "region": "부산광역시"
  },
  {
    "name": "괴산종합운동장",
    "address": "충청북도 괴산군 괴산읍 서부리 177",
    "lat": "36.81167417545534",
    "lng": "127.78688862935287",
    "region": "충청북도"
  },
  {
    "name": "대남초등학교 운동장",
    "address": "부산광역시 남구 대연동 238-38",
    "lat": "35.14857357413818",
    "lng": "129.09735918045033",
    "region": "부산광역시"
  },
  {
    "name": "괴산미니축구장",
    "address": "충청북도 괴산군 괴산읍 서부리 160",
    "lat": "36.813769492187106",
    "lng": "127.78703896928477",
    "region": "충청북도"
  },
  {
    "name": "경북대학교 부설중·고등학교 운동장",
    "address": "대구광역시 중구 대봉동 60-18",
    "lat": "35.86273181979754",
    "lng": "128.60229147009787",
    "region": "대구광역시"
  },
  {
    "name": "평화공원 및 수목전시원",
    "address": "부산광역시 남구 대연동 707",
    "lat": "35.126344337511796",
    "lng": "129.10024594698749",
    "region": "부산광역시"
  },
  {
    "name": "주차장(덕적)",
    "address": "인천광역시 옹진군 덕적면 북리 490-3",
    "lat": "37.263951024520075",
    "lng": "126.10289625979104",
    "region": "인천광역시"
  },
  {
    "name": "송정동초등학교 운동장",
    "address": "광주광역시 광산구 신촌동 1035",
    "lat": "35.14543293668625",
    "lng": "126.80510044097896",
    "region": "광주광역시"
  },
  {
    "name": "보문고등학교 운동장",
    "address": "광주광역시 광산구 운수동 308",
    "lat": "35.154249741370045",
    "lng": "126.77734618060818",
    "region": "광주광역시"
  },
  {
    "name": "박달초등학교 운동장",
    "address": "경기도 안양시 만안구 박달동 128-7",
    "lat": "37.40117676125929",
    "lng": "126.90267198172985",
    "region": "경기도"
  },
  {
    "name": "안양중앙초등학교 운동장",
    "address": "경기도 안양시 동안구 비산동 423",
    "lat": "37.395837966071596",
    "lng": "126.93818506756207",
    "region": "경기도"
  },
  {
    "name": "이리동중학교 운동장",
    "address": "전북특별자치도 익산시 동산동 1062",
    "lat": "35.93298081911631",
    "lng": "126.96932187709776",
    "region": "전북특별자치도"
  },
  {
    "name": "군장대학교 운동장",
    "address": "전북특별자치도 군산시 성산면 도암리 608-8",
    "lat": "36.00025001098949",
    "lng": "126.78393226909228",
    "region": "전북특별자치도"
  },
  {
    "name": "경기대학교 운동장",
    "address": "경기도 수원시 영통구 이의동 산94-6",
    "lat": "37.29991580591172",
    "lng": "127.03548638491833",
    "region": "경기도"
  },
  {
    "name": "당정초등학교 운동장",
    "address": "경기도 군포시 당정동 972-1",
    "lat": "37.34642704291848",
    "lng": "126.95471065217502",
    "region": "경기도"
  },
  {
    "name": "은대초등학교 운동장",
    "address": "경기도 연천군 전곡읍 은대리 710-19",
    "lat": "38.05223878136521",
    "lng": "127.06038128080554",
    "region": "경기도"
  },
  {
    "name": "전곡초등학교 운동장",
    "address": "경기도 연천군 전곡읍 전곡리 331-1",
    "lat": "38.027405260690784",
    "lng": "127.07183003425597",
    "region": "경기도"
  },
  {
    "name": "초성초등학교 운동장",
    "address": "경기도 연천군 청산면 초성리 223-1",
    "lat": "37.997817204176485",
    "lng": "127.07344335726187",
    "region": "경기도"
  },
  {
    "name": "백학중학교 운동장",
    "address": "경기도 연천군 백학면 두일리 532",
    "lat": "38.026581194592985",
    "lng": "126.90834403998979",
    "region": "경기도"
  },
  {
    "name": "건양고등학교 운동장",
    "address": "충청남도 논산시 양촌면 남산리 564",
    "lat": "36.14103290534454",
    "lng": "127.23419487476347",
    "region": "충청남도"
  },
  {
    "name": "가남초등학교 운동장",
    "address": "충청남도 청양군 비봉면 록평리 29",
    "lat": "36.51675001807217",
    "lng": "126.78833468469055",
    "region": "충청남도"
  },
  {
    "name": "청신여자중학교 운동장",
    "address": "충청남도 청양군 청양읍 벽천리 36",
    "lat": "36.441752062260285",
    "lng": "126.80002739565442",
    "region": "충청남도"
  },
  {
    "name": "오천초등학교 운동장",
    "address": "충청남도 보령시 오천면 소성리 665-1",
    "lat": "36.43829726189381",
    "lng": "126.52320955893776",
    "region": "충청남도"
  },
  {
    "name": "청보초등학교 운동장",
    "address": "충청남도 보령시 청라면 내현리 636",
    "lat": "36.38940728473003",
    "lng": "126.65621599007713",
    "region": "충청남도"
  },
  {
    "name": "주산초등학교 운동장",
    "address": "충청남도 보령시 주산면 금암리 570",
    "lat": "36.199524",
    "lng": "126.634348",
    "region": "충청남도"
  },
  {
    "name": "미산초,중학교 운동장",
    "address": "충청남도 보령시 미산면 도화담리 94",
    "lat": "36.288636319774945",
    "lng": "126.67697635295298",
    "region": "충청남도"
  },
  {
    "name": "대천여자중학교 운동장",
    "address": "충청남도 보령시 대천동 453-1",
    "lat": "36.354570341076034",
    "lng": "126.59340590848717",
    "region": "충청남도"
  },
  {
    "name": "당진초등학교운동장",
    "address": "충청남도 당진시 읍내동 213-1",
    "lat": "36.89212077807102",
    "lng": "126.6327994335488",
    "region": "충청남도"
  },
  {
    "name": "범어초등학교 운동장",
    "address": "경상남도 양산시 물금읍 범어리 718-3",
    "lat": "35.33136069885447",
    "lng": "129.00555892152647",
    "region": "경상남도"
  },
  {
    "name": "상북초등학교 운동장",
    "address": "경상남도 양산시 상북면 석계리 122",
    "lat": "35.416090",
    "lng": "129.060336",
    "region": "경상남도"
  },
  {
    "name": "주민쉼터 공원",
    "address": "경상남도 양산시 어곡동 8-7",
    "lat": "35.382343263142275",
    "lng": "129.02797847986355",
    "region": "경상남도"
  },
  {
    "name": "석산들어린이공원",
    "address": "경상남도 양산시 동면 석산리 1450-3",
    "lat": "35.318572",
    "lng": "129.023268",
    "region": "경상남도"
  },
  {
    "name": "아랫섬어린이공원",
    "address": "경상남도 양산시 삼호동 1012-6",
    "lat": "35.411043",
    "lng": "129.165948",
    "region": "경상남도"
  },
  {
    "name": "금암문화공원(은평뉴타운 제1호 문화공원)",
    "address": "서울특별시 은평구 진관동 26",
    "lat": "37.64432536552899",
    "lng": "126.91808160411276",
    "region": "서울특별시"
  },
  {
    "name": "청운초등학교 운동장",
    "address": "서울특별시 종로구 청운동 123",
    "lat": "37.5855554588032",
    "lng": "126.96971297264099",
    "region": "서울특별시"
  },
  {
    "name": "삼선초등학교 운동장",
    "address": "서울특별시 성북구 삼선동3가 30-4",
    "lat": "37.586204716255395",
    "lng": "127.01244570173375",
    "region": "서울특별시"
  },
  {
    "name": "도선어린이공원",
    "address": "서울특별시 성동구 홍익동 370",
    "lat": "37.56542001051311",
    "lng": "127.03155800700189",
    "region": "서울특별시"
  },
  {
    "name": "덕수고등학교 운동장",
    "address": "서울특별시 성동구 행당동 70-28",
    "lat": "37.555243220375296",
    "lng": "127.04225150347536",
    "region": "서울특별시"
  },
  {
    "name": "운곡초등학교 운동장",
    "address": "충청남도 청양군 운곡면 신대리 598",
    "lat": "36.52447184185376",
    "lng": "126.84609360191345",
    "region": "충청남도"
  },
  {
    "name": "정산중학교 운동장",
    "address": "충청남도 청양군 정산면 역촌리 564-4",
    "lat": "36.4119",
    "lng": "126.9563",
    "region": "충청남도"
  },
  {
    "name": "남포초등학교 운동장",
    "address": "충청남도 보령시 남포면 읍내리 360-1",
    "lat": "36.304666162804935",
    "lng": "126.60908997058863",
    "region": "충청남도"
  },
  {
    "name": "대천동대초등학교 운동장",
    "address": "충청남도 보령시 동대동 319-118",
    "lat": "36.35262370203957",
    "lng": "126.6141305558815",
    "region": "충청남도"
  },
  {
    "name": "면천초등학교운동장",
    "address": "충청남도 당진시 면천면 성상리 995-3",
    "lat": "36.817684562164956",
    "lng": "126.66284155383177",
    "region": "충청남도"
  },
  {
    "name": "원당초등학교운동장",
    "address": "충청남도 당진시 원당동 1171",
    "lat": "36.9020",
    "lng": "126.6389",
    "region": "충청남도"
  },
  {
    "name": "합도초등학교운동장",
    "address": "충청남도 당진시 합덕읍 운산리 685-1",
    "lat": "36.81038168877387",
    "lng": "126.75460586162623",
    "region": "충청남도"
  },
  {
    "name": "만리포중 ",
    "address": "충청남도 태안군 소원면 신덕리 631-2",
    "lat": "36.765188779355555",
    "lng": "126.1943721771227",
    "region": "충청남도"
  },
  {
    "name": "인지중학교 운동장",
    "address": "충청남도 서산시 인지면 야당리 545-10",
    "lat": "36.74967819860958",
    "lng": "126.42690072633133",
    "region": "충청남도"
  },
  {
    "name": "서일고등학교 운동장",
    "address": "충청남도 서산시 지곡면 화천리 908",
    "lat": "36.85906111823512",
    "lng": "126.43278398855686",
    "region": "충청남도"
  },
  {
    "name": "서동초등학교 운동장",
    "address": "충청남도 서산시 동문동 90",
    "lat": "36.783166218440336",
    "lng": "126.46759798315625",
    "region": "충청남도"
  },
  {
    "name": "구덕고등학교 운동장",
    "address": "부산광역시 사상구 학장동 180-9",
    "lat": "35.138518135944615",
    "lng": "128.9914709329617",
    "region": "부산광역시"
  },
  {
    "name": "천호공원광장",
    "address": "서울특별시 강동구 천호동 360",
    "lat": "37.544512719371",
    "lng": "127.12643726432245",
    "region": "서울특별시"
  },
  {
    "name": "신명초등학교 운동장",
    "address": "서울특별시 강동구 길동 42",
    "lat": "37.54115179374027",
    "lng": "127.14933751763591",
    "region": "서울특별시"
  },
  {
    "name": "서남초등학교 운동장",
    "address": "경상남도 양산시 물금읍 범어리 554",
    "lat": "35.32852654410507",
    "lng": "128.9991869649648",
    "region": "경상남도"
  },
  {
    "name": "물금고등학교 운동장",
    "address": "경상남도 양산시 물금읍 범어리 2673-11",
    "lat": "35.3356793599748",
    "lng": "129.0162032854584",
    "region": "경상남도"
  },
  {
    "name": "범어근린공원",
    "address": "경상남도 양산시 물금읍 범어리 556",
    "lat": "35.330011",
    "lng": "129.000229",
    "region": "경상남도"
  },
  {
    "name": "솔밭어린이공원",
    "address": "경상남도 양산시 명동 995-4",
    "lat": "35.396013",
    "lng": "129.165224",
    "region": "경상남도"
  },
  {
    "name": "삽량근린공원",
    "address": "경상남도 양산시 남부동 601-2",
    "lat": "35.332316",
    "lng": "129.030741",
    "region": "경상남도"
  },
  {
    "name": "평산어린이공원",
    "address": "경상남도 양산시 평산동 74-2",
    "lat": "35.383153",
    "lng": "129.152915",
    "region": "경상남도"
  },
  {
    "name": "평산음악공원",
    "address": "경상남도 양산시 평산동 105-5",
    "lat": "35.380731",
    "lng": "129.150796",
    "region": "경상남도"
  },
  {
    "name": "동영중학교 운동장",
    "address": "충청남도 청양군 남양면 구룡리 402-1",
    "lat": "36.40123091690175",
    "lng": "126.76643767366424",
    "region": "충청남도"
  },
  {
    "name": "유곡초등학교",
    "address": "충청남도 당진시 송산면 유곡리 219-2",
    "lat": "36.9601",
    "lng": "126.6944",
    "region": "충청남도"
  },
  {
    "name": "서령고등학교 운동장",
    "address": "충청남도 서산시 동문동 542",
    "lat": "36.79267867517012",
    "lng": "126.45952463150005",
    "region": "충청남도"
  },
  {
    "name": "오산초등학교 운동장",
    "address": "충청남도 서산시 오남동 305-6",
    "lat": "36.74550866374938",
    "lng": "126.48332483527614",
    "region": "충청남도"
  },
  {
    "name": "갈산초등���교 운동장",
    "address": "충청남도 홍성군 갈산면 상촌리 70",
    "lat": "36.6021186954612",
    "lng": "126.55521102249152",
    "region": "충청남도"
  },
  {
    "name": "황산초등학교 운동장",
    "address": "경상남도 양산시 물금읍 범어리 2677-2",
    "lat": "35.330972",
    "lng": "129.009224",
    "region": "경상남도"
  },
  {
    "name": "북정초등학교 운동장",
    "address": "경상남도 양산시 북정동 884-1",
    "lat": "35.360093",
    "lng": "129.041608",
    "region": "경상남도"
  },
  {
    "name": "성산어린이공원",
    "address": "경상남도 양산시 물금읍 범어리 2712-10",
    "lat": "35.32990506360861",
    "lng": "129.01697519602988",
    "region": "경상남도"
  },
  {
    "name": "군두바위어린이공원",
    "address": "경상남도 양산시 삼호동 872",
    "lat": "35.407537",
    "lng": "129.173746",
    "region": "경상남도"
  },
  {
    "name": "늘푸른어린이공원",
    "address": "서울특별시 용산구 원효로3가 1-139",
    "lat": "37.53483663982333",
    "lng": "126.95670225932406",
    "region": "서울특별시"
  },
  {
    "name": "청운중학교 운동장",
    "address": "서울특별시 종로구 청운동 89-142",
    "lat": "37.588807401137764",
    "lng": "126.97105675935747",
    "region": "서울특별시"
  },
  {
    "name": "매동초등학교 운동장",
    "address": "서울특별시 종로구 필운동 32",
    "lat": "37.57722625782195",
    "lng": "126.96689030355647",
    "region": "서울특별시"
  },
  {
    "name": "삼선중학교 운동장",
    "address": "서울특별시 성북구 동소문동4가 278-174",
    "lat": "37.5915134599658",
    "lng": "127.00852664490648",
    "region": "서울특별시"
  },
  {
    "name": "개운초등학교 운동장",
    "address": "서울특별시 성북구 돈암동 2-8",
    "lat": "37.6017907048256",
    "lng": "127.02792690760084",
    "region": "서울특별시"
  },
  {
    "name": "덕성여자고등학교 운동장",
    "address": "서울특별시 종로구 안국동 37-1",
    "lat": "37.5779755437277",
    "lng": "126.98272705078125",
    "region": "서울특별시"
  },
  {
    "name": "오류고등학교운동장",
    "address": "서울특별시 구로구 궁동 110-1",
    "lat": "37.50010521023846",
    "lng": "126.82745167047929",
    "region": "서울특별시"
  },
  {
    "name": "신양초등학교 운동장",
    "address": "서울특별시 광진구 자양동 504",
    "lat": "37.53449933150623",
    "lng": "127.0693236832629",
    "region": "서울특별시"
  },
  {
    "name": "화양초등학교 운동장",
    "address": "서울특별시 광진구 화양동 12-2",
    "lat": "37.54414570317971",
    "lng": "127.07124002501962",
    "region": "서울특별시"
  },
  {
    "name": "동의초등학교 운동장 ",
    "address": "서울특별시 광진구 구의동 4-5",
    "lat": "37.55350496621561",
    "lng": "127.09846542719518",
    "region": "서울특별시"
  },
  {
    "name": "중마초등학교 운동장",
    "address": "서울특별시 광진구 중곡동 191-69",
    "lat": "37.56579138983057",
    "lng": "127.07983591321523",
    "region": "서울특별시"
  },
  {
    "name": "정산초등학교 운동장",
    "address": "충청남도 청양군 정산면 서정리 34",
    "lat": "36.416239259037795",
    "lng": "126.94575736511422",
    "region": "충청남도"
  },
  {
    "name": "청양고등학교 운동장",
    "address": "충청남도 청양군 청양읍 송방리 133",
    "lat": "36.45208824981697",
    "lng": "126.79713696241298",
    "region": "충청남도"
  },
  {
    "name": "시목초 ",
    "address": "충청남도 태안군 소원면 시목리 288",
    "lat": "36.768497713197505",
    "lng": "126.24477356671706",
    "region": "충청남도"
  },
  {
    "name": "만리포고",
    "address": "충청남도 태안군 소원면 신덕리 180",
    "lat": "36.75985550887635",
    "lng": "126.19121789932053",
    "region": "충청남도"
  },
  {
    "name": "동암초등학교 운동장",
    "address": "충청남도 서산시 음암면 신장리 228-12",
    "lat": "36.76186068649984",
    "lng": "126.51213672767216",
    "region": "충청남도"
  },
  {
    "name": "목면초등학교 운동장",
    "address": "충청남도 청양군 목면 안심리 355",
    "lat": "36.42094489182667",
    "lng": "127.00433477675614",
    "region": "충청남도"
  },
  {
    "name": "남포중학교 운동장",
    "address": "충청남도 보령시 남포면 달산리 149",
    "lat": "36.29478081954711",
    "lng": "126.59067392349232",
    "region": "충청남도"
  },
  {
    "name": "대천여자상업고등학교",
    "address": "충청남도 보령시 내항동 502",
    "lat": "36.33214326791759",
    "lng": "126.57895203122963",
    "region": "충청남도"
  },
  {
    "name": "석문초등학교운동장",
    "address": "충청남도 당진시 석문면 통정리 594",
    "lat": "36.98680175046041",
    "lng": "126.58886976624936",
    "region": "충청남도"
  },
  {
    "name": "천의초등학교운동장",
    "address": "충청남도 당진시 정미면 천의리 335",
    "lat": "36.8775",
    "lng": "126.5723",
    "region": "충청남도"
  },
  {
    "name": "한정초등학교운동장",
    "address": "충청남도 당진시 신평면 한정리 70-1",
    "lat": "36.8933",
    "lng": "126.8052",
    "region": "충청남도"
  },
  {
    "name": "상록초등학교운동장",
    "address": "충청남도 당진시 송악읍 부곡리 187-8",
    "lat": "36.9588",
    "lng": "126.7694",
    "region": "충청남도"
  },
  {
    "name": "안중초 ",
    "address": "충청남도 태안군 안면읍 중장리 653",
    "lat": "36.473642449429406",
    "lng": "126.37216508388626",
    "region": "충청남도"
  },
  {
    "name": "창기초 ",
    "address": "충청남도 태안군 안면읍 창기리 341",
    "lat": "36.57954874268762",
    "lng": "126.33856505155529",
    "region": "충청남도"
  },
  {
    "name": "홍성공업고등학교 운동장",
    "address": "충청남도 홍성군 결성면 읍내리 527-1",
    "lat": "36.52976380363161",
    "lng": "126.54795117656168",
    "region": "충청남도"
  },
  {
    "name": "청양초등학교 운동장",
    "address": "충청남도 청양군 청양읍 읍내리 5-2",
    "lat": "36.45361177240581",
    "lng": "126.8058400154513",
    "region": "충청남도"
  },
  {
    "name": "고산초등학교운동장",
    "address": "충청남도 당진시 고대면 장항리 1050-2",
    "lat": "36.95746860425458",
    "lng": "126.57269580376796",
    "region": "충청남도"
  },
  {
    "name": "기지초등학교운동장",
    "address": "충청남도 당진시 송악읍 기지시리 153",
    "lat": "36.9025",
    "lng": "126.6933",
    "region": "충청남도"
  },
  {
    "name": "당산초등학교운동장",
    "address": "충청남도 당진시 송산면 당산리 215-1",
    "lat": "36.9359",
    "lng": "126.6503",
    "region": "충청남도"
  },
  {
    "name": "조금초등학교운동장",
    "address": "충청남도 당진시 대호지면 조금리 354",
    "lat": "36.901178230471274",
    "lng": "126.50001056326197",
    "region": "충청남도"
  },
  {
    "name": "근흥중 ",
    "address": "충청남도 태안군 근흥면 용신리 409-6",
    "lat": "36.716225667870184",
    "lng": "126.22972905636294",
    "region": "충청남도"
  },
  {
    "name": "원이중 ",
    "address": "충청남도 태안군 원북면 마산리 510-2",
    "lat": "36.82924926041617",
    "lng": "126.26687765121565",
    "region": "충청남도"
  },
  {
    "name": "서산여자고등학교 운동장",
    "address": "충청남도 서산시 석림동 486-1",
    "lat": "36.76945673081533",
    "lng": "126.46739911929407",
    "region": "충청남도"
  },
  {
    "name": "새빛어린이공원",
    "address": "서울특별시 관악구 신림동 501-30",
    "lat": "37.48615520950554",
    "lng": "126.91518426106691",
    "region": "서울특별시"
  },
  {
    "name": "문성어린이공원",
    "address": "서울특별시 관악구 신림동 1661-15",
    "lat": "37.481868736311625",
    "lng": "126.90305131504066",
    "region": "서울특별시"
  },
  {
    "name": "장군봉근린공원",
    "address": "서울특별시 관악구 봉천동 산149-8",
    "lat": "37.48100539000929",
    "lng": "126.9365018606186",
    "region": "서울특별시"
  },
  {
    "name": "천일초등학교운동장",
    "address": "서울특별시 강동구 천호동 217-70",
    "lat": "37.544030765056824",
    "lng": "127.13311314582825",
    "region": "서울특별시"
  },
  {
    "name": "금산근린공원",
    "address": "경상남도 양산시 동면 금산리 1460-2",
    "lat": "35.309005",
    "lng": "129.025404",
    "region": "경상남도"
  },
  {
    "name": "석산근린공원",
    "address": "경상남도 양산시 동면 석산리 1448-7",
    "lat": "35.320975",
    "lng": "129.025736",
    "region": "경상남도"
  },
  {
    "name": "가람뜰어린이공원",
    "address": "경상남도 양산시 물금읍 증산리 1808-1",
    "lat": "35.304260",
    "lng": "129.008346",
    "region": "경상남도"
  },
  {
    "name": "효충공원",
    "address": "경상남도 양산시 상북면 소토리 1174-1",
    "lat": "35.38295894338132",
    "lng": "129.0437688918693",
    "region": "경상남도"
  },
  {
    "name": "인지초등학교 운동장",
    "address": "충청남도 서산시 인지면 둔당리 235",
    "lat": "36.75553835456711",
    "lng": "126.42572024217061",
    "region": "충청남도"
  },
  {
    "name": "소원초 ",
    "address": "충청남도 태안군 소원면 신덕리 223",
    "lat": "36.7633795486716",
    "lng": "126.19410395622062",
    "region": "충청남도"
  },
  {
    "name": "서령중학교 운동장",
    "address": "충청남도 서산시 동문동 552",
    "lat": "36.79190722734083",
    "lng": "126.45855287932444",
    "region": "충청남도"
  },
  {
    "name": "석림초등학교 운동장",
    "address": "충청남도 서산시 석림동 457-7",
    "lat": "36.76958338933145",
    "lng": "126.46569798836788",
    "region": "충청남도"
  },
  {
    "name": "부산예술고등학교 운동장",
    "address": "부산광역시 금정구 부곡동 산7-1",
    "lat": "35.24452807898174",
    "lng": "129.09534125528634",
    "region": "부산광역시"
  },
  {
    "name": "증산초등학교 운동장",
    "address": "경상남도 양산시 물금읍 범어리 2785-1",
    "lat": "35.315632",
    "lng": "129.007847",
    "region": "경상남도"
  },
  {
    "name": "범어중학교 운동장",
    "address": "경상남도 양산시 물금읍 범어리 2677-1",
    "lat": "35.331777693325925",
    "lng": "129.01014880153804",
    "region": "경상남도"
  },
  {
    "name": "신기11어린이공원",
    "address": "경상남도 양산시 신기동 648-5",
    "lat": "35.352949",
    "lng": "129.036695",
    "region": "경상남도"
  },
  {
    "name": "대평어린이공원",
    "address": "경상남도 양산시 주남동 53-3",
    "lat": "35.415852",
    "lng": "129.165565",
    "region": "경상남도"
  },
  {
    "name": "황새어린이공원",
    "address": "경상남도 양산시 명동 1067-1",
    "lat": "35.407761",
    "lng": "129.168954",
    "region": "경상남도"
  },
  {
    "name": "교동초등학교 운동장",
    "address": "서울특별시 종로구 경운동 2",
    "lat": "37.5747302059135",
    "lng": "126.98766078628245",
    "region": "서울특별시"
  },
  {
    "name": "대광초등학교 운동장",
    "address": "서울특별시 성북구 보문동7가 111",
    "lat": "37.57928126152971",
    "lng": "127.02353414158124",
    "region": "서울특별시"
  },
  {
    "name": "길원초등학교 운동장",
    "address": "서울특별시 성북구 길음동 1280-4",
    "lat": "37.6096937415221",
    "lng": "127.01659146525019",
    "region": "서울특별시"
  },
  {
    "name": "월곡중학교 운동장",
    "address": "서울특별시 성북구 상월곡동 35-1",
    "lat": "37.606591604972756",
    "lng": "127.04812490143219",
    "region": "서울특별시"
  },
  {
    "name": "도시공단 공영주차장",
    "address": "서울특별시 성북구 하월곡동 226-4",
    "lat": "37.60037259322795",
    "lng": "127.04119338990908",
    "region": "서울특별시"
  },
  {
    "name": "장월초등학교 운동장",
    "address": "서울특별시 성북구 장위동 316",
    "lat": "37.62200714929617",
    "lng": "127.04687855686028",
    "region": "서울특별시"
  },
  {
    "name": "개운중학교 운동장",
    "address": "서울특별시 성북구 돈암동 83-145",
    "lat": "37.59496550712025",
    "lng": "127.0248849598993",
    "region": "서울특별시"
  },
  {
    "name": "서원어린이공원",
    "address": "서울특별시 도봉구 도봉동 576-13",
    "lat": "37.683825703641816",
    "lng": "127.0432962439694",
    "region": "서울특별시"
  },
  {
    "name": "장항초등학교 운동장",
    "address": "충청남도 서천군 장항읍 창선2리 3-2",
    "lat": "36.019750152387985",
    "lng": "126.70071691274639",
    "region": "충청남도"
  },
  {
    "name": "태안고",
    "address": "충청남도 태안군 태안읍 평천리 710",
    "lat": "36.75360638655241",
    "lng": "126.31777524948488",
    "region": "충청남도"
  },
  {
    "name": "근흥초 ",
    "address": "충청남도 태안군 근흥면 용신리 447",
    "lat": "36.714370130019475",
    "lng": "126.22809559107282",
    "region": "충청남도"
  },
  {
    "name": "예천초등학교 운동장",
    "address": "충청남도 서산시 예천동 78-4",
    "lat": "36.76922606216081",
    "lng": "126.44964002097771",
    "region": "충청남도"
  },
  {
    "name": "충남드론항공고등학교 운동장",
    "address": "충청남도 홍성군 광천읍 광천리 124-11",
    "lat": "36.504381144721805",
    "lng": "126.62791811108478",
    "region": "충청남도"
  },
  {
    "name": "건양대학교 대전메디컬 캠퍼스 주차장",
    "address": "대전광역시 서구 관저동 1901",
    "lat": "36.30400353705548",
    "lng": "127.3442100515401",
    "region": "대전광역시"
  },
  {
    "name": "새싹어린이공원",
    "address": "서울특별시 관악구 봉천동 1512-9",
    "lat": "37.48445770590782",
    "lng": "126.94959908723833",
    "region": "서울특별시"
  },
  {
    "name": "한산초등학교운동장",
    "address": "서울특별시 강동구 둔촌동 149",
    "lat": "37.52803688682537",
    "lng": "127.14141266552521",
    "region": "서울특별시"
  },
  {
    "name": "물금중부공원",
    "address": "경상남도 양산시 물금읍 물금리 883-1",
    "lat": "35.307247",
    "lng": "128.989683",
    "region": "경상남도"
  },
  {
    "name": "여울어린이공원",
    "address": "경상남도 양산시 상북면 석계리 237-12",
    "lat": "35.416166",
    "lng": "129.059362",
    "region": "경상남도"
  },
  {
    "name": "소공원<50>",
    "address": "경상남도 양산시 상북면 대석리 1341-5",
    "lat": "35.390360",
    "lng": "129.059411",
    "region": "경상남도"
  },
  {
    "name": "중앙근린공원",
    "address": "경상남도 양산시 삼호동 886-1",
    "lat": "35.409826",
    "lng": "129.174904",
    "region": "경상남도"
  },
  {
    "name": "등마초등학교 운동장",
    "address": "서울특별시 강서구 등촌동 718",
    "lat": "37.541965207401525",
    "lng": "126.86206271452546",
    "region": "서울특별시"
  },
  {
    "name": "샘말어린이공원",
    "address": "서울특별시 도봉구 방학동 611-5",
    "lat": "37.66845408384334",
    "lng": "127.03155196169911",
    "region": "서울특별시"
  },
  {
    "name": "운현초등학교 운동장",
    "address": "서울특별시 종로구 운니동 114-7",
    "lat": "37.575747150969235",
    "lng": "126.98837165888219",
    "region": "서울특별시"
  },
  {
    "name": "올림픽기념국민생활관",
    "address": "서울특별시 종로구 혜화동 1-21",
    "lat": "37.59012054603594",
    "lng": "126.9988983426294",
    "region": "서울특별시"
  },
  {
    "name": "밤골어린이공원",
    "address": "서울특별시 도봉구 창동 368",
    "lat": "37.6488075682465",
    "lng": "127.04579689134694",
    "region": "서울특별시"
  },
  {
    "name": "송정초등학교 운동장",
    "address": "서울특별시 강서구 공항동 22-16",
    "lat": "37.56206347869899",
    "lng": "126.81085480525586",
    "region": "서울특별시"
  },
  {
    "name": "장미어린이공원",
    "address": "서울특별시 도봉구 창동 553-8",
    "lat": "37.63814387605469",
    "lng": "127.03632832146023",
    "region": "서울특별시"
  },
  {
    "name": "지봉골공원",
    "address": "서울특별시 종로구 창신동 산6-25",
    "lat": "37.578719216002696",
    "lng": "127.01472762058206",
    "region": "서울특별시"
  },
  {
    "name": "숭인(근린)공원",
    "address": "서울특별시 종로구 숭인동 58-149",
    "lat": "37.576306838479525",
    "lng": "127.0177835226059",
    "region": "서울특별시"
  },
  {
    "name": "종로산업정보학교 운동장",
    "address": "서울특별시 종로구 숭인동 242-1",
    "lat": "37.57182772115888",
    "lng": "127.01737314462665",
    "region": "서울특별시"
  },
  {
    "name": "고북초등학교 운동장",
    "address": "충청남도 서산시 고북면 기포리 218",
    "lat": "36.66704184754712",
    "lng": "126.53129383391907",
    "region": "충청남도"
  },
  {
    "name": "고북중학교 운동장",
    "address": "충청남도 서산시 고북면 가구리 624-27",
    "lat": "36.669678687360125",
    "lng": "126.53415261391459",
    "region": "충청남도"
  },
  {
    "name": "장곡농협 주차장",
    "address": "충청남도 홍성군 장곡면 도산리 508-17",
    "lat": "36.50442426450269",
    "lng": "126.69109605594186",
    "region": "충청남도"
  },
  {
    "name": "봉림어린이공원",
    "address": "서울특별시 관악구 신림동 1510-2",
    "lat": "37.48274858123492",
    "lng": "126.93559134918411",
    "region": "서울특별시"
  },
  {
    "name": "새싹어린이공원",
    "address": "경상남도 양산시 물금읍 범어리 2676-10",
    "lat": "35.332664",
    "lng": "129.013601",
    "region": "경상남도"
  },
  {
    "name": "북정근린공원",
    "address": "경상남도 양산시 북정동 435",
    "lat": "35.362962",
    "lng": "129.050103",
    "region": "경상남도"
  },
  {
    "name": "대동어린이공원",
    "address": "경상남도 양산시 삼호동 124",
    "lat": "35.415911",
    "lng": "129.179094",
    "region": "경상남도"
  },
  {
    "name": "평산근린공원",
    "address": "경상남도 양산시 평산동 584-1",
    "lat": "35.38586605925674",
    "lng": "129.14180521425064",
    "region": "경상남도"
  },
  {
    "name": "길음중학교 운동장",
    "address": "서울특별시 성북구 길음동 635-7",
    "lat": "37.61363429459085",
    "lng": "127.01838463022357",
    "region": "서울특별시"
  },
  {
    "name": "와룡공원",
    "address": "서울특별시 종로구 명륜3가 53-52",
    "lat": "37.59106879884857",
    "lng": "126.99026674032214",
    "region": "서울특별시"
  },
  {
    "name": "창신초등학교 운동장",
    "address": "서울특별시 종로구 창신동 128-32",
    "lat": "37.57633774444727",
    "lng": "127.01501538847938",
    "region": "서울특별시"
  },
  {
    "name": "창2동마을공원",
    "address": "서울특별시 도봉구 창동 582-22",
    "lat": "37.64124507247986",
    "lng": "127.03626615470755",
    "region": "서울특별시"
  },
  {
    "name": "서울시교육청학생교육원(구.공진중학교)",
    "address": "서울특별시 강서구 가양동 1476",
    "lat": "37.5662408653322",
    "lng": "126.85074419322832",
    "region": "서울특별시"
  },
  {
    "name": "송화초등학교 운동장",
    "address": "서울특별시 강서구 마곡동 734-5",
    "lat": "37.56826039088073",
    "lng": "126.81743055582045",
    "region": "서울특별시"
  },
  {
    "name": "물방울어린이공원",
    "address": "서울특별시 도봉구 창동 458-6",
    "lat": "37.63757064130958",
    "lng": "127.04126898553704",
    "region": "서울특별시"
  },
  {
    "name": "창3동마을공원",
    "address": "서울특별시 도봉구 창동 504-21",
    "lat": "37.633335587633084",
    "lng": "127.04151182486476",
    "region": "서울특별시"
  },
  {
    "name": "미화어린이공원",
    "address": "서울특별시 도봉구 창동 715-17",
    "lat": "37.654932655387064",
    "lng": "127.03967960460774",
    "region": "서울특별시"
  },
  {
    "name": "창원어린이공원",
    "address": "서울특별시 도봉구 창동 307",
    "lat": "37.652999613536075",
    "lng": "127.0403062486266",
    "region": "서울특별시"
  },
  {
    "name": "동양중학교 운동장",
    "address": "서울특별시 동작구 흑석동 198-79",
    "lat": "37.50966776665812",
    "lng": "126.95627618146064",
    "region": "서울특별시"
  },
  {
    "name": "상현중학교 운동장",
    "address": "서울특별시 동작구 상도동 111-52",
    "lat": "37.493863857016144",
    "lng": "126.96111581578698",
    "region": "서울특별시"
  },
  {
    "name": "동작초등학교 운동장",
    "address": "서울특별시 동작구 사당동 산9-1",
    "lat": "37.49405006492246",
    "lng": "126.97688133828423",
    "region": "서울특별시"
  },
  {
    "name": "서울공업고등학교 운동장",
    "address": "서울특별시 동작구 대방동 390-5",
    "lat": "37.50087747763504",
    "lng": "126.92214948240515",
    "region": "서울특별시"
  },
  {
    "name": "장항공업고등학교운동장",
    "address": "충청남도 서천군 장항읍 화천리 330",
    "lat": "36.015747",
    "lng": "126.685394",
    "region": "충청남도"
  },
  {
    "name": "모항초 ",
    "address": "충청남도 태안군 소원면 모항리 344",
    "lat": "36.77278622275455",
    "lng": "126.14015400409525",
    "region": "충청남도"
  },
  {
    "name": "소원초 의항분교",
    "address": "충청남도 태안군 소원면 의항리 337",
    "lat": "36.82965931882743",
    "lng": "126.16075873374527",
    "region": "충청남도"
  },
  {
    "name": "대기초 ",
    "address": "충청남도 태안군 원북면 대기리 15-1",
    "lat": "36.799813780247035",
    "lng": "126.25722169875783",
    "region": "충청남도"
  },
  {
    "name": "운산초등학교 운동장",
    "address": "충청남도 서산시 운산면 용장리 369",
    "lat": "36.81151603746547",
    "lng": "126.58328183566857",
    "region": "충청남도"
  },
  {
    "name": "성연중학교 운동장",
    "address": "충청남도 서산시 성연면 평리 299-1",
    "lat": "36.836815833139795",
    "lng": "126.46252088866017",
    "region": "충청남도"
  },
  {
    "name": "충효어린이공원",
    "address": "서울특별시 관악구 봉천동 1526-1",
    "lat": "37.48101831526631",
    "lng": "126.94101173910698",
    "region": "서울특별시"
  },
  {
    "name": "도봉우체국휴게공원",
    "address": "서울특별시 도봉구 쌍문동 380-28",
    "lat": "37.64788722277667",
    "lng": "127.02730536460878",
    "region": "서울특별시"
  },
  {
    "name": "방학3동가로공원",
    "address": "서울특별시 도봉구 방학동 443",
    "lat": "37.66341163402075",
    "lng": "127.02757697415935",
    "region": "서울특별시"
  },
  {
    "name": "영등포중학교 운동장",
    "address": "서울특별시 동작구 대방동 13-2",
    "lat": "37.50812488139663",
    "lng": "126.93286097282864",
    "region": "서울특별시"
  },
  {
    "name": "면목5동 집하장 녹지대",
    "address": "서울특별시 중랑구 면목동 734-2",
    "lat": "37.57984614973813",
    "lng": "127.07903176546098",
    "region": "서울특별시"
  },
  {
    "name": "사가정공원",
    "address": "서울특별시 중랑구 면목동 산50-15",
    "lat": "37.580271280913564",
    "lng": "127.09453225135803",
    "region": "서울특별시"
  },
  {
    "name": "상봉초등학교운동장",
    "address": "서울특별시 중랑구 상봉동 312-1",
    "lat": "37.59805723806218",
    "lng": "127.08368887749853",
    "region": "서울특별시"
  },
  {
    "name": "중흥초등학교운동장",
    "address": "서울특별시 중랑구 중화동 119",
    "lat": "37.60148041947235",
    "lng": "127.08451875778569",
    "region": "서울특별시"
  },
  {
    "name": "장안중학교운동장",
    "address": "서울특별시 중랑구 중화동 288-26",
    "lat": "37.600536083457975",
    "lng": "127.08080247352991",
    "region": "서울특별시"
  },
  {
    "name": "중랑중학교운동장",
    "address": "서울특별시 중랑구 중화동 276-1",
    "lat": "37.604875792516594",
    "lng": "127.0813143712095",
    "region": "서울특별시"
  },
  {
    "name": "신화어린이공원",
    "address": "서울특별시 관악구 신림동 408-10",
    "lat": "37.47673443772842",
    "lng": "126.93574936384162",
    "region": "서울특별시"
  },
  {
    "name": "연제구청주차장",
    "address": "부산광역시 연제구 연산동 1555",
    "lat": "35.176221610148716",
    "lng": "129.07961520502272",
    "region": "부산광역시"
  },
  {
    "name": "신주초등학교 운동장",
    "address": "경상남도 양산시 물금읍 범어리 2673-1",
    "lat": "35.33727392369916",
    "lng": "129.01973459456",
    "region": "경상남도"
  },
  {
    "name": "원동초등학교이천분교 운동장",
    "address": "경상남도 양산시 원동면 선리 1424",
    "lat": "35.487103",
    "lng": "128.985440",
    "region": "경상남도"
  },
  {
    "name": "어곡주민공원",
    "address": "경상남도 양산시 어곡동 414",
    "lat": "35.37759553324732",
    "lng": "129.0265166759504",
    "region": "경상남도"
  },
  {
    "name": "양산음악분수공원",
    "address": "경상남도 양산시 물금읍 범어리 2714-2",
    "lat": "35.327708",
    "lng": "129.018735",
    "region": "경상남도"
  },
  {
    "name": "대석어린이공원",
    "address": "경상남도 양산시 상북면 대석리 808-3",
    "lat": "35.391777",
    "lng": "129.053161",
    "region": "경상남도"
  },
  {
    "name": "북악중학교 운동장",
    "address": "서울특별시 성북구 정릉동 640-3",
    "lat": "37.60657590644351",
    "lng": "127.00169379046946",
    "region": "서울특별시"
  },
  {
    "name": "석관중학교 운동장",
    "address": "서울특별시 성북구 석관동 88-2",
    "lat": "37.60765643642202",
    "lng": "127.06659809398559",
    "region": "서울특별시"
  },
  {
    "name": "무수어린이공원",
    "address": "서울특별시 도봉구 도봉동 585-2",
    "lat": "37.680589798737756",
    "lng": "127.04267917668477",
    "region": "서울특별시"
  },
  {
    "name": "영본초등학교 운동장",
    "address": "서울특별시 동작구 본동 441-11",
    "lat": "37.510687938849074",
    "lng": "126.94890427335586",
    "region": "서울특별시"
  },
  {
    "name": "장승중학교 운동장",
    "address": "서울특별시 동작구 상도동 175-1",
    "lat": "37.50349838971939",
    "lng": "126.94075424189428",
    "region": "서울특별시"
  },
  {
    "name": "면목천로 녹지대",
    "address": "서울특별시 중랑구 면목동 1508-10",
    "lat": "37.584347061508524",
    "lng": "127.08329705975855",
    "region": "서울특별시"
  },
  {
    "name": "신현초등학교운동장",
    "address": "서울특별시 중랑구 신내동 663",
    "lat": "37.60549846845277",
    "lng": "127.09402799606325",
    "region": "서울특별시"
  },
  {
    "name": "서낭당근린공원",
    "address": "서울특별시 강서구 등촌동 706",
    "lat": "37.55853538289243",
    "lng": "126.84996314181588",
    "region": "서울특별시"
  },
  {
    "name": "바탕골공원",
    "address": "서울특별시 강서구 화곡동 1016-34",
    "lat": "37.54454092243385",
    "lng": "126.83476125823078",
    "region": "서울특별시"
  },
  {
    "name": "하마터어린이공원",
    "address": "서울특별시 강서구 화곡동 883-3",
    "lat": "37.530019325304075",
    "lng": "126.85364921349776",
    "region": "서울특별시"
  },
  {
    "name": "미리내공원",
    "address": "서울특별시 강서구 화곡동 1008-32",
    "lat": "37.547678945532375",
    "lng": "126.83476072828861",
    "region": "서울특별시"
  },
  {
    "name": "두레어린이공원",
    "address": "서울특별시 강서구 화곡동 792-9",
    "lat": "37.53121183113455",
    "lng": "126.85933655927163",
    "region": "서울특별시"
  },
  {
    "name": "달빛공원",
    "address": "서울특별시 강서구 화곡동 783-1",
    "lat": "37.53117079812082",
    "lng": "126.86293281834068",
    "region": "서울특별시"
  },
  {
    "name": "모태어린이공원",
    "address": "서울특별시 강서구 화곡동 892-17",
    "lat": "37.52950752050535",
    "lng": "126.84951510601948",
    "region": "서울특별시"
  },
  {
    "name": "산남중학교 운동장",
    "address": "충청북도 청주시 서원구 산남동 672",
    "lat": "36.6112534799244",
    "lng": "127.46367740370582",
    "region": "충청북도"
  },
  {
    "name": "인헌고등학교 운동장",
    "address": "서울특별시 관악구 봉천동 174-5",
    "lat": "37.471885878050536",
    "lng": "126.9698926792735",
    "region": "서울특별시"
  },
  {
    "name": "삼성중학교 운동장",
    "address": "서울특별시 관악구 신림동 220-1",
    "lat": "37.46812385982009",
    "lng": "126.94307421901303",
    "region": "서울특별시"
  },
  {
    "name": "대전과학기술대학교운동장",
    "address": "대전광역시 서구 복수동 333",
    "lat": "36.30333816783091",
    "lng": "127.37755038768339",
    "region": "대전광역시"
  },
  {
    "name": "대조어린이공원",
    "address": "서울특별시 은평구 대조동 212",
    "lat": "37.61547115971184",
    "lng": "126.91988295379437",
    "region": "서울특별시"
  },
  {
    "name": "안암초등학교 운동장",
    "address": "서울특별시 성북구 안암동2가 93",
    "lat": "37.587216668147306",
    "lng": "127.02260409326735",
    "region": "서울특별시"
  },
  {
    "name": "대일외국어고등학교 운동장",
    "address": "서울특별시 성북구 정릉동 산16-36",
    "lat": "37.61334373370074",
    "lng": "127.01355473405215",
    "region": "서울특별시"
  },
  {
    "name": "계성고등학교 운동장",
    "address": "서울특별시 성북구 길음동 1284-15",
    "lat": "37.60762621357362",
    "lng": "127.0208794327155",
    "region": "서울특별시"
  },
  {
    "name": "숭례초등학교 운동장",
    "address": "서울특별시 성북구 종암동 22-1",
    "lat": "37.59482177043933",
    "lng": "127.03505125037503",
    "region": "서울특별시"
  },
  {
    "name": "염경중학교 운동장",
    "address": "서울특별시 강서구 염창동 79-8",
    "lat": "37.55421198176908",
    "lng": "126.87089694190682",
    "region": "서울특별시"
  },
  {
    "name": "방화중학교 운동장",
    "address": "서울특별시 강서구 방화동 636-1",
    "lat": "37.565164881227005",
    "lng": "126.80662930011748",
    "region": "서울특별시"
  },
  {
    "name": "등마루공원",
    "address": "서울특별시 강서구 등촌동 641-5",
    "lat": "37.55603090159449",
    "lng": "126.85734813338271",
    "region": "서울특별시"
  },
  {
    "name": "큰별공원",
    "address": "서울특별시 강서구 화곡동 46-41",
    "lat": "37.54448061299845",
    "lng": "126.84893833072873",
    "region": "서울특별시"
  },
  {
    "name": "호돌이공원",
    "address": "서울특별시 강서구 화곡동 906-26",
    "lat": "37.52822533787294",
    "lng": "126.84599197300203",
    "region": "서울특별시"
  },
  {
    "name": "수명어린이공원",
    "address": "서울특별시 강서구 화곡동 1044-31",
    "lat": "37.54083988954331",
    "lng": "126.8344396119226",
    "region": "서울특별시"
  },
  {
    "name": "춘산면목재체험관",
    "address": "경상북도 의성군 춘산면 옥정리 405",
    "lat": "36.238676",
    "lng": "128.814620",
    "region": "경상북도"
  },
  {
    "name": "신림근린공원",
    "address": "서울특별시 관악구 신림동 1707-1",
    "lat": "37.48080105558499",
    "lng": "126.91767811775209",
    "region": "서울특별시"
  },
  {
    "name": "배재대학교운동장",
    "address": "대전광역시 서구 도마동 439-6",
    "lat": "36.32064544098117",
    "lng": "127.36722381802554",
    "region": "대전광역시"
  },
  {
    "name": "신림중학교 운동장",
    "address": "서울특별시 관악구 신림동 133",
    "lat": "37.470532531269974",
    "lng": "126.94494009017944",
    "region": "서울특별시"
  },
  {
    "name": "허준근린공원",
    "address": "서울특별시 강서구 가양동 1471",
    "lat": "37.56784113473122",
    "lng": "126.85241003072274",
    "region": "서울특별시"
  },
  {
    "name": "신미림초등학교 운동장",
    "address": "서울특별시 구로구 신도림동 398-28",
    "lat": "37.50644106750669",
    "lng": "126.87958561833123",
    "region": "서울특별시"
  },
  {
    "name": "발산근린공원",
    "address": "서울특별시 강서구 내발산동 739",
    "lat": "37.55454660112919",
    "lng": "126.8254835672745",
    "region": "서울특별시"
  },
  {
    "name": "발음어린이공원",
    "address": "서울특별시 강서구 내발산동 697",
    "lat": "37.55224025704088",
    "lng": "126.83317862222526",
    "region": "서울특별시"
  },
  {
    "name": "신광명공원",
    "address": "서울특별시 강서구 내발산동 761",
    "lat": "37.54730348102382",
    "lng": "126.82293238688416",
    "region": "서울특별시"
  },
  {
    "name": "다솔어린이공원",
    "address": "서울특별시 강서구 공항동 1361",
    "lat": "37.55463479036536",
    "lng": "126.81834928478568",
    "region": "서울특별시"
  },
  {
    "name": "장미공원",
    "address": "서울특별시 강서구 공항동 668",
    "lat": "37.5566716707019",
    "lng": "126.81382629923988",
    "region": "서울특별시"
  },
  {
    "name": "새싹어린이공원",
    "address": "서울특별�� 강서구 방화동 583",
    "lat": "37.56973553187474",
    "lng": "126.80939610132995",
    "region": "서울특별��"
  },
  {
    "name": "희망어린이공원(미루나무어린이공원)",
    "address": "서울특별시 강북구 수유동 193-1",
    "lat": "37.64055237523932",
    "lng": "127.02444753408498",
    "region": "서울특별시"
  },
  {
    "name": "흰구름공원(수유2동근린공원)",
    "address": "서울특별시 강북구 수유동 252-19",
    "lat": "37.64571697931418",
    "lng": "127.0204294753799",
    "region": "서울특별시"
  },
  {
    "name": "영서초등학교 운동장",
    "address": "서울특별시 구로구 구로동 165-1",
    "lat": "37.488129030756454",
    "lng": "126.8951895521616",
    "region": "서울특별시"
  },
  {
    "name": "영림중학교 운동장",
    "address": "서울특별시 구로구 구로동 105-2",
    "lat": "37.497719638105",
    "lng": "126.89063114502719",
    "region": "서울특별시"
  },
  {
    "name": "영일초등학교 운동장",
    "address": "서울특별시 구로구 가리봉동 17",
    "lat": "37.485096492576446",
    "lng": "126.8837354732198",
    "region": "서울특별시"
  },
  {
    "name": "고산초등학교 운동장",
    "address": "서울특별시 구로구 고척동 76-10",
    "lat": "37.49900770050435",
    "lng": "126.86559867684646",
    "region": "서울특별시"
  },
  {
    "name": "의성유니텍고등학교운동장",
    "address": "경상북도 의성군 의성읍 중리리 532",
    "lat": "36.3560714236394",
    "lng": "128.70003499864202",
    "region": "경상북도"
  },
  {
    "name": "가음중학교(아소박물관)",
    "address": "경상북도 의성군 가음면 장리 1276",
    "lat": "36.23604822208693",
    "lng": "128.72319102287423",
    "region": "경상북도"
  },
  {
    "name": "만경영농조합",
    "address": "경상북도 의성군 단밀면 위중리 577-5",
    "lat": "36.361640612687786",
    "lng": "128.38920422933694",
    "region": "경상북도"
  },
  {
    "name": "고척중학교 운동장",
    "address": "서울특별시 구로구 고척동 76-2",
    "lat": "37.499776493060125",
    "lng": "126.86195073630714",
    "region": "서울특별시"
  },
  {
    "name": "고척고등학교 운동장",
    "address": "서울특별시 구로구 고척동 232",
    "lat": "37.509087421397595",
    "lng": "126.85207100737273",
    "region": "서울특별시"
  },
  {
    "name": "우신고등학교 운동장",
    "address": "서울특별시 구로구 궁동 230",
    "lat": "37.49495816135684",
    "lng": "126.82715724807484",
    "region": "서울특별시"
  },
  {
    "name": "서울정진학교 운동장",
    "address": "서울특별시 구로구 궁동 242",
    "lat": "37.49827139379095",
    "lng": "126.82207171725233",
    "region": "서울특별시"
  },
  {
    "name": "세종과학고등학교 운동장",
    "address": "서울특별시 구로구 궁동 232",
    "lat": "37.4972051026322",
    "lng": "126.82703918875457",
    "region": "서울특별시"
  },
  {
    "name": "서창고등학교 운동장",
    "address": "경상남도 양산시 삼호동 483",
    "lat": "35.413677",
    "lng": "129.173593",
    "region": "경상남도"
  },
  {
    "name": "메기들공원",
    "address": "경상남도 양산시 물금읍 가촌리 1283",
    "lat": "35.312523",
    "lng": "129.007643",
    "region": "경상남도"
  },
  {
    "name": "신명어린이공원",
    "address": "경상남도 양산시 평산동 55",
    "lat": "35.385988",
    "lng": "129.154715",
    "region": "경상남도"
  },
  {
    "name": "효제초등학교 운동장",
    "address": "서울특별시 종로구 효제동 255-4",
    "lat": "37.572628905726454",
    "lng": "127.00303942887182",
    "region": "서울특별시"
  },
  {
    "name": "반석어린이공원",
    "address": "서울특별시 도봉구 창동 354",
    "lat": "37.64710120251593",
    "lng": "127.04124506348552",
    "region": "서울특별시"
  },
  {
    "name": "월천공원",
    "address": "서울특별시 도봉구 창동 28",
    "lat": "37.64756077330384",
    "lng": "127.05084737141578",
    "region": "서울특별시"
  },
  {
    "name": "용마폭포공원",
    "address": "서울특별시 중랑구 면목동 산1-4",
    "lat": "37.57329031970197",
    "lng": "127.0908710360527",
    "region": "서울특별시"
  },
  {
    "name": "원묵중학교운동장",
    "address": "서울특별시 중랑구 묵동 12",
    "lat": "37.61779863076169",
    "lng": "127.08501480388735",
    "region": "서울특별시"
  },
  {
    "name": "원묵고등학교운동장",
    "address": "서울특별시 중랑구 묵동 23",
    "lat": "37.61551884211789",
    "lng": "127.08635267675032",
    "region": "서울특별시"
  },
  {
    "name": "혜원여자고등학교운동장",
    "address": "서울특별시 중랑구 망우동 519",
    "lat": "37.59372326130362",
    "lng": "127.0966030168496",
    "region": "서울특별시"
  },
  {
    "name": "원당근린공원",
    "address": "서울특별시 강서구 등촌동 690-5",
    "lat": "37.5597568606135",
    "lng": "126.84206240315335",
    "region": "서울특별시"
  },
  {
    "name": "새나라공원",
    "address": "서울특별시 강서구 등촌동 707-2",
    "lat": "37.561555453500944",
    "lng": "126.85205500845343",
    "region": "서울특별시"
  },
  {
    "name": "솔뫼공원",
    "address": "서울특별시 강서구 화곡동 379-32",
    "lat": "37.53786350876829",
    "lng": "126.83843143825634",
    "region": "서울특별시"
  },
  {
    "name": "까치어린이공원",
    "address": "서울특별시 강서구 화곡동 354-14",
    "lat": "37.53342368858984",
    "lng": "126.84189250018851",
    "region": "서울특별시"
  },
  {
    "name": "골말어린이공원",
    "address": "서울특별시 강서구 화곡동 865-1",
    "lat": "37.533243014363",
    "lng": "126.85610767804708",
    "region": "서울특별시"
  },
  {
    "name": "화원어린이공원",
    "address": "서울특별시 구로구 구로동 478-1",
    "lat": "37.497718522387395",
    "lng": "126.88028488366442",
    "region": "서울특별시"
  },
  {
    "name": "구로근��공원",
    "address": "서울특별시 구로구 구로동 102",
    "lat": "37.49685352264692",
    "lng": "126.88971216319655",
    "region": "서울특별시"
  },
  {
    "name": "경인고등학교 운동장",
    "address": "서울특별시 구로구 고척동 66-28",
    "lat": "37.496354415755896",
    "lng": "126.86585783958435",
    "region": "서울특별시"
  },
  {
    "name": "고척근린공원 축구장",
    "address": "서울특별시 구로구 고척동 산9-14",
    "lat": "37.505988234311076",
    "lng": "126.85175856667709",
    "region": "서울특별시"
  },
  {
    "name": "정문학교 운동장",
    "address": "서울특별시 관악구 신림동 673-82",
    "lat": "37.46148440673799",
    "lng": "126.91613830171784",
    "region": "서울특별시"
  },
  {
    "name": "삼성고등학교 운동장",
    "address": "서울특별시 관악구 신림동 222",
    "lat": "37.469783197316985",
    "lng": "126.94363921880723",
    "region": "서울특별시"
  },
  {
    "name": "새싹어린이공원",
    "address": "서울특별시 강북구 수유동 134-40",
    "lat": "37.63611846660111",
    "lng": "127.01955874167578",
    "region": "서울특별시"
  },
  {
    "name": "능산공원",
    "address": "서울특별시 중랑구 신내동 317-2",
    "lat": "37.61177095148806",
    "lng": "127.0973478396546",
    "region": "서울특별시"
  },
  {
    "name": "봉화중학교운동장",
    "address": "서울특별시 중랑구 망우동 122-1",
    "lat": "37.5966347934237",
    "lng": "127.10375830735042",
    "region": "서울특별시"
  },
  {
    "name": "영란여자중학교운동장",
    "address": "서울특별시 중랑구 망우동 220",
    "lat": "37.60352225789622",
    "lng": "127.10447788238528",
    "region": "서울특별시"
  },
  {
    "name": "성동구보건소 주차장",
    "address": "서울특별시 성동구 홍익동 16-15",
    "lat": "37.567086874876274",
    "lng": "127.03295239242023",
    "region": "서울특별시"
  },
  {
    "name": "무학봉근린공원",
    "address": "서울특별시 성동구 하왕십리동 1050-2",
    "lat": "37.56239879846113",
    "lng": "127.02656507492065",
    "region": "서울특별시"
  },
  {
    "name": "마장중학교 운동장",
    "address": "서울특별시 성동구 마장동 766-49",
    "lat": "37.5685673794994",
    "lng": "127.04127183775984",
    "region": "서울특별시"
  },
  {
    "name": "사근초등학교 운동장",
    "address": "서울특별시 성동구 사근동 291-5",
    "lat": "37.562529060458395",
    "lng": "127.0479500999136",
    "region": "서울특별시"
  },
  {
    "name": "한양여자대학교 운동장",
    "address": "서울특별시 성동구 사근동 150-2",
    "lat": "37.55890807311534",
    "lng": "127.04759004217982",
    "region": "서울특별시"
  },
  {
    "name": "금호근린공원",
    "address": "서울특별시 성동구 금호동3가 1266",
    "lat": "37.54981422553144",
    "lng": "127.01906163608126",
    "region": "서울특별시"
  },
  {
    "name": "옥수초등학교 운동장",
    "address": "서울특별시 성동구 금호동4가 440-12",
    "lat": "37.54593389943409",
    "lng": "127.02210641325547",
    "region": "서울특별시"
  },
  {
    "name": "달맞이공원",
    "address": "서울특별시 성동구 옥수동 산1-1",
    "lat": "37.54455361272775",
    "lng": "127.02012130349429",
    "region": "서울특별시"
  },
  {
    "name": "경일고등학교 운동장",
    "address": "서울특별시 성동구 성수동1가 22-27",
    "lat": "37.54325565185731",
    "lng": "127.04775034416043",
    "region": "서울특별시"
  },
  {
    "name": "경동초등학교 운동장",
    "address": "서울특별시 성동구 성수동1가 19-1",
    "lat": "37.542727498639294",
    "lng": "127.05088773810006",
    "region": "서울특별시"
  },
  {
    "name": "성원중학교 운동장",
    "address": "서울특별시 성동구 성수동2가 333-17",
    "lat": "37.53922855780154",
    "lng": "127.0523679256439",
    "region": "서울특별시"
  },
  {
    "name": "한산중학교 운동장",
    "address": "충청남도 서천군 한산면 성외리 198",
    "lat": "36.09201947128205",
    "lng": "126.80428237868485",
    "region": "충청남도"
  },
  {
    "name": "충남디자인예술고등학교",
    "address": "충청남도 서천군 한산면 성외리 144",
    "lat": "36.09005750370034",
    "lng": "126.8025147914925",
    "region": "충청남도"
  },
  {
    "name": "산수유꽃축제복합센터",
    "address": "경상북도 의성군 사곡면 화전리 1116",
    "lat": "36.28664981816063",
    "lng": "128.77034425735803",
    "region": "경상북도"
  },
  {
    "name": "국지어린이공원",
    "address": "서울특별시 관악구 봉천동 635-429",
    "lat": "37.48988488371134",
    "lng": "126.94067269563675",
    "region": "서울특별시"
  },
  {
    "name": "관악중학교 운동장",
    "address": "서울특별시 관악구 봉천동 100-569",
    "lat": "37.48010406674142",
    "lng": "126.96147069796511",
    "region": "서울특별시"
  },
  {
    "name": "밤골어린이공원",
    "address": "서울특별시 관악구 봉천동 1642-4",
    "lat": "37.47408053917835",
    "lng": "126.96725114850624",
    "region": "서울특별시"
  },
  {
    "name": "남강중학교 운동장",
    "address": "서울특별시 관악구 신림동 627-1",
    "lat": "37.47153730819013",
    "lng": "126.92413687705992",
    "region": "서울특별시"
  },
  {
    "name": "봄내중학교 운동장",
    "address": "강원특별자치도 춘천시 효자동 214-4",
    "lat": "37.86489091499973",
    "lng": "127.74092305360156",
    "region": "강원특별자치도"
  },
  {
    "name": "충남도청 잔디광장",
    "address": "충청남도 홍성군 홍북읍 신경리 543",
    "lat": "36.65954641488746",
    "lng": "126.67722173346269",
    "region": "충청남도"
  },
  {
    "name": "혜화여자고등학교 운동장",
    "address": "서울특별시 강북구 수유동 468-43",
    "lat": "37.63062436451567",
    "lng": "127.01317710976893",
    "region": "서울특별시"
  },
  {
    "name": "송정체육공원",
    "address": "서울특별시 성동구 송정동 73-24",
    "lat": "37.552877071864124",
    "lng": "127.06655780161111",
    "region": "서울특별시"
  },
  {
    "name": "독서당공원",
    "address": "서울특별시 성동구 금호동1가 산37-7",
    "lat": "37.55065934454246",
    "lng": "127.02909708023068",
    "region": "서울특별시"
  },
  {
    "name": "희망대초등학교 운동장",
    "address": "경기도 성남시 수정구 신흥동 1232",
    "lat": "37.44673793814103",
    "lng": "127.14868978308483",
    "region": "경기도"
  },
  {
    "name": "하원초등학교 운동장",
    "address": "경기도 성남시 중원구 금광동 2412",
    "lat": "37.44684167332895",
    "lng": "127.16982613512218",
    "region": "경기도"
  },
  {
    "name": "대일초등학교 운동장",
    "address": "경기도 성남시 중원구 상대원동 2511",
    "lat": "37.438927385300246",
    "lng": "127.16374404983263",
    "region": "경기도"
  },
  {
    "name": "도촌초등학교 운동장",
    "address": "경기도 성남시 중원구 도촌동 646",
    "lat": "37.41421460614678",
    "lng": "127.1579030613924",
    "region": "경기도"
  },
  {
    "name": "배재고등학교 운동장",
    "address": "서울특별시 강동구 고덕동 313",
    "lat": "37.55541871385117",
    "lng": "127.15195706007384",
    "region": "서울특별시"
  },
  {
    "name": "가산초등학교 운동장",
    "address": "경기도 이천시 부발읍 가산리 305-1",
    "lat": "37.24184266905633",
    "lng": "127.51818180084231",
    "region": "경기도"
  },
  {
    "name": "마장초등학교 운동장",
    "address": "경기도 이천시 마장면 오천리 412",
    "lat": "37.253380811120444",
    "lng": "127.35594570636749",
    "region": "경기도"
  },
  {
    "name": "백석중학교 운동장",
    "address": "서울특별시 강서구 등촌동 520-5",
    "lat": "37.54807291655186",
    "lng": "126.85934247776026",
    "region": "서울특별시"
  },
  {
    "name": "낙양 녹색쌈지공원",
    "address": "경상북도 상주시 낙양동 21-4",
    "lat": "36.41396329659496",
    "lng": "128.1505393981934",
    "region": "경상북도"
  },
  {
    "name": "송원초등학교 운동장",
    "address": "서울특별시 성동구 송정동 72-8",
    "lat": "37.553906723636985",
    "lng": "127.06924695535258",
    "region": "서울특별시"
  },
  {
    "name": "대하초등학교 운동장",
    "address": "경기도 성남시 중원구 하대원동 167-2",
    "lat": "37.43136764604595",
    "lng": "127.15152919302962",
    "region": "경기도"
  },
  {
    "name": "수내초등학교 운동장",
    "address": "경기도 성남시 분당구 수내동 81",
    "lat": "37.36750116485693",
    "lng": "127.12422259224135",
    "region": "경기도"
  },
  {
    "name": "한솔초등학교 운동장",
    "address": "경기도 성남시 분당구 정자동 113",
    "lat": "37.36655995249717",
    "lng": "127.11771054173173",
    "region": "경기도"
  },
  {
    "name": "청솔초등학교 운동장",
    "address": "경기도 성남시 분당구 금곡동 131",
    "lat": "37.35397920178547",
    "lng": "127.11415720074314",
    "region": "경기도"
  },
  {
    "name": "분토골어린이공원",
    "address": "서울특별시 서초구 서초동 1627-4",
    "lat": "37.48837491963315",
    "lng": "127.01745799493636",
    "region": "서울특별시"
  },
  {
    "name": "용허리근린공원",
    "address": "서울특별시 서초구 서초동 1324-1",
    "lat": "37.494285760462425",
    "lng": "127.02327985548679",
    "region": "서울특별시"
  },
  {
    "name": "코아어린이공원",
    "address": "서울특별시 서초구 잠원동 72-4",
    "lat": "37.50903712912014",
    "lng": "127.0040374645879",
    "region": "서울특별시"
  },
  {
    "name": "영동중학교 운동장",
    "address": "서울특별시 서초구 우면동 680",
    "lat": "37.46566641581021",
    "lng": "127.02564373507678",
    "region": "서울특별시"
  },
  {
    "name": "남대천동네축구장",
    "address": "경상북도 의성군 의성읍 후죽리 775",
    "lat": "36.35046960420543",
    "lng": "128.69169963308647",
    "region": "경상북도"
  },
  {
    "name": "산운생태공원",
    "address": "경상북도 의성군 금성면 산운리 236",
    "lat": "36.243638",
    "lng": "128.703434",
    "region": "경상북도"
  },
  {
    "name": "영락고등학교 운동장",
    "address": "서울특별시 관악구 봉천동 1558-1",
    "lat": "37.47628001350195",
    "lng": "126.9443070888519",
    "region": "서울특별시"
  },
  {
    "name": "원당어린이공원",
    "address": "서울특별시 관악구 봉천동 196-2",
    "lat": "37.47483892706659",
    "lng": "126.96353048086168",
    "region": "서울특별시"
  },
  {
    "name": "새들어린이공원",
    "address": "서울특별시 관악구 신림동 1441-42",
    "lat": "37.48862725908306",
    "lng": "126.92576398684798",
    "region": "서울특별시"
  },
  {
    "name": "서원어린이공원",
    "address": "서울특별시 관악구 신림동 409-26",
    "lat": "37.4767159397129",
    "lng": "126.93342147238897",
    "region": "서울특별시"
  },
  {
    "name": "이매초등학교 운동장",
    "address": "경기도 성남시 분당구 이매동 112",
    "lat": "37.39665751387334",
    "lng": "127.12600989195982",
    "region": "경기도"
  },
  {
    "name": "청룡어린이공원",
    "address": "서울특별시 서초구 반포동 86-1",
    "lat": "37.49587237691711",
    "lng": "126.99969628336753",
    "region": "서울특별시"
  },
  {
    "name": "백범김구기념관",
    "address": "서울특별시 용산구 효창동 255",
    "lat": "37.54473894748395",
    "lng": "126.95978879928587",
    "region": "서울특별시"
  },
  {
    "name": "솔밭어린이공원",
    "address": "서울특별시 용산구 한강로1가 30-3",
    "lat": "37.53730163304416",
    "lng": "126.97364777327056",
    "region": "서울특별시"
  },
  {
    "name": "구룡중학교 운동장",
    "address": "서울특별시 강남구 개포동 650",
    "lat": "37.485693460915655",
    "lng": "127.05661000641875",
    "region": "서울특별시"
  },
  {
    "name": "개포서근린공원",
    "address": "서울특별시 강남구 개포동 180",
    "lat": "37.488823598233566",
    "lng": "127.06379745784099",
    "region": "서울특별시"
  },
  {
    "name": "이태원마을숲 소공원",
    "address": "서울특별시 용산구 이태원동 260-87",
    "lat": "37.54126389775431",
    "lng": "126.99153810740047",
    "region": "서울특별시"
  },
  {
    "name": "학여울근린공원",
    "address": "서울특별시 강남구 개포동 183-1",
    "lat": "37.490349492411504",
    "lng": "127.06880558849883",
    "region": "서울특별시"
  },
  {
    "name": "구룡초등학교 운동장",
    "address": "서울특별시 강남구 개포동 655",
    "lat": "37.480721139313545",
    "lng": "127.05196673380564",
    "region": "서울특별시"
  },
  {
    "name": "논현소나무공원",
    "address": "서울특별시 강남구 논현동 239",
    "lat": "37.51570708865882",
    "lng": "127.03747576004062",
    "region": "서울특별시"
  },
  {
    "name": "대청중학교 운동장",
    "address": "서울특별시 강남구 대치동 502",
    "lat": "37.489978012644364",
    "lng": "127.05861588843523",
    "region": "서울특별시"
  },
  {
    "name": "중대부속고등학교 운동장",
    "address": "서울특별시 강남구 도곡동 산21",
    "lat": "37.49240485877374",
    "lng": "127.05198503563557",
    "region": "서울특별시"
  },
  {
    "name": "독골근린공원",
    "address": "서울특별시 강남구 도곡동 461",
    "lat": "37.48510861351702",
    "lng": "127.04697303407369",
    "region": "서울특별시"
  },
  {
    "name": "도곡목련공원",
    "address": "서울특별시 강남구 도곡동 415-3",
    "lat": "37.484962194699705",
    "lng": "127.04431299435784",
    "region": "서울특별시"
  },
  {
    "name": "은천초등학교 운동장",
    "address": "서울특별시 관악구 봉천동 622-1",
    "lat": "37.486730209907066",
    "lng": "126.94292850941699",
    "region": "서울특별시"
  },
  {
    "name": "용답초등학교 운동장",
    "address": "서울특별시 성동구 용답동 27-1",
    "lat": "37.560325965863875",
    "lng": "127.05415759896756",
    "region": "서울특별시"
  },
  {
    "name": "명달근린공원",
    "address": "서울특별시 서초구 서초동 1313-17",
    "lat": "37.4985150372134",
    "lng": "127.02107324552232",
    "region": "서울특별시"
  },
  {
    "name": "용강중학교 운동장",
    "address": "서울특별시 용산구 이촌동 301-78",
    "lat": "37.52084487185975",
    "lng": "126.97652203100847",
    "region": "서울특별시"
  },
  {
    "name": "개일초등학교 운동장",
    "address": "서울특별시 강남구 개포동 174",
    "lat": "37.48571084308327",
    "lng": "127.05803947961611",
    "region": "서울특별시"
  },
  {
    "name": "보광초등학교 운동장",
    "address": "서울특별시 용산구 이태원동 15-13",
    "lat": "37.532107599389654",
    "lng": "126.99660820452291",
    "region": "서울특별시"
  },
  {
    "name": "소월길 어린이공원",
    "address": "서울특별시 용산구 이태원동 511",
    "lat": "37.54354321649328",
    "lng": "126.98930108190582",
    "region": "서울특별시"
  },
  {
    "name": "한남초등학교 운동장",
    "address": "서울특별시 용산구 한남동 726-1",
    "lat": "37.539073254007",
    "lng": "127.00492925332657",
    "region": "서울특별시"
  },
  {
    "name": "경기고등학교 운동장",
    "address": "서울특별시 강남구 삼성동 74-4",
    "lat": "37.51746014041978",
    "lng": "127.05706425652922",
    "region": "서울특별시"
  },
  {
    "name": "샘터근린공원",
    "address": "서울특별시 강남구 삼성동 16-4",
    "lat": "37.51536608182108",
    "lng": "127.04740686039781",
    "region": "서울특별시"
  },
  {
    "name": "못골아래근린공원",
    "address": "서울특별시 강남구 자곡동 607",
    "lat": "37.47290391226736",
    "lng": "127.09766965315603",
    "region": "서울특별시"
  },
  {
    "name": "행복공원",
    "address": "서울특별시 강남구 세곡동 546",
    "lat": "37.46726760783786",
    "lng": "127.0971221415033",
    "region": "서울특별시"
  },
  {
    "name": "왕북초등학교 운동장",
    "address": "서울특별시 강남구 수서동 745",
    "lat": "37.48606455132707",
    "lng": "127.08672142480839",
    "region": "서울특별시"
  },
  {
    "name": "신사중학교 운동장",
    "address": "서울특별시 강남구 압구정동 410",
    "lat": "37.52424868135027",
    "lng": "127.02129310832805",
    "region": "서울특별시"
  },
  {
    "name": "갈매기근린공원",
    "address": "서울특별시 강남구 압구정동 480",
    "lat": "37.53186845738057",
    "lng": "127.03463246623474",
    "region": "서울특별시"
  },
  {
    "name": "역삼소나무공원",
    "address": "서울특별시 강남구 역삼동 836-21",
    "lat": "37.490979109179946",
    "lng": "127.03369931348485",
    "region": "서울특별시"
  },
  {
    "name": "충현공원",
    "address": "서울특별시 강남구 역삼동 666-2",
    "lat": "37.50475920516543",
    "lng": "127.03650852123953",
    "region": "서울특별시"
  },
  {
    "name": "산남유수지",
    "address": "충청북도 청주시 서원구 분평동 1465",
    "lat": "36.608518841344214",
    "lng": "127.47751425724644",
    "region": "충청북도"
  },
  {
    "name": "부곡중학교 운동장",
    "address": "부산광역시 금정구 부곡동 산56-3",
    "lat": "35.230896022268226",
    "lng": "129.09593103674644",
    "region": "부산광역시"
  },
  {
    "name": "의성고등학교 운동장",
    "address": "경상북도 의성군 의성읍 중리리 710-1",
    "lat": "36.35276165151073",
    "lng": "128.69996796719812",
    "region": "경상북도"
  },
  {
    "name": "까치산근린공원",
    "address": "서울특별시 관악구 봉천동 산66-1",
    "lat": "37.47778297665067",
    "lng": "126.96691481014965",
    "region": "서울특별시"
  },
  {
    "name": "남강고등학교 운동장",
    "address": "서울특별시 관악구 신림동 627-1",
    "lat": "37.47233345658231",
    "lng": "126.92512661218646",
    "region": "서울특별시"
  },
  {
    "name": "호박골어린이공원",
    "address": "서울특별시 관악구 신림동 1580-22",
    "lat": "37.48198815575511",
    "lng": "126.92392665950312",
    "region": "서울특별시"
  },
  {
    "name": "성수초등학교 운동장",
    "address": "서울특별시 성동구 성수동2가 277-32",
    "lat": "37.54406989996746",
    "lng": "127.06387975890632",
    "region": "서울특별시"
  },
  {
    "name": "대청근린공원",
    "address": "서울특별시 강남구 일원동 621",
    "lat": "37.49265151767816",
    "lng": "127.08253850039597",
    "region": "서울특별시"
  },
  {
    "name": "영동고등학교 운동장",
    "address": "서울특별시 강남구 청담동 23-4",
    "lat": "37.52043964774146",
    "lng": "127.0419829992976",
    "region": "서울특별시"
  },
  {
    "name": "청수근린공원",
    "address": "서울특별시 강남구 청담동 134-13",
    "lat": "37.52329797748501",
    "lng": "127.05841909920477",
    "region": "서울특별시"
  },
  {
    "name": "청담은행나무공원",
    "address": "서울특별시 강남구 청담동 94-4",
    "lat": "37.52513894255514",
    "lng": "127.0440382854142",
    "region": "서울특별시"
  },
  {
    "name": "충주여자중학교 운동장",
    "address": "충청북도 충주시 교현동 369-1",
    "lat": "36.975956794267226",
    "lng": "127.9344016313553",
    "region": "충청북도"
  },
  {
    "name": "칠금초등학교 운동장",
    "address": "충청북도 충주시 칠금동 727",
    "lat": "36.98390182456841",
    "lng": "127.92334020137787",
    "region": "충청북도"
  },
  {
    "name": "성정공원",
    "address": "충청남도 천안시 서북구 성정동 1285",
    "lat": "36.82943244230944",
    "lng": "127.1396523560955",
    "region": "충청남도"
  },
  {
    "name": "천안목천초등학교 운동장",
    "address": "충청남도 천안시 동남구 목천읍 서리 1",
    "lat": "36.787297",
    "lng": "127.235522",
    "region": "충청남도"
  },
  {
    "name": "지산고등학교 운동장",
    "address": "부산광역시 금정구 부곡동 8-11",
    "lat": "35.243484512610934",
    "lng": "129.09786489153416",
    "region": "부산광역시"
  },
  {
    "name": "미도어린이공원",
    "address": "서울특별시 관악구 신림동 675-200",
    "lat": "37.462838416613835",
    "lng": "126.91524214387222",
    "region": "서울특별시"
  },
  {
    "name": "싸리재공원",
    "address": "서울특별시 서초구 잠원동 30-10",
    "lat": "37.51334613021748",
    "lng": "127.01822671334943",
    "region": "서울특별시"
  },
  {
    "name": "언남고등학교 운동장",
    "address": "서울특별시 서초구 양재동 309",
    "lat": "37.4730457814756",
    "lng": "127.0433687776447",
    "region": "서울특별시"
  },
  {
    "name": "늘푸른근린공원",
    "address": "서울특별시 강남구 일원동 690",
    "lat": "37.48992747403253",
    "lng": "127.07751191640605",
    "region": "서울특별시"
  },
  {
    "name": "봉은초등학교 운동장",
    "address": "서울특별시 강남구 삼성동 79-2",
    "lat": "37.52063223502489",
    "lng": "127.06055298658677",
    "region": "서울특별시"
  },
  {
    "name": "왕남초등학교 운동장",
    "address": "경기도 성남시 수정구 고등동 589",
    "lat": "37.428285626198935",
    "lng": "127.09832489490509",
    "region": "경기도"
  },
  {
    "name": "보라매공원",
    "address": "서울특별시 동작구 신대방동 395",
    "lat": "37.49251399760391",
    "lng": "126.92005248617086",
    "region": "서울특별시"
  },
  {
    "name": "대방공원",
    "address": "서울특별시 동작구 대방동 23-176",
    "lat": "37.507172672350436",
    "lng": "126.92718598507878",
    "region": "서울특별시"
  },
  {
    "name": "자양고등학교 운동장",
    "address": "서울특별시 광진구 자양동 524-11",
    "lat": "37.535233050056",
    "lng": "127.07267239188494",
    "region": "서울특별시"
  },
  {
    "name": "신자초등학교 운동장",
    "address": "서울특별시 광진구 자양동 591",
    "lat": "37.529989526637024",
    "lng": "127.07545226360855",
    "region": "서울특별시"
  },
  {
    "name": "반포중학교 운동장",
    "address": "충청남도 공주시 반포면 봉곡리 242-6",
    "lat": "36.40433706834082",
    "lng": "127.24316010491718",
    "region": "충청남도"
  },
  {
    "name": "수촌초등학교 운동장",
    "address": "충청남도 공주시 의당면 수촌리 200-1",
    "lat": "36.517063035355804",
    "lng": "127.13492074383323",
    "region": "충청남도"
  },
  {
    "name": "호계초등학교 운동장",
    "address": "충청남도 공주시 사곡면 호계리 420",
    "lat": "36.507785",
    "lng": "127.023793",
    "region": "충청남도"
  },
  {
    "name": "부여중학교 운동장",
    "address": "충청남도 부여군 부여읍 동남리 463",
    "lat": "36.27741472600082",
    "lng": "126.9141586251383",
    "region": "충청남도"
  },
  {
    "name": "홍산중학교 운동장",
    "address": "충청남도 부여군 홍산면 북촌리 124-48",
    "lat": "36.214037357019656",
    "lng": "126.76670931887556",
    "region": "충청남도"
  },
  {
    "name": "논산내동초등학교 운동장",
    "address": "충청남도 논산시 내동 162-1",
    "lat": "36.18575434614927",
    "lng": "127.10449019484757",
    "region": "충청남도"
  },
  {
    "name": "성덕초등학교 운동장",
    "address": "충청남도 논산시 은진면 성덕리 218",
    "lat": "36.17641409932778",
    "lng": "127.12935805320741",
    "region": "충청남도"
  },
  {
    "name": "충남외국어고등학교 운동장",
    "address": "충청남도 아산시 탕정면 명암리 851",
    "lat": "36.80389333458935",
    "lng": "127.06050965179215",
    "region": "충청남도"
  },
  {
    "name": "천안광덕초등학교 운동장",
    "address": "충청남도 천안시 동남구 광덕면 신흥리 318-1",
    "lat": "36.69839940362184",
    "lng": "127.11006088032765",
    "region": "충청남도"
  },
  {
    "name": "금정여자고등학교 운동장",
    "address": "부산광역시 금정구 서동 461-2",
    "lat": "35.22011117670904",
    "lng": "129.10096060517313",
    "region": "부산광역시"
  },
  {
    "name": "금양초등학교 운동장",
    "address": "부산광역시 금정구 부곡동 63-27",
    "lat": "35.24113871167407",
    "lng": "129.0922236530262",
    "region": "부산광역시"
  },
  {
    "name": "금샘초등학교 운동장",
    "address": "부산광역시 금정구 남산동 553-2",
    "lat": "35.26871136525774",
    "lng": "129.08426632454726",
    "region": "부산광역시"
  },
  {
    "name": "남산고등학교 운동장",
    "address": "부산광역시 금정구 남산동 982",
    "lat": "35.267540613220525",
    "lng": "129.085868588782",
    "region": "부산광역시"
  },
  {
    "name": "관악초등학교 운동장",
    "address": "서울특별시 관악구 봉천동 920",
    "lat": "37.48067346937542",
    "lng": "126.94361515538746",
    "region": "서울특별시"
  },
  {
    "name": "모래내어린이공원",
    "address": "서울특별시 관악구 봉천동 1613-19",
    "lat": "37.47780314232952",
    "lng": "126.95564032259486",
    "region": "서울특별시"
  },
  {
    "name": "쑥고개어린이공원",
    "address": "서울특별시 관악구 신림동 1564-68",
    "lat": "37.475861738996464",
    "lng": "126.9408107718354",
    "region": "서울특별시"
  },
  {
    "name": "광신고등학교 운동장",
    "address": "서울특별시 관악구 신림동 328",
    "lat": "37.46462067831291",
    "lng": "126.92600905895236",
    "region": "서울특별시"
  },
  {
    "name": "두레근린공원",
    "address": "서울특별시 강동구 고덕동 497",
    "lat": "37.55797532729199",
    "lng": "127.15223431401272",
    "region": "서울특별시"
  },
  {
    "name": "왕십리광장",
    "address": "서울특별시 성동구 행당동 192-3",
    "lat": "37.56157249504905",
    "lng": "127.03722197374032",
    "region": "서울특별시"
  },
  {
    "name": "무학중학교 운동장",
    "address": "서울특별시 성동구 행당동 322-1",
    "lat": "37.55736175523416",
    "lng": "127.03223526477812",
    "region": "서울특별시"
  },
  {
    "name": "우솔초등학교 운동장",
    "address": "서울특별시 서초구 우면동 774",
    "lat": "37.45683434582415",
    "lng": "127.0194366794596",
    "region": "서울특별시"
  },
  {
    "name": "언남중학교 운동장",
    "address": "서울특별시 서초구 양재동 310",
    "lat": "37.472089623401764",
    "lng": "127.044262397213",
    "region": "서울특별시"
  },
  {
    "name": "중앙공원",
    "address": "충청북도 청주시 상당구 서문동 119",
    "lat": "36.632656698562556",
    "lng": "127.48699234062475",
    "region": "충청북도"
  },
  {
    "name": "내산초등학교 운동장",
    "address": "충청남도 부여군 내산면 운치리 442-6",
    "lat": "36.28158700242005",
    "lng": "126.77740008513393",
    "region": "충청남도"
  },
  {
    "name": "세도중학교 운동장",
    "address": "충청남도 부여군 세도면 간대리 402",
    "lat": "36.16695676326557",
    "lng": "126.94383266666681",
    "region": "충청남도"
  },
  {
    "name": "인주중학교 운동장",
    "address": "충청남도 아산시 인주면 관암리 418-1",
    "lat": "36.860743",
    "lng": "126.879814",
    "region": "충청남도"
  },
  {
    "name": "청수호수공원",
    "address": "충청남도 천안시 동남구 청수동 270",
    "lat": "36.78742894415112",
    "lng": "127.14878261089326",
    "region": "충청남도"
  },
  {
    "name": "천안성거초등학교 운동장",
    "address": "충청남도 천안시 서북구 성거읍 송남리 18-1",
    "lat": "36.87152363596017",
    "lng": "127.19988694673552",
    "region": "충청남도"
  },
  {
    "name": "천안양대초등학교 운동장",
    "address": "충청남도 천안시 서북구 입장면 하장리 18-1",
    "lat": "36.91515800378907",
    "lng": "127.22624813165861",
    "region": "충청남도"
  },
  {
    "name": "천안수신초등학교 운동장",
    "address": "충청남도 천안시 동남구 수신면 속창리 139",
    "lat": "36.73269348323258",
    "lng": "127.28328198194504",
    "region": "충청남도"
  },
  {
    "name": "세명컴퓨터고등학교 운동장",
    "address": "서울특별시 은평구 불광동 445-35",
    "lat": "37.62751368172139",
    "lng": "126.92342185358363",
    "region": "서울특별시"
  },
  {
    "name": "당골어린이공원",
    "address": "서울특별시 서초구 서초동 1436-6",
    "lat": "37.485590518371914",
    "lng": "127.02266301593481",
    "region": "서울특별시"
  },
  {
    "name": "서운중학교 운동장",
    "address": "서울특별시 서초구 서초동 1325-1",
    "lat": "37.493607133352214",
    "lng": "127.02478898064307",
    "region": "서울특별시"
  },
  {
    "name": "중경고등학교 운동장",
    "address": "서울특별시 용산구 이촌동 300-302",
    "lat": "37.517398098811164",
    "lng": "126.97552858069187",
    "region": "서울특별시"
  },
  {
    "name": "풍문고등학교 운동장",
    "address": "서울특별시 강남구 자곡동 643",
    "lat": "37.47164258928833",
    "lng": "127.10090706498193",
    "region": "서울특별시"
  },
  {
    "name": "못골공원",
    "address": "서울특별시 강남구 자곡동 447-23",
    "lat": "37.47362210115038",
    "lng": "127.10007481924193",
    "region": "서울특별시"
  },
  {
    "name": "대왕공원",
    "address": "서울특별시 강남구 세곡동 526-2",
    "lat": "37.46237048956338",
    "lng": "127.10459291035805",
    "region": "서울특별시"
  },
  {
    "name": "신사근린공원",
    "address": "서울특별시 강남구 압구정동 422",
    "lat": "37.52644433324483",
    "lng": "127.02105896038151",
    "region": "서울특별시"
  },
  {
    "name": "충주 관아공원",
    "address": "충청북도 충주시 성내동 232-2",
    "lat": "36.970503212207625",
    "lng": "127.93620139360428",
    "region": "충청북도"
  },
  {
    "name": "국원고등학교 운동장",
    "address": "충청북도 충주시 봉방동 72",
    "lat": "36.97849166616466",
    "lng": "127.9208269715309",
    "region": "충청북도"
  },
  {
    "name": "남양공원",
    "address": "충청북도 충주시 연수동 929",
    "lat": "36.985611568885474",
    "lng": "127.9316121339798",
    "region": "충청북도"
  },
  {
    "name": "신방공원",
    "address": "충청남도 천안시 동남구 신방동 719",
    "lat": "36.785100388564025",
    "lng": "127.12107002735138",
    "region": "충청남도"
  },
  {
    "name": "반포종합운동장",
    "address": "서울특별시 서초구 반포동 15-2",
    "lat": "37.500578425600004",
    "lng": "126.99429679327922",
    "region": "서울특별시"
  },
  {
    "name": "뒷벌공원",
    "address": "서울특별시 서초구 방배동 821-1",
    "lat": "37.49046221143371",
    "lng": "126.98685428505713",
    "region": "서울특별시"
  },
  {
    "name": "원효초등학교 운동장",
    "address": "서울특별시 용산구 산천동 6-73",
    "lat": "37.53603939573841",
    "lng": "126.95193303586885",
    "region": "서울특별시"
  },
  {
    "name": "양전초등학교 운동장",
    "address": "서울특별시 강남구 개포동 183",
    "lat": "37.49042576270515",
    "lng": "127.07041280084945",
    "region": "서울특별시"
  },
  {
    "name": "논현개나리공원",
    "address": "서울특별시 강남구 논현동 150-5",
    "lat": "37.51133342143559",
    "lng": "127.02994930818409",
    "region": "서울특별시"
  },
  {
    "name": "해찬솔근린공원",
    "address": "서울특별시 강남구 자곡동 627",
    "lat": "37.470872219203265",
    "lng": "127.09262362434225",
    "region": "서울특별시"
  },
  {
    "name": "일원까치공원",
    "address": "서울특별시 강남구 일원동 712-4",
    "lat": "37.49206512608026",
    "lng": "127.08821284962917",
    "region": "서울특별시"
  },
  {
    "name": "대소원초등학교 운동장",
    "address": "충청북도 충주시 대소원면 본리 647",
    "lat": "36.98747124714509",
    "lng": "127.82759606838223",
    "region": "충청북도"
  },
  {
    "name": "금제공원",
    "address": "충청북도 충주시 금릉동 691",
    "lat": "36.98949370276836",
    "lng": "127.925520837307",
    "region": "충청북도"
  },
  {
    "name": "중앙탑초등학교 운동장",
    "address": "충청북도 충주시 중앙탑면 용전리 691",
    "lat": "37.01542949854498",
    "lng": "127.83134579658507",
    "region": "충청북도"
  },
  {
    "name": "중원체육공원",
    "address": "충청북도 충주시 중앙탑면 탑평리 206-4",
    "lat": "37.02993307436523",
    "lng": "127.85699542911519",
    "region": "충청북도"
  },
  {
    "name": "노은초등학교 운동장",
    "address": "충청북도 충주시 노은면 연하리 535-2",
    "lat": "37.04818146072722",
    "lng": "127.7553802728653",
    "region": "충청북도"
  },
  {
    "name": "성동초등학교 운동장",
    "address": "서울특별시 광진구 자양동 694-1",
    "lat": "37.53280495144522",
    "lng": "127.08962639893191",
    "region": "서울특별시"
  },
  {
    "name": "쌍룡산어린이공원",
    "address": "서울특별시 마포구 아현동 768",
    "lat": "37.55300695799431",
    "lng": "126.95047616958617",
    "region": "서울특별시"
  },
  {
    "name": "공덕역어린이공원",
    "address": "서울특별시 마포구 공덕동 467-1",
    "lat": "37.545127085201095",
    "lng": "126.95129343700935",
    "region": "서울특별시"
  },
  {
    "name": "이대녹지쉼터",
    "address": "서울특별시 마포구 대��동 2-1",
    "lat": "37.55653641803751",
    "lng": "126.94619918587482",
    "region": "서울특별시"
  },
  {
    "name": "경남아너스빌쉼터",
    "address": "서울특별시 마포구 신수동 456-1",
    "lat": "37.54881020096174",
    "lng": "126.93365696051026",
    "region": "서울특별시"
  },
  {
    "name": "양화어린이공원",
    "address": "서울특별시 마포구 합정동 394-1",
    "lat": "37.55045821601462",
    "lng": "126.9085399400458",
    "region": "서울특별시"
  },
  {
    "name": "구룡초등학교 운동장",
    "address": "충청남도 부여군 구룡면 태양리 68-1",
    "lat": "36.25331793503136",
    "lng": "126.81411802230154",
    "region": "충청남도"
  },
  {
    "name": "석성중학교 운동장",
    "address": "충청남도 부여군 석성면 증산리 1249-2",
    "lat": "36.24938518149393",
    "lng": "126.99794464434325",
    "region": "충청남도"
  },
  {
    "name": "온양용화고등학교 운동장",
    "address": "충청남도 아산시 용화동 39-9",
    "lat": "36.773577205251925",
    "lng": "127.00335226396271",
    "region": "충청남도"
  },
  {
    "name": "서래공원",
    "address": "서울특별시 서초구 반포동 63-6",
    "lat": "37.50133810641798",
    "lng": "127.00305476107081",
    "region": "서울특별시"
  },
  {
    "name": "효창운동장",
    "address": "서울특별시 용산구 효창동 3",
    "lat": "37.54339275710986",
    "lng": "126.9614088535309",
    "region": "서울특별시"
  },
  {
    "name": "용산철도고등학교 운동장",
    "address": "서울특별시 용산구 한강로3가 65-209",
    "lat": "37.524243598190104",
    "lng": "126.96654796600343",
    "region": "서울특별시"
  },
  {
    "name": "라틴아메리카공원",
    "address": "서울특별시 용산구 이태원동 258-467",
    "lat": "37.54079870628375",
    "lng": "126.99713904263206",
    "region": "서울특별시"
  },
  {
    "name": "독서당어린이공원",
    "address": "서울특별시 용산구 한남동 1-32",
    "lat": "37.53449228957353",
    "lng": "127.01246347733272",
    "region": "서울특별시"
  },
  {
    "name": "윗반고개공원",
    "address": "서울특별시 강남구 세곡동 99-6",
    "lat": "37.46569146528311",
    "lng": "127.10918304101993",
    "region": "서울특별시"
  },
  {
    "name": "세성초등학교",
    "address": "충청북도 충주시 살미면 세성리 154-1",
    "lat": "36.90419153411778",
    "lng": "127.96834394168259",
    "region": "충청북도"
  },
  {
    "name": "달천초등학교 운동장",
    "address": "충청북도 충주시 용두동 411-1",
    "lat": "36.962863254529",
    "lng": "127.87907302379608",
    "region": "충청북도"
  },
  {
    "name": "금릉소공원",
    "address": "충청북도 충주시 칠금동 823",
    "lat": "36.98315620975149",
    "lng": "127.9195100069046",
    "region": "충청북도"
  },
  {
    "name": "금가초등학교 운동장",
    "address": "충청북도 충주시 금가면 도촌리 400-1",
    "lat": "37.04396834939631",
    "lng": "127.92248725891113",
    "region": "충청북도"
  },
  {
    "name": "가온문화공원",
    "address": "서울특별시 마포구 상암동 1594",
    "lat": "37.58183414889946",
    "lng": "126.88762122451529",
    "region": "서울특별시"
  },
  {
    "name": "DMC문화공원",
    "address": "서울특별시 마포구 상암동 1611",
    "lat": "37.57801670011703",
    "lng": "126.89233864707614",
    "region": "서울특별시"
  },
  {
    "name": "윗잔다리 어린이공원",
    "address": "서울특별시 마포구 동교동 168-1",
    "lat": "37.55721322916476",
    "lng": "126.9262452985361",
    "region": "서울특별시"
  },
  {
    "name": "한마음(어린이)공원",
    "address": "서울특별시 마포구 망원동 381-1",
    "lat": "37.55454918881412",
    "lng": "126.90804348398909",
    "region": "서울특별시"
  },
  {
    "name": "옹달샘(어린이)공원",
    "address": "서울특별시 마포구 망원동 408-3",
    "lat": "37.554885333002154",
    "lng": "126.90205553264134",
    "region": "서울특별시"
  },
  {
    "name": "용당초등학교 운동장",
    "address": "충청남도 부여군 구룡면 용당리 629",
    "lat": "36.23665621940287",
    "lng": "126.82588138391081",
    "region": "충청남도"
  },
  {
    "name": "규암초등학교 운동장",
    "address": "충청남도 부여군 규암면 외리 205-2",
    "lat": "36.27494714651288",
    "lng": "126.88088125529383",
    "region": "충청남도"
  },
  {
    "name": "부여전자고등학교 운동장",
    "address": "충청남도 부여군 임천면 만사리 199",
    "lat": "36.17670515534516",
    "lng": "126.89219791555801",
    "region": "충청남도"
  },
  {
    "name": "아산성심학교 운동장",
    "address": "충청남도 아산시 선장면 군덕리 191-2",
    "lat": "36.775918041255494",
    "lng": "126.86291562903605",
    "region": "충청남도"
  },
  {
    "name": "천안오성초등학교 운동장",
    "address": "충청남도 천안시 서북구 두정동 675",
    "lat": "36.83132374404774",
    "lng": "127.13010496950025",
    "region": "충청남도"
  },
  {
    "name": "금양중학교 운동장",
    "address": "부산광역시 금정구 부곡동 354-1",
    "lat": "35.23333809972012",
    "lng": "129.09476280212573",
    "region": "부산광역시"
  },
  {
    "name": "광도초등학교",
    "address": "경상남도 통영시 광도면 노산리 355-1",
    "lat": "34.900455051707496",
    "lng": "128.40611830142169",
    "region": "경상남도"
  },
  {
    "name": "자유어린이공원(시범아파트)",
    "address": "서울특별시 영등포구 여의도동 50-3",
    "lat": "37.520456999958554",
    "lng": "126.93625777959458",
    "region": "서울특별시"
  },
  {
    "name": "원지어린이공원",
    "address": "서울특별시 영등포구 대림동 690",
    "lat": "37.49809513494412",
    "lng": "126.89962148666382",
    "region": "서울특별시"
  },
  {
    "name": "도림동 유수지 ",
    "address": "서울특별시 영등포구 도림동 254",
    "lat": "37.50689174297706",
    "lng": "126.89720749855044",
    "region": "서울특별시"
  },
  {
    "name": "양남어린이공원",
    "address": "서울특별시 영등포구 양평동1가 205",
    "lat": "37.52334376668976",
    "lng": "126.88821673393369",
    "region": "서울특별시"
  },
  {
    "name": "정자문화공원",
    "address": "경기도 수원시 장안구 정자동 947",
    "lat": "37.309474880870305",
    "lng": "126.98715806007385",
    "region": "경기도"
  },
  {
    "name": "성서초등학교 운동장",
    "address": "대구광역시 달서구 이곡동 690",
    "lat": "35.85186112461458",
    "lng": "128.5137365986502",
    "region": "대구광역시"
  },
  {
    "name": "용산근린공원",
    "address": "대구광역시 달서구 용산동 949",
    "lat": "35.85573781513317",
    "lng": "128.52894152009554",
    "region": "대구광역시"
  },
  {
    "name": "경천초등학교 운동장",
    "address": "충청남도 공주시 계룡면 경천리 371-1",
    "lat": "36.32414668699789",
    "lng": "127.1496054782928",
    "region": "충청남도"
  },
  {
    "name": "석송초등학교 운동장",
    "address": "충청남도 공주시 정안면 전평리 28-2",
    "lat": "36.56407851435779",
    "lng": "127.11454684584123",
    "region": "충청남도"
  },
  {
    "name": "공주영명고등학교 운동장",
    "address": "충청남도 공주시 중동 318",
    "lat": "36.45127273112823",
    "lng": "127.12735712528229",
    "region": "충청남도"
  },
  {
    "name": "궁남초등학교 운동장",
    "address": "충청남도 부여군 부여읍 동남리 214-4",
    "lat": "36.27464742220565",
    "lng": "126.9067293405533",
    "region": "충청남도"
  },
  {
    "name": "설화중학교 운동장",
    "address": "충청남도 아산시 배방읍 장재리 1567",
    "lat": "36.78565014918744",
    "lng": "127.09634305110802",
    "region": "충청남도"
  },
  {
    "name": "도고중학교 운동장",
    "address": "충청남도 아산시 도고면 시전리 159",
    "lat": "36.74355144077731",
    "lng": "126.9008369514644",
    "region": "충청남도"
  },
  {
    "name": "도솔광장",
    "address": "충청남도 천안시 동남구 신부동 124",
    "lat": "36.82428974126986",
    "lng": "127.16150701045989",
    "region": "충청남도"
  },
  {
    "name": "남산중학교 운동장",
    "address": "부산광역시 금정구 남산동 31-11",
    "lat": "35.259376379132476",
    "lng": "129.09351177881754",
    "region": "부산광역시"
  },
  {
    "name": "무악어린이공원",
    "address": "서울특별시 종로구 무악동 산2-83",
    "lat": "37.57753904114899",
    "lng": "126.96062131138795",
    "region": "서울특별시"
  },
  {
    "name": "후암초등학교 운동장",
    "address": "서울특별시 용산구 후암동 30-138",
    "lat": "37.551276025531315",
    "lng": "126.98227643967225",
    "region": "서울특별시"
  },
  {
    "name": "선린인터넷고등학교 운동장",
    "address": "서울특별시 용산구 청파동3가 131-2",
    "lat": "37.54229715921807",
    "lng": "126.96690252844338",
    "region": "서울특별시"
  },
  {
    "name": "봉방소공원",
    "address": "충청북도 충주시 봉방동 170-14",
    "lat": "36.97326326642824",
    "lng": "127.91902720928192",
    "region": "충청북도"
  },
  {
    "name": "일원느티나무공원",
    "address": "서울특별시 강남구 일원동 730-2",
    "lat": "37.483089549110886",
    "lng": "127.077497439141",
    "region": "서울특별시"
  },
  {
    "name": "목행초등학교 운동장",
    "address": "충청북도 충주시 목행동 577-1",
    "lat": "37.00732497734011",
    "lng": "127.91858196258545",
    "region": "충청북도"
  },
  {
    "name": "이곡초등학교 운동장",
    "address": "대구광역시 달서구 이곡동 1304-4",
    "lat": "35.856416192366865",
    "lng": "128.51342214539778",
    "region": "대구광역시"
  },
  {
    "name": "상산초등학교 운동장",
    "address": "경상북도 상주시 냉림동 206",
    "lat": "36.4221846086554",
    "lng": "128.16075861454016",
    "region": "경상북도"
  },
  {
    "name": "고렴공원",
    "address": "경기도 수원시 권선구 곡반정동 546",
    "lat": "37.24053394697144",
    "lng": "127.02910373327518",
    "region": "경기도"
  },
  {
    "name": "물향기공원",
    "address": "경기도 수원시 권선구 호매실동 1384",
    "lat": "37.262778265782174",
    "lng": "126.95309668779372",
    "region": "경기도"
  },
  {
    "name": "대부둑공원",
    "address": "경기도 수원시 권선구 고색동 1189",
    "lat": "37.25505459171594",
    "lng": "126.96995973587036",
    "region": "경기도"
  },
  {
    "name": "금산여자중학교 운동장",
    "address": "충청남도 금산군 금산읍 아인리 26",
    "lat": "36.10559605157187",
    "lng": "127.4830611818712",
    "region": "충청남도"
  },
  {
    "name": "부리초등학교 운동장",
    "address": "충청남도 금산군 부리면 양곡리 699",
    "lat": "36.06190865631735",
    "lng": "127.55560866585412",
    "region": "충청남도"
  },
  {
    "name": "대왕초등학교 운동장",
    "address": "충청남도 부여군 부여읍 가탑리 377-1",
    "lat": "36.26834282052814",
    "lng": "126.92795297255005",
    "region": "충청남도"
  },
  {
    "name": "운천초등학교",
    "address": "경기도 오산시 부산동 778-4",
    "lat": "37.156092903423875",
    "lng": "127.07913100211263",
    "region": "경기도"
  },
  {
    "name": "설화고등학교 운동장",
    "address": "충청남도 아산시 배방읍 장재리 1441",
    "lat": "36.78778026894314",
    "lng": "127.09198002376327",
    "region": "충청남도"
  },
  {
    "name": "온양신정중학교 운동장",
    "address": "충청남도 아산시 실옥동 191-21",
    "lat": "36.78883355782239",
    "lng": "126.98689252094088",
    "region": "충청남도"
  },
  {
    "name": "천안부대초등학교 운동장",
    "address": "충청남도 천안시 서북구 부대동 717",
    "lat": "36.84865485056225",
    "lng": "127.15191274881364",
    "region": "충청남도"
  },
  {
    "name": "천안신대초등학교 운동장",
    "address": "충청남도 천안시 서북구 두정동 1546",
    "lat": "36.837200031527985",
    "lng": "127.14306581621675",
    "region": "충청남도"
  },
  {
    "name": "무지개초등학교 운동장",
    "address": "경상남도 진주시 충무공동 125",
    "lat": "35.171815507714236",
    "lng": "128.13730123712136",
    "region": "경상남도"
  },
  {
    "name": "세검정초등학교 운동장",
    "address": "서울특별시 종로구 신영동 219-4",
    "lat": "37.60278991466504",
    "lng": "126.96090293383646",
    "region": "서울특별시"
  },
  {
    "name": "서원초등학교 운동장",
    "address": "서울특별시 서초구 반포동 30-8",
    "lat": "37.502522798636804",
    "lng": "127.01514360463652",
    "region": "서울특별시"
  },
  {
    "name": "본마을공원",
    "address": "서울특별시 서초구 신원동 445",
    "lat": "37.454553332709864",
    "lng": "127.05318745603131",
    "region": "서울특별시"
  },
  {
    "name": "수도전기공업고등학교 운동장",
    "address": "서울특별시 강남구 개포동 155",
    "lat": "37.48684473147694",
    "lng": "127.06367411261569",
    "region": "서울특별시"
  },
  {
    "name": "늘벗근린공원",
    "address": "서울특별시 강남구 대치동 501",
    "lat": "37.489548578832895",
    "lng": "127.05721357553537",
    "region": "서울특별시"
  },
  {
    "name": "도곡중학교 운동장",
    "address": "서울특별시 강남구 도곡동 541-2",
    "lat": "37.49268628128757",
    "lng": "127.04498246488566",
    "region": "서울특별시"
  },
  {
    "name": "윗방죽마을공원",
    "address": "서울특별시 강남구 율현동 308-29",
    "lat": "37.470317509673116",
    "lng": "127.10464031905046",
    "region": "서울특별시"
  },
  {
    "name": "대청초등학교 운동장",
    "address": "서울특별시 강남구 일원동 712",
    "lat": "37.49273189845409",
    "lng": "127.08791045311295",
    "region": "서울특별시"
  },
  {
    "name": "중동중학교 운동장",
    "address": "서울특별시 강남구 일원동 692",
    "lat": "37.48889584318694",
    "lng": "127.07779342343268",
    "region": "서울특별시"
  },
  {
    "name": "공검초등학교 운동장",
    "address": "경상북도 상주시 공검면 부곡리 9-1",
    "lat": "36.515553722235325",
    "lng": "128.1546458601952",
    "region": "경상북도"
  },
  {
    "name": "혜령공원",
    "address": "경기도 수원시 영통구 이의동 1354",
    "lat": "37.28805292262115",
    "lng": "127.04559534788133",
    "region": "경기도"
  },
  {
    "name": "광교호수공원",
    "address": "경기도 수원시 영통구 하동 1023",
    "lat": "37.27918364137163",
    "lng": "127.06044137477677",
    "region": "경기도"
  },
  {
    "name": "천안생활체육공원",
    "address": "충청남도 천안시 동남구 청당동 976",
    "lat": "36.77951500374422",
    "lng": "127.16324776411057",
    "region": "충청남도"
  },
  {
    "name": "천안삼은초등학교 운동장",
    "address": "충청남도 천안시 서북구 직산읍 삼은리 76-16",
    "lat": "36.87773282007995",
    "lng": "127.14769866202046",
    "region": "충청남도"
  },
  {
    "name": "천안천동초등학교 운동장",
    "address": "충청남도 천안시 동남구 동면 동산리 551",
    "lat": "36.7778865726117",
    "lng": "127.34823971986769",
    "region": "충청남도"
  },
  {
    "name": "천안업성초등학교 운동장",
    "address": "충청남도 천안시 서북구 업성동 99-1",
    "lat": "36.86112653298051",
    "lng": "127.14160510445389",
    "region": "충청남도"
  },
  {
    "name": "평창공원",
    "address": "서울특별시 종로구 평창동 108-3",
    "lat": "37.61055137883836",
    "lng": "126.97790443897277",
    "region": "서울특별시"
  },
  {
    "name": "성심여자중고등학교 운동장",
    "address": "서울특별시 용산구 원효로4가 1-1",
    "lat": "37.533871282977834",
    "lng": "126.95456213763809",
    "region": "서울특별시"
  },
  {
    "name": "명주근린공원",
    "address": "서울특별시 서초구 잠원동 50-4",
    "lat": "37.51717546646522",
    "lng": "127.01516757047769",
    "region": "서울특별시"
  },
  {
    "name": "반원어린이공원",
    "address": "서울특별시 서초구 잠원동 72-1",
    "lat": "37.50951675670443",
    "lng": "127.0031018926397",
    "region": "서울특별시"
  },
  {
    "name": "개원중학교 운동장",
    "address": "서울특별시 강남구 개포동 184",
    "lat": "37.49129029540408",
    "lng": "127.07138362100473",
    "region": "서울특별시"
  },
  {
    "name": "경기여자고등학교 운동장",
    "address": "서울특별시 강남구 개포동 152",
    "lat": "37.48624082466386",
    "lng": "127.06591966580048",
    "region": "서울특별시"
  },
  {
    "name": "이태원 어린이공원",
    "address": "서울특별시 용산구 이태원동 286-1",
    "lat": "37.538477714112624",
    "lng": "126.9892724629172",
    "region": "서울특별시"
  },
  {
    "name": "배밭근린공원",
    "address": "서울특별시 강남구 개포동 181",
    "lat": "37.48884339844712",
    "lng": "127.06245829769726",
    "region": "서울특별시"
  },
  {
    "name": "삼성목련공원",
    "address": "서울특별시 강남구 삼성동 55-1",
    "lat": "37.51857309301276",
    "lng": "127.05404301984358",
    "region": "서울특별시"
  },
  {
    "name": "세명근린공원",
    "address": "서울특별시 강남구 자곡동 625",
    "lat": "37.469020632623696",
    "lng": "127.09041704894393",
    "region": "서울특별시"
  },
  {
    "name": "탄천근린공원",
    "address": "서울특별시 강남구 수서동 722",
    "lat": "37.48760081087917",
    "lng": "127.10651987197869",
    "region": "서울특별시"
  },
  {
    "name": "압구정중학교 운동장",
    "address": "서울특별시 강남구 압구정동 471",
    "lat": "37.529747843197946",
    "lng": "127.03307297306539",
    "region": "서울특별시"
  },
  {
    "name": "역삼장미공원",
    "address": "서울특별시 강남구 역삼동 780-25",
    "lat": "37.49530651623583",
    "lng": "127.04480994229036",
    "region": "서울특별시"
  },
  {
    "name": "수안보 생활체육공원",
    "address": "충청북도 충주시 수안보면 안보리 425-4",
    "lat": "36.83957089966348",
    "lng": "128.0064645409584",
    "region": "충청북도"
  },
  {
    "name": "연수초등학교 운동장",
    "address": "충청북도 충주시 연수동 1232",
    "lat": "36.987484101905714",
    "lng": "127.93837130069736",
    "region": "충청북도"
  },
  {
    "name": "상영초등학교 운동장",
    "address": "경상북도 상주시 남성동 188",
    "lat": "36.40878055215232",
    "lng": "128.1602919101715",
    "region": "경상북도"
  },
  {
    "name": "태조산공원",
    "address": "충청남도 천안시 동남구 유량동 24",
    "lat": "36.823",
    "lng": "127.1912",
    "region": "충청남도"
  },
  {
    "name": "천안불당초등학교 운동장",
    "address": "충청남도 천안시 서북구 불당동 860",
    "lat": "36.80569365462683",
    "lng": "127.10916537250225",
    "region": "충청남도"
  },
  {
    "name": "사도감어린이공원",
    "address": "서울특별시 서초구 서초동 1359-12",
    "lat": "37.485717145681974",
    "lng": "127.0313198903007",
    "region": "서울특별시"
  },
  {
    "name": "서초초등학교 운동장",
    "address": "서울특별시 서초구 서초동 1310-6",
    "lat": "37.49914530267155",
    "lng": "127.02416752070856",
    "region": "서울특별시"
  },
  {
    "name": "이수초등학교 운동장",
    "address": "서울특별시 서초구 방배동 468-6",
    "lat": "37.478061708677004",
    "lng": "126.9845817551815",
    "region": "서울특별시"
  },
  {
    "name": "한강중학교 운동장",
    "address": "서울특별시 용산구 서빙고동 4-1",
    "lat": "37.524248486923256",
    "lng": "126.9916113819194",
    "region": "서울특별시"
  },
  {
    "name": "대곡초등학교 운동장",
    "address": "서울특별시 강남구 대치동 510",
    "lat": "37.49440542587893",
    "lng": "127.06524442765343",
    "region": "서울특별시"
  },
  {
    "name": "은성중학교(은광여고) 운동장",
    "address": "서울특별시 강남구 도곡동 938-10",
    "lat": "37.487276333878995",
    "lng": "127.03633238846841",
    "region": "서울특별시"
  },
  {
    "name": "신사은행나무공원",
    "address": "서울특별시 강남구 신사동 558",
    "lat": "37.520583846145804",
    "lng": "127.026036305384",
    "region": "서울특별시"
  },
  {
    "name": "일원초등학교 운동장",
    "address": "서울특별시 강남구 일원동 691",
    "lat": "37.48939483654509",
    "lng": "127.07642077901443",
    "region": "서울특별시"
  },
  {
    "name": "중산고등학교 운동장",
    "address": "서울특별시 강남구 일원동 714",
    "lat": "37.48533984711949",
    "lng": "127.08059470034894",
    "region": "서울특별시"
  },
  {
    "name": "제원초등학교 운동장",
    "address": "충청남도 금산군 제원면 제원리 200",
    "lat": "36.113674117851836",
    "lng": "127.54587135386816",
    "region": "충청남도"
  },
  {
    "name": "추부중학교 운동장",
    "address": "충청남도 금산군 추부면 마전리 407",
    "lat": "36.192325213719265",
    "lng": "127.4688530869082",
    "region": "충청남도"
  },
  {
    "name": "금빛초등학교 운동장",
    "address": "부산광역시 금정구 장전동 714",
    "lat": "35.2274870693884",
    "lng": "129.0804195618292",
    "region": "부산광역시"
  },
  {
    "name": "응봉초등학교 운동장",
    "address": "서울특별시 성동구 응봉동 217-4",
    "lat": "37.55121174839972",
    "lng": "127.03495859515941",
    "region": "서울특별시"
  },
  {
    "name": "원촌초등학교 운동장",
    "address": "서울특별시 서초구 반포동 22",
    "lat": "37.505995700878",
    "lng": "127.01409950191406",
    "region": "서울특별시"
  },
  {
    "name": "새말어린이공원",
    "address": "서울특별시 서초구 방배동 794-16",
    "lat": "37.493331226125164",
    "lng": "126.98861415670925",
    "region": "서울특별시"
  },
  {
    "name": "서울웹툰애니메이션고등학교 운동장",
    "address": "서울특별시 서초구 방배동 2727",
    "lat": "37.46959007163872",
    "lng": "126.98853717346573",
    "region": "서울특별시"
  },
  {
    "name": "개포동근린공원",
    "address": "서울특별시 강남구 개포동 183-1",
    "lat": "37.490555443633575",
    "lng": "127.06922938540157",
    "region": "서울특별시"
  },
  {
    "name": "응봉근린공원(매봉산공원)",
    "address": "서울특별시 용산구 한남동 산8-1",
    "lat": "37.54439017379582",
    "lng": "127.00487136841276",
    "region": "서울특별시"
  },
  {
    "name": "언북중학교 운동장",
    "address": "서울특별시 강남구 논현동 69",
    "lat": "37.51889008759051",
    "lng": "127.0332932265894",
    "region": "서울특별시"
  },
  {
    "name": "삼성까치공원",
    "address": "서울특별시 강남구 삼성동 85",
    "lat": "37.518240056578314",
    "lng": "127.06071036342429",
    "region": "서울특별시"
  },
  {
    "name": "율현초등학교 운동장",
    "address": "서울특별시 강남구 자곡동 361-2",
    "lat": "37.474498195384186",
    "lng": "127.10870934858316",
    "region": "서울특별시"
  },
  {
    "name": "도담공원",
    "address": "서울특별시 강남구 세곡동 548",
    "lat": "37.46727957240311",
    "lng": "127.0986274620779",
    "region": "서울특별시"
  },
  {
    "name": "역삼은행나무공원",
    "address": "서울특별시 강남구 역삼동 611",
    "lat": "37.5054469019472",
    "lng": "127.03124890590603",
    "region": "서울특별시"
  },
  {
    "name": "역삼중학교 운동장",
    "address": "서울특별시 강남구 역삼동 767-20",
    "lat": "37.49558879281516",
    "lng": "127.04872586773544",
    "region": "서울특별시"
  },
  {
    "name": "미성초등학교 운동장",
    "address": "전북특별자치도 군산시 산북동 3623",
    "lat": "35.95768280384883",
    "lng": "126.67438030242914",
    "region": "전북특별자치도"
  },
  {
    "name": "군산수송초등학교 운동장",
    "address": "전북특별자치도 군산시 수송동 396-9",
    "lat": "35.97204560434869",
    "lng": "126.71642124652855",
    "region": "전북특별자치도"
  },
  {
    "name": "군산신풍초등학교 운동장",
    "address": "전북특별자치도 군산시 나운동 835-1",
    "lat": "35.96461748949767",
    "lng": "126.69560863052817",
    "region": "전북특별자치도"
  },
  {
    "name": "군산신흥초등학교 운동장",
    "address": "전북특별자치도 군산시 나운동 45-4",
    "lat": "35.96770650006205",
    "lng": "126.70638260380439",
    "region": "전북특별자치도"
  },
  {
    "name": "군산용문초등학교 운동장",
    "address": "전북특별자치도 군산시 미룡동 898-8",
    "lat": "35.941942009876705",
    "lng": "126.6886927656531",
    "region": "전북특별자치도"
  },
  {
    "name": "옥산오토캠핑장 ",
    "address": "전북특별자치도 군산시 옥산면 남내리 737",
    "lat": "35.936685317275476",
    "lng": "126.7566919326782",
    "region": "전북특별자치도"
  },
  {
    "name": "옥산 대려마을",
    "address": "전북특별자치도 군산시 옥산면 옥산리 174-24",
    "lat": "35.93691831421658",
    "lng": "126.74225276746755",
    "region": "전북특별자치도"
  },
  {
    "name": "나래초등학교 운동장",
    "address": "경기도 이천시 장호원읍 나래리 293-1",
    "lat": "37.169608904916714",
    "lng": "127.58759073600342",
    "region": "경기도"
  },
  {
    "name": "마장고등학교 운동장",
    "address": "경기도 이천시 마장면 양촌리 54",
    "lat": "37.25830810983699",
    "lng": "127.35268950462344",
    "region": "경기도"
  },
  {
    "name": "금산초등학교 운동장",
    "address": "서울특별시 금천구 시흥동 653-27",
    "lat": "37.441877637800836",
    "lng": "126.90816575481541",
    "region": "서울특별시"
  },
  {
    "name": "영일고등학교 운동장",
    "address": "서울특별시 강서구 등촌동 525",
    "lat": "37.54792209764778",
    "lng": "126.86171044173048",
    "region": "서울특별시"
  },
  {
    "name": "홍연초등학교 운동장",
    "address": "서울특별시 서대문구 홍은동 305",
    "lat": "37.58155878601789",
    "lng": "126.93101621357658",
    "region": "서울특별시"
  },
  {
    "name": "방배1동 공영주차장",
    "address": "서울특별시 서초구 방배동 328-1",
    "lat": "37.48534559816165",
    "lng": "126.99248747816469",
    "region": "서울특별시"
  },
  {
    "name": "한남어린이공원",
    "address": "서울특별시 용산구 한남동 15-5",
    "lat": "37.53724079173288",
    "lng": "127.01385936931887",
    "region": "서울특별시"
  },
  {
    "name": "세곡중학교 운동장",
    "address": "서울특별시 강남구 자곡동 617",
    "lat": "37.47162183602302",
    "lng": "127.092497426536",
    "region": "서울특별시"
  },
  {
    "name": "세곡천공원",
    "address": "서울특별시 강남구 세곡동 522-1",
    "lat": "37.463208477223475",
    "lng": "127.10128441710214",
    "region": "서울특별시"
  },
  {
    "name": "소나무 어린이 공원",
    "address": "서울특별시 강서구 화곡동 29-31",
    "lat": "37.54709100060095",
    "lng": "126.84783875942226",
    "region": "서울특별시"
  },
  {
    "name": "수서중학교 운동장",
    "address": "서울특별시 강남구 수서동 710",
    "lat": "37.49076017342804",
    "lng": "127.10269138933663",
    "region": "서울특별시"
  },
  {
    "name": "압구정고등학교 운동장",
    "address": "서울특별시 강남구 압구정동 470",
    "lat": "37.53075029571379",
    "lng": "127.03278104043947",
    "region": "서울특별시"
  },
  {
    "name": "군산푸른솔초등학교 운동장",
    "address": "전북특별자치도 군산시 수송동 813",
    "lat": "35.961278545832826",
    "lng": "126.71162619203876",
    "region": "전북특별자치도"
  },
  {
    "name": "군산풍문초등학교 운동장",
    "address": "전북특별자치도 군산시 장재동 45-19",
    "lat": "35.97712997581876",
    "lng": "126.7182176051947",
    "region": "전북특별자치도"
  },
  {
    "name": "군산흥남초등학교 운동장",
    "address": "전북특별자치도 군산시 문화동 21",
    "lat": "35.97138675809211",
    "lng": "126.70858360638464",
    "region": "전북특별자치도"
  },
  {
    "name": "소룡초등학교 운동장",
    "address": "전북특별자치도 군산시 소룡동 1341",
    "lat": "35.97437248044053",
    "lng": "126.68305686191121",
    "region": "전북특별자치도"
  },
  {
    "name": "대야남초등학교",
    "address": "전북특별자치도 군산시 대야면 복교리 952-48",
    "lat": "35.91866689467667",
    "lng": "126.82021737098691",
    "region": "전북특별자치도"
  },
  {
    "name": "대야초등학교 운동장",
    "address": "전북특별자치도 군산시 대야면 산월리 448",
    "lat": "35.94830635875677",
    "lng": "126.81901593901931",
    "region": "전북특별자치도"
  },
  {
    "name": "발산초등학교 운동장",
    "address": "전북특별자치도 군산시 개정면 발산리 45-1",
    "lat": "35.95898980516316",
    "lng": "126.79651737213136",
    "region": "전북특별자치도"
  },
  {
    "name": "군산월명초등학교 운동장",
    "address": "전북특별자치도 군산시 수송동 885-2",
    "lat": "35.96198149751717",
    "lng": "126.72027558088297",
    "region": "전북특별자치도"
  },
  {
    "name": "임피초등학교 운동장",
    "address": "전북특별자치도 군산시 임피면 읍내리 536",
    "lat": "35.9879189253705",
    "lng": "126.84999644575454",
    "region": "전북특별자치도"
  },
  {
    "name": "광희중학교 운동장",
    "address": "서울특별시 성동구 응봉동 193",
    "lat": "37.551477634569586",
    "lng": "127.034602854507",
    "region": "서울특별시"
  },
  {
    "name": "성당원화공원",
    "address": "대구광역시 달서구 성당동 701-5",
    "lat": "35.845934891533545",
    "lng": "128.54619551718764",
    "region": "대구광역시"
  },
  {
    "name": "창오초등학교 운동장",
    "address": "전북특별자치도 군산시 성산면 창오리 221-4",
    "lat": "35.98490488370106",
    "lng": "126.81651933714839",
    "region": "전북특별자치도"
  },
  {
    "name": "무녀도초등학교 운동장",
    "address": "전북특별자치도 군산시 옥도면 무녀도리 산108",
    "lat": "35.80499638152796",
    "lng": "126.42534820502703",
    "region": "전북특별자치도"
  },
  {
    "name": "군산초등학교 운동장",
    "address": "전북특별자치도 군산시 지곡동 615",
    "lat": "35.953221033443356",
    "lng": "126.71033799648278",
    "region": "전북특별자치도"
  },
  {
    "name": "군산자양중학교 운동장",
    "address": "전북특별자치도 군산시 옥구읍 선제리 716",
    "lat": "35.925212332993816",
    "lng": "126.67744822855022",
    "region": "전북특별자치도"
  },
  {
    "name": "군산진포중학교 운동장",
    "address": "전북특별자치도 군산시 수송동 61-10",
    "lat": "35.97264152936765",
    "lng": "126.72322601245219",
    "region": "전북특별자치도"
  },
  {
    "name": "군산월명중학교 운동장",
    "address": "전북특별자치도 군산시 소룡동 1526",
    "lat": "35.974622078366366",
    "lng": "126.67980345394616",
    "region": "전북특별자치도"
  },
  {
    "name": "군산여자상업고등학교 운동장",
    "address": "전북특별자치도 군산시 지곡동 518",
    "lat": "35.95710299587271",
    "lng": "126.70786172008279",
    "region": "전북특별자치도"
  },
  {
    "name": "군산중앙여자고등학교",
    "address": "전북특별자치도 군산시 수송동 752-1",
    "lat": "35.96826792179375",
    "lng": "126.71231421653076",
    "region": "전북특별자치도"
  },
  {
    "name": "호원대학교 운동장",
    "address": "전북특별자치도 군산시 임피면 월하리 727",
    "lat": "35.965636644394",
    "lng": "126.86487504598844",
    "region": "전북특별자치도"
  },
  {
    "name": "금정제일공원",
    "address": "경기도 군포시 금정동 755",
    "lat": "37.36066832424756",
    "lng": "126.94433877804332",
    "region": "경기도"
  },
  {
    "name": "해늘찬 어린이공원",
    "address": "경기도 수원시 장안구 이목동 521-51",
    "lat": "37.3140337272526",
    "lng": "126.98478430509567",
    "region": "경기도"
  },
  {
    "name": "샘터 어린이공원",
    "address": "경기도 수원시 장안구 천천동 505-2",
    "lat": "37.29936958564322",
    "lng": "126.97927140976122",
    "region": "경기도"
  },
  {
    "name": "복수중학교 운동장",
    "address": "충청남도 금산군 복수면 수영리 240-1",
    "lat": "36.18102124819723",
    "lng": "127.38798949127529",
    "region": "충청남도"
  },
  {
    "name": "옥정초등학교 운동장",
    "address": "서울특별시 성동구 옥수동 233-16",
    "lat": "37.54168544861277",
    "lng": "127.01579164249924",
    "region": "서울특별시"
  },
  {
    "name": "삼개어린이공원",
    "address": "서울특별시 마포구 도화동 555-1",
    "lat": "37.540661581244706",
    "lng": "126.94519125000487",
    "region": "서울특별시"
  },
  {
    "name": "서강어린이공원",
    "address": "서울특별시 영등포구 영등포동8가 28",
    "lat": "37.525877307066374",
    "lng": "126.90588712692318",
    "region": "서울특별시"
  },
  {
    "name": "솔뫼 어린이공원",
    "address": "경기도 수원시 장안구 정자동 924",
    "lat": "37.2924453420383",
    "lng": "126.98722046253386",
    "region": "경기도"
  },
  {
    "name": "영화 어린이공원",
    "address": "경기도 수원시 장안구 영화동 412",
    "lat": "37.2908901667054",
    "lng": "127.00940313559235",
    "region": "경기도"
  },
  {
    "name": "역마 어린이공원",
    "address": "경기도 수원시 장안구 조원동 772-2",
    "lat": "37.29735924120501",
    "lng": "127.01588480688024",
    "region": "경기도"
  },
  {
    "name": "연무 어린이공원",
    "address": "경기도 수원시 장안구 연무동 214-6",
    "lat": "37.29627488541483",
    "lng": "127.02995907805563",
    "region": "경기도"
  },
  {
    "name": "창훈 어린이공원",
    "address": "경기도 수원시 장안구 연무동 237-15",
    "lat": "37.29432305996949",
    "lng": "127.02734993268531",
    "region": "경기도"
  },
  {
    "name": "버드내 어린이공원",
    "address": "경기도 수원시 권선구 세류동 463-1",
    "lat": "37.25742604355057",
    "lng": "127.00975063646969",
    "region": "경기도"
  },
  {
    "name": "장승배기 어린이공원",
    "address": "경기도 수원시 권선구 세류동 1086",
    "lat": "37.25574090898619",
    "lng": "127.01785910595501",
    "region": "경기도"
  },
  {
    "name": "탑마루 어린이공원",
    "address": "경기도 수원시 권선구 탑동 764",
    "lat": "37.2736349378327",
    "lng": "126.97531404836042",
    "region": "경기도"
  },
  {
    "name": "은하수 어린이공원",
    "address": "경기도 수원시 권선구 구운동 487",
    "lat": "37.27973996608003",
    "lng": "126.97354155824382",
    "region": "경기도"
  },
  {
    "name": "하구운 어린이공원",
    "address": "경기도 수원시 권선구 구운동 524",
    "lat": "37.27634429936134",
    "lng": "126.97293081260358",
    "region": "경기도"
  },
  {
    "name": "꽃길 어린이공원",
    "address": "경기도 수원시 권선구 구운동 910",
    "lat": "37.28241177095775",
    "lng": "126.9735232980176",
    "region": "경기도"
  },
  {
    "name": "부리중학교 운동장",
    "address": "충청남도 금산군 부리면 양곡리 644-1",
    "lat": "36.065733509108064",
    "lng": "127.55544219997314",
    "region": "충청남도"
  },
  {
    "name": "금산하이텍고등학교 운동장",
    "address": "충청남도 금산군 진산면 읍내리 172",
    "lat": "36.14276607378028",
    "lng": "127.37408528600702",
    "region": "충청남도"
  },
  {
    "name": "응봉동둔치 체육공원",
    "address": "서울특별시 성동구 응봉동 237-1",
    "lat": "37.551712016614296",
    "lng": "127.03725645921477",
    "region": "서울특별시"
  },
  {
    "name": "고색체육공원",
    "address": "경기도 수원시 권선구 고색동 917",
    "lat": "37.24439978048353",
    "lng": "126.97795088953939",
    "region": "경기도"
  },
  {
    "name": "금산초등학교 운동장",
    "address": "충청남도 금산군 금산읍 상리 176-9",
    "lat": "36.10392674980951",
    "lng": "127.48968044917454",
    "region": "충청남도"
  },
  {
    "name": "추부초등학교 운동장",
    "address": "충청남도 금산군 추부면 마전리 412",
    "lat": "36.19103383122448",
    "lng": "127.46881460653725",
    "region": "충청남도"
  },
  {
    "name": "유구초등학교 운동장",
    "address": "충청남도 공주시 유구읍 석남리 189-2",
    "lat": "36.55397492259146",
    "lng": "126.94999102524206",
    "region": "충청남도"
  },
  {
    "name": "부천종합운동장",
    "address": "경기도 부천시 원미구 춘의동 8",
    "lat": "37.50244037178122",
    "lng": "126.79913520812987",
    "region": "경기도"
  },
  {
    "name": "금성초등학교",
    "address": "경상북도 의성군 금성면 대리리 175-1",
    "lat": "36.262508135742365",
    "lng": "128.67974841865302",
    "region": "경상북도"
  },
  {
    "name": "레드카펫촬영장공터",
    "address": "경상북도 의성군 금성면 도경리 845",
    "lat": "36.240175954964755",
    "lng": "128.64271938800994",
    "region": "경상북도"
  },
  {
    "name": "교촌농촌체험학교",
    "address": "경상북도 의성군 안계면 교촌리 350",
    "lat": "36.36967325669258",
    "lng": "128.4709453582765",
    "region": "경상북도"
  },
  {
    "name": "반달곰어린이공원",
    "address": "대��광역시 동구 신서동 1156-5",
    "lat": "35.87690641582492",
    "lng": "128.72732162475629",
    "region": "대��광역시"
  },
  {
    "name": "꽃사슴어린이공원",
    "address": "대구광역시 동구 숙천동 380-5",
    "lat": "35.883524081755965",
    "lng": "128.75215342016304",
    "region": "대구광역시"
  },
  {
    "name": "분홍공원",
    "address": "대구광역시 동구 봉무동 1536",
    "lat": "35.921655769533956",
    "lng": "128.64467740058933",
    "region": "대구광역시"
  },
  {
    "name": "안심체육공원",
    "address": "대구광역시 동구 용계동 828-2",
    "lat": "35.86747734288075",
    "lng": "128.68119502373034",
    "region": "대구광역시"
  },
  {
    "name": "하양여자중학교",
    "address": "경상북도 경산시 하양읍 대학리 100",
    "lat": "35.93076288716886",
    "lng": "128.82575601339406",
    "region": "경상북도"
  },
  {
    "name": "자인여자중학교",
    "address": "경상북도 경산시 자인면 동부리 208",
    "lat": "35.8157468",
    "lng": "128.8279767",
    "region": "경상북도"
  },
  {
    "name": "신백초등학교  운동장",
    "address": "충청북도 제천시 신백동 212-7",
    "lat": "37.128248801002",
    "lng": "128.22633255633826",
    "region": "충청북도"
  },
  {
    "name": "대원대학교  운동장",
    "address": "충청북도 제천시 신월동 599",
    "lat": "37.17579546798715",
    "lng": "128.19140341760334",
    "region": "충청북도"
  },
  {
    "name": "군위군보건소",
    "address": "대구광역시 군위군 군위읍 동부리 679",
    "lat": "36.22952734465192",
    "lng": "128.56974720954918",
    "region": "대구광역시"
  },
  {
    "name": "불광어린이공원",
    "address": "서울특별시 은평구 불광동 236-5",
    "lat": "37.616373365811484",
    "lng": "126.93143524699875",
    "region": "서울특별시"
  },
  {
    "name": "가좌초등학교 운동장",
    "address": "경상남도 진주시 가좌동 564",
    "lat": "35.149154512311576",
    "lng": "128.10347026003498",
    "region": "경상남도"
  },
  {
    "name": "감나무골공원",
    "address": "서울특별시 종로구 평창동 495-4",
    "lat": "37.61275864687741",
    "lng": "126.97031630530678",
    "region": "서울특별시"
  },
  {
    "name": "역삼초등학교 운동장",
    "address": "서울특별시 강남구 역삼동 833-7",
    "lat": "37.49263618165746",
    "lng": "127.03273425589347",
    "region": "서울특별시"
  },
  {
    "name": "상곡초등학교 운동장",
    "address": "충청남도 금산군 군북면 상곡리 159",
    "lat": "36.206412302847845",
    "lng": "127.57126959409243",
    "region": "충청남도"
  },
  {
    "name": "신대초등학교 운동장",
    "address": "충청남도 금산군 복수면 신대리 502",
    "lat": "36.209553006617625",
    "lng": "127.37805670810998",
    "region": "충청남도"
  },
  {
    "name": "신창초등학교 운동장",
    "address": "충청남도 아산시 신창면 읍내리 305",
    "lat": "36.77958854185004",
    "lng": "126.9325546550441",
    "region": "충청남도"
  },
  {
    "name": "다인중학교운동장",
    "address": "경상북도 의성군 다인면 도암리 283",
    "lat": "36.4526656739951",
    "lng": "128.35508449580274",
    "region": "경상북도"
  },
  {
    "name": "사당초등학교 운동장",
    "address": "서울특별시 관악구 남현동 1080-1",
    "lat": "37.47414711056039",
    "lng": "126.974396109581",
    "region": "서울특별시"
  },
  {
    "name": "남서울중학교 운동장",
    "address": "서울특별시 관악구 신림동 1690-3",
    "lat": "37.481856777429215",
    "lng": "126.92147612571718",
    "region": "서울특별시"
  },
  {
    "name": "서울농학교 운동장",
    "address": "서울특별시 종로구 신교동 1-1",
    "lat": "37.58442041190695",
    "lng": "126.96911462942775",
    "region": "서울특별시"
  },
  {
    "name": "참샘골공원",
    "address": "서울특별시 종로구 평창동 470",
    "lat": "37.61510061237452",
    "lng": "126.97461402016648",
    "region": "서울특별시"
  },
  {
    "name": "원서공원",
    "address": "서울특별시 종로구 원서동 181",
    "lat": "37.57827952040231",
    "lng": "126.98865473270416",
    "region": "서울특별시"
  },
  {
    "name": "밀성권역도농교류센터",
    "address": "경상북도 의성군 다인면 양서리 570",
    "lat": "36.509782754567496",
    "lng": "128.3558678627015",
    "region": "경상북도"
  },
  {
    "name": "군인아파트 어린이공원",
    "address": "서울특별시 관악구 남현동 602-143",
    "lat": "37.47183320390361",
    "lng": "126.97895586490631",
    "region": "서울특별시"
  },
  {
    "name": "신림고등학교 운동장",
    "address": "서울특별시 관악구 신림동 1566-42",
    "lat": "37.478362654263876",
    "lng": "126.9172390688781",
    "region": "서울특별시"
  },
  {
    "name": "난우중학교 운동장",
    "address": "서울특별시 관악구 신림동 652-156",
    "lat": "37.46668580784993",
    "lng": "126.92253364258409",
    "region": "서울특별시"
  },
  {
    "name": "신림초등학교 운동장",
    "address": "서울특별시 관악구 신림동 418-20",
    "lat": "37.47755291459601",
    "lng": "126.9274976849556",
    "region": "서울특별시"
  },
  {
    "name": "금성초등학교 운동장",
    "address": "충청남도 아산시 인주면 금성리 83",
    "lat": "36.84418536055174",
    "lng": "126.87987141639812",
    "region": "충청남도"
  },
  {
    "name": "연화초등학교 운동장",
    "address": "충청남도 아산시 배방읍 장재리 1434",
    "lat": "36.786843511581466",
    "lng": "127.09530860739837",
    "region": "충청남도"
  },
  {
    "name": "아람초등학교 운동장",
    "address": "경기도 고양시 덕양구 행신동 1069",
    "lat": "37.61931409487699",
    "lng": "126.85040070991622",
    "region": "경기도"
  },
  {
    "name": "군외중학교",
    "address": "전라남도 완도군 군외면 원동리 1",
    "lat": "34.38968737180441",
    "lng": "126.65307222308364",
    "region": "전라남도"
  },
  {
    "name": "명호고등학교 운동장",
    "address": "부산광역시 강서구 명지동 3236-3",
    "lat": "35.08000030900888",
    "lng": "128.90012025833752",
    "region": "부산광역시"
  },
  {
    "name": "양곡기쁨공원",
    "address": "경기도 김포시 양촌읍 양곡리 1331",
    "lat": "37.65277292432189",
    "lng": "126.62946191006687",
    "region": "경기도"
  },
  {
    "name": "부산진여자중학교운동장",
    "address": "부산광역시 부산진구 전포동 342-25",
    "lat": "35.153991821742274",
    "lng": "129.0691630414429",
    "region": "부산광역시"
  },
  {
    "name": "항도중학교운동장",
    "address": "부산광역시 부산진구 전포동 175-33",
    "lat": "35.162330267525036",
    "lng": "129.06648004295445",
    "region": "부산광역시"
  },
  {
    "name": "부산동고등학교운동장",
    "address": "부산광역시 부산진구 전포동 449-8",
    "lat": "35.152568401648885",
    "lng": "129.07057879163804",
    "region": "부산광역시"
  },
  {
    "name": "용두초등학교 운동장",
    "address": "경기도 고양시 덕양구 용두동 16-2",
    "lat": "37.62126938958499",
    "lng": "126.89317223781605",
    "region": "경기도"
  },
  {
    "name": "당평초등학교운동장",
    "address": "부산광역시 부산진구 당감동 517",
    "lat": "35.16139288655488",
    "lng": "129.03491100744495",
    "region": "부산광역시"
  },
  {
    "name": "관양중학교 운동장",
    "address": "경기도 안양시 동안구 관양동 1407-2",
    "lat": "37.405471599080414",
    "lng": "126.9603348657727",
    "region": "경기도"
  },
  {
    "name": "행신중학교 운동장",
    "address": "경기도 고양시 덕양구 행신동 784",
    "lat": "37.61488622477992",
    "lng": "126.83959138698415",
    "region": "경기도"
  },
  {
    "name": "행남초등학교 운동장",
    "address": "경기도 고양시 덕양구 행신동 789",
    "lat": "37.61488914184988",
    "lng": "126.8425704694644",
    "region": "경기도"
  },
  {
    "name": "무원초등학교 운동장",
    "address": "경기도 고양시 덕양구 행신동 696",
    "lat": "37.617356547337245",
    "lng": "126.83172950365821",
    "region": "경기도"
  },
  {
    "name": "부안중학교 운동장",
    "address": "경기도 안양시 동안구 관양동 1588-5",
    "lat": "37.39886764504966",
    "lng": "126.96086429228018",
    "region": "경기도"
  },
  {
    "name": "초읍초등학교운동장",
    "address": "부산광역시 부산진구 초읍동 540",
    "lat": "35.18044342277755",
    "lng": "129.05397527304078",
    "region": "부산광역시"
  },
  {
    "name": "부산진여자고등학교운동장",
    "address": "부산광역시 부산진구 양정동 산31-2",
    "lat": "35.16932899891502",
    "lng": "129.07509148121036",
    "region": "부산광역시"
  },
  {
    "name": "호성초등학교 운동장",
    "address": "경기도 안양시 동안구 호계동 792-4",
    "lat": "37.36623613371183",
    "lng": "126.9631221288524",
    "region": "경기도"
  },
  {
    "name": "선암초등학교운동장",
    "address": "부산광역시 부산진구 범천동 1223-27",
    "lat": "35.14909702772257",
    "lng": "129.04951053256778",
    "region": "부산광역시"
  },
  {
    "name": "적성면 복지회관",
    "address": "충청북도 단양군 적성면 하리 350-5",
    "lat": "36.959918339144615",
    "lng": "128.2929432040089",
    "region": "충청북도"
  },
  {
    "name": "상2리 주차장",
    "address": "충청북도 단양군 적성면 상리 1013-93",
    "lat": "36.97050079328484",
    "lng": "128.27614503422583",
    "region": "충청북도"
  },
  {
    "name": "한일시멘트 운동장",
    "address": "충청북도 단양군 매포읍 평동리 60",
    "lat": "37.02541576351807",
    "lng": "128.30847667399013",
    "region": "충청북도"
  },
  {
    "name": "백운초등학교 운동장",
    "address": "인천광역시 부평구 십정동 541-31",
    "lat": "37.47963182513603",
    "lng": "126.70456699209406",
    "region": "인천광역시"
  },
  {
    "name": "동두천신천초등학교 운동장",
    "address": "경기도 동두천시 지행동 685",
    "lat": "37.89388254806217",
    "lng": "127.0481139421463",
    "region": "경기도"
  },
  {
    "name": "동해중학교 운동장",
    "address": "부산광역시 동래구 명륜동 8-25",
    "lat": "35.21704527795543",
    "lng": "129.08852934837506",
    "region": "부산광역시"
  },
  {
    "name": "안곡초등학교 운동장",
    "address": "경기도 고양시 일산동구 중산동 1830",
    "lat": "37.68434675194433",
    "lng": "126.78191006183624",
    "region": "경기도"
  },
  {
    "name": "본량초등학교 운동장",
    "address": "광주광역시 광산구 남산동 637",
    "lat": "35.18067481259549",
    "lng": "126.72299265861504",
    "region": "광주광역시"
  },
  {
    "name": "덕내공원",
    "address": "부산광역시 북구 덕천동 342-6",
    "lat": "35.213784567956324",
    "lng": "129.01377081871163",
    "region": "부산광역시"
  },
  {
    "name": "솔터체육공원",
    "address": "경기도 김포시 마산동 642-1",
    "lat": "37.6408525127701",
    "lng": "126.64959027928977",
    "region": "경기도"
  },
  {
    "name": "화랑공원",
    "address": "대구광역시 수성구 만촌동 1417",
    "lat": "35.87162345817331",
    "lng": "128.6396643156198",
    "region": "대구광역시"
  },
  {
    "name": "대덕초등학교 운동장",
    "address": "경기도 안성시 대덕면 모산리 463",
    "lat": "37.02721252362042",
    "lng": "127.24498970684768",
    "region": "경기도"
  },
  {
    "name": "경기외국어고등학교 운동장",
    "address": "경기도 의왕시 고천동 438-1",
    "lat": "37.347357721029226",
    "lng": "126.95954450497513",
    "region": "경기도"
  },
  {
    "name": "갈뫼중학교 운동장",
    "address": "경기도 의왕시 내손동 785",
    "lat": "37.37755793810269",
    "lng": "126.97452651069469",
    "region": "경기도"
  },
  {
    "name": "내동초등학교 운동장",
    "address": "경기도 의왕시 내손동 848-1",
    "lat": "37.389198787565014",
    "lng": "126.97999656200409",
    "region": "경기도"
  },
  {
    "name": "중부동공원(부평3호공원)",
    "address": "인천광역시 부평구 부평동 104-10",
    "lat": "37.50043386439871",
    "lng": "126.73306074134796",
    "region": "인천광역시"
  },
  {
    "name": "대월공원(갈산4공원)",
    "address": "인천광역시 부평구 갈산동 362-3",
    "lat": "37.509360567327555",
    "lng": "126.72202750510033",
    "region": "인천광역시"
  },
  {
    "name": "신산공원",
    "address": "제주특별자치도 제주시 일도이동 879",
    "lat": "33.50590956177109",
    "lng": "126.53490259255689",
    "region": "제주특별자치도"
  },
  {
    "name": "제주제일중학교 운동장",
    "address": "제주특별자치도 제주시 이도이동 539-4",
    "lat": "33.494687289771186",
    "lng": "126.53913244783318",
    "region": "제주특별자치도"
  },
  {
    "name": "보광초등학교 운동장",
    "address": "충청북도 괴산군 사리면 사담리 516-1",
    "lat": "36.81766715950287",
    "lng": "127.64966196208047",
    "region": "충청북도"
  },
  {
    "name": "남녕고등학교 운동장",
    "address": "제주특별자치도 제주시 연동 2288",
    "lat": "33.48953671664388",
    "lng": "126.48305025271596",
    "region": "제주특별자치도"
  },
  {
    "name": "수정공원(84호공원)",
    "address": "인천광역시 부평구 십정동 388",
    "lat": "37.47633764407897",
    "lng": "126.70172644317879",
    "region": "인천광역시"
  },
  {
    "name": "혜화여자고등학교 운동장",
    "address": "부산광역시 동래구 명장동 산13",
    "lat": "35.202848838450876",
    "lng": "129.1112637519854",
    "region": "부산광역시"
  },
  {
    "name": "장호원초등학교 운동장",
    "address": "경기도 이천시 장호원읍 장호원리 104",
    "lat": "37.116088393548",
    "lng": "127.62776283386108",
    "region": "경기도"
  },
  {
    "name": "호법초등학교 운동장",
    "address": "경기도 이천시 호법면 후안리 295",
    "lat": "37.224155980865184",
    "lng": "127.4272222132072",
    "region": "경기도"
  },
  {
    "name": "매곡초등학교 운동장",
    "address": "경기도 이천시 호법면 매곡리 188-1",
    "lat": "37.214579761463625",
    "lng": "127.3942388669486",
    "region": "경기도"
  },
  {
    "name": "센텀초등학교운동장",
    "address": "부산광역시 해운대구 재송동 1198",
    "lat": "35.180744965360944",
    "lng": "129.1222500801117",
    "region": "부산광역시"
  },
  {
    "name": "신도고등학교운동장",
    "address": "부산광역시 해운대구 좌동 1344",
    "lat": "35.171212403962556",
    "lng": "129.16749894619034",
    "region": "부산광역시"
  },
  {
    "name": "신도중학교운동장",
    "address": "부산광역시 해운대구 좌동 1345",
    "lat": "35.17036169788576",
    "lng": "129.1669785976419",
    "region": "부산광역시"
  },
  {
    "name": "이천남초등학교 운동장",
    "address": "경기도 이천시 중리동 455",
    "lat": "37.276522696200374",
    "lng": "127.44383112189317",
    "region": "경기도"
  },
  {
    "name": "해강초등학교운동장",
    "address": "부산광역시 해운대구 우동 993-26",
    "lat": "35.16218744984296",
    "lng": "129.14113283157965",
    "region": "부산광역시"
  },
  {
    "name": "해운대중학교운동장",
    "address": "부산광역시 해운대구 우동 278-13",
    "lat": "35.171361495868624",
    "lng": "129.16146397590947",
    "region": "부산광역시"
  },
  {
    "name": "해운대초등학교운동장",
    "address": "부산광역시 해운대구 중동 1234",
    "lat": "35.164340724721676",
    "lng": "129.16605591774197",
    "region": "부산광역시"
  },
  {
    "name": "삼육고등학교운동장",
    "address": "강원특별자치도 동해시 천곡동 566-3",
    "lat": "37.52195043971513",
    "lng": "129.1006095294187",
    "region": "강원특별자치도"
  },
  {
    "name": "동호초등학교운동장",
    "address": "강원특별자치도 동해시 발한동 572-2",
    "lat": "37.543411897426715",
    "lng": "129.10086214542557",
    "region": "강원특별자치도"
  },
  {
    "name": "묵호중학교운동장",
    "address": "강원특별자치도 동해시 발한동 173",
    "lat": "37.54407755209037",
    "lng": "129.1058725118654",
    "region": "강원특별자치도"
  },
  {
    "name": "예람중학교운동장",
    "address": "강원특별자치도 동해시 단봉동 1-1",
    "lat": "37.48040941304279",
    "lng": "129.1235670447395",
    "region": "강원특별자치도"
  },
  {
    "name": "감정초등학교 운동장",
    "address": "경기도 김포시 감정동 508-13",
    "lat": "37.62349831507887",
    "lng": "126.69604506334527",
    "region": "경기도"
  },
  {
    "name": "좌항초등학교 운동장",
    "address": "경기도 용인시 처인구 원삼면 좌항리 126-4",
    "lat": "37.20170292784371",
    "lng": "127.3204628301254",
    "region": "경기도"
  },
  {
    "name": "웅동초등학교운동장",
    "address": "경상남도 창원시 진해구 마천동 144-8",
    "lat": "35.12677489152301",
    "lng": "128.7831079552031",
    "region": "경상남도"
  },
  {
    "name": "안청초등학교운동장",
    "address": "경상남도 창원시 진해구 안골동 369",
    "lat": "35.09950389806447",
    "lng": "128.80653782190694",
    "region": "경상남도"
  },
  {
    "name": "연제초등학교 운동장",
    "address": "부산광역시 연제구 연산동 1300",
    "lat": "35.184242563906366",
    "lng": "129.07853280968135",
    "region": "부산광역시"
  },
  {
    "name": "효정고등학교 운동장",
    "address": "울산광역시 북구 효문동 507",
    "lat": "35.563005848797275",
    "lng": "129.37545061111837",
    "region": "울산광역시"
  },
  {
    "name": "현대어린이공원",
    "address": "경기도 광명시 하안동 707-23",
    "lat": "37.46758068414829",
    "lng": "126.86461596974955",
    "region": "경기도"
  },
  {
    "name": "풍기중학교 운동장",
    "address": "경상북도 영주시 풍기읍 동부리 369",
    "lat": "36.870391052342825",
    "lng": "128.53247156332856",
    "region": "경상북도"
  },
  {
    "name": "동광초등학교 운동장 ",
    "address": "충청북도 보은군 보은읍 교사리 54-1",
    "lat": "36.487598",
    "lng": "127.718609",
    "region": "충청북도"
  },
  {
    "name": "영성공원",
    "address": "인천광역시 부평구 삼산동 388-2",
    "lat": "37.521623326310454",
    "lng": "126.74042997561523",
    "region": "인천광역시"
  },
  {
    "name": "건강공원",
    "address": "인천광역시 부평구 삼산동 518",
    "lat": "37.51738394327306",
    "lng": "126.749452791761",
    "region": "인천광역시"
  },
  {
    "name": "산본중앙공원",
    "address": "경기도 군포시 산본동 1122",
    "lat": "37.36185553426273",
    "lng": "126.92982136482634",
    "region": "경기도"
  },
  {
    "name": "괴산중학교 운동장",
    "address": "충청북도 괴산군 괴산읍 대사리 165",
    "lat": "36.796779060508804",
    "lng": "127.78365571954708",
    "region": "충청북도"
  },
  {
    "name": "고양종합운동장보조구장",
    "address": "경기도 고양시 일산서구 대화동 2320",
    "lat": "37.677435000382175",
    "lng": "126.74195051193234",
    "region": "경기도"
  },
  {
    "name": "개정초등학교 운동장",
    "address": "경기도 안성시 미양면 개정리 304-1",
    "lat": "36.96068083475822",
    "lng": "127.18841834491478",
    "region": "경기도"
  },
  {
    "name": "칠성초등학교 운동장",
    "address": "충청북도 괴산군 칠성면 도정리 311",
    "lat": "36.78564008343656",
    "lng": "127.86236953275566",
    "region": "충청북도"
  },
  {
    "name": "사직여자중학교 운동장",
    "address": "부산광역시 동래구 사직동 977-5",
    "lat": "35.19381408503241",
    "lng": "129.0552390296438",
    "region": "부산광역시"
  },
  {
    "name": "동신초등학교 운동장",
    "address": "부산광역시 서구 동대신동3가 315",
    "lat": "35.114182285807786",
    "lng": "129.01793842219237",
    "region": "부산광역시"
  },
  {
    "name": "용수리 마을회관 공터",
    "address": "충청북도 보은군 내북면 용수리 21-1",
    "lat": "36.54584",
    "lng": "127.651733",
    "region": "충청북도"
  },
  {
    "name": "하동공원",
    "address": "인천광역시 부평구 십정동 304-4",
    "lat": "37.47216516196671",
    "lng": "126.69773864568651",
    "region": "인천광역시"
  },
  {
    "name": "문광초등학교 운동장",
    "address": "충청북도 괴산군 문광면 광덕리 294",
    "lat": "36.79062522256386",
    "lng": "127.78318673372266",
    "region": "충청북도"
  },
  {
    "name": "하정공원(85호공원)",
    "address": "인천광역시 부평구 십정동 398-9",
    "lat": "37.473720471320625",
    "lng": "126.70090283204065",
    "region": "인천광역시"
  },
  {
    "name": "삼성초등학교 운동장",
    "address": "경기도 파주시 탄현면 금승리 491",
    "lat": "37.82537605223013",
    "lng": "126.73282951077998",
    "region": "경기도"
  },
  {
    "name": "옥천공설운동장",
    "address": "충청북도 옥천군 옥천읍 문정리 390",
    "lat": "36.30255662055246",
    "lng": "127.57362885904418",
    "region": "충청북도"
  },
  {
    "name": "문발초등학교 운동장",
    "address": "경기도 파주시 문발동 555",
    "lat": "37.72601155276954",
    "lng": "126.70687498309293",
    "region": "경기도"
  },
  {
    "name": "운정고등학교 운동장",
    "address": "경기도 파주시 목동동 1146",
    "lat": "37.721513963031825",
    "lng": "126.73618912696833",
    "region": "경기도"
  },
  {
    "name": "한가람초등학교 운동장",
    "address": "경기도 파주시 와동동 1318",
    "lat": "37.73189608930896",
    "lng": "126.75614734924929",
    "region": "경기도"
  },
  {
    "name": "한가람중학교 운동장",
    "address": "경기도 파주시 와동동 1316",
    "lat": "37.73089441078974",
    "lng": "126.7565512346956",
    "region": "경기도"
  },
  {
    "name": "강내초등학교",
    "address": "충청북도 청주시 흥덕구 강내면 다락리 348-1",
    "lat": "36.59665473949915",
    "lng": "127.35690857388384",
    "region": "충청북도"
  },
  {
    "name": "학산여자고등학교 운동장",
    "address": "부산광역시 동래구 명장동 산85-6",
    "lat": "35.2064464562836",
    "lng": "129.09641269604035",
    "region": "부산광역시"
  },
  {
    "name": "원봉공원",
    "address": "충청북도 청주시 상당구 용암동 2075",
    "lat": "36.611985160324856",
    "lng": "127.51277825947194",
    "region": "충청북도"
  },
  {
    "name": "금천초등학교 운동장",
    "address": "충청북도 청주시 상당구 금천동 213-1",
    "lat": "36.62682548959878",
    "lng": "127.50555191306059",
    "region": "충청북도"
  },
  {
    "name": "동원중학교",
    "address": "대구광역시 수성구 만촌동 254",
    "lat": "35.87522278796006",
    "lng": "128.65074455738102",
    "region": "대구광역시"
  },
  {
    "name": "동원초등학교",
    "address": "대구광역시 수성구 만촌동 934",
    "lat": "35.86532314387861",
    "lng": "128.63951236012358",
    "region": "대구광역시"
  },
  {
    "name": "만촌초등학교",
    "address": "대구광역시 수성구 만촌동 980",
    "lat": "35.86718783938265",
    "lng": "128.6476802923758",
    "region": "대구광역시"
  },
  {
    "name": "광주불로초등학교 운동장",
    "address": "광주광역시 남구 봉선동 102-2",
    "lat": "35.12030786209643",
    "lng": "126.91422343254088",
    "region": "광주광역시"
  },
  {
    "name": "혜화여자고등학교",
    "address": "대구광역시 수성구 만촌동 1256-26",
    "lat": "35.84943939833052",
    "lng": "128.6480104924343",
    "region": "대구광역시"
  },
  {
    "name": "영남공업고등학교",
    "address": "대구광역시 수성구 만촌동 1160-3",
    "lat": "35.84814073259769",
    "lng": "128.64818394195055",
    "region": "대구광역시"
  },
  {
    "name": "수성대학교",
    "address": "대구광역시 수성구 만촌동 산395",
    "lat": "35.8511",
    "lng": "128.6461",
    "region": "대구광역시"
  },
  {
    "name": "월미공원",
    "address": "인천광역시 중구 북성동1가 125",
    "lat": "37.4713925530259",
    "lng": "126.60203576087943",
    "region": "인천광역시"
  },
  {
    "name": "동성초등학교",
    "address": "대구광역시 수성구 수성동1가 282",
    "lat": "35.8524",
    "lng": "128.6126",
    "region": "대구광역시"
  }
]