[
  {
    "name": "사슴농장 앞 도로",
    "address": "경상북도 울진군 북면 중흥부길 35-10 ",
    "lat": 37.1024108,
    "lng": 129.3570828,
    "region": "경상북도"
  },
  {
    "name": "골마야 산 밭",
    "address": "경상북도 울진군 죽변면 봉평길 66-28 ",
    "lat": 37.0474386,
    "lng": 129.4099331,
    "region": "경상북도"
  },
  {
    "name": "봉평 신라비 전시관 옆",
    "address": "경북 울진군 죽변면 봉평리 산 71-3",
    "lat": 37.0442938,
    "lng": 129.4069827,
    "region": "경상북도"
  },
  {
    "name": "이안빌라  뒷편 ",
    "address": "경상북도 울진군 죽변면 울진북로 1161(이안빌라)",
    "lat": 37.042504,
    "lng": 129.4124973,
    "region": "경상북도"
  },
  {
    "name": "수산리421번지 일대",
    "address": "경상북도 울진군 근남면 수산1길 40-37 ",
    "lat": 36.9698432,
    "lng": 129.3944058,
    "region": "경상북도"
  },
  {
    "name": "근남 문화 체육센터",
    "address": "경상북도 울진군 근남면 울진북로 151-3 ",
    "lat": 36.9637869,
    "lng": 129.3945372,
    "region": "경상북도"
  },
  {
    "name": "경원 아파트",
    "address": "경상북도 울진군 근남면 노음5길 7(경원아파트)",
    "lat": 36.9608744,
    "lng": 129.394151,
    "region": "경상북도"
  },
  {
    "name": "노음초등학교 운동장",
    "address": "경상북도 울진군 근남면 노음6길 22",
    "lat": 36.95847092754033,
    "lng": 129.39214619796354,
    "region": "경상북도"
  },
  {
    "name": "망양정",
    "address": "경북 울진군 근남면 산포리 714",
    "lat": 36.9665837,
    "lng": 129.4127387,
    "region": "경상북도"
  },
  {
    "name": "해맞이공원 주차장",
    "address": "경북 울진군 근남면 산포리 661-3",
    "lat": 36.9649207,
    "lng": 129.4122693,
    "region": "경상북도"
  },
  {
    "name": "산포리 641-2번지 도로일대",
    "address": "경북 울진군 근남면 산포리 642",
    "lat": 36.9618945,
    "lng": 129.4124329,
    "region": "경상북도"
  },
  {
    "name": "청진1리 GS주유소 앞 ",
    "address": "경북 포항시 북구 청하면 청진리 78",
    "lat": 36.1790208,
    "lng": 129.3904844,
    "region": "경상북도"
  },
  {
    "name": "스타팜펜션 앞 공터",
    "address": "경상북도 포항시 북구 청하면 해안로 1889-9 ",
    "lat": 36.1705054,
    "lng": 129.3960714,
    "region": "경상북도"
  },
  {
    "name": "청진2리 선정마을입구",
    "address": "경북 포항시 북구 청하면 청진리 309-1",
    "lat": 36.1745478,
    "lng": 129.3927884,
    "region": "경상북도"
  },
  {
    "name": "엘라포니시 맞은 편",
    "address": "경북 경주시 감포읍 대본리 산 173-1",
    "lat": 35.7524659,
    "lng": 129.4920194,
    "region": "경상북도"
  },
  {
    "name": "문무대왕 해양역사관",
    "address": "경상북도 경주시 감포읍 동해안로 1473",
    "lat": 35.7449797,
    "lng": 129.4837797,
    "region": "경상북도"
  },
  {
    "name": "감포관광단지 주차장",
    "address": "경북 경주시 감포읍 대본리 1254",
    "lat": 35.7669638,
    "lng": 129.4908929,
    "region": "경상북도"
  },
  {
    "name": "대본3리마을회관",
    "address": "경상북도 경주시 감포읍 동해안로 1497-1 ",
    "lat": 35.7461161,
    "lng": 129.4848955,
    "region": "경상북도"
  },
  {
    "name": "청림초등학교 운동장",
    "address": "경상북도 포항시 남구 정몽주로 890(청림동)",
    "lat": 35.99493254483239,
    "lng": 129.40440505743155,
    "region": "경상북도"
  },
  {
    "name": "해병대 북문 주변",
    "address": "경상북도 포항시 남구 ��해안로 5923(일월동)",
    "lat": 35.9940645,
    "lng": 129.4152144,
    "region": "경상북도"
  },
  {
    "name": "낙산사 야산",
    "address": "강원특별자치도 양양군 강현면 전진리 산 8-2",
    "lat": 38.1224306,
    "lng": 128.6304586,
    "region": "강원특별자치도"
  },
  {
    "name": "주청리 야산",
    "address": "강원특별자치도 양양군 강현면 주청리 산 6-2",
    "lat": 38.1154,
    "lng": 128.6277,
    "region": "강원특별자치도"
  },
  {
    "name": "원척리 마을입구공터",
    "address": "경북 영덕군 남정면 원척리 218-1",
    "lat": 36.2978761,
    "lng": 129.377638,
    "region": "경상북도"
  },
  {
    "name": "거일평화 교회",
    "address": "경상북도 울진군 평해읍 울진대게로 603-12",
    "lat": 36.7052659,
    "lng": 129.4732976,
    "region": "경상북도"
  },
  {
    "name": "마을뒷산 고지대",
    "address": "경북 울진군 평해읍 거일리 192",
    "lat": 36.7034489,
    "lng": 129.4740942,
    "region": "경상북도"
  },
  {
    "name": "마을뒷산 고지대",
    "address": "경상북도 울진군 평해읍 울진대게로 541-21 ",
    "lat": 36.6999823,
    "lng": 129.4751537,
    "region": "경상북도"
  },
  {
    "name": "마을뒷산 고지대",
    "address": "경북 울진군 평해읍 거일리 산 159",
    "lat": 36.6977199,
    "lng": 129.4729999,
    "region": "경상북도"
  },
  {
    "name": "구 7번국도",
    "address": "경북 울진군 후포면 금음리 395-3",
    "lat": 36.645107,
    "lng": 129.4226736,
    "region": "경상북도"
  },
  {
    "name": "구 7번국도",
    "address": "경북 울진군 후포면 금음리 391-2",
    "lat": 36.6439362,
    "lng": 129.4221452,
    "region": "경상북도"
  },
  {
    "name": "후포등기산공원",
    "address": "경상북도 울진군 후포면 후포6길 10-14 ",
    "lat": 36.6822211,
    "lng": 129.4614851,
    "region": "경상북도"
  },
  {
    "name": "용마맨션 옥상",
    "address": "경상북도 울진군 후포면 후포로 195(서진용마맨션)",
    "lat": 36.6816382,
    "lng": 129.4607905,
    "region": "경상북도"
  },
  {
    "name": "등기산 주차장",
    "address": "경북 울진군 후포면 후포리 563",
    "lat": 36.6817673,
    "lng": 129.4635585,
    "region": "경상북도"
  },
  {
    "name": "전망대",
    "address": "경북 울진군 후포면 후포리 564-69",
    "lat": 36.6803067,
    "lng": 129.4650203,
    "region": "경상북도"
  },
  {
    "name": "망사정",
    "address": "경북 울진군 후포면 후포리 산 141-1",
    "lat": 36.6802035,
    "lng": 129.4649988,
    "region": "경상북도"
  },
  {
    "name": "(구)측후소 고지대",
    "address": "강원특별자치도 속초시 중앙동 469-20",
    "lat": 38.206561954225194,
    "lng": 128.59151861038842,
    "region": "강원특별자치도"
  },
  {
    "name": "설악대교",
    "address": "강원특별자치도 속초시 설악금강대교로 115(청호동)",
    "lat": 38.2004539,
    "lng": 128.5937677,
    "region": "강원특별자치도"
  },
  {
    "name": "금강대교",
    "address": "강원특별자치도 속초시 아바이마을길 27-2 (청호동)",
    "lat": 38.2040875,
    "lng": 128.593419,
    "region": "강원특별자치도"
  },
  {
    "name": "부구교회  뒤 밭",
    "address": "경북 울진군 북면 부구리 211-11",
    "lat": 37.1055982,
    "lng": 129.3748552,
    "region": "경상북도"
  },
  {
    "name": "북면사무소",
    "address": "경상북도 울진군 북면 부구3길 12",
    "lat": 37.1049928,
    "lng": 129.3729883,
    "region": "경상북도"
  },
  {
    "name": "흥부문화체육센터",
    "address": "경북 울진군 북면 부구리 159-45",
    "lat": 37.1037136,
    "lng": 129.37235,
    "region": "경상북도"
  },
  {
    "name": "부구초등학교 운동장",
    "address": "경상북도 울진군 북면 울진북로 2081",
    "lat": 37.10273259239565,
    "lng": 129.3716865783443,
    "region": "경상북도"
  },
  {
    "name": "방사능센터",
    "address": "경상북도 울진군 근남면 산포1길 34",
    "lat": 36.9613159,
    "lng": 129.4030452,
    "region": "경상북도"
  },
  {
    "name": "산포리 030-4번지 일대 밭",
    "address": "경북 울진군 근남면 산포리 1030-4",
    "lat": 36.9588426,
    "lng": 129.4085786,
    "region": "경상북도"
  },
  {
    "name": "사랑애 펜션 앞 도로",
    "address": "부산 기장군 기장읍 죽성리 957",
    "lat": 35.2376781,
    "lng": 129.2418417,
    "region": "부산광역시"
  },
  {
    "name": "월전마을 야산 사거리",
    "address": "부산 기장군 기장읍 죽성리 296-1",
    "lat": 35.239763,
    "lng": 129.243485,
    "region": "부산광역시"
  },
  {
    "name": "왜성주차장",
    "address": "부산광역시 기장군 기장읍 두호길 8-16 ",
    "lat": 35.24103,
    "lng": 129.243623,
    "region": "부산광역시"
  },
  {
    "name": "한국유리 본관  앞 사거리",
    "address": "부산 기장군 일광읍 이천리 937",
    "lat": 35.2671096,
    "lng": 129.2394546,
    "region": "부산광역시"
  },
  {
    "name": "다미원수산 앞 도로",
    "address": "부산광역시 기장군 일광읍 일역길 75-13",
    "lat": 35.2611462,
    "lng": 129.2321026,
    "region": "부산광역시"
  },
  {
    "name": "푸른솔유치원 앞 도로",
    "address": "부산 기장군 일광읍 이천리 산 36-50",
    "lat": 35.2702105,
    "lng": 129.2321804,
    "region": "부산광역시"
  },
  {
    "name": "부경대수산과학연구소 앞 야산",
    "address": "부산 기장군 일광읍 동백리 251-5",
    "lat": 35.285179,
    "lng": 129.2566073,
    "region": "부산광역시"
  },
  {
    "name": "장안어린이집(공터)",
    "address": "부산광역시 기장군 장안읍 해맞이로 167",
    "lat": 35.3170621,
    "lng": 129.2590213,
    "region": "부산광역시"
  },
  {
    "name": "임랑야산(대덕사) 입구",
    "address": "부산 기장군 장안읍 임랑리 97-10",
    "lat": 35.3187583,
    "lng": 129.2609659,
    "region": "부산광역시"
  },
  {
    "name": "묘관음사 앞 도로",
    "address": "부산 기장군 장안읍 임랑리 산 2-24",
    "lat": 35.3216755,
    "lng": 129.2661077,
    "region": "부산광역시"
  },
  {
    "name": "문동��을 뒷산 (문동어업인복지회관 옆)",
    "address": "부산 기장군 일광읍 문동리 296-6",
    "lat": 35.3080381,
    "lng": 129.2568567,
    "region": "부산광역시"
  },
  {
    "name": "송도탑스빌 광장",
    "address": "부산광역시 서구 충무대로 56(암남동, 송도탑스빌)",
    "lat": 35.0778887,
    "lng": 129.0184861,
    "region": "부산광역시"
  },
  {
    "name": "오션뷰 펜션 앞",
    "address": "경북 포항시 북구 청하면 용두리 49-6",
    "lat": 36.1945165,
    "lng": 129.369987,
    "region": "경상북도"
  },
  {
    "name": "갈남전망대",
    "address": "강원특별자치도 삼척시 원덕읍 갈남리 102-6",
    "lat": 37.2807032,
    "lng": 129.3233557,
    "region": "강원특별자치도"
  },
  {
    "name": "갈남마을회관뒤공터",
    "address": "강원특별자치도 삼척시 원덕읍 갈남길 108",
    "lat": 37.2780773,
    "lng": 129.3260851,
    "region": "강원특별자치도"
  },
  {
    "name": "대게축구장입구",
    "address": "경북 영덕군 강구면 강구리 171-1",
    "lat": 36.3623525,
    "lng": 129.3897583,
    "region": "경상북도"
  },
  {
    "name": "수협창고 뒤 ",
    "address": "경북 영덕군 강구면 강구리 산 50-1",
    "lat": 36.3599669,
    "lng": 129.3858631,
    "region": "경상북도"
  },
  {
    "name": "미혜식당뒤",
    "address": "경북 영덕군 강구면 강구리 산 75-12",
    "lat": 36.3619133,
    "lng": 129.3926551,
    "region": "경상북도"
  },
  {
    "name": "대진1리 마을 뒤 야산",
    "address": "경북 영덕군 영해면 대진리 산 10-7",
    "lat": 36.5619124,
    "lng": 129.4281435,
    "region": "경상북도"
  },
  {
    "name": "만영수산 뒤 밭",
    "address": "경북 울진군 근남면 진복리 174",
    "lat": 36.9217122,
    "lng": 129.4172877,
    "region": "경상북도"
  },
  {
    "name": "진복2리 복지회관 뒤",
    "address": "경북 울진군 근남면 산포리 264-1",
    "lat": 36.9448,
    "lng": 129.413,
    "region": "경상북도"
  },
  {
    "name": "망양정옛터",
    "address": "경상북도 울진군 기성면 망양로 157",
    "lat": 36.8498053,
    "lng": 129.4274667,
    "region": "경상북도"
  },
  {
    "name": "삼성모텔  뒤 야산",
    "address": "경상북도 울진군 기성면 망양로 111",
    "lat": 36.8463711,
    "lng": 129.4295508,
    "region": "경상북도"
  },
  {
    "name": "해뜨는바다펜션 옆 고지대",
    "address": "경북 울진군 평해읍 직산리 13-3",
    "lat": 36.7342627,
    "lng": 129.4750142,
    "region": "경상북도"
  },
  {
    "name": "해뜨는 바다펜션 뒷산",
    "address": "경북 울진군 평해읍 직산리 13-36",
    "lat": 36.7333319,
    "lng": 129.4749981,
    "region": "경상북도"
  },
  {
    "name": "직산1리마을회관 뒤 고지대",
    "address": "경상북도 울진군 평해읍 제장로 129-23 ",
    "lat": 36.7322808,
    "lng": 129.4746333,
    "region": "경상북도"
  },
  {
    "name": "어업무선국송신소",
    "address": "경상북도 울진군 후포면 동해대로 307-18 ",
    "lat": 36.6691117,
    "lng": 129.4347811,
    "region": "경상북도"
  },
  {
    "name": "마을뒤공터",
    "address": "",
    "lat": 36.6656027,
    "lng": 129.4299075,
    "region": ""
  },
  {
    "name": "마을뒤고지대",
    "address": "경북 울진군 후포면 금음리 113-17",
    "lat": 36.6678337,
    "lng": 129.4311601,
    "region": "경상북도"
  },
  {
    "name": "서암마을 뒤 신도로",
    "address": "부산 기장군 기장읍 연화리 507",
    "lat": 35.2154544,
    "lng": 129.2222428,
    "region": "부산광역시"
  },
  {
    "name": "신암마을 뒤 신도로1",
    "address": "부산 기장군 기장읍 연화리 276-3",
    "lat": 35.216698,
    "lng": 129.223647,
    "region": "부산광역시"
  },
  {
    "name": "신암마을 뒤 신도로2",
    "address": "부산 기장군 기장읍 연화리 193",
    "lat": 35.21908,
    "lng": 129.22487,
    "region": "부산광역시"
  },
  {
    "name": "신암마을 교차로",
    "address": "부산 기장군 기장읍 연화리 산 1-11",
    "lat": 35.220273,
    "lng": 129.2264271,
    "region": "부산광역시"
  },
  {
    "name": "동명동성당 고지대",
    "address": "강원특별자치도 속초시 영랑로7길 10-5 (영랑동)",
    "lat": 38.213186,
    "lng": 128.5954363,
    "region": "강원특별자치도"
  },
  {
    "name": "온양2리 마을회관 뒷 산",
    "address": "경북 울진군 울진읍 온양리 127-2",
    "lat": 37.0277217,
    "lng": 129.4078624,
    "region": "경상북도"
  },
  {
    "name": "온양리 175번지 일대",
    "address": "경북 울진군 울진읍 온양리 175",
    "lat": 37.0251628,
    "lng": 129.4072026,
    "region": "경상북도"
  },
  {
    "name": "교원사택",
    "address": "경상북도 울진군 울진읍 울진북로 925",
    "lat": 37.0237023,
    "lng": 129.4085571,
    "region": "경상북도"
  },
  {
    "name": "연지1리 마을회관",
    "address": "경상북도 울진군 울진읍 현내항길 307",
    "lat": 36.9914818,
    "lng": 129.4153109,
    "region": "경상북도"
  },
  {
    "name": "대동빌라",
    "address": "경상북도 울진군 울진읍 현내항길 189-6 ",
    "lat": 36.9915997,
    "lng": 129.4143748,
    "region": "경상북도"
  },
  {
    "name": "칠암초등학교",
    "address": "부산광역시 기장군 일광읍 박영준길 19",
    "lat": 35.2984635,
    "lng": 129.2554593,
    "region": "부산광역시"
  },
  {
    "name": "암남공원",
    "address": "부산 서구 암남동 620-36",
    "lat": 35.0624693,
    "lng": 129.0201706,
    "region": "부산광역시"
  },
  {
    "name": "BMC 아파트 테니스장",
    "address": "부산광역시 사하구 다대로 430",
    "lat": 35.0646119,
    "lng": 128.9787885,
    "region": "부산광역시"
  },
  {
    "name": "두송종합사회복지관 앞 주차장",
    "address": "부산광역시 사하구 다송로 59(다대동, 다대4지구도개공영구임대아파트)",
    "lat": 35.0623,
    "lng": 128.9848,
    "region": "부산광역시"
  },
  {
    "name": "수영구청",
    "address": "부산광역시 수영구 남천동로 100(남천동)",
    "lat": 35.1453222,
    "lng": 129.1128912,
    "region": "부산광역시"
  },
  {
    "name": "코오롱하늘채아파트",
    "address": "부산광역시 수영구 남천동로 33(남천동)",
    "lat": 35.1424342,
    "lng": 129.1123216,
    "region": "부산광역시"
  },
  {
    "name": "민락초등학교 운동장",
    "address": "부산광역시 수영구 광남로257번길 12(민락동)",
    "lat": 35.16081269276683,
    "lng": 129.1268676121317,
    "region": "부산광역시"
  },
  {
    "name": "민락동행정복지센터",
    "address": "부산광역시 수영구 광안해변로295번길 20(민락동)",
    "lat": 35.1573369,
    "lng": 129.125399,
    "region": "부산광역시"
  },
  {
    "name": "백산",
    "address": "부산광역시 수영구 광남로257번길 58(민락동)",
    "lat": 35.1621787,
    "lng": 129.1254473,
    "region": "부산광역시"
  },
  {
    "name": "송도해수욕장 공영주차장",
    "address": "부산광역시 서구 암남공원로 25(암남동)",
    "lat": 35.0739463,
    "lng": 129.0154874,
    "region": "부산광역시"
  },
  {
    "name": "송도초등학교 운동장",
    "address": "부산광역시 서구 충무대로 25(암남동)",
    "lat": 35.07831211029459,
    "lng": 129.01565182030984,
    "region": "부산광역시"
  },
  {
    "name": "강동중앙3공원",
    "address": "울산광역시 북구 산하중앙1로 73",
    "lat": 35.6308216,
    "lng": 129.4383404,
    "region": "울산광역시"
  },
  {
    "name": "컴온비치호텔  주차장",
    "address": "울산광역시 북구 동해안로 1517(정자동)",
    "lat": 35.6212379,
    "lng": 129.4458717,
    "region": "울산광역시"
  },
  {
    "name": "국립수산과학원 정문 앞 도로",
    "address": "부산 기장군 기장읍 시랑리 170-14",
    "lat": 35.1946844,
    "lng": 129.2212906,
    "region": "부산광역시"
  },
  {
    "name": "힐튼호텔  앞 도로",
    "address": "부산 기장군 기장읍 시랑리 708",
    "lat": 35.1976062,
    "lng": 129.2251825,
    "region": "부산광역시"
  },
  {
    "name": "감포초등학교 운동장",
    "address": "경상북도 경주시 감포읍 감포로10길 21",
    "lat": 35.80993766500488,
    "lng": 129.50196258401994,
    "region": "경상북도"
  },
  {
    "name": "감포읍 행정복지센터",
    "address": "경상북도 경주시 감포읍 감포로8길 14-6 ",
    "lat": 35.8073988,
    "lng": 129.5015788,
    "region": "경상북도"
  },
  {
    "name": "감포읍 버스공용주차장",
    "address": "경상북도 경주시 감포읍 감포로 69-30 ",
    "lat": 35.8023216,
    "lng": 129.4973919,
    "region": "경상북도"
  },
  {
    "name": "감포읍 주민복지회관 ",
    "address": "경상북도 경주시 감포읍 동해안로 2153",
    "lat": 35.7990454,
    "lng": 129.4933283,
    "region": "경상북도"
  },
  {
    "name": "물치리 야산 ",
    "address": "강원특별자치도 양양군 강현면 물치리 산 12",
    "lat": 38.1563818,
    "lng": 128.6081685,
    "region": "강원특별자치도"
  },
  {
    "name": "구만리389-1 주변",
    "address": "경북 포항시 남구 호미곶면 구만리 389-1",
    "lat": 36.0813221,
    "lng": 129.5509824,
    "region": "경상북도"
  },
  {
    "name": "호미곶펜션 앞",
    "address": "경북 포항시 남구 호미곶면 구만리 491-7",
    "lat": 36.0847557,
    "lng": 129.5489332,
    "region": "경상북도"
  },
  {
    "name": "삼사공원입구1",
    "address": "경북 영덕군 강구면 삼사리 753-1",
    "lat": 36.3453493,
    "lng": 129.3821757,
    "region": "경상북도"
  },
  {
    "name": "삼사공원입구2",
    "address": "경북 영덕군 강구면 삼사리 172",
    "lat": 36.3491995,
    "lng": 129.3857345,
    "region": "경상북도"
  },
  {
    "name": "씨아일랜드주차장",
    "address": "경북 영덕군 강구면 삼사리 631-8",
    "lat": 36.3401528,
    "lng": 129.3815782,
    "region": "경상북도"
  },
  {
    "name": "구계승강장",
    "address": "경북 영덕군 남정면 구계리 207-1",
    "lat": 36.3205752,
    "lng": 129.3796941,
    "region": "경상북도"
  },
  {
    "name": "W펜션(구,아이씨프라자)",
    "address": "경상북도 영덕군 남정면 동해대로 4000",
    "lat": 36.3165939,
    "lng": 129.378493,
    "region": "경상북도"
  },
  {
    "name": "제당뒷산",
    "address": "경상북도 영덕군 남정면 구계2길 14-10 ",
    "lat": 36.321268,
    "lng": 129.3780926,
    "region": "경상북도"
  },
  {
    "name": "구계리 마을뒷산",
    "address": "경북 영덕군 남정면 구계리 319-1",
    "lat": 36.3198093,
    "lng": 129.3769731,
    "region": "경상북도"
  },
  {
    "name": "영덕경찰수련원",
    "address": "경상북도 영덕군 병곡면 영덕로 2108-152 ",
    "lat": 36.568658873201045,
    "lng": 129.4167051088202,
    "region": "경상북도"
  },
  {
    "name": "옥계역",
    "address": "강원특별자치도 강릉시 옥계면 동해대로 241-6 ",
    "lat": 37.6167058,
    "lng": 129.0499677,
    "region": "강원특별자치도"
  },
  {
    "name": "한국여성수련원",
    "address": "강원특별자치도 강릉시 옥계면 금진솔밭길 148-19 ",
    "lat": 37.629553,
    "lng": 129.0461183,
    "region": "강원특별자치도"
  },
  {
    "name": "기마봉야산",
    "address": "강원특별자치도 강릉시 옥계면 금진리 산 96",
    "lat": 37.6388056,
    "lng": 129.0414405,
    "region": "강원특별자치도"
  },
  {
    "name": "경정석산 (버스승강장",
    "address": "경북 영덕군 축산면 경정리 산 26-1",
    "lat": 36.4751058,
    "lng": 129.4318153,
    "region": "경상북도"
  },
  {
    "name": "정구장",
    "address": "경상북도 울진군 죽변면 등대길 63",
    "lat": 37.0572962,
    "lng": 129.4281077,
    "region": "경상북도"
  },
  {
    "name": "죽변면민회관",
    "address": "경북 울진군 죽변면 죽변리 57-1",
    "lat": 37.0611747,
    "lng": 129.4226119,
    "region": "경상북도"
  },
  {
    "name": "죽변초등학교 운동장",
    "address": "경상북도 울진군 죽변면 죽변3길 17",
    "lat": 37.06249893906506,
    "lng": 129.42128812140766,
    "region": "경상북도"
  },
  {
    "name": "죽변 중·고등학교",
    "address": "경상북도 울진군 죽변면 죽변4길 19",
    "lat": 37.0645479,
    "lng": 129.4208068,
    "region": "경상북도"
  },
  {
    "name": "동도빌라",
    "address": "경상북도 울진군 죽변면 죽변9길 74",
    "lat": 37.0599932,
    "lng": 129.4182453,
    "region": "경상북도"
  },
  {
    "name": "용진모텔  뒤 공터",
    "address": "경상북도 울진군 죽변면 죽변10길 6-8 ",
    "lat": 37.0575888,
    "lng": 129.4172409,
    "region": "경상북도"
  },
  {
    "name": "죽변 119안전센터",
    "address": "경북 울진군 죽변면 후정리 381-6",
    "lat": 37.0546358,
    "lng": 129.412521,
    "region": "경상북도"
  },
  {
    "name": "대항주차장",
    "address": "부산 강서구 대항동 산 13-26",
    "lat": 35.0118219,
    "lng": 128.8299644,
    "region": "부산광역시"
  },
  {
    "name": "대항마을진입로",
    "address": "부산 강서구 대항동 396-2",
    "lat": 35.0145042,
    "lng": 128.8275746,
    "region": "부산광역시"
  },
  {
    "name": "(구)외양포 가는길",
    "address": "부산 강서구 대항동 산 13-29",
    "lat": 35.0098118,
    "lng": 128.8250935,
    "region": "부산광역시"
  },
  {
    "name": "송림공원",
    "address": "부산광역시 서구 송도해변로 171(암남동)",
    "lat": 35.0767604,
    "lng": 129.0230513,
    "region": "부산광역시"
  },
  {
    "name": "암남동 주민센터 주차장",
    "address": "부산 서구 암남동 85-18",
    "lat": 35.079715,
    "lng": 129.0208572,
    "region": "부산광역시"
  },
  {
    "name": "벽산블루밍 APT  주차장",
    "address": "울산광역시 북구 동해안로 1500(정자동)",
    "lat": 35.6198891,
    "lng": 129.4475292,
    "region": "울산광역시"
  },
  {
    "name": "강동동행정복지센터 주차장",
    "address": "울산광역시 북구 무룡로 1096(정자동)",
    "lat": 35.6129906,
    "lng": 129.4454321,
    "region": "울산광역시"
  },
  {
    "name": "울산교육연수원 주차장",
    "address": "울산광역시 북구 무룡로 1093(정자동)",
    "lat": 35.6133983,
    "lng": 129.4447838,
    "region": "울산광역시"
  },
  {
    "name": "정자오피스텔 주차장",
    "address": "울산광역시 북구 동해안로 1350(구유동)",
    "lat": 35.6112653,
    "lng": 129.4566927,
    "region": "울산광역시"
  },
  {
    "name": "복성마을 야산",
    "address": "울산 북구 구유동 산 64",
    "lat": 35.607877,
    "lng": 129.4551749,
    "region": "울산광역시"
  },
  {
    "name": "제전마을 야산",
    "address": "울산 북구 구유동 82-3",
    "lat": 35.6051618,
    "lng": 129.4575298,
    "region": "울산광역시"
  },
  {
    "name": "우가경로당 주차장",
    "address": "울산광역시 북구 동해안로 1114(당사동)",
    "lat": 35.5957108,
    "lng": 129.4628376,
    "region": "울산광역시"
  },
  {
    "name": "강동축구장 주차장",
    "address": "울산 북구 당사동 214",
    "lat": 35.5875703,
    "lng": 129.456445,
    "region": "울산광역시"
  },
  {
    "name": " 기곡마을 입구",
    "address": "강원특별자치도 동해시 망상동 409-16",
    "lat": 37.5961376,
    "lng": 129.0805176,
    "region": "강원특별자치도"
  },
  {
    "name": "읍천1리마을회관뒤",
    "address": "경상북도 경주시 양남면 양남항구길 17",
    "lat": 35.6909665,
    "lng": 129.4735229,
    "region": "경상북도"
  },
  {
    "name": "어달마을내 도로",
    "address": "강원특별자치도 동해시 어달동 134-5",
    "lat": 37.5671315,
    "lng": 129.1177091,
    "region": "강원특별자치도"
  },
  {
    "name": "어달 소공원",
    "address": "강원특별자치도 동해시 어달동 47",
    "lat": 37.5654795,
    "lng": 129.1187793,
    "region": "강원특별자치도"
  },
  {
    "name": "리즈카페 뒤",
    "address": "강원특별자치도 동해시 어달동 38-15",
    "lat": 37.5634597,
    "lng": 129.1192192,
    "region": "강원특별자치도"
  },
  {
    "name": "도시어부 뒤",
    "address": "강원특별자치도 동해시 일출로 211-5 (어달동)",
    "lat": 37.5608509,
    "lng": 129.1196617,
    "region": "강원특별자치도"
  },
  {
    "name": "강릉교회",
    "address": "강원특별자치도 강릉시 해안로 333(강문동)",
    "lat": 37.79355,
    "lng": 128.9162028,
    "region": "강원특별자치도"
  },
  {
    "name": "강릉고등학교  체육관",
    "address": "강원특별자치도 강릉시 강릉대로587번길 68(초당동)",
    "lat": 37.7880136,
    "lng": 128.9168358,
    "region": "강원특별자치도"
  },
  {
    "name": "벤트풀빌라 옆",
    "address": "경상북도 포항시 남구 호미곶면 일출로 530",
    "lat": 36.0359452,
    "lng": 129.5778449,
    "region": "경상북도"
  },
  {
    "name": "독도수산뒤",
    "address": "경북 영덕군 강구면 삼사리 8",
    "lat": 36.3524792,
    "lng": 129.3857217,
    "region": "경상북도"
  },
  {
    "name": "오포대게식당뒤",
    "address": "경상북도 영덕군 강구면 신강구길 72-3",
    "lat": 36.3543161,
    "lng": 129.3865251,
    "region": "경상북도"
  },
  {
    "name": "강구초등학교",
    "address": "경상북도 영덕군 강구면 나비산길 8",
    "lat": 36.35644106019419,
    "lng": 129.37862653301912,
    "region": "경상북도"
  },
  {
    "name": "강구정보고",
    "address": "경상북도 영덕군 강구면 신강구1길 45-5 ",
    "lat": 36.3534501,
    "lng": 129.3800609,
    "region": "경상북도"
  },
  {
    "name": "7번국도변",
    "address": "경북 영덕군 병곡면 원황리 619-3",
    "lat": 36.5765554,
    "lng": 129.399596,
    "region": "경상북도"
  },
  {
    "name": "동해안휴게소",
    "address": "경상북도 영덕군 병곡면 백석1길 7",
    "lat": 36.623426,
    "lng": 129.4110461,
    "region": "경상북도"
  },
  {
    "name": "경포산장콘도 공터",
    "address": "강원특별자치도 강릉시 하남길 345-18 (안현동)",
    "lat": 37.8096017,
    "lng": 128.9002812,
    "region": "강원특별자치도"
  },
  {
    "name": "씨마크호텔 ",
    "address": "강원특별자치도 강릉시 해안로406번길 2(강문동)",
    "lat": 37.797115,
    "lng": 128.9152157,
    "region": "강원특별자치도"
  },
  {
    "name": "현대아파트 앞 야산",
    "address": "강원특별자치도 강릉시 저동 산 10",
    "lat": 37.8016123,
    "lng": 128.8999164,
    "region": "강원특별자치도"
  },
  {
    "name": "강릉원주대학해양생물",
    "address": "강원특별자치도 강릉시 사천면 해안로 1166",
    "lat": 37.8509955,
    "lng": 128.8616687,
    "region": "강원특별자치도"
  },
  {
    "name": "두원리 버스승강장 앞",
    "address": "경북 포항시 남구 장기면 두원리 523-15",
    "lat": 35.8435223,
    "lng": 129.5158337,
    "region": "경상북도"
  },
  {
    "name": "두원주유소 앞",
    "address": "경북 포항시 남구 장기면 두원리 57-1",
    "lat": 35.848923,
    "lng": 129.5181149,
    "region": "경상북도"
  },
  {
    "name": "대진2리 마을 뒤 야산2",
    "address": "경북 영덕군 영해면 대진리 산 23-1",
    "lat": 36.5562337,
    "lng": 129.4285827,
    "region": "경상북도"
  },
  {
    "name": "사진3리 마을 뒤 야산",
    "address": "경상북도 영덕군 영해면 영덕대게로 2247-51 ",
    "lat": 36.5207759,
    "lng": 129.4416143,
    "region": "경상북도"
  },
  {
    "name": "대항교회",
    "address": "부산광역시 기장군 기장읍 대변로 149",
    "lat": 35.226286,
    "lng": 129.228664,
    "region": "부산광역시"
  },
  {
    "name": "대변항 입구 교차로",
    "address": "부산 기장군 기장읍 대변리 450",
    "lat": 35.223734,
    "lng": 129.22629,
    "region": "부산광역시"
  },
  {
    "name": "힐타운 앞 도로",
    "address": "부산 기장군 기장읍 대변리 266",
    "lat": 35.222954,
    "lng": 129.231306,
    "region": "부산광역시"
  },
  {
    "name": "고리스포츠문화센터",
    "address": "부산광역시 기장군 장안읍 해맞이로 454",
    "lat": 35.3298928,
    "lng": 129.2875385,
    "region": "부산광역시"
  },
  {
    "name": "기장문화예절학교",
    "address": "부산광역시 기장군 장안읍 해맞이로 311-31 ",
    "lat": 35.3256212,
    "lng": 129.2685592,
    "region": "부산광역시"
  },
  {
    "name": "월내야산(삼막골)",
    "address": "부산 기장군 장안읍 월내리 284",
    "lat": 35.3296915,
    "lng": 129.2777538,
    "region": "부산광역시"
  },
  {
    "name": "진하회관(건물)",
    "address": "울산광역시 울주군 서생면 나루터길 29",
    "lat": 35.3866,
    "lng": 129.3425,
    "region": "울산광역시"
  },
  {
    "name": "수제마을 소공원",
    "address": "경상북도 경주시 문무대왕면 봉길수제길 17",
    "lat": 35.7362388,
    "lng": 129.4820952,
    "region": "경상북도"
  },
  {
    "name": "나산초등학교 운동장",
    "address": "경상북도 경주시 양남면 동해안로 625-9 ",
    "lat": 35.697917371268254,
    "lng": 129.470172512514,
    "region": "경상북도"
  },
  {
    "name": "양남중학교 운동장",
    "address": "경상북도 경주시 양남면 양남로 325-3 ",
    "lat": 35.674119923660356,
    "lng": 129.46050315805067,
    "region": "경상북도"
  },
  {
    "name": "카리브모텔 뒤 야산",
    "address": "경상북도 경주시 양남면 동해안로 435",
    "lat": 35.6821761,
    "lng": 129.469969,
    "region": "경상북도"
  },
  {
    "name": "통일로 토종순대국",
    "address": "경상북도 경주시 양남면 양남로 225-12 ",
    "lat": 35.6672378,
    "lng": 129.4625553,
    "region": "경상북도"
  },
  {
    "name": "바다모텔 옆 야산",
    "address": "경북 경주시 양남면 수렴리 산 87-1",
    "lat": 35.6583772,
    "lng": 129.4509387,
    "region": "경상북도"
  },
  {
    "name": "현대자동차 수련원",
    "address": "경상북도 경주시 양남면 양남로 175-27 ",
    "lat": 35.6675647,
    "lng": 129.4568825,
    "region": "경상북도"
  },
  {
    "name": "어촌민속전시관공터",
    "address": "강원특별자치도 삼척시 원덕읍 삼척로 1852-6 ",
    "lat": 37.2676964,
    "lng": 129.3273103,
    "region": "강원특별자치도"
  },
  {
    "name": "돌기해삼종묘배양장",
    "address": "강원특별자치도 삼척시 원덕읍 신남길 27",
    "lat": 37.2659994,
    "lng": 129.3238503,
    "region": "강원특별자치도"
  },
  {
    "name": "동산리 야산",
    "address": "강원특별자치도 양양군 현남면 동산리 58-1",
    "lat": 37.98,
    "lng": 128.7591,
    "region": "강원특별자치도"
  },
  {
    "name": "해송모텔 앞",
    "address": "경북 포항시 남구 호미곶면 강사리 756-5",
    "lat": 36.0551253,
    "lng": 129.5762461,
    "region": "경상북도"
  },
  {
    "name": "강사교회 앞 공터",
    "address": "경북 포항시 남구 호미곶면 강사리 424-2",
    "lat": 36.0470539,
    "lng": 129.5772225,
    "region": "경상북도"
  },
  {
    "name": "곰두리연수원 공터",
    "address": "강원특별자치도 강릉시 강동면 헌화로 740-40 ",
    "lat": 37.6671585,
    "lng": 129.0508574,
    "region": "강원특별자치도"
  },
  {
    "name": "전촌1리마을회관 앞 공터",
    "address": "경상북도 경주시 감포읍 성두2길 21",
    "lat": 35.792887,
    "lng": 129.488294,
    "region": "경상북도"
  },
  {
    "name": "나정2리 마을회관 뒤 ",
    "address": "경상북도 경주시 감포읍 나정길 39-6 ",
    "lat": 35.7774096,
    "lng": 129.492985,
    "region": "경상북도"
  },
  {
    "name": "시드니낚시마트  뒤 야산",
    "address": "경상북도 경주시 감포읍 장진길 21",
    "lat": 35.7927842,
    "lng": 129.4950557,
    "region": "경상북도"
  },
  {
    "name": "나정1리 마을회관 앞 ",
    "address": "경상북도 경주시 감포읍 동해안로 1921-15 ",
    "lat": 35.7791026,
    "lng": 129.491483,
    "region": "경상북도"
  },
  {
    "name": "칠포해수욕장위부대앞",
    "address": "경북 포항시 북구 흥해읍 칠포리 산 109-10",
    "lat": 36.1327234,
    "lng": 129.3964738,
    "region": "경상북도"
  },
  {
    "name": "곡강3리 마을회관",
    "address": "경상북도 포항시 북구 흥해읍 해안로 1335-20 ",
    "lat": 36.12813120087064,
    "lng": 129.39845324485276,
    "region": "경상북도"
  },
  {
    "name": "포항시립아트홀 앞",
    "address": "경상북도 포항시 북구 서동로 83(덕산동)",
    "lat": 36.0408383,
    "lng": 129.3672699,
    "region": "경상북도"
  },
  {
    "name": "정라마을회관뒤공터",
    "address": "강원특별자치도 삼척시 정하동 산 3-4",
    "lat": 37.4422055,
    "lng": 129.1877089,
    "region": "강원특별자치도"
  },
  {
    "name": "척주동해비",
    "address": "강원특별자치도 삼척시 허목길 13-7 (정상동)",
    "lat": 37.4355741,
    "lng": 129.1847724,
    "region": "강원특별자치도"
  },
  {
    "name": "감로사공터",
    "address": "강원특별자치도 삼척시 영진안길 72(정상동)",
    "lat": 37.4407075,
    "lng": 129.1844473,
    "region": "강원특별자치도"
  },
  {
    "name": "남초등학교뒷산",
    "address": "강원특별자치도 삼척시 오분동 산 55",
    "lat": 37.4253939,
    "lng": 129.186253,
    "region": "강원특별자치도"
  },
  {
    "name": "오분마을회관뒤공터",
    "address": "강원특별자치도 삼척시 오분동 산 14-10",
    "lat": 37.4280011,
    "lng": 129.1895328,
    "region": "강원특별자치도"
  },
  {
    "name": "오분파출소뒷산",
    "address": "강원특별자치도 삼척시 오분1길 72-56 (오분동)",
    "lat": 37.4304113,
    "lng": 129.1888762,
    "region": "강원특별자치도"
  },
  {
    "name": "노실분교운동장",
    "address": "강원특별자치도 삼척시 원덕읍 노실길 81-21 ",
    "lat": 37.2021481,
    "lng": 129.3417299,
    "region": "강원특별자치도"
  },
  {
    "name": "하광정리 야산",
    "address": "강원특별자치도 양양군 현북면 조준길 40",
    "lat": 38.0201,
    "lng": 128.7281,
    "region": "강원특별자치도"
  },
  {
    "name": "대성수산 입구 앞 공터",
    "address": "경북 포항시 남구 구룡포읍 석병리 20-1",
    "lat": 36.0313079,
    "lng": 129.5791751,
    "region": "경상북도"
  },
  {
    "name": "구룡포청소년회관 앞",
    "address": "경상북도 포항시 남구 구룡포읍 명월길 51",
    "lat": 36.0292147,
    "lng": 129.5738268,
    "region": "경상북도"
  },
  {
    "name": "석병장로교회 옆",
    "address": "경상북도 포항시 남구 구룡포읍 일출로 318",
    "lat": 36.0211841,
    "lng": 129.5777911,
    "region": "경상북도"
  },
  {
    "name": "학생해양수련원",
    "address": "경상북도 영덕군 병곡면 고래불로 201",
    "lat": 36.5787787,
    "lng": 129.4124289,
    "region": "경상북도"
  },
  {
    "name": "7번 국도변",
    "address": "경북 영덕군 병곡면 원황리 619-3",
    "lat": 36.5765506,
    "lng": 129.3996229,
    "region": "경상북도"
  },
  {
    "name": "포항시립구룡포도서관 운동장",
    "address": "경상북도 포항시 남구 구룡포읍 병포길52번길 17",
    "lat": 35.98259460644593,
    "lng": 129.55090463162657,
    "region": "경상북도"
  },
  {
    "name": " 경북대수련원 앞 공",
    "address": "경상북도 포항시 남구 구룡포읍 하정로 153",
    "lat": 35.975612,
    "lng": 129.5508081,
    "region": "경상북도"
  },
  {
    "name": "제당옆 골목",
    "address": "경북 영덕군 영덕읍 창포리 572",
    "lat": 36.4112914,
    "lng": 129.4285761,
    "region": "경상북도"
  },
  {
    "name": "창포일반(강유복집뒤)",
    "address": "경상북도 영덕군 영덕읍 창포1길 19",
    "lat": 36.4119941,
    "lng": 129.4293808,
    "region": "경상북도"
  },
  {
    "name": "오보보건소 뒤",
    "address": "경북 영덕군 영덕읍 오보리 142",
    "lat": 36.4412707,
    "lng": 129.4302156,
    "region": "경상북도"
  },
  {
    "name": "오보교회 뒤",
    "address": "경상북도 영덕군 영덕읍 오보길 26",
    "lat": 36.4420184,
    "lng": 129.4319964,
    "region": "경상북도"
  },
  {
    "name": "사진2리 마을 뒤 공터",
    "address": "경상북도 영덕군 영해면 괴시사진길 327-24 ",
    "lat": 36.5310111,
    "lng": 129.4392659,
    "region": "경상북도"
  },
  {
    "name": "펜션 뒤 밭",
    "address": "경상북도 울진군 근남면 진복길 85-14",
    "lat": 36.9316911,
    "lng": 129.4148603,
    "region": "경상북도"
  },
  {
    "name": "진복리 651번지 일대",
    "address": "경북 울진군 근남면 진복리 651",
    "lat": 36.9293005,
    "lng": 129.4133663,
    "region": "경상북도"
  },
  {
    "name": "진복리 522번지 일대 ",
    "address": "경북 울진군 근남면 진복리 522",
    "lat": 36.9270063,
    "lng": 129.4146055,
    "region": "경상북도"
  },
  {
    "name": "봉산1리 430-1번지",
    "address": "경북 울진군 기성면 봉산리 430-1",
    "lat": 36.7868339,
    "lng": 129.4609299,
    "region": "경상북도"
  },
  {
    "name": "봉산1리 322번지 주택",
    "address": "경상북도 울진군 기성면 구산봉산로 417-2 ",
    "lat": 36.7815688,
    "lng": 129.466061,
    "region": "경상북도"
  },
  {
    "name": "봉산1리 306번지 일대",
    "address": "경북 울진군 기성면 봉산리 306",
    "lat": 36.7800113,
    "lng": 129.4689524,
    "region": "경상북도"
  },
  {
    "name": "봉산1리 150-1번지 일",
    "address": "경상북도 울진군 기성면 구산봉산로 315",
    "lat": 36.7747263,
    "lng": 129.4714361,
    "region": "경상북도"
  },
  {
    "name": "월송3리 산 18번지 고지대",
    "address": "경북 울진군 평해읍 월송리 산 17-1",
    "lat": 36.7410421,
    "lng": 129.4578481,
    "region": "경상북도"
  },
  {
    "name": "코리아모텔뒷산",
    "address": "경북 울진군 후포면 금음리 산 155",
    "lat": 36.6643182,
    "lng": 129.4301918,
    "region": "경상북도"
  },
  {
    "name": "국도옆 산마루측구",
    "address": "경북 울진군 후포면 금음리 259",
    "lat": 36.6604066,
    "lng": 129.4308704,
    "region": "경상북도"
  },
  {
    "name": "반소골길",
    "address": "경북 울진군 후포면 금음리 263-7",
    "lat": 36.6597848,
    "lng": 129.4299746,
    "region": "경상북도"
  },
  {
    "name": "송도공원(식당)주차장",
    "address": "부산광역시 서구 암남공원로 75(암남동)",
    "lat": 35.0706447,
    "lng": 129.0180141,
    "region": "부산광역시"
  },
  {
    "name": "장생포초등학교 운동장",
    "address": "울산광역시 남구 장생포고래로125번길 5(장생포동)",
    "lat": 35.50341833328551,
    "lng": 129.3683919000567,
    "region": "울산광역시"
  },
  {
    "name": "장생포항 야산",
    "address": "울산광역시 남구 장생포고래로155번길 22(장생포동)",
    "lat": 35.502628,
    "lng": 129.371241,
    "region": "울산광역시"
  },
  {
    "name": "태영인더스트리사택 앞 주차장",
    "address": "울산 남구 장생포동 267-7",
    "lat": 35.505316,
    "lng": 129.374499,
    "region": "울산광역시"
  },
  {
    "name": "장생포복지문화센터 옥상",
    "address": "울산광역시 남구 장생포고래로 215(장생포동)",
    "lat": 35.503057,
    "lng": 129.377628,
    "region": "울산광역시"
  },
  {
    "name": "고래문화마을",
    "address": "울산 남구 매암동 662-56",
    "lat": 35.5052953,
    "lng": 129.3794203,
    "region": "울산광역시"
  },
  {
    "name": "울산항만공사",
    "address": "울산광역시 남구 장생포고래로 271(매암동)",
    "lat": 35.5047429,
    "lng": 129.3828428,
    "region": "울산광역시"
  },
  {
    "name": "공수마을 뒷산(멍두산)",
    "address": "부산 기장군 기장읍 시랑리 689",
    "lat": 35.1841057,
    "lng": 129.2087057,
    "region": "부산광역시"
  },
  {
    "name": "당사마을 정자 앞 도로",
    "address": "부산 기장군 기장읍 당사리 507",
    "lat": 35.1860857,
    "lng": 129.20986,
    "region": "부산광역시"
  },
  {
    "name": "방어침례교회 앞",
    "address": "경북 포항시 북구 청하면 방어리 121-1",
    "lat": 36.2119395,
    "lng": 129.3823493,
    "region": "경상북도"
  },
  {
    "name": "월포백번횟집 앞",
    "address": "경상북도 포항시 북구 청하면 해안로 2494",
    "lat": 36.20873,
    "lng": 129.3771914,
    "region": "경상북도"
  },
  {
    "name": "노인요양원앞공터",
    "address": "강원특별자치도 삼척시 근덕면 덕산리 2-1",
    "lat": 37.3800729,
    "lng": 129.2492065,
    "region": "강원특별자치도"
  },
  {
    "name": "솔바람민박앞공터",
    "address": "강원특별자치도 삼척시 근덕면 덕산리 448",
    "lat": 37.3807445,
    "lng": 129.2427486,
    "region": "강원특별자치도"
  },
  {
    "name": "육군 2191부대",
    "address": "강원특별자치도 강릉시 연곡면 영진리 137",
    "lat": 37.8668,
    "lng": 128.8466,
    "region": "강원특별자치도"
  },
  {
    "name": "마을뒷산 고지대",
    "address": "경북 울진군 후포면 후포리 산 96-17",
    "lat": 36.6791924,
    "lng": 129.4483316,
    "region": "경상북도"
  },
  {
    "name": "정우맨션옥상",
    "address": "경상북도 울진군 후포면 후포삼율로 128-7 (정우맨션)",
    "lat": 36.6812747,
    "lng": 129.4436055,
    "region": "경상북도"
  },
  {
    "name": "우성플러스빌옥상",
    "address": "경상북도 울진군 후포면 청구천길 4-8 (우성플러스빌)",
    "lat": 36.6816791,
    "lng": 129.4447401,
    "region": "경상북도"
  },
  {
    "name": "삼영아파트옥상",
    "address": "경상북도 울진군 후포면 울진대게로 24-7 (삼영아파트)",
    "lat": 36.6770585,
    "lng": 129.4424468,
    "region": "경상북도"
  },
  {
    "name": "선재하이츠빌라옥상",
    "address": "경상북도 울진군 후포면 후포로 121(선재하이츠빌라1차)",
    "lat": 36.6816619,
    "lng": 129.4539589,
    "region": "경상북도"
  },
  {
    "name": "후포교회",
    "address": "경상북도 울진군 후포면 후포로 101",
    "lat": 36.6803669,
    "lng": 129.4523898,
    "region": "경상북도"
  },
  {
    "name": "아남프라자",
    "address": "강원특별자치도 속초시 동해대로 4236(교동)",
    "lat": 38.1972412,
    "lng": 128.5776946,
    "region": "강원특별자치도"
  },
  {
    "name": "금세골",
    "address": "경상북도 울진군 북면 고포월천길 55",
    "lat": 37.1435368,
    "lng": 129.3598348,
    "region": "경상북도"
  },
  {
    "name": "나곡리 1146-3주변",
    "address": "경북 울진군 북면 나곡리 1146-3",
    "lat": 37.142177,
    "lng": 129.3624955,
    "region": "경상북도"
  },
  {
    "name": "한중아파트 뒤 밭",
    "address": "경북 울진군 북면 부구리 319-1",
    "lat": 37.1021498,
    "lng": 129.3670043,
    "region": "경상북도"
  },
  {
    "name": "부구리582-2번지 일대 밭",
    "address": "경상북도 울진군 북면 흥부길 35-115 ",
    "lat": 37.1030461,
    "lng": 129.36315,
    "region": "경상북도"
  },
  {
    "name": "죽도공원",
    "address": "부산 해운대구 송정동 산 52-1",
    "lat": 35.1798417,
    "lng": 129.2056614,
    "region": "부산광역시"
  },
  {
    "name": "송정동 행정복지센터",
    "address": "부산광역시 해운대구 송정중앙로21번길 20(송정동)",
    "lat": 35.1835905,
    "lng": 129.2036819,
    "region": "부산광역시"
  },
  {
    "name": "몰운대공터",
    "address": "부산 사하구 다대동 산 144",
    "lat": 35.0431082,
    "lng": 128.9690431,
    "region": "부산광역시"
  },
  {
    "name": "중현초등학교 운동장",
    "address": "부산광역시 사하구 다대낙조2길 8(다대동)",
    "lat": 35.0505690103822,
    "lng": 128.96658539772676,
    "region": "부산광역시"
  },
  {
    "name": "한바다중학교 운동장",
    "address": "부산광역시 수영구 광안로21번가길 57",
    "lat": 35.1569729,
    "lng": 129.1180122,
    "region": "부산광역시"
  },
  {
    "name": "광안초등학교 운동장",
    "address": "부산광역시 수영구 광안로35번길 38(광안동)",
    "lat": 35.156861,
    "lng": 129.117096,
    "region": "부산광역시"
  },
  {
    "name": "어물보건진료소 주차장",
    "address": "울산광역시 북구 아름1길 21(어물동)",
    "lat": 35.58015,
    "lng": 129.4504085,
    "region": "울산광역시"
  },
  {
    "name": "어물동 야산",
    "address": "울산 북구 어물동 산 372",
    "lat": 35.575376,
    "lng": 129.4494479,
    "region": "울산광역시"
  },
  {
    "name": "임곡1리 버스승강장 ",
    "address": "경북 포항시 남구 동해면 임곡리 543-8",
    "lat": 35.9942707,
    "lng": 129.4575852,
    "region": "경상북도"
  },
  {
    "name": "송도초등학교",
    "address": "경북 포항시 남구 송도동 311-285",
    "lat": 36.0337655,
    "lng": 129.3796054,
    "region": "경상북도"
  },
  {
    "name": "동해초등학교 운동장",
    "address": "경상북도 포항시 남구 동해면 일월로 78",
    "lat": 35.98836517329187,
    "lng": 129.44104872928818,
    "region": "경상북도"
  },
  {
    "name": "(구)청룡회관(호텔마린)",
    "address": "경북 포항시 남구 동해면 임곡리 309-2",
    "lat": 36.000207028539656,
    "lng": 129.46120017425855,
    "region": "경상북도"
  },
  {
    "name": "공양왕릉앞공터",
    "address": "강원특별자치도 삼척시 근덕면 궁촌리 178",
    "lat": 37.3261388,
    "lng": 129.2661774,
    "region": "강원특별자치도"
  },
  {
    "name": "궁촌침례교회공터",
    "address": "강원특별자치도 삼척시 근덕면 궁촌길 40",
    "lat": 37.3212757,
    "lng": 129.2653003,
    "region": "강원특별자치도"
  },
  {
    "name": "금메달주유소뒷산",
    "address": "강원특별자치도 삼척시 근덕면 매원리 35-4",
    "lat": 37.3165424,
    "lng": 129.2715338,
    "region": "강원특별자치도"
  },
  {
    "name": "장호중학교뒤공터",
    "address": "강원특별자치도 삼척시 근덕면 삼척로 2101",
    "lat": 37.2835659,
    "lng": 129.3116612,
    "region": "강원특별자치도"
  },
  {
    "name": "장호마을주차장",
    "address": "강원특별자치도 삼척시 근덕면 장호항길 49",
    "lat": 37.2853329,
    "lng": 129.3187981,
    "region": "강원특별자치도"
  },
  {
    "name": "월천마을공터",
    "address": "강원특별자치도 삼척시 원덕읍 고포월천길 257",
    "lat": 37.1567296,
    "lng": 129.355672,
    "region": "강원특별자치도"
  },
  {
    "name": "용호리 야산",
    "address": "강원특별자치도 양양군 강현면 용호리 산 1-3",
    "lat": 38.1344721,
    "lng": 128.6201967,
    "region": "강원특별자치도"
  },
  {
    "name": "수산리 야산2",
    "address": "강원특별자치도 양양군 손양면 수산2길 7",
    "lat": 38.07890159758433,
    "lng": 128.67065152158412,
    "region": "강원특별자치도"
  },
  {
    "name": "인구야산",
    "address": "강원특별자치도 양양군 현남면 인구항길 24",
    "lat": 37.9716,
    "lng": 128.7626,
    "region": "강원특별자치도"
  },
  {
    "name": "천주교 야산",
    "address": "강원특별자치도 양양군 현남면 인구중앙길 71",
    "lat": 37.9704,
    "lng": 128.7597,
    "region": "강원특별자치도"
  },
  {
    "name": "휴휴암 야산",
    "address": "강원특별자치도 양양군 현남면 광진리 44",
    "lat": 37.9591,
    "lng": 128.7681,
    "region": "강원특별자치도"
  },
  {
    "name": "대진도��",
    "address": "강원특별자치도 동해시 대진동 196-4",
    "lat": 37.5798228,
    "lng": 129.112578,
    "region": "강원특별자치도"
  },
  {
    "name": "단병골 입구",
    "address": "강원특별자치도 동해시 대진동 143-9",
    "lat": 37.5769233,
    "lng": 129.1139513,
    "region": "강원특별자치도"
  },
  {
    "name": "기성리 451번지옆도로",
    "address": "경북 울진군 기성면 기성리 451",
    "lat": 36.8044442,
    "lng": 129.4538918,
    "region": "경상북도"
  },
  {
    "name": "비행훈련원 기숙사",
    "address": "경상북도 울진군 기성면 기성로 721",
    "lat": 36.8019228,
    "lng": 129.4490558,
    "region": "경상북도"
  },
  {
    "name": "척산리 321번지 일대",
    "address": "경북 울진군 기성면 척산리 321",
    "lat": 36.8008554,
    "lng": 129.4516039,
    "region": "경상북도"
  },
  {
    "name": "기성초등학교 운동장",
    "address": "경상북도 울진군 기성면 척산2길 24-5 ",
    "lat": 36.79765864104278,
    "lng": 129.44955864334392,
    "region": "경상북도"
  },
  {
    "name": "척산리 135번지  일대",
    "address": "경상북도 울진군 기성면 척산1길 69",
    "lat": 36.7964074,
    "lng": 129.4492087,
    "region": "경상북도"
  },
  {
    "name": "월송2리마을회관 뒷산",
    "address": "경북 울진군 평해읍 월송리 산 22-5",
    "lat": 36.7399094,
    "lng": 129.4601709,
    "region": "경상북도"
  },
  {
    "name": "후포초등학교 운동장",
    "address": "경상북도 울진군 후포면 삼율5길 8",
    "lat": 36.680671089088726,
    "lng": 129.44158248453226,
    "region": "경상북도"
  },
  {
    "name": "마을뒤 주차장",
    "address": "경북 울진군 후포면 삼율리 432-3",
    "lat": 36.6813177,
    "lng": 129.4392657,
    "region": "경상북도"
  },
  {
    "name": "남울진 청년회의소",
    "address": "경상북도 울진군 후포면 정실2길 104",
    "lat": 36.6775146,
    "lng": 129.4359237,
    "region": "경상북도"
  },
  {
    "name": "공영하이츠 옥상",
    "address": "경상북도 울진군 후포면 정실2길 24",
    "lat": 36.6774715,
    "lng": 129.4389305,
    "region": "경상북도"
  },
  {
    "name": "보성장여관 옥상",
    "address": "경상북도 울진군 후포면 후포삼율로 70",
    "lat": 36.6763056,
    "lng": 129.4403923,
    "region": "경상북도"
  },
  {
    "name": "공장부지",
    "address": "경북 울진군 후포면 금음리 28-12",
    "lat": 36.6734617,
    "lng": 129.4362912,
    "region": "경상북도"
  },
  {
    "name": "후포2리마을고지대",
    "address": "경상북도 울진군 후포면 후포6길 9-52 ",
    "lat": 36.6835462,
    "lng": 129.4588244,
    "region": "경상북도"
  },
  {
    "name": "후포2리 뒷산",
    "address": "경상북도 울진군 후포면 후포5길 17-4 ",
    "lat": 36.6838495,
    "lng": 129.4563943,
    "region": "경상북도"
  },
  {
    "name": " 속초시하수처리사업소 고지대",
    "address": "강원특별자치도 속초시 해오름로 99(대포동)",
    "lat": 38.1828791,
    "lng": 128.6045108,
    "region": "강원특별자치도"
  },
  {
    "name": "이사부공원",
    "address": "강원특별자치도 삼척시 수로부인길 333(증산동)",
    "lat": 37.4746239,
    "lng": 129.1590661,
    "region": "강원특별자치도"
  },
  {
    "name": "지경IC",
    "address": "울산광역시 북구 동해안로 1911",
    "lat": 35.6513833,
    "lng": 129.4476653,
    "region": "울산광역시"
  },
  {
    "name": "신명동 야산",
    "address": "울산 북구 신명동 134-2",
    "lat": 35.6443947,
    "lng": 129.4391879,
    "region": "울산광역시"
  },
  {
    "name": "울산교육수련원 주차장",
    "address": "울산광역시 북구 동해안로 1769(신명동)",
    "lat": 35.6412162,
    "lng": 129.4396034,
    "region": "울산광역시"
  },
  {
    "name": "쏠비치주차장1",
    "address": "강원특별자치도 삼척시 수로부인길 453(갈천동)",
    "lat": 37.4708,
    "lng": 129.1637,
    "region": "강원특별자치도"
  },
  {
    "name": "심심사앞공터",
    "address": "강원특별자치도 삼척시 수로부인길 453(갈천동)",
    "lat": 37.4728997,
    "lng": 129.1606405,
    "region": "강원특별자치도"
  },
  {
    "name": "죽천초등학교 운동장",
    "address": "경상북도 포항시 북구 흥해읍 죽천길185번길 30",
    "lat": 36.09778199413631,
    "lng": 129.42783147096893,
    "region": "경상북도"
  },
  {
    "name": "죽천마을입구 앞 버스",
    "address": "경북 포항시 북구 흥해읍 죽천리 711-1",
    "lat": 36.092433,
    "lng": 129.4179368,
    "region": "경상북도"
  },
  {
    "name": "해뜨는집 앞 공터",
    "address": "경북 포항시 북구 흥해읍 죽천리 173-2",
    "lat": 36.0886421,
    "lng": 129.4176069,
    "region": "경상북도"
  },
  {
    "name": "해안로511번길10",
    "address": "경상북도 포항시 북구 해안로511번길 9(여남동)",
    "lat": 36.0734681,
    "lng": 129.4131464,
    "region": "경상북도"
  },
  {
    "name": " 환호여중 앞",
    "address": "경상북도 포항시 북구 삼호로 480-8 (환호동)",
    "lat": 36.071144,
    "lng": 129.4005427,
    "region": "경상북도"
  },
  {
    "name": " 환호공원",
    "address": "경북 포항시 북구 환호동 323-3",
    "lat": 36.0680026,
    "lng": 129.3950656,
    "region": "경상북도"
  },
  {
    "name": "포항해양과학고등학교(한국해양마이스터고등학교) 운동장",
    "address": "경상북도 포항시 북구 여남포길21번길 18(여남동)",
    "lat": 36.07468428958591,
    "lng": 129.4052392244332,
    "region": "경상북도"
  },
  {
    "name": "두호1어린이공원",
    "address": "경북 포항시 북구 두호동 1084-2",
    "lat": 36.06453057716729,
    "lng": 129.38123441890417,
    "region": "경상북도"
  },
  {
    "name": "속초조양동선사유적 고지대",
    "address": "강원특별자치도 속초시 조양동 1529",
    "lat": 38.18818090251858,
    "lng": 128.59052230695005,
    "region": "강원특별자치도"
  },
  {
    "name": "속초ES아뜨리움아파트 주차장",
    "address": "강원특별자치도 속초시 조양로 40(조양동, 속초조양동 E.S 아뜨리움)",
    "lat": 38.18759827745782,
    "lng": 128.59720832234396,
    "region": "강원특별자치도"
  },
  {
    "name": "속초등대전망대 고지대",
    "address": "강원특별자치도 속초시 영랑동 1-2",
    "lat": 38.21363831900522,
    "lng": 128.60023822789705,
    "region": "강원특별자치도"
  },
  {
    "name": "학산5어린이공원",
    "address": "경북 포항시 북구 항구동 344-6",
    "lat": 36.0569511,
    "lng": 129.3752655,
    "region": "경상북도"
  },
  {
    "name": "포항고등학교 운동장",
    "address": "경상북도 포항시 북구 아호로 50(학산동)",
    "lat": 36.05563051386082,
    "lng": 129.37140583992047,
    "region": "경상북도"
  },
  {
    "name": "황영조기념관",
    "address": "강원특별자치도 삼척시 근덕면 초곡리 64",
    "lat": 37.3076329,
    "lng": 129.294214,
    "region": "강원특별자치도"
  },
  {
    "name": "초곡마을입구공터",
    "address": "강원특별자치도 삼척시 근덕면 초곡리 406-11",
    "lat": 37.3106674,
    "lng": 129.2847941,
    "region": "강원특별자치도"
  },
  {
    "name": "남화산공원",
    "address": "강원특별자치도 삼척시 원덕읍 임원리 45",
    "lat": 37.2312748,
    "lng": 129.3469072,
    "region": "강원특별자치도"
  },
  {
    "name": "국도옆공터",
    "address": "강원특별자치도 삼척시 원덕읍 임원리 412-3",
    "lat": 37.2308687,
    "lng": 129.3420517,
    "region": "강원특별자치도"
  },
  {
    "name": "임원마을회관옆공터",
    "address": "강원특별자치도 삼척시 원덕읍 임원중앙로 19-75 ",
    "lat": 37.2334015,
    "lng": 129.345147,
    "region": "강원특별자치도"
  },
  {
    "name": "동호리 야산1",
    "address": "강원특별자치도 양양군 손양면 동호리 산 44",
    "lat": 38.058,
    "lng": 128.6801,
    "region": "강원특별자치도"
  },
  {
    "name": "동호리 야산2(공항도로)",
    "address": "강원특별자치도 양양군 손양면 동호리 563-8",
    "lat": 38.05423354373853,
    "lng": 128.68026768819172,
    "region": "강원특별자치도"
  },
  {
    "name": "원포야산",
    "address": "강원특별자치도 양양군 현남면 원포리 8",
    "lat": 37.9298,
    "lng": 128.7912,
    "region": "강원특별자치도"
  },
  {
    "name": "지경야산",
    "address": "강원특별자치도 양양군 현남면 지경리 산 1-1",
    "lat": 37.9196,
    "lng": 128.7969,
    "region": "강원특별자치도"
  },
  {
    "name": "노봉해수욕장 내 야산",
    "address": "강원특별자치도 동해시 망상동 170-1",
    "lat": 37.5882803,
    "lng": 129.0982175,
    "region": "강원특별자치도"
  },
  {
    "name": "목재유통센터",
    "address": "강원특별자치도 동해시 동해대로 6100(망상동)",
    "lat": 37.5816572,
    "lng": 129.0995264,
    "region": "강원특별자치도"
  },
  {
    "name": "노봉택지",
    "address": "강원특별자치도 동해시 망상동 14-5",
    "lat": 37.58218646675659,
    "lng": 129.10551846027545,
    "region": "강원특별자치도"
  },
  {
    "name": "세인트컨벤션 웨딩홀",
    "address": "강원특별자치도 강릉시 공항길127번길 19(남항진동)",
    "lat": 37.7651426,
    "lng": 128.9496768,
    "region": "강원특별자치도"
  },
  {
    "name": "대동배1리마을뒷산",
    "address": "경북 포항시 남구 호미곶면 대동배리 산 53-8",
    "lat": 36.0584364,
    "lng": 129.53538,
    "region": "경상북도"
  },
  {
    "name": " 대동배1리보건진료소",
    "address": "경북 포항시 남구 호미곶면 대동배리 420-2",
    "lat": 36.0557129,
    "lng": 129.531303,
    "region": "경상북도"
  },
  {
    "name": "대동배2리버스승강장 ",
    "address": "경북 포항시 남구 호미곶면 대동배리 48-2",
    "lat": 36.0648826,
    "lng": 129.5406398,
    "region": "경상북도"
  },
  {
    "name": "대동배2리마을뒤",
    "address": "경북 포항시 남구 호미곶면 대동배리 산 26-6",
    "lat": 36.0657195,
    "lng": 129.5376572,
    "region": "경상북도"
  },
  {
    "name": "호미곶해맞이광장입구",
    "address": "경북 포항시 남구 호미곶면 대보리 295-2",
    "lat": 36.0762907,
    "lng": 129.5644954,
    "region": "경상북도"
  },
  {
    "name": "대보1교차로 앞",
    "address": "경북 포항시 남구 호미곶면 대보리 15",
    "lat": 36.0651905,
    "lng": 129.5702085,
    "region": "경상북도"
  },
  {
    "name": "대보초등학교 운동장",
    "address": "경상북도 포항시 남구 호미곶면 보천길 16",
    "lat": 36.078172356574974,
    "lng": 129.55724269152358,
    "region": "경상북도"
  },
  {
    "name": "호미곶면 행정복지센터",
    "address": "경상북도 포항시 남구 호미곶면 해맞이로 242",
    "lat": 36.08057424190386,
    "lng": 129.55568701029492,
    "region": "경상북도"
  },
  {
    "name": "금진택지입구",
    "address": "경북 영덕군 강구면 금진리 665-13",
    "lat": 36.3660435,
    "lng": 129.3937727,
    "region": "경상북도"
  },
  {
    "name": "풍성호뒤",
    "address": "경북 영덕군 강구면 금진리 630",
    "lat": 36.3686808,
    "lng": 129.3944104,
    "region": "경상북도"
  },
  {
    "name": "소하민박뒤",
    "address": "경상북도 영덕군 강구면 영덕대게로 231-2 ",
    "lat": 36.3692253,
    "lng": 129.3951734,
    "region": "경상북도"
  },
  {
    "name": "대구대학연수원 주차장",
    "address": "경상북도 영덕군 강구면 번영길 235",
    "lat": 36.37977652808352,
    "lng": 129.40317603046253,
    "region": "경상북도"
  },
  {
    "name": "바다새팬션 뒷산",
    "address": "경북 영덕군 강구면 금진리 31-8",
    "lat": 36.3819555,
    "lng": 129.4051363,
    "region": "경상북도"
  },
  {
    "name": "마을회관",
    "address": "경북 영덕군 남정면 부흥리 75-8",
    "lat": 36.2919595,
    "lng": 129.3766274,
    "region": "경상북도"
  },
  {
    "name": "영덕오토캠핑장 (구,창포초등학교)",
    "address": "경상북도 영덕군 영덕읍 창포길 2-11 ",
    "lat": 36.4092927,
    "lng": 129.4279926,
    "region": "경상북도"
  },
  {
    "name": "창포 보건소 뒤",
    "address": "경북 영덕군 영덕읍 창포리 931",
    "lat": 36.407202,
    "lng": 129.4249879,
    "region": "경상북도"
  },
  {
    "name": "갈매기횟집 뒤",
    "address": "경상북도 영덕군 영덕읍 영덕대게로 793-5 ",
    "lat": 36.4072403,
    "lng": 129.4267642,
    "region": "경상북도"
  },
  {
    "name": "송정회관 마당",
    "address": "울산광역시 울주군 서생면 해맞이로 1326",
    "lat": 35.3662423,
    "lng": 129.3533143,
    "region": "울산광역시"
  },
  {
    "name": "간절곶 임시 공영주차장",
    "address": "울산 울주군 서생면 대송리 189-1",
    "lat": 35.3584968,
    "lng": 129.3576568,
    "region": "울산광역시"
  },
  {
    "name": "송정공원",
    "address": "울산광역시 울주군 서생면 송정1길 96",
    "lat": 35.3699846,
    "lng": 129.354355,
    "region": "울산광역시"
  },
  {
    "name": "우산중학교 운동장",
    "address": "경상북도 울릉군 울릉읍 저동길 54",
    "lat": 37.49488329990959,
    "lng": 130.9061570000965,
    "region": "경상북도"
  },
  {
    "name": "울릉고등학교 운동장",
    "address": "경상북도 울릉군 울릉읍 울릉순환로 236",
    "lat": 37.49299719990542,
    "lng": 130.90736900009102,
    "region": "경상북도"
  },
  {
    "name": "현포분교 운동장",
    "address": "경상북도 울릉군 북면 현포1길 38",
    "lat": 37.524592399921325,
    "lng": 130.82194000008343,
    "region": "경상북도"
  },
  {
    "name": "천진리뒷산",
    "address": "강원특별자치도 고성군 토성면 천진리 산 32",
    "lat": 38.255495,
    "lng": 128.553032,
    "region": "강원특별자치도"
  },
  {
    "name": "백촌복지회관",
    "address": "강원특별자치도 고성군 토성면 백촌2길 4",
    "lat": 38.291983,
    "lng": 128.540417,
    "region": "강원특별자치도"
  },
  {
    "name": "롯데리조트속초 버스주차장",
    "address": "강원특별자치도 속초시 대포항길 186(대포동)",
    "lat": 38.1805831,
    "lng": 128.613204,
    "region": "강원특별자치도"
  },
  {
    "name": "청봉초등학교 운동장",
    "address": "강원특별자치도 속초시 조양로118번길 9(조양동)",
    "lat": 38.18780679632142,
    "lng": 128.58686632992143,
    "region": "강원특별자치도"
  },
  {
    "name": "농업기술센터",
    "address": "경상북도 울릉군 울릉읍 간령길 83-18 ",
    "lat": 37.460251,
    "lng": 130.873821,
    "region": "경상북도"
  },
  {
    "name": "속초농협하나로마트 엑스포점 옥상",
    "address": "강원특별자치도 속초시 동해대로 4202(교동)",
    "lat": 38.1943778,
    "lng": 128.5790019,
    "region": "강원특별자치도"
  },
  {
    "name": "화진2리 비취모텔 앞",
    "address": "경상북도 포항시 북구 송라면 해안로 2902",
    "lat": 36.2395616,
    "lng": 129.3817136,
    "region": "경상북도"
  },
  {
    "name": "화진1리 버스정류장 ",
    "address": "경북 포항시 북구 송라면 화진리 261-1",
    "lat": 36.2365653,
    "lng": 129.3824109,
    "region": "경상북도"
  },
  {
    "name": "태하분교 운동장",
    "address": "경상북도 울릉군 서면 태하길 130",
    "lat": 37.51303339992417,
    "lng": 130.80205400008083,
    "region": "경상북도"
  },
  {
    "name": "태하출장소",
    "address": "경상북도 울릉군 서면 태하1길 41",
    "lat": 37.512325,
    "lng": 130.800997,
    "region": "경상북도"
  },
  {
    "name": "경동대학교",
    "address": "강원특별자치도 고성군 토성면 봉포4길 46",
    "lat": 38.250808,
    "lng": 128.556357,
    "region": "강원특별자치도"
  },
  {
    "name": "속초기상대",
    "address": "강원특별자치도 고성군 토성면 봉포5길 9",
    "lat": 38.250728,
    "lng": 128.564404,
    "region": "강원특별자치도"
  },
  {
    "name": "늘푸른민박",
    "address": "경상북도 울진군 기성면 망양로 237",
    "lat": 36.8566518,
    "lng": 129.4244653,
    "region": "경상북도"
  },
  {
    "name": "망양2리 515번지일대 밭",
    "address": "경북 울진군 기성면 망양리 514-2",
    "lat": 36.8529603,
    "lng": 129.4216436,
    "region": "경상북도"
  },
  {
    "name": "서면사무소",
    "address": "경상북도 울릉군 서면 남양4길 31",
    "lat": 37.4722668,
    "lng": 130.8360698,
    "region": "경상북도"
  },
  {
    "name": "남양초등학교",
    "address": "경상북도 울릉군 서면 남양1길 42-27 ",
    "lat": 37.4688996,
    "lng": 130.8399898,
    "region": "경상북도"
  },
  {
    "name": "울릉서중학교 운동장",
    "address": "경상북도 울릉군 서면 남서길 52",
    "lat": 37.468767899919534,
    "lng": 130.83649100008554,
    "region": "경상북도"
  },
  {
    "name": "문암군부대앞산",
    "address": "강원특별자치도 고성군 죽왕면 문암진리 산 1-8",
    "lat": 38.30344,
    "lng": 128.548043,
    "region": "강원특별자치도"
  },
  {
    "name": "문암진리앞산",
    "address": "강원특별자치도 고성군 죽왕면 동해대로 5540-8 ",
    "lat": 38.30018,
    "lng": 128.543018,
    "region": "강원특별자치도"
  },
  {
    "name": "오호초등학교뒷산",
    "address": "강원특별자치도 고성군 죽왕면 삼포리 215-5",
    "lat": 38.314178,
    "lng": 128.53121,
    "region": "강원특별자치도"
  },
  {
    "name": "고늘마을  현대주차장 옆 공터",
    "address": "울산 동구 일산동 305-9",
    "lat": 35.5014916,
    "lng": 129.4351459,
    "region": "울산광역시"
  },
  {
    "name": "일산해수욕장 중앙주차장",
    "address": "울산 동구 일산동 963",
    "lat": 35.49411062741365,
    "lng": 129.4287522712032,
    "region": "울산광역시"
  },
  {
    "name": "대왕암 앞 공영주차장",
    "address": "울산광역시 동구 해수욕장10길 101(일산동)",
    "lat": 35.49058,
    "lng": 129.4339797,
    "region": "울산광역시"
  },
  {
    "name": "동해비치호텔 위 마을 주차장",
    "address": "강원특별자치도 동해시 녹등길 8",
    "lat": 37.5578232,
    "lng": 129.1208902,
    "region": "강원특별자치도"
  },
  {
    "name": "속초감리교회 고지대",
    "address": "강원특별자치도 속초시 영랑로7길 10-8 (동명동)",
    "lat": 38.2123698,
    "lng": 128.5942618,
    "region": "강원특별자치도"
  },
  {
    "name": "화진교 앞 공터",
    "address": "경북 포항시 북구 송라면 지경리 412-1",
    "lat": 36.2501937,
    "lng": 129.3701747,
    "region": "경상북도"
  },
  {
    "name": "맹방초등학교",
    "address": "강원특별자치도 삼척시 근덕면 삼척로 3874-47 ",
    "lat": 37.3986833,
    "lng": 129.2140932,
    "region": "강원특별자치도"
  },
  {
    "name": "문오성공원",
    "address": "부산 기장군 일광읍 신평리 112",
    "lat": 35.2967035,
    "lng": 129.2539358,
    "region": "부산광역시"
  },
  {
    "name": "문현초등학교 운동장",
    "address": "울산광역시 동구 꽃바위6길 25(방어동)",
    "lat": 35.48046711743683,
    "lng": 129.41346361094887,
    "region": "울산광역시"
  },
  {
    "name": "초도항뒷산",
    "address": "강원특별자치도 고성군 현내면 초도리 84-14",
    "lat": 38.483667,
    "lng": 128.436931,
    "region": "강원특별자치도"
  },
  {
    "name": "대진중고등학교 운동장",
    "address": "강원특별자치도 고성군 현내면 화진포길 476",
    "lat": 38.484369971505934,
    "lng": 128.4330111514376,
    "region": "강원특별자치도"
  },
  {
    "name": "초도2리마을주차장",
    "address": "강원특별자치도 고성군 현내면 초도리 222-29",
    "lat": 38.488511,
    "lng": 128.430651,
    "region": "강원특별자치도"
  },
  {
    "name": "이승만별장",
    "address": "강원특별자치도 고성군 현내면 이승만별장길 33",
    "lat": 38.470895,
    "lng": 128.436434,
    "region": "강원특별자치도"
  },
  {
    "name": "금호생모리츠아파트 지상주차장",
    "address": "강원특별자치도 속초�� 수복로 174(금호동, 생모리츠 아파트)",
    "lat": 38.2033049,
    "lng": 128.5882824,
    "region": "강원특별자치도"
  },
  {
    "name": "(구)지경리 검문소 앞 ",
    "address": "경북 포항시 북구 송라면 지경리 199-2",
    "lat": 36.2627232,
    "lng": 129.3744689,
    "region": "경상북도"
  },
  {
    "name": "화진휴게소 앞 공터",
    "address": "경북 포항시 북구 송라면 지경리 331-5",
    "lat": 36.2543228,
    "lng": 129.3719128,
    "region": "경상북도"
  },
  {
    "name": "가진교회",
    "address": "강원특별자치도 고성군 죽왕면 가진해변길 65",
    "lat": 38.37254,
    "lng": 128.507909,
    "region": "강원특별자치도"
  },
  {
    "name": "가진항뒷산",
    "address": "강원특별자치도 고성군 죽왕면 가진리 46-14",
    "lat": 38.368111,
    "lng": 128.510808,
    "region": "강원특별자치도"
  },
  {
    "name": "동호리뒷산",
    "address": "강원특별자치도 고성군 간성읍 동호리 산 10-3",
    "lat": 38.391802,
    "lng": 128.476095,
    "region": "강원특별자치도"
  },
  {
    "name": "성끝마을  수협위판장 뒤 야산",
    "address": "울산 동구 방어동 18-32",
    "lat": 35.4840945,
    "lng": 129.4320774,
    "region": "울산광역시"
  },
  {
    "name": "방어진초등학교 운동장",
    "address": "울산광역시 동구 꽃바위로 341(방어동)",
    "lat": 35.48733718656533,
    "lng": 129.4246937534964,
    "region": "울산광역시"
  },
  {
    "name": "화암초등학교 운동장",
    "address": "울산광역시 동구 화문로 55(방어동)",
    "lat": 35.48383107638685,
    "lng": 129.41594379143902,
    "region": "울산광역시"
  },
  {
    "name": "쏠비치주차장2",
    "address": "강원특별자치도 삼척시 수로부인길 453(갈천동)",
    "lat": 37.4721,
    "lng": 129.1632,
    "region": "강원특별자치도"
  },
  {
    "name": "평동회관 마당",
    "address": "울산광역시 울주군 서생면 평동길 14",
    "lat": 35.3566659,
    "lng": 129.3533894,
    "region": "울산광역시"
  },
  {
    "name": "평동어촌계회관 마당",
    "address": "울산광역시 울주군 서생면 평동2길 9",
    "lat": 35.356159,
    "lng": 129.353323,
    "region": "울산광역시"
  },
  {
    "name": "국도31호 소공원 (맞은편 버스정류장)",
    "address": "울산 울주군 서생면 나사리 산 15-6",
    "lat": 35.3567,
    "lng": 129.3435,
    "region": "울산광역시"
  },
  {
    "name": "서생중학교 운동장",
    "address": "울산광역시 울주군 서생면 당물길 1",
    "lat": 35.350179639974755,
    "lng": 129.33056384325107,
    "region": "울산광역시"
  },
  {
    "name": "성동초등학교 운동장",
    "address": "울산광역시 울주군 서생면 진하길 7",
    "lat": 35.385094238108515,
    "lng": 129.3413785099976,
    "region": "울산광역시"
  },
  {
    "name": "동광초등학교 운동장",
    "address": "강원특별자치도 고성군 토성면 교암1길 15",
    "lat": 38.28835018579581,
    "lng": 128.5441602643492,
    "region": "강원특별자치도"
  },
  {
    "name": "천학정야산",
    "address": "강원특별자치도 고성군 토성면 교암리 177-6",
    "lat": 38.288391,
    "lng": 128.547534,
    "region": "강원특별자치도"
  },
  {
    "name": "주전 카페 컵넛 뒤 야산",
    "address": "울산 동구 주전동 14",
    "lat": 35.5666523,
    "lng": 129.4529972,
    "region": "울산광역시"
  },
  {
    "name": "주전초등학교 운동장",
    "address": "울산광역시 동구 동해안로 575(주전동)",
    "lat": 35.55768597832626,
    "lng": 129.4568737774071,
    "region": "울산광역시"
  },
  {
    "name": "1박2일펜션 앞",
    "address": "경북 포항시 북구 송라면 방석리 104-3",
    "lat": 36.2342569,
    "lng": 129.3811798,
    "region": "경상북도"
  },
  {
    "name": "조사리버스승강장 앞",
    "address": "경북 포항시 북구 송라면 조사리 71-15",
    "lat": 36.2227052,
    "lng": 129.3845862,
    "region": "경상북도"
  },
  {
    "name": "강원도립대학교 중앙도서관",
    "address": "강원특별자치도 강릉시 주문진읍 연주로 270",
    "lat": 37.8770722,
    "lng": 128.8314503,
    "region": "강원특별자치도"
  },
  {
    "name": "강원도립대학교 청솔관",
    "address": "강원특별자치도 강릉시 주문진읍 연주로 270",
    "lat": 37.8780334,
    "lng": 128.8292831,
    "region": "강원특별자치도"
  },
  {
    "name": "강원특별자치도청 제2청사 글로벌관",
    "address": "강원특별자치도 강릉시 주문진읍 연주로 270",
    "lat": 37.8774406,
    "lng": 128.8294601,
    "region": "강원특별자치도"
  },
  {
    "name": "(구)울릉중학교 운동장",
    "address": "경상북도 울릉군 울릉읍 도동길 151-19 ",
    "lat": 37.48469049990936,
    "lng": 130.902879000095,
    "region": "경상북도"
  },
  {
    "name": "죽왕초등학교뒷산",
    "address": "강원특별자치도 고성군 죽왕면 오호리 산 39-1",
    "lat": 38.331667,
    "lng": 128.5227978,
    "region": "강원특별자치도"
  },
  {
    "name": "오호교회",
    "address": "강원특별자치도 고성군 죽왕면 오호2길 4-3 ",
    "lat": 38.32926,
    "lng": 128.5254881,
    "region": "강원특별자치도"
  },
  {
    "name": "삼포마을뒷산",
    "address": "강원특별자치도 고성군 죽왕면 삼포리 산 55-1",
    "lat": 38.315042,
    "lng": 128.529296,
    "region": "강원특별자치도"
  },
  {
    "name": "거진중학교 운동장",
    "address": "강원특별자치도 고성군 거진읍 거평로 69",
    "lat": 38.446750378929,
    "lng": 128.44848300786694,
    "region": "강원특별자치도"
  },
  {
    "name": "거진고등학교 고지대",
    "address": "강원특별자치도 고성군 거진읍 거탄진로 39-7 ",
    "lat": 38.4403293,
    "lng": 128.4506679,
    "region": "강원특별자치도"
  },
  {
    "name": "거성초등학교 운동장",
    "address": "강원특별자치도 고성군 거진읍 거성길 38",
    "lat": 38.45221938218686,
    "lng": 128.45757507202129,
    "region": "강원특별자치도"
  },
  {
    "name": "거진성황당 고지대",
    "address": "강원특별자치도 고성군 거진읍 빨래골길 14-3 ",
    "lat": 38.450475,
    "lng": 128.462411,
    "region": "강원특별자치도"
  },
  {
    "name": "동생말 언덕",
    "address": "부산 남구 용호동 산 6-1",
    "lat": 35.1285486,
    "lng": 129.118334,
    "region": "부산광역시"
  },
  {
    "name": "하평 주차장",
    "address": "강원특별자치도 동해시 평릉동 84-1",
    "lat": 37.533873,
    "lng": 129.1157806,
    "region": "강원특별자치도"
  },
  {
    "name": "북면사무소",
    "address": "경상북도 울릉군 북면 천부3길 20",
    "lat": 37.5411219,
    "lng": 130.8746093,
    "region": "경상북도"
  },
  {
    "name": "천부초등학교 운동장",
    "address": "경상북도 울릉군 북면 천부길 95-3 ",
    "lat": 37.53682329991167,
    "lng": 130.8712910000931,
    "region": "경상북도"
  },
  {
    "name": "서생면사무소 주차장",
    "address": "울산광역시 울주군 서생면 해맞이로 894",
    "lat": 35.3499412,
    "lng": 129.3262964,
    "region": "울산광역시"
  },
  {
    "name": "신암회관 마당",
    "address": "울산광역시 울주군 서생면 해맞이로 877-2 ",
    "lat": 35.3491367,
    "lng": 129.3239141,
    "region": "울산광역시"
  },
  {
    "name": "소망교회 주차장",
    "address": "울산광역시 울주군 서생면 신리길 97",
    "lat": 35.3451325,
    "lng": 129.3201783,
    "region": "울산광역시"
  },
  {
    "name": "반암초소",
    "address": "강원특별자치도 고성군 거진읍 자산천로 82",
    "lat": 38.4231759,
    "lng": 128.4611928,
    "region": "강원특별자치도"
  },
  {
    "name": "반암리대피소",
    "address": "강원특별자치도 고성군 거진읍 자산천로 79-22 ",
    "lat": 38.423952,
    "lng": 128.459149,
    "region": "강원특별자치도"
  },
  {
    "name": "공현진초등학교 운동장",
    "address": "강원특별자치도 고성군 죽왕면 공현진한옥길 49",
    "lat": 38.35371762050836,
    "lng": 128.50758054864556,
    "region": "강원특별자치도"
  },
  {
    "name": "공현진교회",
    "address": "강원특별자치도 고성군 죽왕면 공현진1길 20",
    "lat": 38.355317,
    "lng": 128.509234,
    "region": "강원특별자치도"
  },
  {
    "name": "송지호오토캠핑장뒷산",
    "address": "강원특별자치도 고성군 죽왕면 오봉리 12-2",
    "lat": 38.3417992,
    "lng": 128.5118866,
    "region": "강원특별자치도"
  },
  {
    "name": "속초성���교회 옥상",
    "address": "강원특별자치도 속초시 동해대로 4162-10 (조양동)",
    "lat": 38.19090623607523,
    "lng": 128.58101898146427,
    "region": "강원특별자치도"
  },
  {
    "name": "속초아이파크아파트 중앙공원",
    "address": "강원특별자치도 속초시 청호로 22(청호동, 속초청호아이파크)",
    "lat": 38.19267015771683,
    "lng": 128.5994877427321,
    "region": "강원특별자치도"
  },
  {
    "name": "영리 야산",
    "address": "경북 영덕군 병곡면 영리 293-3",
    "lat": 36.5937044,
    "lng": 129.4025471,
    "region": "경상북도"
  },
  {
    "name": "리센오션파크호텔 옥상",
    "address": "강원특별자치도 속초시 해오름로 167(조양동)",
    "lat": 38.1890871,
    "lng": 128.6032228,
    "region": "강원특별자치도"
  },
  {
    "name": "현내면공설운동장",
    "address": "강원특별자치도 고성군 현내면 동해대로 8299",
    "lat": 38.500797,
    "lng": 128.41861,
    "region": "강원특별자치도"
  },
  {
    "name": "대진초등학교 운동장",
    "address": "강원특별자치도 고성군 현내면 대진3길 15",
    "lat": 38.49660732828902,
    "lng": 128.42367057170668,
    "region": "강원특별자치도"
  },
  {
    "name": "대진감리교회",
    "address": "강원특별자치도 고성군 현내면 한나루로 81",
    "lat": 38.495172,
    "lng": 128.426748,
    "region": "강원특별자치도"
  },
  {
    "name": "명파교회",
    "address": "강원특별자치도 고성군 현내면 금강산로 799-11 ",
    "lat": 38.53826,
    "lng": 128.401411,
    "region": "강원특별자치도"
  },
  {
    "name": "아야진초등학교 운동장",
    "address": "강원특별자치도 고성군 토성면 아야진길 15",
    "lat": 38.27315877414786,
    "lng": 128.5496219576076,
    "region": "강원특별자치도"
  },
  {
    "name": "아야진침례교회",
    "address": "강원특별자치도 고성군 토성면 아야진해변1길 6",
    "lat": 38.272221,
    "lng": 128.555158,
    "region": "강원특별자치도"
  },
  {
    "name": "씨크루즈호텔속초 옥상",
    "address": "강원특별자치도 속초시 청초호반로 273(청학동)",
    "lat": 38.20130798688603,
    "lng": 128.58705395162434,
    "region": "강원특별자치도"
  },
  {
    "name": "속초시청직원전용주차장 고지대",
    "address": "강원특별자치도 속초시 중앙로 183",
    "lat": 38.207659836046375,
    "lng": 128.59162833709397,
    "region": "강원특별자치도"
  },
  {
    "name": "천주교교동교회 주차장",
    "address": "강원특별자치도 속초시 수복로 75(교동)",
    "lat": 38.20012075604814,
    "lng": 128.57793253605672,
    "region": "강원특별자치도"
  },
  {
    "name": "낙산사 야산",
    "address": "강원특별자치도 양양군 강현면 전진리 58-1",
    "lat": 38.12775864001962,
    "lng": 128.62428027081316,
    "region": "강원특별자치도"
  },
  {
    "name": "양우아파트 고지대",
    "address": "강원특별자치도 속초시 영랑로4길 10(영랑동, 양우비치타워맨션)",
    "lat": 38.215955595265676,
    "lng": 128.59266807404856,
    "region": "강원특별자치도"
  },
  {
    "name": "읍남리 145번지 일대 밭",
    "address": "경북 울진군 울진읍 읍남리 152-1",
    "lat": 36.9856351,
    "lng": 129.4084364,
    "region": "경상북도"
  },
  {
    "name": "수산리493번지 공터",
    "address": "경북 울진군 근남면 수산리 493-1",
    "lat": 36.9732547,
    "lng": 129.3974957,
    "region": "경상북도"
  },
  {
    "name": "수산리 483-1번지 일대",
    "address": "경상북도 울진군 근남면 울진북로 243-15 ",
    "lat": 36.971669,
    "lng": 129.3979892,
    "region": "경상북도"
  },
  {
    "name": "만포횟집 마당",
    "address": "울산광역시 울주군 온산읍 강양길 143",
    "lat": 35.3913022,
    "lng": 129.3472472,
    "region": "울산광역시"
  },
  {
    "name": "야산 공터",
    "address": "울산광역시 울주군 온산읍 강양길 97-15 ",
    "lat": 35.3936702,
    "lng": 129.3453884,
    "region": "울산광역시"
  },
  {
    "name": "이가힐펜션 앞",
    "address": "경북 포항시 북구 청하면 이가리 555-6",
    "lat": 36.1844224,
    "lng": 129.3837976,
    "region": "경상북도"
  },
  {
    "name": "이가리 산68-3 일원",
    "address": "경북 포항시 북구 청하면 이가리 산 68-3",
    "lat": 36.187741,
    "lng": 129.3786693,
    "region": "경상북도"
  },
  {
    "name": "칠포1리 고지대 (마루",
    "address": "경북 포항시 북구 흥해읍 칠포리 54-4",
    "lat": 36.1454472,
    "lng": 129.3969136,
    "region": "경상북도"
  },
  {
    "name": "삼척MBC공터",
    "address": "강원특별자치도 삼척시 새천년도로 629-59 (갈천동)",
    "lat": 37.4636818,
    "lng": 129.163484,
    "region": "강원특별자치도"
  },
  {
    "name": "삼척복합체육공원축구장",
    "address": "강원특별자치도 삼척시 뒷나루길 153(교���)",
    "lat": 37.4602626,
    "lng": 129.1738129,
    "region": "강원특별자치도"
  },
  {
    "name": "가세마을 야산",
    "address": "강원특별자치도 동해시 천곡동 1-4",
    "lat": 37.5290851,
    "lng": 129.1212603,
    "region": "강원특별자치도"
  },
  {
    "name": "법원삼거리 옆 산책로",
    "address": "강원특별자치도 동해시 천곡동 1090-14",
    "lat": 37.5225035,
    "lng": 129.1200078,
    "region": "강원특별자치도"
  },
  {
    "name": "마산리 버스승강장 앞",
    "address": "경북 포항시 남구 동해면 마산리 69-5",
    "lat": 36.0151834,
    "lng": 129.4894499,
    "region": "경상북도"
  },
  {
    "name": "마산리 마을 뒤 도로",
    "address": "경북 포항시 남구 동해면 마산리 247-2",
    "lat": 36.0154394,
    "lng": 129.486891,
    "region": "경상북도"
  },
  {
    "name": "흥환주유소 옆 도로",
    "address": "경북 포항시 남구 동해면 흥환리 442-4",
    "lat": 36.024347,
    "lng": 129.5068467,
    "region": "경상북도"
  },
  {
    "name": "흥환리 마을회관 뒷산",
    "address": "경북 포항시 남구 동해면 흥환리 291",
    "lat": 36.0266876,
    "lng": 129.5044434,
    "region": "경상북도"
  },
  {
    "name": "발산교회 앞 공터",
    "address": "경북 포항시 남구 동해면 발산리 376-4",
    "lat": 36.0333317,
    "lng": 129.5075655,
    "region": "경상북도"
  },
  {
    "name": "발산2리 마을뒤 공터",
    "address": "경북 포항시 남구 동해면 발산리 116-2",
    "lat": 36.0451715,
    "lng": 129.519276,
    "region": "경상북도"
  },
  {
    "name": "고성산",
    "address": "강원특별자치도 강릉시 강동면 정동1길 13-2 ",
    "lat": 37.6897531,
    "lng": 129.0337777,
    "region": "강원특별자치도"
  },
  {
    "name": "정동초등학교  체육관",
    "address": "강원특별자치도 강릉시 강동면 헌화로 1055",
    "lat": 37.6872551,
    "lng": 129.0338343,
    "region": "강원특별자치도"
  },
  {
    "name": "바다부채길  대형버스",
    "address": "강원특별자치도 강릉시 강동면 헌화로 923",
    "lat": 37.6810427,
    "lng": 129.0415173,
    "region": "강원특별자치도"
  },
  {
    "name": "오포1리 마을뒷산(1)",
    "address": "경북 영덕군 강구면 오포리 684-1",
    "lat": 36.361686,
    "lng": 129.3743064,
    "region": "경상북도"
  },
  {
    "name": "오포1리 마을뒷산(2)",
    "address": "경북 영덕군 강구면 오포리 산 10",
    "lat": 36.3648006,
    "lng": 129.373392,
    "region": "경상북도"
  },
  {
    "name": "축산항초등학교 경정",
    "address": "경상북도 영덕군 축산면 경정길 17",
    "lat": 36.4859061,
    "lng": 129.4337028,
    "region": "경상북도"
  },
  {
    "name": "경정해수욕장 뒷산",
    "address": "경북 영덕군 축산면 경정리 산 60",
    "lat": 36.4826735,
    "lng": 129.4328048,
    "region": "경상북도"
  },
  {
    "name": "경정교회 뒷산",
    "address": "경북 영덕군 축산면 경정리 산 192-1",
    "lat": 36.4848612,
    "lng": 129.4316246,
    "region": "경상북도"
  },
  {
    "name": "해양레포츠센터",
    "address": "경상북도 울진군 매화면 오산항길 59",
    "lat": 36.8899183,
    "lng": 129.4122505,
    "region": "경상북도"
  },
  {
    "name": "순복음교회  뒷 산",
    "address": "경북 울진군 매화면 오산리 294",
    "lat": 36.8923852,
    "lng": 129.4149756,
    "region": "경상북도"
  },
  {
    "name": "마을 뒤 고지대",
    "address": "경북 울진군 매화면 오산리 247-1",
    "lat": 36.893623,
    "lng": 129.4167352,
    "region": "경상북도"
  },
  {
    "name": " 해군전적비",
    "address": "강원특별자치도 동해시 망상동 396-38",
    "lat": 37.594261,
    "lng": 129.0846455,
    "region": "강원특별자치도"
  },
  {
    "name": " 망상초등학교 옆",
    "address": "강원특별자치도 동해시 망상동 360-5",
    "lat": 37.5911198,
    "lng": 129.0898356,
    "region": "강원특별자치도"
  },
  {
    "name": "일출공원",
    "address": "강원특별자치도 동해시 묵호진동 2-126",
    "lat": 37.5554374,
    "lng": 129.1204959,
    "region": "강원특별자치도"
  },
  {
    "name": "논골도로",
    "address": "강원특별자치도 동해시 묵호진동 102-9",
    "lat": 37.5541425,
    "lng": 129.1163009,
    "region": "강원특별자치도"
  },
  {
    "name": "산제골도로",
    "address": "강원특별자치도 동해시 묵호시장길 9-12 (묵호진동)",
    "lat": 37.5537958585943,
    "lng": 129.11372333765206,
    "region": "강원특별자치도"
  },
  {
    "name": "묵호대교",
    "address": "강원특별자치도 동해시 발한동 80-303",
    "lat": 37.5416531,
    "lng": 129.1111913,
    "region": "강원특별자치도"
  },
  {
    "name": "감추사 해안도로 주차",
    "address": "강원특별자치도 동해시 용정동 505",
    "lat": 37.51507246674662,
    "lng": 129.1246291995067,
    "region": "강원특별자치도"
  },
  {
    "name": "만경대",
    "address": "강원특별자치도 동해시 구미동 산 53",
    "lat": 37.4871437,
    "lng": 129.1368815,
    "region": "강원특별자치도"
  },
  {
    "name": "하수종말처리장",
    "address": "강원특별자치도 동해시 구미동 산 5-9",
    "lat": 37.490136,
    "lng": 129.1436541,
    "region": "강원특별자치도"
  },
  {
    "name": "할미바위 옆 쉼터",
    "address": "강원특별자치도 동해시 구미동 산 5-1",
    "lat": 37.4906596,
    "lng": 129.1456068,
    "region": "강원특별자치도"
  },
  {
    "name": "추암 조각공원",
    "address": "강원특별자치도 동해시 추암동 477",
    "lat": 37.4795027,
    "lng": 129.1577518,
    "region": "강원특별자치도"
  },
  {
    "name": "북평공단 소공원",
    "address": "강원특별자치도 동해시 추암동 513-2",
    "lat": 37.4792366,
    "lng": 129.1560245,
    "region": "강원특별자치도"
  },
  {
    "name": "추암택지",
    "address": "강원특별자치도 동해시 추암동 24-2",
    "lat": 37.4758138,
    "lng": 129.1561666,
    "region": "강원특별자치도"
  },
  {
    "name": "한빛수산 입구 도로",
    "address": "경상북도 포항시 남구 구룡포읍 호미로 395",
    "lat": 35.9944508,
    "lng": 129.5653081,
    "region": "경상북도"
  },
  {
    "name": "해은사 앞",
    "address": "경북 포항시 남구 구룡포읍 구룡포리 94-14",
    "lat": 35.9969399,
    "lng": 129.5650989,
    "region": "경상북도"
  },
  {
    "name": "충혼탑 앞",
    "address": "경상북도 포항시 남구 구룡포읍 구룡포길 145-10 ",
    "lat": 35.9914408,
    "lng": 129.5607296,
    "region": "경상북도"
  },
  {
    "name": "구룡포초등학교 운동장",
    "address": "경상북도 포항시 남구 구룡포읍 구룡포길 61",
    "lat": 35.99026453859633,
    "lng": 129.55239057542082,
    "region": "경상북도"
  },
  {
    "name": "브리즈나인 커피숍 앞 주차장",
    "address": "경상북도 포항시 남구 구룡포읍 용주로 28",
    "lat": 35.992502,
    "lng": 129.5646778,
    "region": "경상북도"
  },
  {
    "name": "백경오토캠핑장 앞",
    "address": "경상북도 포항시 남구 장기면 영암길 70",
    "lat": 35.909843,
    "lng": 129.5253485,
    "region": "경상북도"
  },
  {
    "name": "영암리 버스승강장 앞",
    "address": "경북 포항시 남구 장기면 영암리 101-2",
    "lat": 35.9039576,
    "lng": 129.5259601,
    "region": "경상북도"
  },
  {
    "name": "양포초등학교 운동장",
    "address": "경상북도 포항시 남구 장기면 장기로 33",
    "lat": 35.87620185507385,
    "lng": 129.5132231056683,
    "region": "경상북도"
  },
  {
    "name": " 신창리400-1앞도로 ",
    "address": "경북 포항시 남구 장기면 신창리 400-1",
    "lat": 35.8840346,
    "lng": 129.5270759,
    "region": "경상북도"
  },
  {
    "name": "창호민박 뒤",
    "address": "경북 영덕군 영덕읍 대탄리 64",
    "lat": 36.4346171,
    "lng": 129.432165,
    "region": "경상북도"
  },
  {
    "name": "대탄갈릴리교회 뒤",
    "address": "경북 영덕군 영덕읍 대탄리 353",
    "lat": 36.4356502,
    "lng": 129.4310256,
    "region": "경상북도"
  },
  {
    "name": "지미슈퍼 뒤",
    "address": "경북 영덕군 영덕읍 노물리 70-6",
    "lat": 36.4469664,
    "lng": 129.4329091,
    "region": "경상북도"
  },
  {
    "name": "대원사 입구",
    "address": "경상북도 영덕군 영덕읍 노물1길 25",
    "lat": 36.4477815,
    "lng": 129.430662,
    "region": "경상북도"
  },
  {
    "name": "구)노물보건소 맞은편",
    "address": "경북 영덕군 영덕읍 노물리 170",
    "lat": 36.4468346,
    "lng": 129.4310733,
    "region": "경상북도"
  },
  {
    "name": "선창횟집 뒤",
    "address": "경상북도 영덕군 영덕읍 노물2길 12-1 ",
    "lat": 36.4463479,
    "lng": 129.4309302,
    "region": "경상북도"
  },
  {
    "name": "경노회관 뒤 골목",
    "address": "경상북도 영덕군 영덕읍 노물길 19-13 ",
    "lat": 36.4464414,
    "lng": 129.4342949,
    "region": "경상북도"
  },
  {
    "name": "해녀횟집 뒤 골목",
    "address": "경상북도 영덕군 영덕읍 노물길 19-21 ",
    "lat": 36.4463934,
    "lng": 129.4349654,
    "region": "경상북도"
  },
  {
    "name": "사동2리 391번지 일대",
    "address": "경북 울진군 기성면 사동리 391",
    "lat": 36.8300157,
    "lng": 129.4432193,
    "region": "경상북도"
  },
  {
    "name": "사동2리 산13번지일대",
    "address": "경북 울진군 기성면 사동리 산 13",
    "lat": 36.8281479,
    "lng": 129.4443217,
    "region": "경상북도"
  },
  {
    "name": "기성초등학교사동분교 운동장",
    "address": "경상북도 울진군 기성면 해월헌길 19",
    "lat": 36.82960862873572,
    "lng": 129.43782249511395,
    "region": "경상북도"
  },
  {
    "name": "사동2리 353-1번지",
    "address": "경북 울진군 기성면 사동리 353-1",
    "lat": 36.8331115,
    "lng": 129.4420418,
    "region": "경상북도"
  },
  {
    "name": "대포초등학교 운동장",
    "address": "강원특별자치도 속초시 동해대로 3797(대포동)",
    "lat": 38.1738318918052,
    "lng": 128.60373395920158,
    "region": "강원특별자치도"
  },
  {
    "name": "대포항전망대",
    "address": "강원특별자치도 속초시 대포항1길 16-8 (대포동)",
    "lat": 38.176207,
    "lng": 128.6076543,
    "region": "강원특별자치도"
  },
  {
    "name": "마레몬스호텔 고지대",
    "address": "강원특별자치도 속초시 동해대로 3705(대포동)",
    "lat": 38.16701280378578,
    "lng": 128.6060342376102,
    "region": "강원특별자치도"
  },
  {
    "name": "만남의광장 앞 도로",
    "address": "경북 울진군 북면 나곡리 산 3-13",
    "lat": 37.1283059,
    "lng": 129.3678761,
    "region": "경상북도"
  },
  {
    "name": "나곡리725-2 일대 밭",
    "address": "경북 울진군 북면 나곡리 725-4",
    "lat": 37.125066,
    "lng": 129.368611,
    "region": "경상북도"
  },
  {
    "name": "모텔 휠파크 ",
    "address": "경상북도 울진군 북면 울진북로 2346-12 ",
    "lat": 37.1245806,
    "lng": 129.3706012,
    "region": "경상북도"
  },
  {
    "name": "김포리조트펜션주차장",
    "address": "경상북도 경주시 감포읍 동해안로 2674",
    "lat": 35.8381855,
    "lng": 129.518289,
    "region": "경상북도"
  },
  {
    "name": "감포댐 입구",
    "address": "경상북도 경주시 감포읍 동해안로 2695-63 ",
    "lat": 35.83658,
    "lng": 129.512169,
    "region": "경상북도"
  },
  {
    "name": "척사버스정류장뒤야산",
    "address": "경상북도 경주시 감포읍 감포로 323-1 ",
    "lat": 35.8162407,
    "lng": 129.5109907,
    "region": "경상북도"
  },
  {
    "name": "감포중고등학교운동장",
    "address": "경상북도 경주시 감포읍 감포로12길 20",
    "lat": 35.810886231193585,
    "lng": 129.50674296762458,
    "region": "경상북도"
  },
  {
    "name": "월포다리",
    "address": "경상북도 포항시 북구 청하면 해안로 2452",
    "lat": 36.2080764,
    "lng": 129.3729508,
    "region": "경상북도"
  },
  {
    "name": "월포초교 뒷뜰앞",
    "address": "경북 포항시 북구 청하면 용두리 481-2",
    "lat": 36.203341,
    "lng": 129.3672752,
    "region": "경상북도"
  },
  {
    "name": " 칠포2리 주유소 앞 ",
    "address": "경북 포항시 북구 흥해읍 칠포리 265-1",
    "lat": 36.1408423,
    "lng": 129.3924505,
    "region": "경상북도"
  },
  {
    "name": "용한1리 마을입구",
    "address": "경북 포항시 북구 흥해읍 용한리 산 41-1",
    "lat": 36.1100044,
    "lng": 129.426544,
    "region": "경상북도"
  },
  {
    "name": "관덕정",
    "address": "강원특별자치도 삼척시 근덕면 교가리 692-18",
    "lat": 37.3800554,
    "lng": 129.222569,
    "region": "강원특별자치도"
  },
  {
    "name": "맹방산림욕장입구공터",
    "address": "강원특별자치도 삼척시 근덕면 하맹방리 221-7",
    "lat": 37.3920753,
    "lng": 129.2281351,
    "region": "강원특별자치도"
  },
  {
    "name": "성황당옆대로",
    "address": "강원특별자치도 삼척시 근덕면 용화리 298-1",
    "lat": 37.2885951,
    "lng": 129.2983282,
    "region": "강원특별자치도"
  },
  {
    "name": "해상케이블카(용화역)",
    "address": "강원특별자치도 삼척시 근덕면 삼척로 2154-31 ",
    "lat": 37.2891246,
    "lng": 129.308228,
    "region": "강원특별자치도"
  },
  {
    "name": "장호용화관광랜드",
    "address": "강원특별자치도 삼척시 근덕면 삼척로 2154",
    "lat": 37.2862996,
    "lng": 129.3090863,
    "region": "강원특별자치도"
  },
  {
    "name": "해망정",
    "address": "강원특별자치도 삼척시 근덕면 용화리 192-2",
    "lat": 37.2885561,
    "lng": 129.3034451,
    "region": "강원특별자치도"
  },
  {
    "name": "빗물펌프장뒤공터",
    "address": "강원특별자치도 삼척시 원덕읍 호산리 299-8",
    "lat": 37.1734316,
    "lng": 129.3427598,
    "region": "강원특별자치도"
  },
  {
    "name": "호산파출소뒤공터",
    "address": "강원특별자치도 삼척시 원덕읍 호산리 산 16-7",
    "lat": 37.174917,
    "lng": 129.3385488,
    "region": "강원특별자치도"
  },
  {
    "name": "호산항뒷산공터",
    "address": "강원특별자치도 삼척시 원덕읍 삼척로 412-12 ",
    "lat": 37.1747909,
    "lng": 129.3414617,
    "region": "강원특별자치도"
  },
  {
    "name": "포스코수련원 앞",
    "address": "경북 포항시 남구 구룡포읍 삼정리 95-3",
    "lat": 36.0093949,
    "lng": 129.5765278,
    "region": "경상북도"
  },
  {
    "name": "MGM그랜드모텔 앞",
    "address": "경북 포항시 남구 구룡포읍 삼정리 489-2",
    "lat": 36.0000299,
    "lng": 129.5684785,
    "region": "경상북도"
  },
  {
    "name": "삼정2리 마을회관",
    "address": "경상북도 포항시 남구 구룡포읍 일출로 125",
    "lat": 36.005410487947145,
    "lng": 129.57431892174384,
    "region": "경상북도"
  },
  {
    "name": "우리수산 앞 사거리 공터",
    "address": "경북 포항시 남구 구룡포읍 석병리 901-3",
    "lat": 36.0143156,
    "lng": 129.5765036,
    "region": "경상북도"
  },
  {
    "name": "소돌휴게소 주차장",
    "address": "강원특별자치도 강릉시 주문진읍 주문북로 228",
    "lat": 37.9108372,
    "lng": 128.8160223,
    "region": "강원특별자치도"
  },
  {
    "name": "우일해변아파트야산",
    "address": "강원특별자치도 강릉시 주문진읍 소돌길 13",
    "lat": 37.9051656,
    "lng": 128.8249218,
    "region": "강원특별자치도"
  },
  {
    "name": "창포 교회 뒤편",
    "address": "경상북도 영덕군 영덕읍 영덕대게로 723-7 ",
    "lat": 36.4038122,
    "lng": 129.4227435,
    "region": "경상북도"
  },
  {
    "name": "구)마을회관 옆",
    "address": "경상북도 영덕군 영덕읍 영덕대게로 691-34 ",
    "lat": 36.4014279,
    "lng": 129.4210895,
    "region": "경상북도"
  },
  {
    "name": "마을뒷산 고지대",
    "address": "경북 울진군 후포면 후포리 37",
    "lat": 36.6879792,
    "lng": 129.4641942,
    "region": "경상북도"
  },
  {
    "name": "후포면 후포리 78",
    "address": "경북 울진군 후포면 후포리 427-3",
    "lat": 36.6867941,
    "lng": 129.462381,
    "region": "경상북도"
  },
  {
    "name": "후포1리마을고지대",
    "address": "경북 울진군 후포면 후포리 447-1",
    "lat": 36.6847787,
    "lng": 129.4597203,
    "region": "경상북도"
  },
  {
    "name": "등대산 고지대",
    "address": "경북 울진군 후포면 후포리 산 140",
    "lat": 36.6844646,
    "lng": 129.4628611,
    "region": "경상북도"
  },
  {
    "name": "나곡비치모텔",
    "address": "경상북도 울진군 북면 나실길 31",
    "lat": 37.1269522,
    "lng": 129.3708023,
    "region": "경상북도"
  },
  {
    "name": "석호마을 아파트",
    "address": "경상북도 울진군 북면 울진북로 2234(석호마을아파트)",
    "lat": 37.1141243,
    "lng": 129.3734229,
    "region": "경상북도"
  },
  {
    "name": "한수원아파트",
    "address": "경상북도 울진군 북면 울진북로 2149(울진원자력본부 직원사택)",
    "lat": 37.1095448,
    "lng": 129.3725646,
    "region": "경상북도"
  },
  {
    "name": "나곡리 129-4 야산",
    "address": "경북 울진군 북면 나곡리 126-3",
    "lat": 37.1089309,
    "lng": 129.3736616,
    "region": "경상북도"
  },
  {
    "name": "나곡리 50-18 공터",
    "address": "경북 울진군 북면 나곡리 50-18",
    "lat": 37.1135168,
    "lng": 129.3761104,
    "region": "경상북도"
  },
  {
    "name": "죽변비취모텔 뒷 편",
    "address": "경상북도 울진군 죽변면 울진북로 1103-14 ",
    "lat": 37.0373571,
    "lng": 129.4136265,
    "region": "경상북도"
  },
  {
    "name": "봉평1리 마을회관",
    "address": "경상북도 울진군 죽변면 골장길 69",
    "lat": 37.0351539,
    "lng": 129.4119206,
    "region": "경상북도"
  },
  {
    "name": "연지리 406-1번지 일대",
    "address": "경북 울진군 울진읍 연지리 401-12",
    "lat": 37.0011218,
    "lng": 129.4152895,
    "region": "경상북도"
  },
  {
    "name": "연지리 495-1번지 도로일대",
    "address": "경북 울진군 울진읍 연지리 495-1",
    "lat": 37.0052452,
    "lng": 129.4162282,
    "region": "경상북도"
  },
  {
    "name": "읍남리 102-1번지 마을뒤 언덕",
    "address": "경북 울진군 울진읍 읍남리 102-1",
    "lat": 36.9809322,
    "lng": 129.4054082,
    "region": "경상북도"
  },
  {
    "name": "산포리 523번지 일대 밭",
    "address": "경북 울진군 근남면 산포리 523-2",
    "lat": 36.9576424,
    "lng": 129.4139296,
    "region": "경상북도"
  },
  {
    "name": "국도굴다리옆도로변",
    "address": "강원특별자치도 삼척시 근덕면 상맹방리 250-4",
    "lat": 37.4048564,
    "lng": 129.2037329,
    "region": "강원특별자치도"
  },
  {
    "name": "기사문리 야산",
    "address": "강원특별자치도 양양군 현북면 기사문리 산 55-5",
    "lat": 38.0088,
    "lng": 128.7281,
    "region": "강원특별자치도"
  },
  {
    "name": "오산리 야산",
    "address": "강원특별자치도 양양군 손양면 오산길 16-16 ",
    "lat": 38.0886,
    "lng": 128.6634,
    "region": "강원특별자치도"
  },
  {
    "name": "남애리 야산1",
    "address": "강원특별자치도 양양군 현남면 남애리 123",
    "lat": 37.9399,
    "lng": 128.7862,
    "region": "강원특별자치도"
  },
  {
    "name": "남애리 야산2",
    "address": "강원특별자치도 양양군 현남면 남애리 46-2",
    "lat": 37.9416,
    "lng": 128.786,
    "region": "강원특별자치도"
  },
  {
    "name": "남애리 야산3",
    "address": "강원특별자치도 양양군 현남면 남애리 1-11",
    "lat": 37.9453,
    "lng": 128.7867,
    "region": "강원특별자치도"
  },
  {
    "name": "평릉공원",
    "address": "강원특별자치도 동해시 평원로 135(평릉동)",
    "lat": 37.53572772818949,
    "lng": 129.11194235086617,
    "region": "강원특별자치도"
  },
  {
    "name": "카페마레 옆 공터",
    "address": "경북 포항시 남구 동해면 입암리 652-2",
    "lat": 36.0073033,
    "lng": 129.4666055,
    "region": "경상북도"
  },
  {
    "name": "입암2리마을회관 앞 ",
    "address": "경북 포항시 남구 동해면 입암리 425-1",
    "lat": 36.0132742,
    "lng": 129.4769937,
    "region": "경상북도"
  },
  {
    "name": "장구바위 야산",
    "address": "강원특별자치도 강릉시 사천면 공회당길 13-10 ",
    "lat": 37.8406398,
    "lng": 128.8753152,
    "region": "강원특별자치도"
  },
  {
    "name": "강릉성결교회부설 진리수양관 공터",
    "address": "강원특별자치도 강릉시 사천면 사천진리 209-2",
    "lat": 37.8415824,
    "lng": 128.8686204,
    "region": "강원특별자치도"
  },
  {
    "name": "문화교맞은편뒤",
    "address": "경북 영덕군 강구면 하저리 401-1",
    "lat": 36.390607,
    "lng": 129.4069099,
    "region": "경상북도"
  },
  {
    "name": "봉화산",
    "address": "강원특별자치도 강릉시 강동면 갯목길 38-1 ",
    "lat": 37.7370807,
    "lng": 128.9883059,
    "region": "강원특별자치도"
  },
  {
    "name": "안인천주교회 공터",
    "address": "강원특별자치도 강릉시 강동면 율곡로 1867-20 ",
    "lat": 37.7309512,
    "lng": 128.9860711,
    "region": "강원특별자치도"
  },
  {
    "name": "강인교회 주차장",
    "address": "강원특별자치도 강릉시 강동면 율곡로 1925-25 ",
    "lat": 37.7278467,
    "lng": 128.9826438,
    "region": "강원특별자치도"
  },
  {
    "name": "하시동2리 마을회관",
    "address": "강원특별자치도 강릉시 강동면 원장봉길 30-8 ",
    "lat": 37.7372546,
    "lng": 128.9726901,
    "region": "강원특별자치도"
  },
  {
    "name": "하정축양장 앞 공터",
    "address": "경북 포항시 남구 구룡포읍 하정리 841",
    "lat": 35.9711339,
    "lng": 129.5524254,
    "region": "경상북도"
  },
  {
    "name": "하정리 269번지 (하정",
    "address": "경북 포항시 남구 구룡포읍 하정리 269",
    "lat": 35.9654463,
    "lng": 129.5467794,
    "region": "경상북도"
  },
  {
    "name": "장길리교회 앞",
    "address": "경북 포항시 남구 구룡포읍 장길리 109-3",
    "lat": 35.954819,
    "lng": 129.5454222,
    "region": "경상북도"
  },
  {
    "name": "구평리 117-2번지 앞 주변도로",
    "address": "경북 포항시 남구 구룡포읍 구평리 111-2",
    "lat": 35.9440904,
    "lng": 129.5335507,
    "region": "경상북도"
  },
  {
    "name": "주영초등학교 운동장",
    "address": "강원특별자치도 강릉시 주문진읍 약수동길 15-12 ",
    "lat": 37.8978351,
    "lng": 128.8268066,
    "region": "강원특별자치도"
  },
  {
    "name": "주문진감리교회 주차",
    "address": "강원특별자치도 강릉시 주문진읍 항구로 43",
    "lat": 37.8938117,
    "lng": 128.8265874,
    "region": "강원특별자치도"
  },
  {
    "name": "주문진성당 주차장",
    "address": "강원특별자치도 강릉시 주문진읍 교항안길 51",
    "lat": 37.8851281,
    "lng": 128.8214971,
    "region": "강원특별자치도"
  },
  {
    "name": "태흥모텔 앞 공터",
    "address": "경북 영덕군 축산면 경정리 24",
    "lat": 36.493712,
    "lng": 129.4429078,
    "region": "경상북도"
  },
  {
    "name": "동해월송정 옆 도로",
    "address": "경북 울진군 기성면 구산리 420-1",
    "lat": 36.7557382,
    "lng": 129.4640252,
    "region": "경상북도"
  },
  {
    "name": "비치모텔 뒤 야산",
    "address": "경북 울진군 기성면 구산리 395",
    "lat": 36.7525985,
    "lng": 129.4633868,
    "region": "경상북도"
  },
  {
    "name": "직산2리 마을회관 뒷산",
    "address": "경북 울진군 평해읍 직산리 323",
    "lat": 36.7239097,
    "lng": 129.4704866,
    "region": "경상북도"
  },
  {
    "name": "직산보건소 뒷산",
    "address": "경북 울진군 평해읍 직산리 318",
    "lat": 36.7217447,
    "lng": 129.4692233,
    "region": "경상북도"
  },
  {
    "name": "직산2리 282번지 밭 일대",
    "address": "경북 울진군 평해읍 직산리 282",
    "lat": 36.7190422,
    "lng": 129.4691026,
    "region": "경상북도"
  },
  {
    "name": "청학연립주차장 고지대",
    "address": "강원특별자치도 속초시 수복로143번길 60(청학동, 청학연립)",
    "lat": 38.2031701,
    "lng": 128.5851081,
    "region": "강원특별자치도"
  },
  {
    "name": "고래꿈호텔 (舊 모텔 아리아)",
    "address": "경북 울진군 울진읍 온양리 300-3",
    "lat": 37.0160077,
    "lng": 129.4122881,
    "region": "경상북도"
  },
  {
    "name": "동회관 뒷 편 통로박스",
    "address": "경북 울진군 울진읍 온양리 357-3",
    "lat": 37.0145814,
    "lng": 129.4121405,
    "region": "경상북도"
  },
  {
    "name": "산포3리 마을회관",
    "address": "경상북도 울진군 근남면 금호길 55",
    "lat": 36.9464321,
    "lng": 129.4170356,
    "region": "경상북도"
  },
  {
    "name": "산포리 92번지 일대 밭",
    "address": "경북 울진군 근남면 산포리 114-1",
    "lat": 36.94406,
    "lng": 129.4174,
    "region": "경상북도"
  },
  {
    "name": "학리마을 뒷산",
    "address": "부산 기장군 일광읍 학리 160-4",
    "lat": 35.2569652,
    "lng": 129.2432955,
    "region": "부산광역시"
  },
  {
    "name": "이동마을 뒷산",
    "address": "부산 기장군 일광읍 이천리 226",
    "lat": 35.2735128,
    "lng": 129.2435932,
    "region": "부산광역시"
  },
  {
    "name": "사랑의유람선 앞",
    "address": "경북 포항시 북구 흥해읍 오도리 74-7",
    "lat": 36.1636347,
    "lng": 129.3979087,
    "region": "경상북도"
  },
  {
    "name": "작은펜션 앞 공터",
    "address": "경북 포항시 북구 흥해읍 오도리 246-3",
    "lat": 36.157803,
    "lng": 129.3963155,
    "region": "경상북도"
  },
  {
    "name": "오도해수욕장 입구",
    "address": "경북 포항시 북구 흥해읍 오도리 359-3",
    "lat": 36.1541084,
    "lng": 129.398413,
    "region": "경상북도"
  },
  {
    "name": "정암리 야산",
    "address": "강원특별자치도 양양군 강현면 정암리 62-2",
    "lat": 38.1405701,
    "lng": 128.6128584,
    "region": "강원특별자치도"
  },
  {
    "name": "송정해변 신도브래뉴",
    "address": "강원특별자치도 강릉시 경강로2539번길 22(견소동, 송정해변신도브래뉴아파트)",
    "lat": 37.77476,
    "lng": 128.9399672,
    "region": "강원특별자치도"
  },
  {
    "name": "죽도봉",
    "address": "강원특별자치도 강릉시 견소동 11-1",
    "lat": 37.769731,
    "lng": 128.9515892,
    "region": "강원특별자치도"
  },
  {
    "name": "남정중학교",
    "address": "경상북도 영덕군 남정면 진불길 11-27 ",
    "lat": 36.2833823,
    "lng": 129.3707311,
    "region": "경상북도"
  },
  {
    "name": "부흥2리 뒷산",
    "address": "경북 영덕군 남정면 장사리 504-1",
    "lat": 36.2877011,
    "lng": 129.3678419,
    "region": "경상북도"
  },
  {
    "name": "동해안 횟집공터",
    "address": "경북 영덕군 남정면 남호리 119-2",
    "lat": 36.3333943,
    "lng": 129.3737694,
    "region": "경상북도"
  },
  {
    "name": "웰빙문화테마 마을입",
    "address": "경상북도 영덕군 남정면 동해대로 4165-11 ",
    "lat": 36.3295289,
    "lng": 129.3774708,
    "region": "경상북도"
  },
  {
    "name": "구국도변 공터(1)",
    "address": "경북 영덕군 병곡면 금곡리 13-1",
    "lat": 36.6434624,
    "lng": 129.4221028,
    "region": "경상북도"
  },
  {
    "name": "구국도변 공터(2)",
    "address": "경북 영덕군 병곡면 금곡리 49-4",
    "lat": 36.6420348,
    "lng": 129.4206424,
    "region": "경상북도"
  },
  {
    "name": "장기초등학교 모포분교 운동장",
    "address": "경상북도 포항시 남구 장기면 모포길 59",
    "lat": 35.93446798707456,
    "lng": 129.5232537388885,
    "region": "경상북도"
  },
  {
    "name": "대진주유소 앞",
    "address": "경북 포항시 남구 장기면 대진리 87-3",
    "lat": 35.923022,
    "lng": 129.5173636,
    "region": "경상북도"
  },
  {
    "name": "신창리 산12-3 공터",
    "address": "경북 포항시 남구 장기면 신창리 산 12-3",
    "lat": 35.9010202,
    "lng": 129.5255122,
    "region": "경상북도"
  },
  {
    "name": "황제노래연습장 앞",
    "address": "경북 포항시 남구 장기면 신창리 479-4",
    "lat": 35.8852777,
    "lng": 129.5266789,
    "region": "경상북도"
  },
  {
    "name": "부산돼지국밥 옆",
    "address": "경북 포항시 남구 장기면 신창리 산 53",
    "lat": 35.8920227,
    "lng": 129.5237687,
    "region": "경상북도"
  },
  {
    "name": "등대회식당  버스승강",
    "address": "경북 포항시 남구 장기면 계원리 26-3",
    "lat": 35.8677909,
    "lng": 129.5302516,
    "region": "경상북도"
  },
  {
    "name": "세계원 횟집 앞",
    "address": "경북 포항시 남구 장기면 계원리 324",
    "lat": 35.8613655,
    "lng": 129.5253217,
    "region": "경상북도"
  },
  {
    "name": "대진3리 마을 뒤 야산",
    "address": "경북 영덕군 영해면 대진리 90-1",
    "lat": 36.5504543,
    "lng": 129.4388666,
    "region": "경상북도"
  },
  {
    "name": "사진1리 마을회관",
    "address": "경북 영덕군 영해면 사진리 산 83",
    "lat": 36.5384882,
    "lng": 129.4371438,
    "region": "경상북도"
  },
  {
    "name": "축산항 초교 ",
    "address": "경상북도 영덕군 축산면 축산항초교길 2",
    "lat": 36.5092801,
    "lng": 129.4424116,
    "region": "경상북도"
  },
  {
    "name": "영해사진 목너머",
    "address": "경북 영덕군 축산면 축산리 산 8-5",
    "lat": 36.5117521,
    "lng": 129.4436097,
    "region": "경상북도"
  },
  {
    "name": "죽도산",
    "address": "경북 영덕군 축산면 축산리 산 106-4",
    "lat": 36.5075714,
    "lng": 129.4509249,
    "region": "경상북도"
  },
  {
    "name": "블루로드길",
    "address": "경북 영덕군 축산면 축산리 산 113-2",
    "lat": 36.5013571,
    "lng": 129.4437016,
    "region": "경상북도"
  },
  {
    "name": "와우산",
    "address": "경북 영덕군 축산면 축산리 산 20-2",
    "lat": 36.511169,
    "lng": 129.4465626,
    "region": "경상북도"
  },
  {
    "name": "마을 뒤 고지대",
    "address": "경북 울진군 매화면 오산리 642-1",
    "lat": 36.9091648,
    "lng": 129.4140342,
    "region": "경상북도"
  },
  {
    "name": "오산3리 뒷산",
    "address": "경북 울진군 매화면 오산리 561",
    "lat": 36.9041697,
    "lng": 129.4129694,
    "region": "경상북도"
  },
  {
    "name": "망양정로",
    "address": "경북 울진군 매화면 오산리 106-4",
    "lat": 36.8969414,
    "lng": 129.4185966,
    "region": "경상북도"
  },
  {
    "name": "오산항 등대",
    "address": "경북 울진군 매화면 오산리 238",
    "lat": 36.8941742,
    "lng": 129.4179046,
    "region": "경상북도"
  },
  {
    "name": "사동3리 산75번지일대",
    "address": "경북 울진군 기성면 사동리 198",
    "lat": 36.8254599,
    "lng": 129.4448608,
    "region": "경상북도"
  },
  {
    "name": "사동3리 169번지 일대",
    "address": "경북 울진군 기성면 사동리 169",
    "lat": 36.8230917,
    "lng": 129.4467437,
    "region": "경상북도"
  },
  {
    "name": "구산1리 88번지 일대 밭",
    "address": "경상북도 울진군 기성면 구산봉산로 153",
    "lat": 36.7629648,
    "lng": 129.4737509,
    "region": "경상북도"
  },
  {
    "name": "구산1리 48번지 일대 밭",
    "address": "경북 울진군 기성면 구산리 48",
    "lat": 36.7623847,
    "lng": 129.4717285,
    "region": "경상북도"
  },
  {
    "name": "구산중앙교회 옆",
    "address": "경북 울진군 기성면 구산리 178-1",
    "lat": 36.7609708,
    "lng": 129.4672653,
    "region": "경상북도"
  },
  {
    "name": "구산침례교회 뒷산",
    "address": "경북 울진군 기성면 구산리 304",
    "lat": 36.7582997,
    "lng": 129.4659269,
    "region": "경상북도"
  },
  {
    "name": "포항공대평해 연수원뒷산",
    "address": "경상북도 울진군 평해읍 개바위길 63",
    "lat": 36.7158559,
    "lng": 129.4716346,
    "region": "경상북도"
  },
  {
    "name": "마을뒷산 고지대",
    "address": "경북 울진군 평해읍 거일리 산 29",
    "lat": 36.7135595,
    "lng": 129.4722515,
    "region": "경상북도"
  },
  {
    "name": "파도향기펜션",
    "address": "경상북도 울진군 평해읍 박실길 12-16 ",
    "lat": 36.7115104,
    "lng": 129.4725412,
    "region": "경상북도"
  },
  {
    "name": "마을뒷산 고지대",
    "address": "경북 울진군 평해읍 거일리 83-1",
    "lat": 36.7096634,
    "lng": 129.4748372,
    "region": "경상북도"
  },
  {
    "name": "해양경찰충혼탑 고지대",
    "address": "강원특별자치도 속초시 장사동 507-1",
    "lat": 38.22765220715636,
    "lng": 128.58571284716191,
    "region": "강원특별자치도"
  },
  {
    "name": "하저문화마을뒤",
    "address": "경북 영덕군 강구면 하저리 449-1",
    "lat": 36.3895778,
    "lng": 129.4044631,
    "region": "경상북도"
  },
  {
    "name": "탁주합동제조장뒤",
    "address": "경북 영덕군 강구면 하저리 115",
    "lat": 36.3918497,
    "lng": 129.4083523,
    "region": "경상북도"
  },
  {
    "name": "푸른바다민박뒤",
    "address": "경북 영덕군 강구면 하저리 6-6",
    "lat": 36.3935002,
    "lng": 129.4142114,
    "region": "경상북도"
  },
  {
    "name": "힐링턴콘도",
    "address": "경상북도 영덕군 남정면 동해대로 3478",
    "lat": 36.2722141,
    "lng": 129.3771907,
    "region": "경상북도"
  },
  {
    "name": "바다향기펜션",
    "address": "경상북도 영덕군 병곡면 병곡1길 37",
    "lat": 36.6035639,
    "lng": 129.4146641,
    "region": "경상북도"
  },
  {
    "name": "병곡휴게소",
    "address": "경상북도 영덕군 병곡면 흰돌로 20",
    "lat": 36.6063848,
    "lng": 129.4132762,
    "region": "경상북도"
  },
  {
    "name": "철암산(1)",
    "address": "경북 영덕군 병곡면 백석리 269-2",
    "lat": 36.6209361,
    "lng": 129.409246,
    "region": "경상북도"
  },
  {
    "name": "철암산(2)",
    "address": "경북 영덕군 병곡면 백석리 310-3",
    "lat": 36.6190273,
    "lng": 129.4097318,
    "region": "경상북도"
  },
  {
    "name": "칠보산도로변",
    "address": "경북 영덕군 병곡면 금곡리 산 119-4",
    "lat": 36.6386248,
    "lng": 129.4107511,
    "region": "경상북도"
  },
  {
    "name": "금곡1서낭당",
    "address": "경북 영덕군 병곡면 금곡리 332-1",
    "lat": 36.6422094,
    "lng": 129.4086738,
    "region": "경상북도"
  },
  {
    "name": "금곡리 마을뒷산",
    "address": "경북 영덕군 병곡면 금곡리 439",
    "lat": 36.6419466,
    "lng": 129.4128829,
    "region": "경상북도"
  },
  {
    "name": "덕신휴게소 뒷산",
    "address": "경북 울진군 매화면 덕신리 255-1",
    "lat": 36.8795455,
    "lng": 129.4149837,
    "region": "경상북도"
  },
  {
    "name": "마을 뒤  고지대 밭",
    "address": "경북 울진군 매화면 덕신리 317",
    "lat": 36.8818969,
    "lng": 129.4134575,
    "region": "경상북도"
  },
  {
    "name": "덕신감리  교회 뒷 편",
    "address": "경북 울진군 매화면 덕신리 406-3",
    "lat": 36.8841217,
    "lng": 129.4144741,
    "region": "경상북도"
  },
  {
    "name": "덕신리 마을 뒷산",
    "address": "경북 울진군 매화면 덕신리 476-1",
    "lat": 36.8869085,
    "lng": 129.4133046,
    "region": "경상북도"
  },
  {
    "name": "봉산2리 산65번지묘지",
    "address": "경북 울진군 기성면 봉산리 109-1",
    "lat": 36.7717635,
    "lng": 129.4743732,
    "region": "경상북도"
  },
  {
    "name": "봉산2리 마을회관뒤밭",
    "address": "경북 울진군 기성면 봉산리 115-2",
    "lat": 36.7706398,
    "lng": 129.4748023,
    "region": "경상북도"
  },
  {
    "name": "봉산2리 72번지 주택",
    "address": "경상북도 울진군 기성면 구산봉산로 245-7 ",
    "lat": 36.7693013,
    "lng": 129.4756928,
    "region": "경상북도"
  },
  {
    "name": "월송초등학교 운동장",
    "address": "경상북도 울진군 평해읍 월송길 59",
    "lat": 36.736258136331145,
    "lng": 129.4592044595985,
    "region": "경상북도"
  },
  {
    "name": "산포리 18번지 일대 밭",
    "address": "경북 울진군 근남면 산포리 18",
    "lat": 36.9545817,
    "lng": 129.4165796,
    "region": "경상북도"
  },
  {
    "name": "동백공원 정상",
    "address": "부산 해운대구 우동 719-2",
    "lat": 35.154811,
    "lng": 129.152049,
    "region": "부산광역시"
  },
  {
    "name": "달맞이 고개",
    "address": "부산광역시 해운대구 달맞이길 64(중동)",
    "lat": 35.1606218,
    "lng": 129.1718736,
    "region": "부산광역시"
  },
  {
    "name": "해운대구청",
    "address": "부산광역시 해운대구 중동2로 11(중동)",
    "lat": 35.1631,
    "lng": 129.1637,
    "region": "부산광역시"
  },
  {
    "name": "해운대구관광시설관리사업소",
    "address": "부산 해운대구 우동 649-8",
    "lat": 35.1591087,
    "lng": 129.1574621,
    "region": "부산광역시"
  }
]